{"status":true,"message":"","result":[{"server_id":9,"name":"Uncletopia | Atlanta | 1 | All Maps","name_short":"atl-1","host":"atl-1.us.uncletopia.com","port":27015,"enabled":true,"region":"us-east","cc":"us","latitude":33.753746,"longitude":-84.38633,"reserved":0,"last_update":"0001-01-01T00:00:00Z","name_a2s":"Uncletopia | Atlanta | 1 | All Maps","protocol":17,"map":"pl_barnblitz","folder":"tf","game":"Team Fortress","app_id":440,"player_count":17,"max_players":24,"Bots":0,"server_type":"Dedicated","server_os":"Linux","password":true,"vac":true,"version":"7961495","steam_id":85568392924469982,"keywords":["nocrits","nodmgspread","payload","uncletopia"],"game_id":440,"stv_port":27016,"stv_name":"Uncletopia | Atlanta | 1 | All Maps | STV","players":null},{"server_id":104,"name":"Uncletopia | Atlanta | 2 | All Maps","name_short":"atl-2","host":"atl-1.us.uncletopia.com","port":27025,"enabled":true,"region":"us-east","cc":"us","latitude":33.753746,"longitude":-84.38633,"reserved":0,"last_update":"0001-01-01T00:00:00Z","name_a2s":"Uncletopia | Atlanta | 2 | All Maps","protocol":17,"map":"koth_cascade","folder":"tf","game":"Team Fortress","app_id":440,"player_count":0,"max_players":24,"Bots":0,"server_type":"Dedicated","server_os":"Linux","password":true,"vac":true,"version":"7961495","steam_id":85568392924469983,"keywords":["cp","nocrits","nodmgspread","uncletopia"],"game_id":440,"stv_port":27026,"stv_name":"Uncletopia | Atlanta | 2 | All Maps | STV","players":null},{"server_id":400,"name":"Uncletopia | Atlanta | 3 | Stopwatch","name_short":"atl-3","host":"atl-1.us.uncletopia.com","port":27035,"enabled":true,"region":"us-east","cc":"us","latitude":33.753746,"longitude":-84.38633,"reserved":0,"last_update":"0001-01-01T00:00:00Z","name_a2s":"Uncletopia | Atlanta | 3 | Stopwatch","protocol":17,"map":"pl_upward","folder":"tf","game":"Team Fortress","app_id":440,"player_count":0,"max_players":24,"Bots":0,"server_type":"Dedicated","server_os":"Linux","password":true,"vac":true,"version":"7961495","steam_id":85568392924515187,"keywords":["nocrits","nodmgspread","payload","uncletopia"],"game_id":440,"stv_port":27036,"stv_name":"Uncletopia | Atlanta | 3 | Stopwatch | STV","players":null},{"server_id":401,"name":"Uncletopia | Atlanta | 4 | Community","name_short":"atl-4","host":"atl-1.us.uncletopia.com","port":27045,"enabled":true,"region":"us-east","cc":"us","latitude":33.753746,"longitude":-84.38633,"reserved":0,"last_update":"0001-01-01T00:00:00Z","name_a2s":"Uncletopia | Atlanta | 4 | Community","protocol":17,"map":"koth_kemptown_rc1","folder":"tf","game":"Team Fortress","app_id":440,"player_count":0,"max_players":24,"Bots":0,"server_type":"Dedicated","server_os":"Linux","password":true,"vac":true,"version":"7961495","steam_id":85568392924515188,"keywords":["cp","nocrits","nodmgspread","uncletopia"],"game_id":440,"stv_port":27046,"stv_name":"Uncletopia | Atlanta | 4 | Community | STV","players":null},{"server_id":2,"name":"Uncletopia | Chicago | 1 | All Maps","name_short":"chi-1","host":"chi-1.us.uncletopia.com","port":27015,"enabled":true,"region":"us-central","cc":"us","latitude":41.881832,"longitude":-87.62318,"reserved":0,"last_update":"0001-01-01T00:00:00Z","name_a2s":"Uncletopia | Chicago | 1 | All Maps","protocol":17,"map":"pl_upward","folder":"tf","game":"Team Fortress","app_id":440,"player_count":24,"max_players":24,"Bots":0,"server_type":"Dedicated","server_os":"Linux","password":true,"vac":true,"version":"7961495","steam_id":85568392924469984,"keywords":["nocrits","nodmgspread","payload","uncletopia"],"game_id":440,"stv_port":27016,"stv_name":"Uncletopia | Chicago | 1 | All Maps | STV","players":[{"user_id":386,"name":"suns","steam_id":76561198079583278,"connected_time":1645000000000,"state":"active","ping":49},{"user_id":401,"name":"puddles","steam_id":76561198110832624,"connected_time":73000000000,"state":"active","ping":48},{"user_id":377,"name":"SaaxoM","steam_id":76561198208256603,"connected_time":2238000000000,"state":"active","ping":92},{"user_id":391,"name":"moe","steam_id":76561198929586245,"connected_time":1187000000000,"state":"active","ping":98},{"user_id":387,"name":"Sunflower","steam_id":76561198081223793,"connected_time":1622000000000,"state":"active","ping":59},{"user_id":364,"name":"Zomboboi_","steam_id":76561198139401380,"connected_time":3106000000000,"state":"active","ping":63},{"user_id":379,"name":"TheSnipersHat","steam_id":76561198057684066,"connected_time":1962000000000,"state":"active","ping":54},{"user_id":321,"name":"Jericho von Generico","steam_id":76561198206139559,"connected_time":5187000000000,"state":"active","ping":81},{"user_id":333,"name":"Ras","steam_id":76561198123546775,"connected_time":4092000000000,"state":"active","ping":88},{"user_id":397,"name":"I haven't even begun to peak","steam_id":76561198022302843,"connected_time":436000000000,"state":"active","ping":78},{"user_id":398,"name":"Rappitor","steam_id":76561198105613110,"connected_time":309000000000,"state":"active","ping":46},{"user_id":381,"name":"Teleporter  (Entrance, Level 3)","steam_id":76561198316927664,"connected_time":1811000000000,"state":"active","ping":73},{"user_id":334,"name":"Smooth, Refreshing Bleach‚Ñ¢","steam_id":76561197981060504,"connected_time":4080000000000,"state":"active","ping":50},{"user_id":304,"name":"The Helpful Mute","steam_id":76561198078359985,"connected_time":6733000000000,"state":"active","ping":56},{"user_id":367,"name":"berserker_tf2 yt","steam_id":76561198303464488,"connected_time":2962000000000,"state":"active","ping":64},{"user_id":382,"name":"unmitigated success","steam_id":76561197988234127,"connected_time":1737000000000,"state":"active","ping":69},{"user_id":360,"name":"Rtx Fred ‚óè","steam_id":76561198999217575,"connected_time":3302000000000,"state":"active","ping":65},{"user_id":388,"name":"MeatShield 2000","steam_id":76561199375192850,"connected_time":1610000000000,"state":"active","ping":86},{"user_id":389,"name":"derb","steam_id":76561198110369487,"connected_time":1610000000000,"state":"active","ping":91},{"user_id":371,"name":"Spicy Chicken","steam_id":76561198074209737,"connected_time":2890000000000,"state":"active","ping":61},{"user_id":287,"name":"josh","steam_id":76561198077902438,"connected_time":7697000000000,"state":"active","ping":75},{"user_id":400,"name":"Dr. Captain","steam_id":76561198180724285,"connected_time":150000000000,"state":"active","ping":64},{"user_id":374,"name":"Hylic","steam_id":76561199051314589,"connected_time":2403000000000,"state":"active","ping":74},{"user_id":395,"name":"Bonkus","steam_id":76561198070701495,"connected_time":635000000000,"state":"active","ping":66}]},{"server_id":106,"name":"Uncletopia | Chicago | 2 | All Maps","name_short":"chi-2","host":"chi-1.us.uncletopia.com","port":27025,"enabled":true,"region":"us-central","cc":"us","latitude":41.881832,"longitude":-87.62318,"reserved":0,"last_update":"0001-01-01T00:00:00Z","name_a2s":"Uncletopia | Chicago | 2 | All Maps","protocol":17,"map":"koth_nucleus","folder":"tf","game":"Team Fortress","app_id":440,"player_count":21,"max_players":24,"Bots":0,"server_type":"Dedicated","server_os":"Linux","password":true,"vac":true,"version":"7961495","steam_id":85568392924469985,"keywords":["cp","nocrits","nodmgspread","uncletopia"],"game_id":440,"stv_port":27026,"stv_name":"Uncletopia | Chicago | 2 | All Maps | STV","players":[{"user_id":8,"name":"Bobato Chaps","steam_id":76561198065103552,"connected_time":12814000000000,"state":"active","ping":47},{"user_id":97,"name":"qt pa 2t","steam_id":76561198066867150,"connected_time":6970000000000,"state":"active","ping":60},{"user_id":177,"name":"5yt LFB","steam_id":76561198041643833,"connected_time":82000000000,"state":"active","ping":76},{"user_id":178,"name":"Kremit the Frog","steam_id":76561198075985995,"connected_time":74000000000,"state":"active","ping":63},{"user_id":179,"name":"dieling","steam_id":76561198831902966,"connected_time":51000000000,"state":"active","ping":72},{"user_id":180,"name":"Moudura","steam_id":76561199102790129,"connected_time":48000000000,"state":"active","ping":177},{"user_id":170,"name":"[MRY] Sk-iLite","steam_id":76561198041797350,"connected_time":946000000000,"state":"active","ping":80},{"user_id":95,"name":"fi_ji","steam_id":76561198126087725,"connected_time":6994000000000,"state":"active","ping":67},{"user_id":171,"name":"[MP40s] JavelinV2","steam_id":76561198188284466,"connected_time":918000000000,"state":"active","ping":57},{"user_id":181,"name":"MT_","steam_id":76561199052865451,"connected_time":44000000000,"state":"active","ping":245},{"user_id":160,"name":"Asha'man","steam_id":76561198057913763,"connected_time":2271000000000,"state":"active","ping":46},{"user_id":137,"name":"William Wallace","steam_id":76561199343316814,"connected_time":4138000000000,"state":"active","ping":77},{"user_id":168,"name":"ƒ†1 ‚ô¶ Synth","steam_id":76561198058660228,"connected_time":1183000000000,"state":"active","ping":47},{"user_id":149,"name":"Barmy","steam_id":76561198111626352,"connected_time":3515000000000,"state":"active","ping":90},{"user_id":128,"name":"Bear","steam_id":76561198062949510,"connected_time":4413000000000,"state":"active","ping":60},{"user_id":140,"name":"the rizzler","steam_id":76561198012917426,"connected_time":4100000000000,"state":"active","ping":67},{"user_id":182,"name":"Galaxy_42","steam_id":76561198845514831,"connected_time":40000000000,"state":"active","ping":70},{"user_id":183,"name":"_grug__","steam_id":76561198165311232,"connected_time":5000000000,"state":"spawning","ping":82},{"user_id":117,"name":"kimchy101","steam_id":76561198202721584,"connected_time":4755000000000,"state":"active","ping":54},{"user_id":148,"name":"i suffer from ligma","steam_id":76561199158496518,"connected_time":3564000000000,"state":"active","ping":141},{"user_id":172,"name":"jxh300","steam_id":76561199196579894,"connected_time":577000000000,"state":"active","ping":77}]},{"server_id":402,"name":"Uncletopia | Chicago | 3 | All Maps","name_short":"chi-3","host":"chi-1.us.uncletopia.com","port":27035,"enabled":true,"region":"us-central","cc":"us","latitude":41.881832,"longitude":-87.62318,"reserved":0,"last_update":"0001-01-01T00:00:00Z","name_a2s":"Uncletopia | Chicago | 3 | All Maps","protocol":17,"map":"pl_swiftwater_final1","folder":"tf","game":"Team Fortress","app_id":440,"player_count":5,"max_players":24,"Bots":0,"server_type":"Dedicated","server_os":"Linux","password":true,"vac":true,"version":"7961495","steam_id":85568392924515191,"keywords":["nocrits","nodmgspread","payload","uncletopia"],"game_id":440,"stv_port":27036,"stv_name":"Uncletopia | Chicago | 3 | All Maps | STV","players":[{"user_id":18,"name":"Sunfly","steam_id":76561198034307439,"connected_time":612000000000,"state":"active","ping":38},{"user_id":19,"name":"Mikael_01","steam_id":76561199080253129,"connected_time":509000000000,"state":"active","ping":182},{"user_id":20,"name":"Spright","steam_id":76561199144266247,"connected_time":490000000000,"state":"active","ping":79},{"user_id":21,"name":"VerrucktMedic","steam_id":76561198093144226,"connected_time":240000000000,"state":"active","ping":71},{"user_id":22,"name":"aiden","steam_id":76561198449527009,"connected_time":42000000000,"state":"active","ping":81}]},{"server_id":403,"name":"Uncletopia | Chicago | 4 | All Maps","name_short":"chi-4","host":"chi-1.us.uncletopia.com","port":27045,"enabled":true,"region":"us-central","cc":"us","latitude":41.881832,"longitude":-87.62318,"reserved":0,"last_update":"0001-01-01T00:00:00Z","name_a2s":"Uncletopia | Chicago | 4 | All Maps","protocol":17,"map":"koth_cascade","folder":"tf","game":"Team Fortress","app_id":440,"player_count":0,"max_players":24,"Bots":0,"server_type":"Dedicated","server_os":"Linux","password":true,"vac":true,"version":"7961495","steam_id":85568392924515193,"keywords":["cp","nocrits","nodmgspread","uncletopia"],"game_id":440,"stv_port":27046,"stv_name":"Uncletopia | Chicago | 4 | All Maps | STV","players":null},{"server_id":36,"name":"Uncletopia | Chicago | 5 | All Maps","name_short":"chi-5","host":"chi-2.us.uncletopia.com","port":27015,"enabled":true,"region":"us-central","cc":"us","latitude":41.881832,"longitude":-87.62318,"reserved":0,"last_update":"0001-01-01T00:00:00Z","name_a2s":"Uncletopia | Chicago | 5 | All Maps","protocol":17,"map":"koth_viaduct","folder":"tf","game":"Team Fortress","app_id":440,"player_count":20,"max_players":24,"Bots":0,"server_type":"Dedicated","server_os":"Linux","password":true,"vac":true,"version":"7961495","steam_id":85568392924866362,"keywords":["cp","nocrits","nodmgspread","uncletopia"],"game_id":440,"stv_port":27016,"stv_name":"Uncletopia | Chicago | 5 | All Maps | STV","players":[{"user_id":30,"name":"Loaf","steam_id":76561198446378419,"connected_time":128000000000,"state":"active","ping":78},{"user_id":7,"name":"Keymaster","steam_id":76561198881514228,"connected_time":1216000000000,"state":"active","ping":75},{"user_id":14,"name":"::INVEST IN SKYNET::","steam_id":76561198144436132,"connected_time":836000000000,"state":"active","ping":106},{"user_id":18,"name":"Incyn","steam_id":76561198799175494,"connected_time":489000000000,"state":"active","ping":59},{"user_id":33,"name":"Kunoze","steam_id":76561198020523658,"connected_time":90000000000,"state":"active","ping":138},{"user_id":12,"name":"Barbatruc","steam_id":76561198119019916,"connected_time":980000000000,"state":"active","ping":155},{"user_id":27,"name":"testicletickler33","steam_id":76561198450220009,"connected_time":201000000000,"state":"active","ping":60},{"user_id":29,"name":"BiggsyBoy","steam_id":76561198119656147,"connected_time":169000000000,"state":"active","ping":57},{"user_id":34,"name":"Preacher","steam_id":76561198022215764,"connected_time":63000000000,"state":"active","ping":71},{"user_id":17,"name":"ecks","steam_id":76561197978114705,"connected_time":559000000000,"state":"active","ping":59},{"user_id":19,"name":"Would You Make Me A Sandwich?","steam_id":76561198152332211,"connected_time":473000000000,"state":"active","ping":56},{"user_id":20,"name":"CTRLZ0Y","steam_id":76561198183346187,"connected_time":444000000000,"state":"active","ping":61},{"user_id":26,"name":"Bitch Princess","steam_id":76561198368944263,"connected_time":258000000000,"state":"active","ping":81},{"user_id":22,"name":"feudalism (real)","steam_id":76561198057374871,"connected_time":371000000000,"state":"active","ping":60},{"user_id":35,"name":"Gamer Princess","steam_id":76561198048205270,"connected_time":28000000000,"state":"active","ping":91},{"user_id":24,"name":"‡∂û","steam_id":76561199365672047,"connected_time":320000000000,"state":"active","ping":84},{"user_id":25,"name":"genius of love","steam_id":76561198282764599,"connected_time":319000000000,"state":"active","ping":46},{"user_id":32,"name":"Zaxis","steam_id":76561198847843026,"connected_time":117000000000,"state":"active","ping":56},{"user_id":36,"name":"real worm","steam_id":76561199065645094,"connected_time":4000000000,"state":"spawning","ping":62},{"user_id":37,"name":"Oaky Loafs","steam_id":76561198317179010,"connected_time":2000000000,"state":"spawning","ping":85}]},{"server_id":37,"name":"Uncletopia | Chicago | 6 | All Maps","name_short":"chi-6","host":"chi-2.us.uncletopia.com","port":27025,"enabled":true,"region":"us-central","cc":"us","latitude":41.881832,"longitude":-87.62318,"reserved":0,"last_update":"0001-01-01T00:00:00Z","name_a2s":"Uncletopia | Chicago | 6 | All Maps","protocol":17,"map":"pl_frontier_final","folder":"tf","game":"Team Fortress","app_id":440,"player_count":0,"max_players":24,"Bots":0,"server_type":"Dedicated","server_os":"Linux","password":true,"vac":true,"version":"7961495","steam_id":85568392924866363,"keywords":["nocrits","nodmgspread","payload","uncletopia"],"game_id":440,"stv_port":27026,"stv_name":"Uncletopia | Chicago | 6 | All Maps | STV","players":null},{"server_id":38,"name":"Uncletopia | Chicago | 7 | Stopwatch","name_short":"chi-7","host":"chi-2.us.uncletopia.com","port":27035,"enabled":true,"region":"us-central","cc":"us","latitude":41.881832,"longitude":-87.62318,"reserved":0,"last_update":"0001-01-01T00:00:00Z","name_a2s":"Uncletopia | Chicago | 7 | Stopwatch","protocol":17,"map":"pl_borneo","folder":"tf","game":"Team Fortress","app_id":440,"player_count":0,"max_players":24,"Bots":0,"server_type":"Dedicated","server_os":"Linux","password":true,"vac":true,"version":"7961495","steam_id":85568392924866364,"keywords":["nocrits","nodmgspread","payload","uncletopia"],"game_id":440,"stv_port":27036,"stv_name":"Uncletopia | Chicago | 7 | Stopwatch | STV","players":null},{"server_id":39,"name":"Uncletopia | Chicago | 8 | Community","name_short":"chi-8","host":"chi-2.us.uncletopia.com","port":27045,"enabled":true,"region":"us-central","cc":"us","latitude":41.881832,"longitude":-87.62318,"reserved":0,"last_update":"0001-01-01T00:00:00Z","name_a2s":"Uncletopia | Chicago | 8 | Community","protocol":17,"map":"workshop/koth_trenchfoot_b1a.ugc731436616","folder":"tf","game":"Team Fortress","app_id":440,"player_count":0,"max_players":24,"Bots":0,"server_type":"Dedicated","server_os":"Linux","password":true,"vac":true,"version":"7961495","steam_id":85568392924866365,"keywords":["cp","nocrits","nodmgspread","uncletopia"],"game_id":440,"stv_port":27046,"stv_name":"Uncletopia | Chicago | 8 | Community | STV","players":null},{"server_id":8,"name":"Uncletopia | Dallas | 1 | All Maps","name_short":"dal-1","host":"dal-1.us.uncletopia.com","port":27015,"enabled":true,"region":"us-central","cc":"us","latitude":32.779167,"longitude":-96.80889,"reserved":0,"last_update":"0001-01-01T00:00:00Z","name_a2s":"Uncletopia | Dallas | 1 | All Maps","protocol":17,"map":"pl_badwater","folder":"tf","game":"Team Fortress","app_id":440,"player_count":24,"max_players":24,"Bots":0,"server_type":"Dedicated","server_os":"Linux","password":true,"vac":true,"version":"7961495","steam_id":85568392924469986,"keywords":["nocrits","nodmgspread","payload","uncletopia"],"game_id":440,"stv_port":27016,"stv_name":"Uncletopia | Dallas | 1 | All Maps | STV","players":[{"user_id":20,"name":"Waytoolol","steam_id":76561199201517753,"connected_time":2355000000000,"state":"active","ping":95},{"user_id":26,"name":"clenZORZ","steam_id":76561198835570628,"connected_time":1524000000000,"state":"active","ping":57},{"user_id":51,"name":"A rotting llama corpse","steam_id":76561198140840588,"connected_time":915000000000,"state":"active","ping":64},{"user_id":60,"name":"Great Filter Comin Up","steam_id":76561198081617990,"connected_time":35000000000,"state":"active","ping":96},{"user_id":54,"name":"G R E E N","steam_id":76561198046401833,"connected_time":463000000000,"state":"active","ping":91},{"user_id":58,"name":"rmx^-^","steam_id":76561197961779026,"connected_time":187000000000,"state":"active","ping":90},{"user_id":29,"name":"Pork44","steam_id":76561198005773170,"connected_time":1269000000000,"state":"active","ping":54},{"user_id":30,"name":"Xebbey","steam_id":76561198880415976,"connected_time":1266000000000,"state":"active","ping":69},{"user_id":32,"name":"VixianUwU","steam_id":76561198948815060,"connected_time":1230000000000,"state":"active","ping":69},{"user_id":40,"name":"Dirt Road","steam_id":76561198210372012,"connected_time":1119000000000,"state":"active","ping":88},{"user_id":34,"name":"Shalom","steam_id":76561198410005222,"connected_time":1209000000000,"state":"active","ping":65},{"user_id":41,"name":"Deni Jems","steam_id":76561198147707286,"connected_time":1115000000000,"state":"active","ping":99},{"user_id":57,"name":"Pontifex","steam_id":76561198013016489,"connected_time":230000000000,"state":"active","ping":55},{"user_id":59,"name":"Dabbledornk","steam_id":76561198065241300,"connected_time":171000000000,"state":"active","ping":75},{"user_id":38,"name":"Nemiel Zaharion","steam_id":76561197999234678,"connected_time":1165000000000,"state":"active","ping":55},{"user_id":56,"name":"Freyja","steam_id":76561198207412177,"connected_time":369000000000,"state":"active","ping":69},{"user_id":43,"name":"mollusk_obliteration","steam_id":76561198085388962,"connected_time":1101000000000,"state":"active","ping":68},{"user_id":44,"name":"Zetta","steam_id":76561198045710113,"connected_time":1097000000000,"state":"active","ping":82},{"user_id":45,"name":"relay","steam_id":76561198314662811,"connected_time":1087000000000,"state":"active","ping":97},{"user_id":46,"name":"tobrehto","steam_id":76561198097544038,"connected_time":1071000000000,"state":"active","ping":68},{"user_id":53,"name":"chubbs from happy gilmore","steam_id":76561198143538672,"connected_time":563000000000,"state":"active","ping":73},{"user_id":48,"name":"Frofro","steam_id":76561198025349121,"connected_time":1052000000000,"state":"active","ping":55},{"user_id":49,"name":"Rafl","steam_id":76561198055222756,"connected_time":1033000000000,"state":"active","ping":48},{"user_id":50,"name":"Legit_Jaxer","steam_id":76561198172234053,"connected_time":1027000000000,"state":"active","ping":110}]},{"server_id":108,"name":"Uncletopia | Dallas | 2 | All Maps","name_short":"dal-2","host":"dal-1.us.uncletopia.com","port":27025,"enabled":true,"region":"us-central","cc":"us","latitude":32.779167,"longitude":-96.80889,"reserved":0,"last_update":"0001-01-01T00:00:00Z","name_a2s":"Uncletopia | Dallas | 2 | All Maps","protocol":17,"map":"cp_dustbowl","folder":"tf","game":"Team Fortress","app_id":440,"player_count":23,"max_players":24,"Bots":0,"server_type":"Dedicated","server_os":"Linux","password":true,"vac":true,"version":"7961495","steam_id":85568392924469988,"keywords":["cp","nocrits","nodmgspread","uncletopia"],"game_id":440,"stv_port":27026,"stv_name":"Uncletopia | Dallas | 2 | All Maps | STV","players":[{"user_id":324,"name":"Spaceman","steam_id":76561198098025074,"connected_time":1881000000000,"state":"active","ping":59},{"user_id":340,"name":"mkl","steam_id":76561197986401685,"connected_time":757000000000,"state":"active","ping":49},{"user_id":325,"name":"Tanna Tuver","steam_id":76561198382485444,"connected_time":1840000000000,"state":"active","ping":60},{"user_id":339,"name":"BackwardsEagle","steam_id":76561199013712612,"connected_time":959000000000,"state":"active","ping":93},{"user_id":333,"name":"Crazy Insane Proboscis Monkey","steam_id":76561198061011176,"connected_time":1665000000000,"state":"active","ping":94},{"user_id":334,"name":"5kPrime","steam_id":76561198039471915,"connected_time":1661000000000,"state":"active","ping":91},{"user_id":318,"name":"Rob","steam_id":76561199187786660,"connected_time":2505000000000,"state":"active","ping":50},{"user_id":327,"name":"Dumgum","steam_id":76561198044960992,"connected_time":1807000000000,"state":"active","ping":79},{"user_id":306,"name":"Levi","steam_id":76561198089832776,"connected_time":3278000000000,"state":"active","ping":47},{"user_id":307,"name":"Jankyo","steam_id":76561198083339492,"connected_time":3273000000000,"state":"active","ping":85},{"user_id":335,"name":"Squibbzin","steam_id":76561198254519678,"connected_time":1655000000000,"state":"active","ping":96},{"user_id":276,"name":"ALDOMLG","steam_id":76561198343776095,"connected_time":4755000000000,"state":"active","ping":102},{"user_id":311,"name":"hforce11","steam_id":76561198087647130,"connected_time":3146000000000,"state":"active","ping":57},{"user_id":316,"name":"say gex","steam_id":76561199026721822,"connected_time":2560000000000,"state":"active","ping":109},{"user_id":342,"name":"Soju","steam_id":76561198044130442,"connected_time":154000000000,"state":"active","ping":56},{"user_id":329,"name":"Sollyz","steam_id":76561198081110786,"connected_time":1771000000000,"state":"active","ping":98},{"user_id":297,"name":"Mellou","steam_id":76561198212048740,"connected_time":3910000000000,"state":"active","ping":52},{"user_id":292,"name":"aisu","steam_id":76561198043768507,"connected_time":4396000000000,"state":"active","ping":90},{"user_id":338,"name":"TOKENLIZARD","steam_id":76561198218765205,"connected_time":1445000000000,"state":"active","ping":60},{"user_id":330,"name":"VioletVixsyn","steam_id":76561198388575556,"connected_time":1771000000000,"state":"active","ping":73},{"user_id":343,"name":"yomo","steam_id":76561198063175935,"connected_time":13000000000,"state":"active","ping":106},{"user_id":331,"name":"Kirby.exe","steam_id":76561198242714582,"connected_time":1756000000000,"state":"active","ping":52},{"user_id":336,"name":"Your Dad‚Ñ¢","steam_id":76561198254739340,"connected_time":1641000000000,"state":"active","ping":86}]},{"server_id":404,"name":"Uncletopia | Dallas | 3 | All Maps","name_short":"dal-3","host":"dal-1.us.uncletopia.com","port":27035,"enabled":true,"region":"us-central","cc":"us","latitude":32.779167,"longitude":-96.80889,"reserved":0,"last_update":"0001-01-01T00:00:00Z","name_a2s":"Uncletopia | Dallas | 3 | All Maps","protocol":17,"map":"cp_process_final","folder":"tf","game":"Team Fortress","app_id":440,"player_count":0,"max_players":24,"Bots":0,"server_type":"Dedicated","server_os":"Linux","password":true,"vac":true,"version":"7961495","steam_id":85568392924515219,"keywords":["cp","nocrits","nodmgspread","uncletopia"],"game_id":440,"stv_port":27036,"stv_name":"Uncletopia | Dallas | 3 | All Maps | STV","players":null},{"server_id":405,"name":"Uncletopia | Dallas | 4 | Community","name_short":"dal-4","host":"dal-1.us.uncletopia.com","port":27045,"enabled":true,"region":"us-central","cc":"us","latitude":32.779167,"longitude":-96.80889,"reserved":0,"last_update":"0001-01-01T00:00:00Z","name_a2s":"Uncletopia | Dallas | 4 | Community","protocol":17,"map":"pl_pier","folder":"tf","game":"Team Fortress","app_id":440,"player_count":0,"max_players":24,"Bots":0,"server_type":"Dedicated","server_os":"Linux","password":true,"vac":true,"version":"7961495","steam_id":85568392924515220,"keywords":["nocrits","nodmgspread","payload","uncletopia"],"game_id":440,"stv_port":27046,"stv_name":"Uncletopia | Dallas | 4 | Community | STV","players":null},{"server_id":5,"name":"Uncletopia | Frankfurt | 1 | All Maps","name_short":"frk-1","host":"frk-1.de.uncletopia.com","port":27015,"enabled":true,"region":"eu","cc":"de","latitude":50.110924,"longitude":8.682127,"reserved":0,"last_update":"0001-01-01T00:00:00Z","name_a2s":"Uncletopia | Frankfurt | 1 | All Maps","protocol":17,"map":"ctf_turbine","folder":"tf","game":"Team Fortress","app_id":440,"player_count":24,"max_players":24,"Bots":0,"server_type":"Dedicated","server_os":"Linux","password":true,"vac":true,"version":"7961495","steam_id":85568392924469989,"keywords":["ctf","nocrits","nodmgspread","uncletopia"],"game_id":440,"stv_port":27016,"stv_name":"Uncletopia | Frankfurt | 1 | All Maps | STV","players":[{"user_id":371,"name":"Ceiling fan enthusiast","steam_id":76561197989214268,"connected_time":2387000000000,"state":"active","ping":71},{"user_id":388,"name":"–°–∞–Ω–µ—á–∫–∞","steam_id":76561198258884232,"connected_time":1226000000000,"state":"active","ping":74},{"user_id":378,"name":"Salih","steam_id":76561198287934839,"connected_time":2179000000000,"state":"active","ping":57},{"user_id":404,"name":"JohaTG","steam_id":76561198804468284,"connected_time":757000000000,"state":"active","ping":48},{"user_id":385,"name":"Silver","steam_id":76561198037290739,"connected_time":1546000000000,"state":"active","ping":60},{"user_id":376,"name":"Venkids","steam_id":76561198086518702,"connected_time":2236000000000,"state":"active","ping":62},{"user_id":413,"name":"booba","steam_id":76561198158018284,"connected_time":36000000000,"state":"active","ping":54},{"user_id":372,"name":"autistic","steam_id":76561198897732673,"connected_time":2322000000000,"state":"active","ping":81},{"user_id":403,"name":"Fanta¬Æ","steam_id":76561198416458968,"connected_time":854000000000,"state":"active","ping":57},{"user_id":398,"name":"_4pr1l","steam_id":76561198186607327,"connected_time":991000000000,"state":"active","ping":41},{"user_id":414,"name":"Magiccomplex","steam_id":76561199203555188,"connected_time":7000000000,"state":"spawning","ping":47},{"user_id":405,"name":"Nemoland","steam_id":76561197964172678,"connected_time":706000000000,"state":"active","ping":67},{"user_id":387,"name":"pep","steam_id":76561198207543607,"connected_time":1475000000000,"state":"active","ping":62},{"user_id":412,"name":"Vince","steam_id":76561199103000131,"connected_time":207000000000,"state":"active","ping":75},{"user_id":406,"name":"Popop","steam_id":76561198004793795,"connected_time":598000000000,"state":"active","ping":37},{"user_id":355,"name":"AlphaDog","steam_id":76561198110238357,"connected_time":4916000000000,"state":"active","ping":59},{"user_id":377,"name":"Khrinde","steam_id":76561198036744526,"connected_time":2235000000000,"state":"active","ping":99},{"user_id":407,"name":"|RED|ILuc","steam_id":76561198313272787,"connected_time":597000000000,"state":"active","ping":78},{"user_id":367,"name":"Toni","steam_id":76561198342821250,"connected_time":2821000000000,"state":"active","ping":56},{"user_id":408,"name":"Atsiputelis","steam_id":76561198066201111,"connected_time":525000000000,"state":"active","ping":59},{"user_id":379,"name":"Mario Moretti [BR]","steam_id":76561198179299606,"connected_time":2176000000000,"state":"active","ping":91},{"user_id":409,"name":"Vossert","steam_id":76561198341731218,"connected_time":503000000000,"state":"active","ping":61},{"user_id":383,"name":"cactus_octoling","steam_id":76561198837919828,"connected_time":1618000000000,"state":"active","ping":90},{"user_id":411,"name":"Lowbird","steam_id":76561198137424821,"connected_time":398000000000,"state":"active","ping":57}]},{"server_id":110,"name":"Uncletopia | Frankfurt | 2 | All Maps","name_short":"frk-2","host":"frk-1.de.uncletopia.com","port":27025,"enabled":true,"region":"eu","cc":"de","latitude":50.110924,"longitude":8.682127,"reserved":0,"last_update":"0001-01-01T00:00:00Z","name_a2s":"Uncletopia | Frankfurt | 2 | All Maps","protocol":17,"map":"pl_upward","folder":"tf","game":"Team Fortress","app_id":440,"player_count":24,"max_players":24,"Bots":0,"server_type":"Dedicated","server_os":"Linux","password":true,"vac":true,"version":"7961495","steam_id":85568392924469990,"keywords":["nocrits","nodmgspread","payload","uncletopia"],"game_id":440,"stv_port":27026,"stv_name":"Uncletopia | Frankfurt | 2 | All Maps | STV","players":[{"user_id":494,"name":"kelm","steam_id":76561198027166144,"connected_time":2847000000000,"state":"active","ping":75},{"user_id":518,"name":"doctwoeight","steam_id":76561198153488940,"connected_time":970000000000,"state":"active","ping":86},{"user_id":531,"name":"mohemmedmokhter2005","steam_id":76561199197650506,"connected_time":137000000000,"state":"active","ping":104},{"user_id":530,"name":"LOBZIK","steam_id":76561198114830120,"connected_time":220000000000,"state":"active","ping":71},{"user_id":525,"name":"KENZO","steam_id":76561197993520279,"connected_time":638000000000,"state":"active","ping":54},{"user_id":508,"name":"Dr Hund","steam_id":76561198381049905,"connected_time":1886000000000,"state":"active","ping":56},{"user_id":520,"name":"Antonescu","steam_id":76561199417619618,"connected_time":917000000000,"state":"active","ping":91},{"user_id":474,"name":"meriones","steam_id":76561198034234373,"connected_time":4009000000000,"state":"active","ping":52},{"user_id":529,"name":"ArcX","steam_id":76561198805049375,"connected_time":232000000000,"state":"active","ping":56},{"user_id":504,"name":"Wild","steam_id":76561198196320754,"connected_time":2199000000000,"state":"active","ping":70},{"user_id":512,"name":"Lyncurion","steam_id":76561199260022725,"connected_time":1789000000000,"state":"active","ping":100},{"user_id":528,"name":"Curlew","steam_id":76561198075884540,"connected_time":285000000000,"state":"active","ping":82},{"user_id":475,"name":"ÍßÅ‡ºíXenon‡ºíÍßÇ","steam_id":76561198120502313,"connected_time":3971000000000,"state":"active","ping":89},{"user_id":510,"name":"DelreLeFou","steam_id":76561198302015176,"connected_time":1877000000000,"state":"active","ping":73},{"user_id":522,"name":"narlee","steam_id":76561198058084646,"connected_time":894000000000,"state":"active","ping":76},{"user_id":497,"name":"Elma Can√≥n del Toro","steam_id":76561198081053203,"connected_time":2685000000000,"state":"active","ping":188},{"user_id":523,"name":"Na z√°chodƒõ","steam_id":76561198383952144,"connected_time":890000000000,"state":"active","ping":134},{"user_id":498,"name":"eiflA","steam_id":76561198094886044,"connected_time":2675000000000,"state":"active","ping":65},{"user_id":524,"name":"cobblestone","steam_id":76561198079123043,"connected_time":885000000000,"state":"active","ping":74},{"user_id":511,"name":"r0la","steam_id":76561198128315340,"connected_time":1813000000000,"state":"active","ping":85},{"user_id":517,"name":"Puss in Boots","steam_id":76561198211599767,"connected_time":1309000000000,"state":"active","ping":72},{"user_id":488,"name":"Filtered Water","steam_id":76561199142022395,"connected_time":3261000000000,"state":"active","ping":65},{"user_id":502,"name":"King Goomba","steam_id":76561198146467813,"connected_time":2546000000000,"state":"active","ping":76},{"user_id":481,"name":"Worm","steam_id":76561198296497176,"connected_time":3491000000000,"state":"active","ping":63}]},{"server_id":308,"name":"Uncletopia | Frankfurt | 3 | All Maps","name_short":"frk-3","host":"frk-1.de.uncletopia.com","port":27035,"enabled":true,"region":"eu","cc":"de","latitude":50.110924,"longitude":8.682127,"reserved":0,"last_update":"0001-01-01T00:00:00Z","name_a2s":"Uncletopia | Frankfurt | 3 | All Maps","protocol":17,"map":"koth_viaduct","folder":"tf","game":"Team Fortress","app_id":440,"player_count":12,"max_players":24,"Bots":0,"server_type":"Dedicated","server_os":"Linux","password":true,"vac":true,"version":"7961495","steam_id":85568392924504274,"keywords":["cp","nocrits","nodmgspread","uncletopia"],"game_id":440,"stv_port":27036,"stv_name":"Uncletopia | Frankfurt | 3 | All Maps | STV","players":[{"user_id":298,"name":"Alice_Neko","steam_id":76561198411388911,"connected_time":4402000000000,"state":"active","ping":125},{"user_id":356,"name":"GermanBoy","steam_id":76561199230176650,"connected_time":233000000000,"state":"active","ping":60},{"user_id":357,"name":"NANI?!?!?!","steam_id":76561198172078559,"connected_time":216000000000,"state":"active","ping":76},{"user_id":358,"name":"Mr Acehole","steam_id":76561198123475157,"connected_time":169000000000,"state":"active","ping":68},{"user_id":359,"name":"Walking In My Shoes","steam_id":76561198159100379,"connected_time":141000000000,"state":"active","ping":56},{"user_id":361,"name":"Qdarks","steam_id":76561198013391340,"connected_time":53000000000,"state":"active","ping":143},{"user_id":362,"name":"Hattmannen","steam_id":76561198340884902,"connected_time":36000000000,"state":"spawning","ping":66},{"user_id":316,"name":"Sinnmeister","steam_id":76561198201091797,"connected_time":3373000000000,"state":"active","ping":60},{"user_id":328,"name":"Bliketod","steam_id":76561198255098671,"connected_time":2906000000000,"state":"active","ping":72},{"user_id":333,"name":"Yaveltal","steam_id":76561198199982015,"connected_time":2409000000000,"state":"active","ping":113},{"user_id":329,"name":"√∏negalt","steam_id":76561198162997817,"connected_time":2830000000000,"state":"active","ping":81},{"user_id":331,"name":"NIckson GERald","steam_id":76561198838255900,"connected_time":2771000000000,"state":"active","ping":124}]},{"server_id":309,"name":"Uncletopia | Frankfurt | 4 | All Maps","name_short":"frk-4","host":"frk-1.de.uncletopia.com","port":27045,"enabled":true,"region":"eu","cc":"de","latitude":50.110924,"longitude":8.682127,"reserved":0,"last_update":"0001-01-01T00:00:00Z","name_a2s":"Uncletopia | Frankfurt | 4 | All Maps","protocol":17,"map":"cp_process_final","folder":"tf","game":"Team Fortress","app_id":440,"player_count":24,"max_players":24,"Bots":0,"server_type":"Dedicated","server_os":"Linux","password":true,"vac":true,"version":"7961495","steam_id":85568392924504275,"keywords":["cp","nocrits","nodmgspread","uncletopia"],"game_id":440,"stv_port":27046,"stv_name":"Uncletopia | Frankfurt | 4 | All Maps | STV","players":[{"user_id":424,"name":"Fenrys","steam_id":76561198353946813,"connected_time":876000000000,"state":"active","ping":69},{"user_id":339,"name":"Micha≈Ç","steam_id":76561198320346362,"connected_time":7300000000000,"state":"active","ping":58},{"user_id":357,"name":"Flohr","steam_id":76561198191948841,"connected_time":5884000000000,"state":"active","ping":54},{"user_id":432,"name":"DODGE CHALLENGER thepurge.xyz","steam_id":76561198804609222,"connected_time":409000000000,"state":"active","ping":53},{"user_id":433,"name":"Merca #savetf2","steam_id":76561198088782472,"connected_time":332000000000,"state":"active","ping":49},{"user_id":431,"name":"Û†Ä°Û†Ä°","steam_id":76561198059375315,"connected_time":581000000000,"state":"active","ping":55},{"user_id":414,"name":"crazycalumrock","steam_id":76561198049890080,"connected_time":1047000000000,"state":"active","ping":49},{"user_id":390,"name":"UwUlric","steam_id":76561198136794751,"connected_time":3513000000000,"state":"active","ping":84},{"user_id":336,"name":"wasto-/-‚Ñ¢","steam_id":76561198102888038,"connected_time":7356000000000,"state":"active","ping":53},{"user_id":401,"name":"Boba","steam_id":76561198369465924,"connected_time":2620000000000,"state":"active","ping":66},{"user_id":409,"name":"Lux","steam_id":76561198060417740,"connected_time":1638000000000,"state":"active","ping":51},{"user_id":415,"name":"Talkkari","steam_id":76561198025327723,"connected_time":1034000000000,"state":"active","ping":60},{"user_id":434,"name":"Space cowpoke","steam_id":76561198199471641,"connected_time":290000000000,"state":"active","ping":94},{"user_id":407,"name":"StingyLettuce","steam_id":76561199010337406,"connected_time":2117000000000,"state":"active","ping":107},{"user_id":416,"name":"sneaky snake","steam_id":76561198279965791,"connected_time":1026000000000,"state":"active","ping":107},{"user_id":427,"name":"TheEwaffle","steam_id":76561198058280997,"connected_time":748000000000,"state":"active","ping":77},{"user_id":435,"name":"joebot","steam_id":76561197975606100,"connected_time":279000000000,"state":"active","ping":138},{"user_id":384,"name":"Zm4j","steam_id":76561198259465946,"connected_time":4162000000000,"state":"active","ping":76},{"user_id":418,"name":"SzalonygƒÖsior69","steam_id":76561198300089671,"connected_time":1008000000000,"state":"active","ping":73},{"user_id":403,"name":"Master Of Noob","steam_id":76561198217926783,"connected_time":2471000000000,"state":"active","ping":68},{"user_id":419,"name":"Vriska Serket","steam_id":76561198201870332,"connected_time":1000000000000,"state":"active","ping":58},{"user_id":426,"name":"Gibby","steam_id":76561198048213112,"connected_time":809000000000,"state":"active","ping":52},{"user_id":429,"name":"chrome heart","steam_id":76561198101978330,"connected_time":732000000000,"state":"active","ping":64},{"user_id":356,"name":"‚Ä†ùî•e œâoo","steam_id":76561198929808815,"connected_time":5934000000000,"state":"active","ping":51}]},{"server_id":310,"name":"Uncletopia | Frankfurt | 5 | All Maps","name_short":"frk-5","host":"frk-1.de.uncletopia.com","port":27055,"enabled":true,"region":"eu","cc":"de","latitude":50.110924,"longitude":8.682127,"reserved":0,"last_update":"0001-01-01T00:00:00Z","name_a2s":"Uncletopia | Frankfurt | 5 | All Maps","protocol":17,"map":"cp_dustbowl","folder":"tf","game":"Team Fortress","app_id":440,"player_count":24,"max_players":24,"Bots":0,"server_type":"Dedicated","server_os":"Linux","password":true,"vac":true,"version":"7961495","steam_id":85568392924504277,"keywords":["cp","nocrits","nodmgspread","uncletopia"],"game_id":440,"stv_port":27056,"stv_name":"Uncletopia | Frankfurt | 5 | All Maps | STV","players":[{"user_id":508,"name":"Bottle O' Scrumpy","steam_id":76561199244250562,"connected_time":1907000000000,"state":"active","ping":112},{"user_id":533,"name":"Rumf","steam_id":76561197993957541,"connected_time":1120000000000,"state":"active","ping":54},{"user_id":538,"name":"Lusitana","steam_id":76561198186320802,"connected_time":535000000000,"state":"active","ping":73},{"user_id":524,"name":"BLACKBIRD CLOSE [she/her]","steam_id":76561198262910410,"connected_time":1356000000000,"state":"active","ping":100},{"user_id":499,"name":"realness","steam_id":76561199129226935,"connected_time":2951000000000,"state":"active","ping":76},{"user_id":527,"name":"leonardini.w","steam_id":76561199097963071,"connected_time":1307000000000,"state":"active","ping":93},{"user_id":519,"name":"ascension","steam_id":76561198114056695,"connected_time":1395000000000,"state":"active","ping":74},{"user_id":535,"name":"mefju","steam_id":76561198854933128,"connected_time":856000000000,"state":"active","ping":60},{"user_id":539,"name":"LE$KA","steam_id":76561198211434744,"connected_time":486000000000,"state":"active","ping":90},{"user_id":526,"name":"Ozzie","steam_id":76561197992915315,"connected_time":1335000000000,"state":"active","ping":74},{"user_id":541,"name":"omnibombulator","steam_id":76561198025858897,"connected_time":446000000000,"state":"active","ping":60},{"user_id":540,"name":"Arsonist","steam_id":76561199087953833,"connected_time":474000000000,"state":"active","ping":96},{"user_id":470,"name":"my mom","steam_id":76561199225201569,"connected_time":5135000000000,"state":"active","ping":145},{"user_id":528,"name":"Rigby","steam_id":76561198021552128,"connected_time":1300000000000,"state":"active","ping":99},{"user_id":513,"name":"Temka","steam_id":76561198331323738,"connected_time":1843000000000,"state":"active","ping":60},{"user_id":497,"name":"Archive","steam_id":76561198071255385,"connected_time":3414000000000,"state":"active","ping":98},{"user_id":537,"name":"MaypulSoyrup","steam_id":76561199213966821,"connected_time":650000000000,"state":"active","ping":100},{"user_id":515,"name":"Kotlonizator","steam_id":76561198993830128,"connected_time":1835000000000,"state":"active","ping":72},{"user_id":549,"name":"bowchika wowa #SlavaUkraine","steam_id":76561198159564550,"connected_time":220000000000,"state":"active","ping":70},{"user_id":507,"name":"Koli","steam_id":76561197992428783,"connected_time":2095000000000,"state":"active","ping":45},{"user_id":543,"name":"Sleepy Dummy","steam_id":76561198122108762,"connected_time":397000000000,"state":"active","ping":50},{"user_id":544,"name":"Moondrop","steam_id":76561199421181719,"connected_time":388000000000,"state":"active","ping":82},{"user_id":548,"name":"Baklava","steam_id":76561199165415466,"connected_time":276000000000,"state":"active","ping":61},{"user_id":529,"name":"Rojapokemona","steam_id":76561198179925894,"connected_time":1279000000000,"state":"active","ping":63}]},{"server_id":311,"name":"Uncletopia | Frankfurt | 6 | All Maps","name_short":"frk-6","host":"frk-1.de.uncletopia.com","port":27065,"enabled":true,"region":"eu","cc":"de","latitude":50.110924,"longitude":8.682127,"reserved":0,"last_update":"0001-01-01T00:00:00Z","name_a2s":"Uncletopia | Frankfurt | 6 | All Maps","protocol":17,"map":"pl_borneo","folder":"tf","game":"Team Fortress","app_id":440,"player_count":23,"max_players":24,"Bots":0,"server_type":"Dedicated","server_os":"Linux","password":true,"vac":true,"version":"7961495","steam_id":85568392924504278,"keywords":["nocrits","nodmgspread","payload","uncletopia"],"game_id":440,"stv_port":27066,"stv_name":"Uncletopia | Frankfurt | 6 | All Maps | STV","players":[{"user_id":389,"name":"Dr Ultraman","steam_id":76561198060787567,"connected_time":1456000000000,"state":"active","ping":82},{"user_id":403,"name":"Cookies and Bakies","steam_id":76561198017442928,"connected_time":659000000000,"state":"active","ping":54},{"user_id":408,"name":"I sell exotic parrots","steam_id":76561199192434258,"connected_time":161000000000,"state":"active","ping":98},{"user_id":390,"name":"competitive sex","steam_id":76561198060530483,"connected_time":1452000000000,"state":"active","ping":73},{"user_id":368,"name":"Cosmic Gamer","steam_id":76561198027357981,"connected_time":2124000000000,"state":"active","ping":102},{"user_id":325,"name":"Eggy_The_Tyrone","steam_id":76561198036857277,"connected_time":5249000000000,"state":"active","ping":55},{"user_id":406,"name":"dab-dab","steam_id":76561198088930298,"connected_time":487000000000,"state":"active","ping":83},{"user_id":410,"name":"Valheim","steam_id":76561198044199912,"connected_time":148000000000,"state":"active","ping":79},{"user_id":398,"name":"Maddox","steam_id":76561198026419869,"connected_time":1226000000000,"state":"active","ping":63},{"user_id":392,"name":"benjaminmarkMLP","steam_id":76561198920361202,"connected_time":1437000000000,"state":"active","ping":132},{"user_id":404,"name":"JugoTopia","steam_id":76561197996067209,"connected_time":650000000000,"state":"active","ping":119},{"user_id":312,"name":"‡πñ€£€úSir Robbiewolf","steam_id":76561198001357988,"connected_time":5786000000000,"state":"active","ping":73},{"user_id":330,"name":"FoOzTV","steam_id":76561197998636728,"connected_time":4866000000000,"state":"active","ping":71},{"user_id":352,"name":"degu","steam_id":76561198180823942,"connected_time":2800000000000,"state":"active","ping":96},{"user_id":402,"name":"Dokuro","steam_id":76561198005413903,"connected_time":803000000000,"state":"active","ping":76},{"user_id":409,"name":"ALARM","steam_id":76561198120686521,"connected_time":157000000000,"state":"active","ping":53},{"user_id":379,"name":"Deckard","steam_id":76561198004704647,"connected_time":1935000000000,"state":"active","ping":78},{"user_id":395,"name":"rev","steam_id":76561198134512931,"connected_time":1419000000000,"state":"active","ping":62},{"user_id":292,"name":"Donki Wonki","steam_id":76561198327761273,"connected_time":6885000000000,"state":"active","ping":74},{"user_id":397,"name":"nemo","steam_id":76561199488507139,"connected_time":1407000000000,"state":"active","ping":143},{"user_id":411,"name":"mt","steam_id":76561197961319303,"connected_time":120000000000,"state":"active","ping":45},{"user_id":412,"name":"TidB","steam_id":76561198055342304,"connected_time":108000000000,"state":"active","ping":51},{"user_id":407,"name":"Temperance","steam_id":76561198446955878,"connected_time":487000000000,"state":"active","ping":69}]},{"server_id":23,"name":"Uncletopia | Frankfurt | 7 | Stopwatch","name_short":"frk-7","host":"frk-1.de.uncletopia.com","port":27075,"enabled":true,"region":"eu","cc":"de","latitude":50.110924,"longitude":8.682127,"reserved":0,"last_update":"0001-01-01T00:00:00Z","name_a2s":"Uncletopia | Frankfurt | 7 | Stopwatch","protocol":17,"map":"workshop/koth_ashville_final.ugc2130459942","folder":"tf","game":"Team Fortress","app_id":440,"player_count":0,"max_players":24,"Bots":0,"server_type":"Dedicated","server_os":"Linux","password":true,"vac":true,"version":"7961495","steam_id":85568392924742827,"keywords":["cp","nocrits","nodmgspread","uncletopia"],"game_id":440,"stv_port":27076,"stv_name":"Uncletopia | Frankfurt | 7 | Stopwatch | STV","players":null},{"server_id":24,"name":"Uncletopia | Frankfurt | 8 | Community","name_short":"frk-8","host":"frk-1.de.uncletopia.com","port":27085,"enabled":true,"region":"eu","cc":"de","latitude":50.110924,"longitude":8.682127,"reserved":0,"last_update":"0001-01-01T00:00:00Z","name_a2s":"Uncletopia | Frankfurt | 8 | Community","protocol":17,"map":"workshop/pl_cashworks_final1.ugc2904065412","folder":"tf","game":"Team Fortress","app_id":440,"player_count":24,"max_players":24,"Bots":0,"server_type":"Dedicated","server_os":"Linux","password":true,"vac":true,"version":"7961495","steam_id":85568392924742828,"keywords":["nocrits","nodmgspread","payload","uncletopia"],"game_id":440,"stv_port":27086,"stv_name":"Uncletopia | Frankfurt | 8 | Community | STV","players":[{"user_id":164,"name":"oscail","steam_id":76561198180640198,"connected_time":678000000000,"state":"active","ping":88},{"user_id":162,"name":"CMD_God","steam_id":76561198333037007,"connected_time":739000000000,"state":"active","ping":101},{"user_id":138,"name":"TriR–ò–å","steam_id":76561198119622375,"connected_time":2324000000000,"state":"active","ping":74},{"user_id":142,"name":"Thisisthecat","steam_id":76561198403314907,"connected_time":2175000000000,"state":"active","ping":50},{"user_id":174,"name":"A simple berry picker","steam_id":76561198091969871,"connected_time":448000000000,"state":"active","ping":94},{"user_id":165,"name":"Durin sein Vater","steam_id":76561198021246713,"connected_time":641000000000,"state":"active","ping":38},{"user_id":121,"name":"JazzMaster","steam_id":76561198204524845,"connected_time":3805000000000,"state":"active","ping":87},{"user_id":169,"name":"MR.BLOTTO","steam_id":76561198067920111,"connected_time":610000000000,"state":"active","ping":46},{"user_id":132,"name":"Darkf065","steam_id":76561199029257202,"connected_time":2926000000000,"state":"active","ping":101},{"user_id":143,"name":"ScoutPilgrim","steam_id":76561198013007215,"connected_time":2131000000000,"state":"active","ping":53},{"user_id":139,"name":"sudo","steam_id":76561198045575797,"connected_time":2319000000000,"state":"active","ping":61},{"user_id":123,"name":"SPANISH LIGMA","steam_id":76561198846916016,"connected_time":3780000000000,"state":"active","ping":106},{"user_id":163,"name":"Kyra","steam_id":76561199151490064,"connected_time":726000000000,"state":"active","ping":66},{"user_id":168,"name":"capslocked","steam_id":76561198095960796,"connected_time":630000000000,"state":"active","ping":55},{"user_id":134,"name":"TrolololNor.","steam_id":76561198324592461,"connected_time":2899000000000,"state":"active","ping":51},{"user_id":178,"name":"BigBurger2013","steam_id":76561199208431091,"connected_time":308000000000,"state":"active","ping":59},{"user_id":176,"name":"BeefHammer","steam_id":76561198078426223,"connected_time":349000000000,"state":"active","ping":97},{"user_id":131,"name":"CLIF Bar Blueberry Crisp","steam_id":76561198060339391,"connected_time":3244000000000,"state":"active","ping":39},{"user_id":170,"name":"Sexycube","steam_id":76561198796371690,"connected_time":604000000000,"state":"active","ping":81},{"user_id":171,"name":"genesys2000","steam_id":76561198196139526,"connected_time":567000000000,"state":"active","ping":69},{"user_id":172,"name":"Banzaiiiii ai √ßa pique","steam_id":76561198008634711,"connected_time":530000000000,"state":"active","ping":70},{"user_id":173,"name":"Advokat","steam_id":76561198307121174,"connected_time":502000000000,"state":"active","ping":69},{"user_id":149,"name":"powej","steam_id":76561198056381418,"connected_time":1770000000000,"state":"active","ping":59},{"user_id":177,"name":"ScampSixteen","steam_id":76561198021771000,"connected_time":339000000000,"state":"active","ping":64}]},{"server_id":202,"name":"Uncletopia | Hong Kong | 1 | All Maps","name_short":"hgk-1","host":"hgk-1.hk.uncletopia.com","port":27015,"enabled":true,"region":"asia","cc":"hk","latitude":22.302711,"longitude":114.177216,"reserved":0,"last_update":"0001-01-01T00:00:00Z","name_a2s":"Uncletopia | Hong Kong | 1 | All Maps","protocol":17,"map":"cp_mountainlab","folder":"tf","game":"Team Fortress","app_id":440,"player_count":0,"max_players":24,"Bots":0,"server_type":"Dedicated","server_os":"Linux","password":true,"vac":true,"version":"7961495","steam_id":85568392924494504,"keywords":["cp","nocrits","nodmgspread","uncletopia"],"game_id":440,"stv_port":27016,"stv_name":"Uncletopia | Hong Kong | 1 | All Maps | STV","players":null},{"server_id":1,"name":"Uncletopia | Los Angeles | 1 | All Maps","name_short":"lax-1","host":"lax-1.us.uncletopia.com","port":27015,"enabled":true,"region":"us-west","cc":"us","latitude":33.94279,"longitude":-118.41004,"reserved":0,"last_update":"0001-01-01T00:00:00Z","name_a2s":"Uncletopia | Los Angeles | 1 | All Maps","protocol":17,"map":"koth_highpass","folder":"tf","game":"Team Fortress","app_id":440,"player_count":0,"max_players":24,"Bots":0,"server_type":"Dedicated","server_os":"Linux","password":true,"vac":true,"version":"7961495","steam_id":85568392924469991,"keywords":["cp","nocrits","nodmgspread","uncletopia"],"game_id":440,"stv_port":27016,"stv_name":"Uncletopia | Los Angeles | 1 | All Maps | STV","players":null},{"server_id":112,"name":"Uncletopia | Los Angeles | 2 | All Maps","name_short":"lax-2","host":"lax-1.us.uncletopia.com","port":27025,"enabled":true,"region":"us-west","cc":"us","latitude":33.94279,"longitude":-118.41004,"reserved":0,"last_update":"0001-01-01T00:00:00Z","name_a2s":"Uncletopia | Los Angeles | 2 | All Maps","protocol":17,"map":"pl_borneo","folder":"tf","game":"Team Fortress","app_id":440,"player_count":24,"max_players":24,"Bots":0,"server_type":"Dedicated","server_os":"Linux","password":true,"vac":true,"version":"7961495","steam_id":85568392924469992,"keywords":["nocrits","nodmgspread","payload","uncletopia"],"game_id":440,"stv_port":27026,"stv_name":"Uncletopia | Los Angeles | 2 | All Maps | STV","players":[{"user_id":112,"name":"Jazpy","steam_id":76561198036872545,"connected_time":521000000000,"state":"active","ping":79},{"user_id":65,"name":"Matisguy","steam_id":76561199020903681,"connected_time":4823000000000,"state":"active","ping":91},{"user_id":113,"name":"brando_not_lando","steam_id":76561198163197384,"connected_time":476000000000,"state":"active","ping":59},{"user_id":99,"name":"space dog","steam_id":76561198153384032,"connected_time":1600000000000,"state":"active","ping":86},{"user_id":61,"name":"SenTreats","steam_id":76561198085835841,"connected_time":5310000000000,"state":"active","ping":64},{"user_id":100,"name":"Cartmachine","steam_id":76561198060362323,"connected_time":1573000000000,"state":"active","ping":69},{"user_id":114,"name":"sponge bob ice gream cumball","steam_id":76561198419896433,"connected_time":464000000000,"state":"active","ping":69},{"user_id":78,"name":"Karthos","steam_id":76561198040827487,"connected_time":3838000000000,"state":"active","ping":111},{"user_id":110,"name":"chanoc","steam_id":76561198026734746,"connected_time":989000000000,"state":"active","ping":60},{"user_id":85,"name":"AudaCD","steam_id":76561198202775853,"connected_time":3659000000000,"state":"active","ping":83},{"user_id":102,"name":"Kaluka","steam_id":76561198036861445,"connected_time":1510000000000,"state":"active","ping":114},{"user_id":115,"name":"shakoiwa","steam_id":76561199059441773,"connected_time":453000000000,"state":"active","ping":56},{"user_id":86,"name":"Silvermace","steam_id":76561198090696843,"connected_time":3650000000000,"state":"active","ping":48},{"user_id":72,"name":"Unemployed","steam_id":76561199127423378,"connected_time":4416000000000,"state":"active","ping":57},{"user_id":105,"name":"dankmemer9999","steam_id":76561199088438884,"connected_time":1251000000000,"state":"active","ping":91},{"user_id":116,"name":"enaZ9","steam_id":76561198075580317,"connected_time":446000000000,"state":"active","ping":99},{"user_id":119,"name":"Rabblerouser","steam_id":76561198127930963,"connected_time":275000000000,"state":"active","ping":87},{"user_id":108,"name":"Berner415TTV","steam_id":76561198082334363,"connected_time":1035000000000,"state":"active","ping":77},{"user_id":73,"name":"mega","steam_id":76561198089520959,"connected_time":4307000000000,"state":"active","ping":119},{"user_id":118,"name":"Satori Komeiji","steam_id":76561198158211423,"connected_time":368000000000,"state":"active","ping":45},{"user_id":97,"name":"triph","steam_id":76561198067196509,"connected_time":1737000000000,"state":"active","ping":44},{"user_id":67,"name":"cheesebro","steam_id":76561198002072852,"connected_time":4762000000000,"state":"active","ping":43},{"user_id":111,"name":"VyruzDed„ÄÇ","steam_id":76561199070671785,"connected_time":899000000000,"state":"active","ping":64},{"user_id":91,"name":"atmBomb","steam_id":76561198055557988,"connected_time":2922000000000,"state":"active","ping":75}]},{"server_id":324,"name":"Uncletopia | Los Angeles | 3 | All Maps","name_short":"lax-3","host":"lax-1.us.uncletopia.com","port":27035,"enabled":true,"region":"us-west","cc":"us","latitude":33.94279,"longitude":-118.41004,"reserved":0,"last_update":"0001-01-01T00:00:00Z","name_a2s":"Uncletopia | Los Angeles | 3 | All Maps","protocol":17,"map":"cp_process_final","folder":"tf","game":"Team Fortress","app_id":440,"player_count":0,"max_players":24,"Bots":0,"server_type":"Dedicated","server_os":"Linux","password":true,"vac":true,"version":"7961495","steam_id":85568392924510198,"keywords":["cp","nocrits","nodmgspread","uncletopia"],"game_id":440,"stv_port":27036,"stv_name":"Uncletopia | Los Angeles | 3 | All Maps | STV","players":null},{"server_id":25,"name":"Uncletopia | Los Angeles | 4 | Stopwatch","name_short":"lax-4","host":"lax-1.us.uncletopia.com","port":27045,"enabled":true,"region":"us-west","cc":"us","latitude":33.94279,"longitude":-118.41004,"reserved":0,"last_update":"0001-01-01T00:00:00Z","name_a2s":"Uncletopia | Los Angeles | 4 | Stopwatch","protocol":17,"map":"cp_gullywash_final1","folder":"tf","game":"Team Fortress","app_id":440,"player_count":0,"max_players":24,"Bots":0,"server_type":"Dedicated","server_os":"Linux","password":true,"vac":true,"version":"7961495","steam_id":85568392924510199,"keywords":["cp","nocrits","nodmgspread","uncletopia"],"game_id":440,"stv_port":27046,"stv_name":"Uncletopia | Los Angeles | 4 | Stopwatch | STV","players":null},{"server_id":11,"name":"Uncletopia | London | 1 | All Maps","name_short":"lon-1","host":"lon-1.uk.uncletopia.com","port":27015,"enabled":true,"region":"eu","cc":"gb","latitude":51.509865,"longitude":-0.118092,"reserved":0,"last_update":"0001-01-01T00:00:00Z","name_a2s":"Uncletopia | London | 1 | All Maps","protocol":17,"map":"pl_borneo","folder":"tf","game":"Team Fortress","app_id":440,"player_count":24,"max_players":24,"Bots":0,"server_type":"Dedicated","server_os":"Linux","password":true,"vac":true,"version":"7961495","steam_id":85568392924367362,"keywords":["nocrits","nodmgspread","payload","uncletopia"],"game_id":440,"stv_port":27016,"stv_name":"Uncletopia | London | 1 | All Maps | STV","players":[{"user_id":457,"name":"Maveth","steam_id":76561198315021197,"connected_time":1896000000000,"state":"active","ping":135},{"user_id":383,"name":"face beautiful lies","steam_id":76561198079277466,"connected_time":7016000000000,"state":"active","ping":73},{"user_id":416,"name":"Clown","steam_id":76561198074657015,"connected_time":4321000000000,"state":"active","ping":66},{"user_id":465,"name":"You","steam_id":76561198029003704,"connected_time":661000000000,"state":"active","ping":103},{"user_id":432,"name":"TomNoSocks","steam_id":76561198114071046,"connected_time":3602000000000,"state":"active","ping":60},{"user_id":367,"name":"Alter","steam_id":76561199135934698,"connected_time":8669000000000,"state":"active","ping":96},{"user_id":382,"name":"yup that extream78711","steam_id":76561198106049954,"connected_time":7097000000000,"state":"active","ping":146},{"user_id":469,"name":"After8","steam_id":76561198090750865,"connected_time":627000000000,"state":"active","ping":66},{"user_id":420,"name":"here widdle wabbit‚Ä¶ come here","steam_id":76561198190583242,"connected_time":4128000000000,"state":"active","ping":86},{"user_id":463,"name":"Without warning","steam_id":76561199383437138,"connected_time":911000000000,"state":"active","ping":129},{"user_id":466,"name":"Spotmonkey","steam_id":76561198003994092,"connected_time":659000000000,"state":"active","ping":58},{"user_id":464,"name":"owo","steam_id":76561198158209651,"connected_time":769000000000,"state":"active","ping":60},{"user_id":459,"name":"Persephone","steam_id":76561198246467946,"connected_time":1720000000000,"state":"active","ping":74},{"user_id":456,"name":"Chappi","steam_id":76561198075512843,"connected_time":1918000000000,"state":"active","ping":88},{"user_id":442,"name":"Slifer the GiantEnemy SkyDragon","steam_id":76561198062255803,"connected_time":2662000000000,"state":"active","ping":74},{"user_id":387,"name":"enine","steam_id":76561198890193313,"connected_time":6679000000000,"state":"active","ping":59},{"user_id":455,"name":"That Bussy Can Squirt","steam_id":76561199185615752,"connected_time":1956000000000,"state":"active","ping":55},{"user_id":380,"name":"Pantroglodytestherapy","steam_id":76561198236015392,"connected_time":7501000000000,"state":"active","ping":117},{"user_id":435,"name":"Mapavri","steam_id":76561198370196400,"connected_time":3348000000000,"state":"active","ping":91},{"user_id":417,"name":"Trapezoid","steam_id":76561198059369295,"connected_time":4315000000000,"state":"active","ping":71},{"user_id":467,"name":"Qwerty","steam_id":76561198023525894,"connected_time":656000000000,"state":"active","ping":115},{"user_id":461,"name":"SwLucie","steam_id":76561197969984656,"connected_time":1219000000000,"state":"active","ping":55},{"user_id":468,"name":"Ja","steam_id":76561198396340174,"connected_time":640000000000,"state":"active","ping":127},{"user_id":471,"name":"Aaron","steam_id":76561197990046953,"connected_time":190000000000,"state":"active","ping":60}]},{"server_id":114,"name":"Uncletopia | London | 2 | All Maps","name_short":"lon-2","host":"lon-1.uk.uncletopia.com","port":27025,"enabled":true,"region":"eu","cc":"gb","latitude":51.509865,"longitude":-0.118092,"reserved":0,"last_update":"0001-01-01T00:00:00Z","name_a2s":"Uncletopia | London | 2 | All Maps","protocol":17,"map":"pl_badwater","folder":"tf","game":"Team Fortress","app_id":440,"player_count":24,"max_players":24,"Bots":0,"server_type":"Dedicated","server_os":"Linux","password":true,"vac":true,"version":"7961495","steam_id":85568392924470941,"keywords":["nocrits","nodmgspread","payload","uncletopia"],"game_id":440,"stv_port":27026,"stv_name":"Uncletopia | London | 2 | All Maps | STV","players":[{"user_id":112,"name":"Lyell","steam_id":76561198350329389,"connected_time":113000000000,"state":"active","ping":77},{"user_id":59,"name":"Spectre","steam_id":76561198163819482,"connected_time":2856000000000,"state":"active","ping":63},{"user_id":109,"name":"Twiggu","steam_id":76561198070853128,"connected_time":524000000000,"state":"active","ping":77},{"user_id":57,"name":"Texas Red","steam_id":76561199069782779,"connected_time":3231000000000,"state":"active","ping":82},{"user_id":60,"name":"Raine","steam_id":76561198098860903,"connected_time":2854000000000,"state":"active","ping":59},{"user_id":110,"name":"Silver","steam_id":76561198175238807,"connected_time":508000000000,"state":"active","ping":57},{"user_id":106,"name":"Bronze Age Furvert","steam_id":76561198859118263,"connected_time":693000000000,"state":"active","ping":148},{"user_id":64,"name":"Diamhair","steam_id":76561198109020178,"connected_time":2512000000000,"state":"active","ping":67},{"user_id":107,"name":"Binah ‚ô†","steam_id":76561198105207050,"connected_time":675000000000,"state":"active","ping":54},{"user_id":99,"name":"gabagool","steam_id":76561198307111838,"connected_time":1540000000000,"state":"active","ping":32},{"user_id":67,"name":"Mr.O","steam_id":76561198039567498,"connected_time":2429000000000,"state":"active","ping":54},{"user_id":94,"name":"spy's arent real","steam_id":76561198165871469,"connected_time":1785000000000,"state":"active","ping":62},{"user_id":105,"name":"aberatus","steam_id":76561197979455244,"connected_time":774000000000,"state":"active","ping":79},{"user_id":103,"name":"Mav","steam_id":76561198004403881,"connected_time":915000000000,"state":"active","ping":68},{"user_id":87,"name":"Cormdawg","steam_id":76561198336483216,"connected_time":2128000000000,"state":"active","ping":50},{"user_id":74,"name":"Gubbly Bubbins","steam_id":76561198101451654,"connected_time":2323000000000,"state":"active","ping":49},{"user_id":76,"name":"Hodood","steam_id":76561198167443476,"connected_time":2319000000000,"state":"active","ping":58},{"user_id":104,"name":"fickens","steam_id":76561198209950723,"connected_time":884000000000,"state":"active","ping":53},{"user_id":88,"name":"--mmx--","steam_id":76561197997344902,"connected_time":2028000000000,"state":"active","ping":76},{"user_id":108,"name":"Lord Lem0ns!","steam_id":76561198323174893,"connected_time":656000000000,"state":"active","ping":88},{"user_id":102,"name":"VampiuS","steam_id":76561197998827007,"connected_time":1056000000000,"state":"active","ping":65},{"user_id":111,"name":"ËôæÊâØËõã.Lonely","steam_id":76561198022989560,"connected_time":483000000000,"state":"active","ping":51},{"user_id":96,"name":"Big Al","steam_id":76561198079585198,"connected_time":1746000000000,"state":"active","ping":56},{"user_id":98,"name":"Bineapple","steam_id":76561198983650763,"connected_time":1655000000000,"state":"active","ping":52}]},{"server_id":320,"name":"Uncletopia | London | 3 | All Maps","name_short":"lon-3","host":"lon-1.uk.uncletopia.com","port":27035,"enabled":true,"region":"eu","cc":"gb","latitude":51.509865,"longitude":-0.118092,"reserved":0,"last_update":"0001-01-01T00:00:00Z","name_a2s":"Uncletopia | London | 3 | All Maps","protocol":17,"map":"cp_snakewater_final1","folder":"tf","game":"Team Fortress","app_id":440,"player_count":24,"max_players":24,"Bots":0,"server_type":"Dedicated","server_os":"Linux","password":true,"vac":true,"version":"7961495","steam_id":85568392924510192,"keywords":["cp","nocrits","nodmgspread","uncletopia"],"game_id":440,"stv_port":27036,"stv_name":"Uncletopia | London | 3 | All Maps | STV","players":[{"user_id":249,"name":"fence_","steam_id":76561198150386379,"connected_time":5514000000000,"state":"active","ping":46},{"user_id":303,"name":"Alpharius","steam_id":76561199072698153,"connected_time":37000000000,"state":"active","ping":127},{"user_id":292,"name":"taste Fanta through your balls","steam_id":76561198823497252,"connected_time":645000000000,"state":"active","ping":59},{"user_id":252,"name":"Caruzon - Obismal","steam_id":76561198036211170,"connected_time":4848000000000,"state":"active","ping":81},{"user_id":298,"name":"Olufsen","steam_id":76561198009324148,"connected_time":90000000000,"state":"active","ping":102},{"user_id":300,"name":"ume_ybbuhc","steam_id":76561199482149729,"connected_time":76000000000,"state":"active","ping":117},{"user_id":296,"name":"Umbraprism","steam_id":76561197984504910,"connected_time":108000000000,"state":"active","ping":77},{"user_id":255,"name":"R8N - Obismal","steam_id":76561198007482714,"connected_time":4840000000000,"state":"active","ping":75},{"user_id":293,"name":"mumbler","steam_id":76561197970641239,"connected_time":510000000000,"state":"active","ping":59},{"user_id":299,"name":"Avitz","steam_id":76561197986150359,"connected_time":78000000000,"state":"active","ping":45},{"user_id":301,"name":"Krabs","steam_id":76561198161679477,"connected_time":62000000000,"state":"active","ping":43},{"user_id":302,"name":"Manwich","steam_id":76561198357334558,"connected_time":60000000000,"state":"active","ping":115},{"user_id":289,"name":"Summer ‚ô•","steam_id":76561198047723907,"connected_time":1413000000000,"state":"active","ping":36},{"user_id":295,"name":"Schiever","steam_id":76561198052136026,"connected_time":429000000000,"state":"active","ping":55},{"user_id":290,"name":"prot√´in","steam_id":76561197998423616,"connected_time":1387000000000,"state":"active","ping":72},{"user_id":280,"name":"wouris","steam_id":76561198876188003,"connected_time":2008000000000,"state":"active","ping":61},{"user_id":297,"name":"Tort","steam_id":76561198329646769,"connected_time":101000000000,"state":"active","ping":55},{"user_id":275,"name":"Just1s","steam_id":76561198026597437,"connected_time":3248000000000,"state":"active","ping":72},{"user_id":291,"name":"coella","steam_id":76561198442803577,"connected_time":919000000000,"state":"active","ping":62},{"user_id":272,"name":"Macci - Obismal","steam_id":76561198050485404,"connected_time":3465000000000,"state":"active","ping":83},{"user_id":279,"name":"‚ô¨ ·¥õ·¥á·¥ã…™·¥õ ‚ô¨","steam_id":76561198111704722,"connected_time":2649000000000,"state":"active","ping":90},{"user_id":266,"name":"Spurt","steam_id":76561198078523852,"connected_time":4546000000000,"state":"active","ping":57},{"user_id":304,"name":"Intruder","steam_id":76561198156128173,"connected_time":19000000000,"state":"spawning","ping":74},{"user_id":282,"name":"padillacampos","steam_id":76561198161923970,"connected_time":1751000000000,"state":"active","ping":79}]},{"server_id":321,"name":"Uncletopia | London | 4 | All Maps","name_short":"lon-4","host":"lon-1.uk.uncletopia.com","port":27045,"enabled":true,"region":"eu","cc":"gb","latitude":51.509865,"longitude":-0.118092,"reserved":0,"last_update":"0001-01-01T00:00:00Z","name_a2s":"Uncletopia | London | 4 | All Maps","protocol":17,"map":"cp_steel","folder":"tf","game":"Team Fortress","app_id":440,"player_count":24,"max_players":24,"Bots":0,"server_type":"Dedicated","server_os":"Linux","password":true,"vac":true,"version":"7961495","steam_id":85568392924510193,"keywords":["cp","nocrits","nodmgspread","uncletopia"],"game_id":440,"stv_port":27046,"stv_name":"Uncletopia | London | 4 | All Maps | STV","players":[{"user_id":454,"name":"Eoghan","steam_id":76561198095344395,"connected_time":2341000000000,"state":"active","ping":60},{"user_id":494,"name":"rock‚òÜ","steam_id":76561198095560087,"connected_time":330000000000,"state":"active","ping":84},{"user_id":475,"name":"Lola bunny","steam_id":76561198214149431,"connected_time":1476000000000,"state":"active","ping":46},{"user_id":466,"name":"Carlos Spartan","steam_id":76561198362047478,"connected_time":2139000000000,"state":"active","ping":184},{"user_id":496,"name":"Theleomaster","steam_id":76561198342580499,"connected_time":274000000000,"state":"active","ping":94},{"user_id":476,"name":"LainBizkit","steam_id":76561199200708626,"connected_time":1463000000000,"state":"active","ping":87},{"user_id":463,"name":"Dapper","steam_id":76561198081694974,"connected_time":2200000000000,"state":"active","ping":41},{"user_id":434,"name":"Not Sussy Tanuki","steam_id":76561198137289375,"connected_time":4051000000000,"state":"active","ping":109},{"user_id":483,"name":"worm with a fat ass","steam_id":76561198170026338,"connected_time":1130000000000,"state":"active","ping":69},{"user_id":442,"name":"Sussius Amogius The Third","steam_id":76561198047778351,"connected_time":3254000000000,"state":"active","ping":49},{"user_id":501,"name":"hud_saytext_time 0","steam_id":76561198010327228,"connected_time":62000000000,"state":"active","ping":77},{"user_id":485,"name":"Narvhal√∏","steam_id":76561198147495474,"connected_time":1094000000000,"state":"active","ping":45},{"user_id":482,"name":"Fofenho","steam_id":76561198436817109,"connected_time":1184000000000,"state":"active","ping":60},{"user_id":455,"name":"DANDELION","steam_id":76561198038451376,"connected_time":2341000000000,"state":"active","ping":39},{"user_id":468,"name":"cropping","steam_id":76561198026586456,"connected_time":2098000000000,"state":"active","ping":98},{"user_id":472,"name":"Battersüå∏","steam_id":76561198927992205,"connected_time":1827000000000,"state":"active","ping":47},{"user_id":495,"name":"Flying skyhigh","steam_id":76561198372971096,"connected_time":330000000000,"state":"active","ping":69},{"user_id":488,"name":"I jazzed myself","steam_id":76561198203016603,"connected_time":1033000000000,"state":"active","ping":70},{"user_id":487,"name":"Chicken pot pie","steam_id":76561198084997090,"connected_time":1076000000000,"state":"active","ping":44},{"user_id":478,"name":"2BCD","steam_id":76561198178254946,"connected_time":1362000000000,"state":"active","ping":61},{"user_id":457,"name":"ThunderCluckz","steam_id":76561198055066162,"connected_time":2283000000000,"state":"active","ping":65},{"user_id":499,"name":"moseley519","steam_id":76561198045485374,"connected_time":184000000000,"state":"active","ping":48},{"user_id":289,"name":"‚ôÇ Animan ‚ôÇ Studios ‚ôÇ","steam_id":76561198308302932,"connected_time":12684000000000,"state":"active","ping":105},{"user_id":490,"name":"Sleapy","steam_id":76561198057793679,"connected_time":599000000000,"state":"active","ping":65}]},{"server_id":21,"name":"Uncletopia | London | 5 | All Maps","name_short":"lon-5","host":"lon-1.uk.uncletopia.com","port":27055,"enabled":true,"region":"eu","cc":"gb","latitude":51.509865,"longitude":-0.118092,"reserved":0,"last_update":"0001-01-01T00:00:00Z","name_a2s":"Uncletopia | London | 5 | All Maps","protocol":17,"map":"pl_barnblitz","folder":"tf","game":"Team Fortress","app_id":440,"player_count":24,"max_players":24,"Bots":0,"server_type":"Dedicated","server_os":"Linux","password":true,"vac":true,"version":"7961495","steam_id":85568392924742829,"keywords":["nocrits","nodmgspread","payload","uncletopia"],"game_id":440,"stv_port":27056,"stv_name":"Uncletopia | London | 5 | All Maps | STV","players":[{"user_id":408,"name":"Banana","steam_id":76561199445100850,"connected_time":312000000000,"state":"active","ping":134},{"user_id":381,"name":"L4gman","steam_id":76561198048227040,"connected_time":1398000000000,"state":"active","ping":71},{"user_id":376,"name":"Tea","steam_id":76561198799243030,"connected_time":2044000000000,"state":"active","ping":68},{"user_id":307,"name":"rets_","steam_id":76561198061551392,"connected_time":7474000000000,"state":"active","ping":54},{"user_id":345,"name":"t.tv/soarfps","steam_id":76561198010662796,"connected_time":4491000000000,"state":"active","ping":69},{"user_id":406,"name":"Vermin","steam_id":76561198045527771,"connected_time":715000000000,"state":"active","ping":112},{"user_id":402,"name":"scramble my ass","steam_id":76561198133901720,"connected_time":954000000000,"state":"active","ping":74},{"user_id":383,"name":"Deimos","steam_id":76561198852007512,"connected_time":1355000000000,"state":"active","ping":60},{"user_id":410,"name":"Rock..","steam_id":76561198004641963,"connected_time":274000000000,"state":"active","ping":78},{"user_id":382,"name":"Jack","steam_id":76561198209102833,"connected_time":1378000000000,"state":"active","ping":57},{"user_id":384,"name":"Gardvord","steam_id":76561198120715753,"connected_time":1314000000000,"state":"active","ping":77},{"user_id":369,"name":"Dr. Funkenstein","steam_id":76561197977816210,"connected_time":3326000000000,"state":"active","ping":62},{"user_id":387,"name":"Bortas","steam_id":76561197972282153,"connected_time":1300000000000,"state":"active","ping":75},{"user_id":398,"name":"Mankor","steam_id":76561198020439322,"connected_time":1157000000000,"state":"active","ping":60},{"user_id":374,"name":"Herb","steam_id":76561198205266944,"connected_time":2440000000000,"state":"active","ping":47},{"user_id":407,"name":"pipe bomb gaming","steam_id":76561199036776540,"connected_time":385000000000,"state":"active","ping":62},{"user_id":390,"name":"Beep","steam_id":76561198151248575,"connected_time":1293000000000,"state":"active","ping":75},{"user_id":371,"name":"Omyskull","steam_id":76561198131711758,"connected_time":3266000000000,"state":"active","ping":68},{"user_id":391,"name":"Hexagon","steam_id":76561198151205758,"connected_time":1291000000000,"state":"active","ping":58},{"user_id":404,"name":"niandits","steam_id":76561198419798900,"connected_time":785000000000,"state":"active","ping":129},{"user_id":401,"name":"mista white","steam_id":76561199387233667,"connected_time":974000000000,"state":"active","ping":65},{"user_id":403,"name":"j√π xiƒì","steam_id":76561198096189399,"connected_time":952000000000,"state":"active","ping":76},{"user_id":411,"name":"svepitos","steam_id":76561198287351235,"connected_time":266000000000,"state":"active","ping":68},{"user_id":397,"name":"SpaceBoxxer","steam_id":76561198798211513,"connected_time":1200000000000,"state":"active","ping":70}]},{"server_id":22,"name":"Uncletopia | London | 6 | All Maps","name_short":"lon-6","host":"lon-1.uk.uncletopia.com","port":27065,"enabled":true,"region":"eu","cc":"gb","latitude":51.509865,"longitude":-0.118092,"reserved":0,"last_update":"0001-01-01T00:00:00Z","name_a2s":"Uncletopia | London | 6 | All Maps","protocol":17,"map":"koth_highpass","folder":"tf","game":"Team Fortress","app_id":440,"player_count":2,"max_players":24,"Bots":0,"server_type":"Dedicated","server_os":"Linux","password":true,"vac":true,"version":"7961495","steam_id":85568392924742830,"keywords":["cp","nocrits","nodmgspread","uncletopia"],"game_id":440,"stv_port":27066,"stv_name":"Uncletopia | London | 6 | All Maps | STV","players":[{"user_id":28,"name":"Dyld","steam_id":76561197979603871,"connected_time":147000000000,"state":"active","ping":60},{"user_id":29,"name":"Tx_madmash","steam_id":76561198924656512,"connected_time":30000000000,"state":"active","ping":171}]},{"server_id":40,"name":"Uncletopia | London | 7 | Stopwatch","name_short":"lon-7","host":"lon-1.uk.uncletopia.com","port":27075,"enabled":true,"region":"eu","cc":"gb","latitude":51.509865,"longitude":-0.118092,"reserved":0,"last_update":"0001-01-01T00:00:00Z","name_a2s":"Uncletopia | London | 7 | Stopwatch","protocol":17,"map":"workshop/koth_ramjam_rc1.ugc459778887","folder":"tf","game":"Team Fortress","app_id":440,"player_count":0,"max_players":24,"Bots":0,"server_type":"Dedicated","server_os":"Linux","password":true,"vac":true,"version":"7961495","steam_id":85568392924964314,"keywords":["cp","nocrits","nodmgspread","uncletopia"],"game_id":440,"stv_port":27076,"stv_name":"Uncletopia | London | 7 | Stopwatch | STV","players":null},{"server_id":41,"name":"Uncletopia | London | 8 | Community","name_short":"lon-8","host":"lon-1.uk.uncletopia.com","port":27085,"enabled":true,"region":"eu","cc":"gb","latitude":51.509865,"longitude":-0.118092,"reserved":0,"last_update":"0001-01-01T00:00:00Z","name_a2s":"Uncletopia | London | 8 | Community","protocol":17,"map":"workshop/koth_ashville_final.ugc2130459942","folder":"tf","game":"Team Fortress","app_id":440,"player_count":0,"max_players":24,"Bots":0,"server_type":"Dedicated","server_os":"Linux","password":true,"vac":true,"version":"7961495","steam_id":85568392924964315,"keywords":["cp","nocrits","nodmgspread","uncletopia"],"game_id":440,"stv_port":27086,"stv_name":"Uncletopia | London | 8 | Community | STV","players":null},{"server_id":300,"name":"Uncletopia | Montr√©al | 1 | All Maps","name_short":"mtl-1","host":"mtl-1.ca.uncletopia.com","port":27015,"enabled":true,"region":"us-east","cc":"ca","latitude":45.50889,"longitude":-73.56167,"reserved":0,"last_update":"0001-01-01T00:00:00Z","name_a2s":"","protocol":0,"map":"","folder":"","game":"","app_id":0,"player_count":0,"max_players":0,"Bots":0,"server_type":"","server_os":"","password":false,"vac":false,"version":"","steam_id":0,"keywords":null,"game_id":0,"stv_port":0,"stv_name":"","players":null},{"server_id":301,"name":"Uncletopia | Montr√©al | 2 | All Maps","name_short":"mtl-2","host":"mtl-1.ca.uncletopia.com","port":27025,"enabled":true,"region":"us-east","cc":"ca","latitude":45.50889,"longitude":-73.56167,"reserved":0,"last_update":"0001-01-01T00:00:00Z","name_a2s":"","protocol":0,"map":"","folder":"","game":"","app_id":0,"player_count":0,"max_players":0,"Bots":0,"server_type":"","server_os":"","password":false,"vac":false,"version":"","steam_id":0,"keywords":null,"game_id":0,"stv_port":0,"stv_name":"","players":null},{"server_id":302,"name":"Uncletopia | Montr√©al | 3 | All Maps","name_short":"mtl-3","host":"mtl-1.ca.uncletopia.com","port":27035,"enabled":true,"region":"us-east","cc":"ca","latitude":45.50889,"longitude":-73.56167,"reserved":0,"last_update":"0001-01-01T00:00:00Z","name_a2s":"","protocol":0,"map":"","folder":"","game":"","app_id":0,"player_count":0,"max_players":0,"Bots":0,"server_type":"","server_os":"","password":false,"vac":false,"version":"","steam_id":0,"keywords":null,"game_id":0,"stv_port":0,"stv_name":"","players":null},{"server_id":303,"name":"Uncletopia | Montr√©al | 4 | No Payload","name_short":"mtl-4","host":"mtl-1.ca.uncletopia.com","port":27045,"enabled":true,"region":"us-east","cc":"ca","latitude":45.50889,"longitude":-73.56167,"reserved":0,"last_update":"0001-01-01T00:00:00Z","name_a2s":"","protocol":0,"map":"","folder":"","game":"","app_id":0,"player_count":0,"max_players":0,"Bots":0,"server_type":"","server_os":"","password":false,"vac":false,"version":"","steam_id":0,"keywords":null,"game_id":0,"stv_port":0,"stv_name":"","players":null},{"server_id":13,"name":"Uncletopia | New York City | 1 | All Maps","name_short":"nyc-1","host":"nyc-1.us.uncletopia.com","port":27015,"enabled":true,"region":"us-east","cc":"us","latitude":40.73061,"longitude":-73.93524,"reserved":0,"last_update":"0001-01-01T00:00:00Z","name_a2s":"Uncletopia | New York City | 1 | All Maps","protocol":17,"map":"plr_hightower","folder":"tf","game":"Team Fortress","app_id":440,"player_count":17,"max_players":24,"Bots":0,"server_type":"Dedicated","server_os":"Linux","password":true,"vac":true,"version":"7961495","steam_id":85568392924469993,"keywords":["nocrits","nodmgspread","payload","uncletopia"],"game_id":440,"stv_port":27016,"stv_name":"Uncletopia | New York City | 1 | All Maps | STV","players":[{"user_id":106,"name":"waffle man","steam_id":76561198096242339,"connected_time":46000000000,"state":"active","ping":33},{"user_id":20,"name":"BoyKisser","steam_id":76561199200969139,"connected_time":5510000000000,"state":"active","ping":196},{"user_id":61,"name":"Mayor McCheese","steam_id":76561198095788861,"connected_time":3231000000000,"state":"active","ping":75},{"user_id":63,"name":"LocaKola","steam_id":76561198173435430,"connected_time":3032000000000,"state":"active","ping":61},{"user_id":95,"name":"bran","steam_id":76561199028457134,"connected_time":1164000000000,"state":"active","ping":44},{"user_id":100,"name":"H202","steam_id":76561198149361309,"connected_time":868000000000,"state":"active","ping":85},{"user_id":72,"name":"THORNFIELDGAMER","steam_id":76561199087167473,"connected_time":2222000000000,"state":"active","ping":72},{"user_id":90,"name":"‚ú†CrustyCake‚ú†","steam_id":76561198155062405,"connected_time":1423000000000,"state":"active","ping":89},{"user_id":104,"name":"Nashoba","steam_id":76561198301622877,"connected_time":61000000000,"state":"active","ping":87},{"user_id":96,"name":"Thrasher","steam_id":76561197977801547,"connected_time":1122000000000,"state":"active","ping":80},{"user_id":82,"name":"Lovedaddy","steam_id":76561198006569710,"connected_time":2068000000000,"state":"active","ping":76},{"user_id":84,"name":"Detective Rectum ‚ô°","steam_id":76561198018558677,"connected_time":2036000000000,"state":"active","ping":64},{"user_id":102,"name":"whalemart","steam_id":76561198203395648,"connected_time":319000000000,"state":"active","ping":56},{"user_id":87,"name":"crayonnipple","steam_id":76561198070253331,"connected_time":1896000000000,"state":"active","ping":65},{"user_id":101,"name":"Jojoker","steam_id":76561198049833406,"connected_time":810000000000,"state":"active","ping":71},{"user_id":58,"name":"turd ferguson","steam_id":76561198071620782,"connected_time":3314000000000,"state":"active","ping":64},{"user_id":94,"name":"Nerrrd_","steam_id":76561198870129960,"connected_time":1224000000000,"state":"active","ping":34}]},{"server_id":14,"name":"Uncletopia | New York City | 2 | All Maps","name_short":"nyc-2","host":"nyc-1.us.uncletopia.com","port":27025,"enabled":true,"region":"us-east","cc":"us","latitude":40.73061,"longitude":-73.93524,"reserved":0,"last_update":"0001-01-01T00:00:00Z","name_a2s":"Uncletopia | New York City | 2 | All Maps","protocol":17,"map":"pl_swiftwater_final1","folder":"tf","game":"Team Fortress","app_id":440,"player_count":24,"max_players":24,"Bots":0,"server_type":"Dedicated","server_os":"Linux","password":true,"vac":true,"version":"7961495","steam_id":85568392924469994,"keywords":["nocrits","nodmgspread","payload","uncletopia"],"game_id":440,"stv_port":27026,"stv_name":"Uncletopia | New York City | 2 | All Maps | STV","players":[{"user_id":235,"name":"CherryPieRed2023","steam_id":76561198998007496,"connected_time":869000000000,"state":"active","ping":126},{"user_id":186,"name":"roman","steam_id":76561198170066797,"connected_time":5620000000000,"state":"active","ping":63},{"user_id":187,"name":"John F. Kennedy, 35th president","steam_id":76561198301021031,"connected_time":5601000000000,"state":"active","ping":88},{"user_id":226,"name":"TruffShuff","steam_id":76561198055869160,"connected_time":1742000000000,"state":"active","ping":74},{"user_id":12,"name":"uhooter","steam_id":76561198007829078,"connected_time":18824000000000,"state":"active","ping":60},{"user_id":234,"name":"RuinLucky","steam_id":76561199481172481,"connected_time":872000000000,"state":"active","ping":85},{"user_id":215,"name":"Snoopy","steam_id":76561198273735974,"connected_time":3012000000000,"state":"active","ping":114},{"user_id":233,"name":"Maggie Rhee","steam_id":76561198055921722,"connected_time":884000000000,"state":"active","ping":83},{"user_id":227,"name":"cactail","steam_id":76561198238898732,"connected_time":1715000000000,"state":"active","ping":62},{"user_id":174,"name":"Bippums","steam_id":76561198366406729,"connected_time":6503000000000,"state":"active","ping":86},{"user_id":246,"name":"Ninja Steave","steam_id":76561197985884951,"connected_time":256000000000,"state":"active","ping":56},{"user_id":249,"name":"remanedur","steam_id":76561198059459507,"connected_time":58000000000,"state":"spawning","ping":97},{"user_id":223,"name":"A Puppy","steam_id":76561198828184456,"connected_time":2716000000000,"state":"active","ping":53},{"user_id":239,"name":"WarMace","steam_id":76561198395937853,"connected_time":723000000000,"state":"active","ping":121},{"user_id":224,"name":"None of that $9.99 bullshit","steam_id":76561198116169903,"connected_time":1745000000000,"state":"active","ping":85},{"user_id":218,"name":"Beepleton The 3rd","steam_id":76561198081466207,"connected_time":2929000000000,"state":"active","ping":100},{"user_id":229,"name":"Dum_Bass(Fish)","steam_id":76561197988105207,"connected_time":1658000000000,"state":"active","ping":64},{"user_id":247,"name":"De","steam_id":76561198206728044,"connected_time":252000000000,"state":"active","ping":76},{"user_id":104,"name":"Maet","steam_id":76561198030208485,"connected_time":12036000000000,"state":"active","ping":88},{"user_id":154,"name":"googa","steam_id":76561198133130452,"connected_time":8821000000000,"state":"active","ping":45},{"user_id":222,"name":"Just PYE","steam_id":76561199439622967,"connected_time":2786000000000,"state":"active","ping":97},{"user_id":238,"name":"ZER0COOL","steam_id":76561198165521812,"connected_time":772000000000,"state":"active","ping":80},{"user_id":197,"name":"Machine Girl - SAD CLAPS","steam_id":76561198294013916,"connected_time":4413000000000,"state":"active","ping":46},{"user_id":225,"name":"vv","steam_id":76561198134813102,"connected_time":1745000000000,"state":"active","ping":73}]},{"server_id":15,"name":"Uncletopia | New York City | 3 | Stopwatch","name_short":"nyc-3","host":"nyc-1.us.uncletopia.com","port":27035,"enabled":true,"region":"us-east","cc":"us","latitude":40.73061,"longitude":-73.93524,"reserved":0,"last_update":"0001-01-01T00:00:00Z","name_a2s":"Uncletopia | New York City | 3 | Stopwatch","protocol":17,"map":"pl_snowycoast","folder":"tf","game":"Team Fortress","app_id":440,"player_count":0,"max_players":24,"Bots":0,"server_type":"Dedicated","server_os":"Linux","password":true,"vac":true,"version":"7961495","steam_id":85568392924742820,"keywords":["nocrits","nodmgspread","payload","uncletopia"],"game_id":440,"stv_port":27036,"stv_name":"Uncletopia | New York City | 3 | Stopwatch | STV","players":null},{"server_id":16,"name":"Uncletopia | New York City | 4 | Community","name_short":"nyc-4","host":"nyc-1.us.uncletopia.com","port":27045,"enabled":true,"region":"us-east","cc":"us","latitude":40.73061,"longitude":-73.93524,"reserved":0,"last_update":"0001-01-01T00:00:00Z","name_a2s":"Uncletopia | New York City | 4 | Community","protocol":17,"map":"cp_altitude","folder":"tf","game":"Team Fortress","app_id":440,"player_count":0,"max_players":24,"Bots":0,"server_type":"Dedicated","server_os":"Linux","password":true,"vac":true,"version":"7961495","steam_id":85568392924742821,"keywords":["cp","nocrits","nodmgspread","uncletopia"],"game_id":440,"stv_port":27046,"stv_name":"Uncletopia | New York City | 4 | Community | STV","players":null},{"server_id":142,"name":"Uncletopia | S√£o Paulo | 1 | All Maps","name_short":"sao-1","host":"sao-1.br.uncletopia.com","port":27015,"enabled":true,"region":"sa","cc":"br","latitude":-23.533773,"longitude":-46.62529,"reserved":0,"last_update":"0001-01-01T00:00:00Z","name_a2s":"Uncletopia | S√£o Paulo | 1 | All Maps","protocol":17,"map":"cp_dustbowl","folder":"tf","game":"Team Fortress","app_id":440,"player_count":0,"max_players":24,"Bots":0,"server_type":"Dedicated","server_os":"Linux","password":true,"vac":true,"version":"7961495","steam_id":85568392924469996,"keywords":["cp","nocrits","nodmgspread","uncletopia"],"game_id":440,"stv_port":27016,"stv_name":"Uncletopia | S√£o Paulo | 1 | All Maps | STV","players":null},{"server_id":143,"name":"Uncletopia | S√£o Paulo | 2 | Community","name_short":"sao-2","host":"sao-2.br.uncletopia.com","port":27015,"enabled":true,"region":"sa","cc":"br","latitude":-23.533773,"longitude":-46.62529,"reserved":0,"last_update":"0001-01-01T00:00:00Z","name_a2s":"Uncletopia | S√£o Paulo | 2 | Community","protocol":17,"map":"workshop/cp_croissant_final.ugc458840209","folder":"tf","game":"Team Fortress","app_id":440,"player_count":0,"max_players":24,"Bots":0,"server_type":"Dedicated","server_os":"Linux","password":true,"vac":true,"version":"7961495","steam_id":85568392924485349,"keywords":["cp","nocrits","nodmgspread","uncletopia"],"game_id":440,"stv_port":27016,"stv_name":"Uncletopia | S√£o Paulo | 2 | Community | STV","players":null},{"server_id":7,"name":"Uncletopia | Seattle | 1 | All Maps","name_short":"sea-1","host":"sea-1.us.uncletopia.com","port":27015,"enabled":true,"region":"us-west","cc":"us","latitude":47.608013,"longitude":-122.33517,"reserved":0,"last_update":"0001-01-01T00:00:00Z","name_a2s":"Uncletopia | Seattle | 1 | All Maps","protocol":17,"map":"cp_process_final","folder":"tf","game":"Team Fortress","app_id":440,"player_count":24,"max_players":24,"Bots":0,"server_type":"Dedicated","server_os":"Linux","password":true,"vac":true,"version":"7961495","steam_id":85568392924469997,"keywords":["cp","nocrits","nodmgspread","uncletopia"],"game_id":440,"stv_port":27016,"stv_name":"Uncletopia | Seattle | 1 | All Maps | STV","players":[{"user_id":184,"name":"laggy mcstab","steam_id":76561198106379962,"connected_time":3523000000000,"state":"active","ping":51},{"user_id":185,"name":"‚ú´P‚àÄnck‚àà‚ú´","steam_id":76561198050163618,"connected_time":3496000000000,"state":"active","ping":63},{"user_id":200,"name":"Vruk","steam_id":76561198116930332,"connected_time":1496000000000,"state":"active","ping":59},{"user_id":221,"name":"TwoBit","steam_id":76561198062437559,"connected_time":465000000000,"state":"active","ping":135},{"user_id":204,"name":"Sir-Samuraialot","steam_id":76561198885712212,"connected_time":1166000000000,"state":"active","ping":132},{"user_id":205,"name":"lol","steam_id":76561198026491738,"connected_time":1078000000000,"state":"active","ping":86},{"user_id":198,"name":"Whiskey","steam_id":76561198858154667,"connected_time":1687000000000,"state":"active","ping":71},{"user_id":196,"name":"COOL master_9","steam_id":76561198073041151,"connected_time":1708000000000,"state":"active","ping":99},{"user_id":197,"name":"Grassman (Cc)","steam_id":76561198026488532,"connected_time":1693000000000,"state":"active","ping":63},{"user_id":206,"name":"Skabbety","steam_id":76561198168044257,"connected_time":967000000000,"state":"active","ping":41},{"user_id":212,"name":"tooru_hagakure, exhibitionism","steam_id":76561198097330521,"connected_time":736000000000,"state":"active","ping":130},{"user_id":208,"name":"funkeymonkey15","steam_id":76561198930961042,"connected_time":919000000000,"state":"active","ping":107},{"user_id":224,"name":"Neo","steam_id":76561198112618713,"connected_time":351000000000,"state":"active","ping":114},{"user_id":227,"name":"MxProf","steam_id":76561198044519572,"connected_time":211000000000,"state":"active","ping":57},{"user_id":211,"name":"darkon52","steam_id":76561198249180528,"connected_time":754000000000,"state":"active","ping":106},{"user_id":229,"name":"Sailor","steam_id":76561199081983517,"connected_time":83000000000,"state":"active","ping":288},{"user_id":226,"name":"Breetus","steam_id":76561198142421024,"connected_time":259000000000,"state":"active","ping":83},{"user_id":215,"name":"DamerDoozle","steam_id":76561199121686201,"connected_time":658000000000,"state":"active","ping":105},{"user_id":225,"name":"Pneumo.","steam_id":76561197987911883,"connected_time":292000000000,"state":"active","ping":68},{"user_id":228,"name":"Truffles","steam_id":76561198095868800,"connected_time":169000000000,"state":"active","ping":115},{"user_id":218,"name":"Just a baby","steam_id":76561198018660838,"connected_time":532000000000,"state":"active","ping":143},{"user_id":219,"name":"Willem Dafoe","steam_id":76561198037453253,"connected_time":520000000000,"state":"active","ping":108},{"user_id":223,"name":"Curse of the Blackened Eye","steam_id":76561198097175164,"connected_time":447000000000,"state":"active","ping":133},{"user_id":222,"name":"Princess Bootylicious","steam_id":76561198334977151,"connected_time":463000000000,"state":"active","ping":62}]},{"server_id":119,"name":"Uncletopia | Seattle | 2 | All Maps","name_short":"sea-2","host":"sea-1.us.uncletopia.com","port":27025,"enabled":true,"region":"us-west","cc":"us","latitude":47.608013,"longitude":-122.33517,"reserved":0,"last_update":"0001-01-01T00:00:00Z","name_a2s":"Uncletopia | Seattle | 2 | All Maps","protocol":17,"map":"pl_snowycoast","folder":"tf","game":"Team Fortress","app_id":440,"player_count":0,"max_players":24,"Bots":0,"server_type":"Dedicated","server_os":"Linux","password":true,"vac":true,"version":"7961495","steam_id":85568392924469998,"keywords":["nocrits","nodmgspread","payload","uncletopia"],"game_id":440,"stv_port":27026,"stv_name":"Uncletopia | Seattle | 2 | All Maps | STV","players":null},{"server_id":406,"name":"Uncletopia | Seattle | 3 | Stopwatch","name_short":"sea-3","host":"sea-1.us.uncletopia.com","port":27035,"enabled":true,"region":"us-west","cc":"us","latitude":47.608013,"longitude":-122.33517,"reserved":0,"last_update":"0001-01-01T00:00:00Z","name_a2s":"Uncletopia | Seattle | 3 | Stopwatch","protocol":17,"map":"koth_lakeside_final","folder":"tf","game":"Team Fortress","app_id":440,"player_count":0,"max_players":24,"Bots":0,"server_type":"Dedicated","server_os":"Linux","password":true,"vac":true,"version":"7961495","steam_id":85568392924515217,"keywords":["cp","nocrits","nodmgspread","uncletopia"],"game_id":440,"stv_port":27036,"stv_name":"Uncletopia | Seattle | 3 | Stopwatch | STV","players":null},{"server_id":17,"name":"Uncletopia | San Francisco | 1 | All Maps","name_short":"sfo-1","host":"sfo-1.us.uncletopia.com","port":27015,"enabled":true,"region":"us-west","cc":"us","latitude":37.77397,"longitude":-122.4313,"reserved":0,"last_update":"0001-01-01T00:00:00Z","name_a2s":"Uncletopia | San Francisco | 1 | All Maps","protocol":17,"map":"koth_cascade","folder":"tf","game":"Team Fortress","app_id":440,"player_count":0,"max_players":24,"Bots":0,"server_type":"Dedicated","server_os":"Linux","password":true,"vac":true,"version":"7961495","steam_id":85568392924469999,"keywords":["cp","nocrits","nodmgspread","uncletopia"],"game_id":440,"stv_port":27016,"stv_name":"Uncletopia | San Francisco | 1 | All Maps | STV","players":null},{"server_id":18,"name":"Uncletopia | San Francisco | 2 | All Maps","name_short":"sfo-2","host":"sfo-1.us.uncletopia.com","port":27025,"enabled":true,"region":"us-west","cc":"us","latitude":37.77397,"longitude":-122.4313,"reserved":0,"last_update":"0001-01-01T00:00:00Z","name_a2s":"Uncletopia | San Francisco | 2 | All Maps","protocol":17,"map":"pl_barnblitz","folder":"tf","game":"Team Fortress","app_id":440,"player_count":17,"max_players":24,"Bots":0,"server_type":"Dedicated","server_os":"Linux","password":true,"vac":true,"version":"7961495","steam_id":85568392924470000,"keywords":["nocrits","nodmgspread","payload","uncletopia"],"game_id":440,"stv_port":27026,"stv_name":"Uncletopia | San Francisco | 2 | All Maps | STV","players":[{"user_id":141,"name":"ChatGPT","steam_id":76561198441387036,"connected_time":3715000000000,"state":"active","ping":70},{"user_id":183,"name":"Keamy","steam_id":76561199471434875,"connected_time":627000000000,"state":"active","ping":59},{"user_id":184,"name":"Lili W.","steam_id":76561199391478575,"connected_time":309000000000,"state":"active","ping":83},{"user_id":148,"name":"I GOT LAID AT SHEN YUN 2023","steam_id":76561198844003641,"connected_time":3086000000000,"state":"active","ping":55},{"user_id":160,"name":"An Albany Expression","steam_id":76561198043266392,"connected_time":2613000000000,"state":"active","ping":115},{"user_id":186,"name":"StormRage","steam_id":76561199435079308,"connected_time":106000000000,"state":"active","ping":218},{"user_id":181,"name":"Christian Anglo-Saxon","steam_id":76561198067439057,"connected_time":1123000000000,"state":"active","ping":165},{"user_id":187,"name":"mattmungus224","steam_id":76561199494809185,"connected_time":87000000000,"state":"active","ping":131},{"user_id":138,"name":"Els","steam_id":76561198354718934,"connected_time":4122000000000,"state":"active","ping":84},{"user_id":188,"name":"Tylone","steam_id":76561198978983122,"connected_time":60000000000,"state":"active","ping":245},{"user_id":136,"name":"FizzleWizard","steam_id":76561198045990868,"connected_time":4243000000000,"state":"active","ping":114},{"user_id":190,"name":"Sock","steam_id":76561199151517109,"connected_time":46000000000,"state":"active","ping":96},{"user_id":137,"name":"Big Tony","steam_id":76561198341885311,"connected_time":4180000000000,"state":"active","ping":111},{"user_id":158,"name":"Dooper","steam_id":76561198154514320,"connected_time":2694000000000,"state":"active","ping":70},{"user_id":172,"name":"SLEEPY-Class NHP","steam_id":76561198064583865,"connected_time":1937000000000,"state":"active","ping":113},{"user_id":177,"name":"Urby","steam_id":76561199074391666,"connected_time":1361000000000,"state":"active","ping":73},{"user_id":145,"name":"Synical","steam_id":76561198917787801,"connected_time":3410000000000,"state":"active","ping":60}]},{"server_id":19,"name":"Uncletopia | San Francisco | 3 | Stopwatch","name_short":"sfo-3","host":"sfo-1.us.uncletopia.com","port":27035,"enabled":true,"region":"us-west","cc":"us","latitude":37.77397,"longitude":-122.4313,"reserved":0,"last_update":"0001-01-01T00:00:00Z","name_a2s":"Uncletopia | San Francisco | 3 | Stopwatch","protocol":17,"map":"workshop/cp_reckoner_rc6.ugc674719999","folder":"tf","game":"Team Fortress","app_id":440,"player_count":0,"max_players":24,"Bots":0,"server_type":"Dedicated","server_os":"Linux","password":true,"vac":true,"version":"7961495","steam_id":85568392924742824,"keywords":["cp","nocrits","nodmgspread","uncletopia"],"game_id":440,"stv_port":27036,"stv_name":"Uncletopia | San Francisco | 3 | Stopwatch | STV","players":null},{"server_id":20,"name":"Uncletopia | San Francisco | 4 | Community","name_short":"sfo-4","host":"sfo-1.us.uncletopia.com","port":27045,"enabled":true,"region":"us-west","cc":"us","latitude":37.77397,"longitude":-122.4313,"reserved":0,"last_update":"0001-01-01T00:00:00Z","name_a2s":"Uncletopia | San Francisco | 4 | Community","protocol":17,"map":"pl_pier","folder":"tf","game":"Team Fortress","app_id":440,"player_count":0,"max_players":24,"Bots":0,"server_type":"Dedicated","server_os":"Linux","password":true,"vac":true,"version":"7961495","steam_id":85568392924742826,"keywords":["nocrits","nodmgspread","payload","uncletopia"],"game_id":440,"stv_port":27046,"stv_name":"Uncletopia | San Francisco | 4 | Community | STV","players":null},{"server_id":141,"name":"Uncletopia | Sydney | 1 | All Maps","name_short":"syd-1","host":"syd-1.au.uncletopia.com","port":27015,"enabled":true,"region":"au","cc":"au","latitude":-33.865143,"longitude":151.2099,"reserved":0,"last_update":"0001-01-01T00:00:00Z","name_a2s":"Uncletopia | Sydney | 1 | All Maps","protocol":17,"map":"koth_cascade","folder":"tf","game":"Team Fortress","app_id":440,"player_count":0,"max_players":24,"Bots":0,"server_type":"Dedicated","server_os":"Linux","password":true,"vac":true,"version":"7961495","steam_id":85568392924470001,"keywords":["cp","nocrits","nodmgspread","uncletopia"],"game_id":440,"stv_port":27016,"stv_name":"Uncletopia | Sydney | 1 | All Maps | STV","players":null},{"server_id":123,"name":"Uncletopia | Sydney | 2 | All Maps","name_short":"syd-2","host":"syd-1.au.uncletopia.com","port":27025,"enabled":true,"region":"au","cc":"au","latitude":-33.865143,"longitude":151.2099,"reserved":0,"last_update":"0001-01-01T00:00:00Z","name_a2s":"Uncletopia | Sydney | 2 | All Maps","protocol":17,"map":"pl_frontier_final","folder":"tf","game":"Team Fortress","app_id":440,"player_count":0,"max_players":24,"Bots":0,"server_type":"Dedicated","server_os":"Linux","password":true,"vac":true,"version":"7961495","steam_id":85568392924470002,"keywords":["nocrits","nodmgspread","payload","uncletopia"],"game_id":440,"stv_port":27026,"stv_name":"Uncletopia | Sydney | 2 | All Maps | STV","players":null},{"server_id":395,"name":"Uncletopia | Sydney | 3 | All Maps","name_short":"syd-3","host":"syd-1.au.uncletopia.com","port":27035,"enabled":true,"region":"au","cc":"au","latitude":-33.865143,"longitude":151.2099,"reserved":0,"last_update":"0001-01-01T00:00:00Z","name_a2s":"Uncletopia | Sydney | 3 | All Maps","protocol":17,"map":"cp_sunshine","folder":"tf","game":"Team Fortress","app_id":440,"player_count":0,"max_players":24,"Bots":0,"server_type":"Dedicated","server_os":"Linux","password":true,"vac":true,"version":"7961495","steam_id":85568392925194467,"keywords":["cp","nocrits","nodmgspread","uncletopia"],"game_id":440,"stv_port":27036,"stv_name":"Uncletopia | Sydney | 3 | All Maps | STV","players":null},{"server_id":396,"name":"Uncletopia | Sydney | 4 | All Maps","name_short":"syd-4","host":"syd-1.au.uncletopia.com","port":27045,"enabled":true,"region":"au","cc":"au","latitude":-33.865143,"longitude":151.2099,"reserved":0,"last_update":"0001-01-01T00:00:00Z","name_a2s":"Uncletopia | Sydney | 4 | All Maps","protocol":17,"map":"cp_process_final","folder":"tf","game":"Team Fortress","app_id":440,"player_count":0,"max_players":24,"Bots":0,"server_type":"Dedicated","server_os":"Linux","password":true,"vac":true,"version":"7961495","steam_id":85568392925397958,"keywords":["cp","nocrits","nodmgspread","uncletopia"],"game_id":440,"stv_port":27046,"stv_name":"Uncletopia | Sydney | 4 | All Maps | STV","players":null},{"server_id":58,"name":"Uncletopia | Sydney | 5 | Stopwatch","name_short":"syd-5","host":"syd-1.au.uncletopia.com","port":27055,"enabled":true,"region":"au","cc":"au","latitude":-33.865143,"longitude":151.2099,"reserved":0,"last_update":"0001-01-01T00:00:00Z","name_a2s":"Uncletopia | Sydney | 5 | Stopwatch","protocol":17,"map":"pl_frontier_final","folder":"tf","game":"Team Fortress","app_id":440,"player_count":0,"max_players":24,"Bots":0,"server_type":"Dedicated","server_os":"Linux","password":true,"vac":true,"version":"7961495","steam_id":85568392925397959,"keywords":["nocrits","nodmgspread","payload","uncletopia"],"game_id":440,"stv_port":27056,"stv_name":"Uncletopia | Sydney | 5 | Stopwatch | STV","players":null},{"server_id":59,"name":"Uncletopia | Sydney | 6 | Community","name_short":"syd-6","host":"syd-1.au.uncletopia.com","port":27065,"enabled":true,"region":"au","cc":"au","latitude":-33.865143,"longitude":151.2099,"reserved":0,"last_update":"0001-01-01T00:00:00Z","name_a2s":"Uncletopia | Sydney | 6 | Community","protocol":17,"map":"cp_sunshine","folder":"tf","game":"Team Fortress","app_id":440,"player_count":0,"max_players":24,"Bots":0,"server_type":"Dedicated","server_os":"Linux","password":true,"vac":true,"version":"7961495","steam_id":85568392925397960,"keywords":["cp","nocrits","nodmgspread","uncletopia"],"game_id":440,"stv_port":27066,"stv_name":"Uncletopia | Sydney | 6 | Community | STV","players":null},{"server_id":49,"name":"Uncletopia | Warsaw | 1 | All Maps","name_short":"waw-1","host":"waw-1.pl.uncletopia.com","port":27015,"enabled":true,"region":"eu","cc":"pl","latitude":52.2297,"longitude":21.017532,"reserved":0,"last_update":"0001-01-01T00:00:00Z","name_a2s":"Uncletopia | Warsaw | 1 | All Maps","protocol":17,"map":"koth_highpass","folder":"tf","game":"Team Fortress","app_id":440,"player_count":0,"max_players":24,"Bots":0,"server_type":"Dedicated","server_os":"Linux","password":true,"vac":true,"version":"7961495","steam_id":85568392925397850,"keywords":["cp","nocrits","nodmgspread","uncletopia"],"game_id":440,"stv_port":27016,"stv_name":"Uncletopia | Warsaw | 1 | All Maps | STV","players":null},{"server_id":50,"name":"Uncletopia | Warsaw | 2 | All Maps","name_short":"waw-2","host":"waw-1.pl.uncletopia.com","port":27025,"enabled":true,"region":"eu","cc":"pl","latitude":52.2297,"longitude":21.017532,"reserved":0,"last_update":"0001-01-01T00:00:00Z","name_a2s":"Uncletopia | Warsaw | 2 | All Maps","protocol":17,"map":"koth_highpass","folder":"tf","game":"Team Fortress","app_id":440,"player_count":0,"max_players":24,"Bots":0,"server_type":"Dedicated","server_os":"Linux","password":true,"vac":true,"version":"7961495","steam_id":85568392925397851,"keywords":["cp","nocrits","nodmgspread","uncletopia"],"game_id":440,"stv_port":27026,"stv_name":"Uncletopia | Warsaw | 2 | All Maps | STV","players":null},{"server_id":51,"name":"Uncletopia | Warsaw | 3 | All Maps","name_short":"waw-3","host":"waw-1.pl.uncletopia.com","port":27035,"enabled":true,"region":"eu","cc":"pl","latitude":52.2297,"longitude":21.017532,"reserved":0,"last_update":"0001-01-01T00:00:00Z","name_a2s":"Uncletopia | Warsaw | 3 | All Maps","protocol":17,"map":"cp_process_final","folder":"tf","game":"Team Fortress","app_id":440,"player_count":0,"max_players":24,"Bots":0,"server_type":"Dedicated","server_os":"Linux","password":true,"vac":true,"version":"7961495","steam_id":85568392925397852,"keywords":["cp","nocrits","nodmgspread","uncletopia"],"game_id":440,"stv_port":27036,"stv_name":"Uncletopia | Warsaw | 3 | All Maps | STV","players":null},{"server_id":52,"name":"Uncletopia | Warsaw | 4 | All Maps","name_short":"waw-4","host":"waw-1.pl.uncletopia.com","port":27045,"enabled":true,"region":"eu","cc":"pl","latitude":52.2297,"longitude":21.017532,"reserved":0,"last_update":"0001-01-01T00:00:00Z","name_a2s":"Uncletopia | Warsaw | 4 | All Maps","protocol":17,"map":"pl_borneo","folder":"tf","game":"Team Fortress","app_id":440,"player_count":0,"max_players":24,"Bots":0,"server_type":"Dedicated","server_os":"Linux","password":true,"vac":true,"version":"7961495","steam_id":85568392925397853,"keywords":["nocrits","nodmgspread","payload","uncletopia"],"game_id":440,"stv_port":27046,"stv_name":"Uncletopia | Warsaw | 4 | All Maps | STV","players":null},{"server_id":53,"name":"Uncletopia | Warsaw | 5 | Stopwatch","name_short":"waw-5","host":"waw-1.pl.uncletopia.com","port":27055,"enabled":true,"region":"eu","cc":"pl","latitude":52.2297,"longitude":21.017532,"reserved":0,"last_update":"0001-01-01T00:00:00Z","name_a2s":"Uncletopia | Warsaw | 5 | Stopwatch","protocol":17,"map":"cp_granary","folder":"tf","game":"Team Fortress","app_id":440,"player_count":0,"max_players":24,"Bots":0,"server_type":"Dedicated","server_os":"Linux","password":true,"vac":true,"version":"7961495","steam_id":85568392925397854,"keywords":["cp","nocrits","nodmgspread","uncletopia"],"game_id":440,"stv_port":27056,"stv_name":"Uncletopia | Warsaw | 5 | Stopwatch | STV","players":null},{"server_id":54,"name":"Uncletopia | Warsaw | 6 | Community","name_short":"waw-6","host":"waw-1.pl.uncletopia.com","port":27065,"enabled":true,"region":"eu","cc":"pl","latitude":52.2297,"longitude":21.017532,"reserved":0,"last_update":"0001-01-01T00:00:00Z","name_a2s":"Uncletopia | Warsaw | 6 | Community","protocol":17,"map":"workshop/cp_hazyfort_rc6.ugc1365963729","folder":"tf","game":"Team Fortress","app_id":440,"player_count":0,"max_players":24,"Bots":0,"server_type":"Dedicated","server_os":"Linux","password":true,"vac":true,"version":"7961495","steam_id":85568392925397856,"keywords":["cp","nocrits","nodmgspread","uncletopia"],"game_id":440,"stv_port":27066,"stv_name":"Uncletopia | Warsaw | 6 | Community | STV","players":null}]}