{"status":true,"message":"","result":[{"server_id":9,"name":"Uncletopia | Atlanta | 1 | All Maps","name_short":"atl-1","host":"atl-1.us.uncletopia.com","port":27015,"enabled":true,"region":"us-east","cc":"us","latitude":33.753746,"longitude":-84.38633,"reserved":0,"last_update":"0001-01-01T00:00:00Z","name_a2s":"Uncletopia | Atlanta | 1 | All Maps","protocol":17,"map":"ctf_2fort","folder":"tf","game":"Team Fortress","app_id":440,"player_count":19,"max_players":24,"Bots":0,"server_type":"Dedicated","server_os":"Linux","password":true,"vac":true,"version":"7932396","steam_id":85568392924469982,"keywords":["ctf","gravity","nocrits","nodmgspread","uncletopia"],"game_id":440,"stv_port":27016,"stv_name":"Uncletopia | Atlanta | 1 | All Maps | STV","players":[{"user_id":250,"name":"IZISOO","steam_id":76561198970380577,"connected_time":217000000000,"state":"active","ping":91},{"user_id":246,"name":"OttotheTomato","steam_id":76561198272610597,"connected_time":298000000000,"state":"active","ping":87},{"user_id":251,"name":"comet sooicidy","steam_id":76561198025173479,"connected_time":216000000000,"state":"active","ping":92},{"user_id":252,"name":"Huey","steam_id":76561198972816386,"connected_time":215000000000,"state":"active","ping":100},{"user_id":255,"name":"10KO!","steam_id":76561199134895220,"connected_time":67000000000,"state":"active","ping":83},{"user_id":253,"name":"Zeta","steam_id":76561198178693059,"connected_time":149000000000,"state":"active","ping":75},{"user_id":203,"name":"FinnGator","steam_id":76561198241766488,"connected_time":1663000000000,"state":"active","ping":89},{"user_id":231,"name":"Infantryfilms","steam_id":76561199304068543,"connected_time":744000000000,"state":"active","ping":143},{"user_id":204,"name":"‡ºò ‚ãÜÀöüéßCaffeine‚òï*Àñ¬∞","steam_id":76561199259309294,"connected_time":1559000000000,"state":"active","ping":96},{"user_id":205,"name":"Belmore","steam_id":76561198009355231,"connected_time":1513000000000,"state":"active","ping":119},{"user_id":254,"name":"hxui3506","steam_id":76561199148162329,"connected_time":119000000000,"state":"active","ping":127},{"user_id":211,"name":"chesterwnimitz","steam_id":76561198062664377,"connected_time":1170000000000,"state":"active","ping":115},{"user_id":256,"name":"mdharsy","steam_id":76561198065831053,"connected_time":49000000000,"state":"active","ping":104},{"user_id":248,"name":"Galaxy_42","steam_id":76561198845514831,"connected_time":256000000000,"state":"active","ping":64},{"user_id":242,"name":"FOrce of nature","steam_id":76561198390522839,"connected_time":410000000000,"state":"active","ping":99},{"user_id":257,"name":"HAT-WEARING‚Ñ¢ Maggot Gamer Cat","steam_id":76561197973992705,"connected_time":23000000000,"state":"spawning","ping":139},{"user_id":258,"name":"Golurk with some bitches","steam_id":76561198085888959,"connected_time":21000000000,"state":"spawning","ping":51},{"user_id":219,"name":"Gary Budussy","steam_id":76561197969793969,"connected_time":1067000000000,"state":"active","ping":77},{"user_id":227,"name":"bdlance","steam_id":76561198218846360,"connected_time":889000000000,"state":"active","ping":70}]},{"server_id":104,"name":"Uncletopia | Atlanta | 2 | All Maps","name_short":"atl-2","host":"atl-1.us.uncletopia.com","port":27025,"enabled":true,"region":"us-east","cc":"us","latitude":33.753746,"longitude":-84.38633,"reserved":0,"last_update":"0001-01-01T00:00:00Z","name_a2s":"Uncletopia | Atlanta | 2 | All Maps","protocol":17,"map":"koth_viaduct","folder":"tf","game":"Team Fortress","app_id":440,"player_count":0,"max_players":24,"Bots":0,"server_type":"Dedicated","server_os":"Linux","password":true,"vac":true,"version":"7932396","steam_id":85568392924469983,"keywords":["cp","nocrits","nodmgspread","uncletopia"],"game_id":440,"stv_port":27026,"stv_name":"Uncletopia | Atlanta | 2 | All Maps | STV","players":null},{"server_id":400,"name":"Uncletopia | Atlanta | 3 | Community","name_short":"atl-3","host":"atl-1.us.uncletopia.com","port":27035,"enabled":true,"region":"us-east","cc":"us","latitude":33.753746,"longitude":-84.38633,"reserved":0,"last_update":"0001-01-01T00:00:00Z","name_a2s":"Uncletopia | Atlanta | 3 | Community","protocol":17,"map":"workshop/cp_logjam_rc12.ugc454812035","folder":"tf","game":"Team Fortress","app_id":440,"player_count":0,"max_players":24,"Bots":0,"server_type":"Dedicated","server_os":"Linux","password":true,"vac":true,"version":"7932396","steam_id":85568392924515187,"keywords":["cp","nocrits","nodmgspread","uncletopia"],"game_id":440,"stv_port":27036,"stv_name":"Uncletopia | Atlanta | 3 | Community | STV","players":null},{"server_id":401,"name":"Uncletopia | Atlanta | 4 | No Payload","name_short":"atl-4","host":"atl-1.us.uncletopia.com","port":27045,"enabled":true,"region":"us-east","cc":"us","latitude":33.753746,"longitude":-84.38633,"reserved":0,"last_update":"0001-01-01T00:00:00Z","name_a2s":"","protocol":0,"map":"","folder":"","game":"","app_id":0,"player_count":0,"max_players":0,"Bots":0,"server_type":"","server_os":"","password":false,"vac":false,"version":"","steam_id":0,"keywords":null,"game_id":0,"stv_port":0,"stv_name":"","players":null},{"server_id":2,"name":"Uncletopia | Chicago | 1 | All Maps","name_short":"chi-1","host":"chi-1.us.uncletopia.com","port":27015,"enabled":true,"region":"us-central","cc":"us","latitude":41.881832,"longitude":-87.62318,"reserved":0,"last_update":"0001-01-01T00:00:00Z","name_a2s":"Uncletopia | Chicago | 1 | All Maps","protocol":17,"map":"cp_dustbowl","folder":"tf","game":"Team Fortress","app_id":440,"player_count":24,"max_players":24,"Bots":0,"server_type":"Dedicated","server_os":"Linux","password":true,"vac":true,"version":"7932396","steam_id":85568392924469984,"keywords":["cp","nocrits","nodmgspread","uncletopia"],"game_id":440,"stv_port":27016,"stv_name":"Uncletopia | Chicago | 1 | All Maps | STV","players":[{"user_id":507,"name":"Celestial Bodies","steam_id":76561198212572955,"connected_time":8730000000000,"state":"active","ping":74},{"user_id":512,"name":"L + Ratio","steam_id":76561198263786953,"connected_time":8140000000000,"state":"active","ping":75},{"user_id":550,"name":"Fudge_Cake","steam_id":76561198059218167,"connected_time":3325000000000,"state":"active","ping":65},{"user_id":579,"name":"microwave popcorn","steam_id":76561198319442494,"connected_time":619000000000,"state":"active","ping":107},{"user_id":554,"name":"Snom","steam_id":76561198333827920,"connected_time":3082000000000,"state":"active","ping":96},{"user_id":577,"name":"PepperMayoSalt","steam_id":76561198280570522,"connected_time":1061000000000,"state":"active","ping":71},{"user_id":573,"name":"Kimba","steam_id":76561199092078325,"connected_time":1565000000000,"state":"active","ping":83},{"user_id":581,"name":"Space","steam_id":76561198350489754,"connected_time":226000000000,"state":"active","ping":50},{"user_id":574,"name":"Kushkatt","steam_id":76561198058397659,"connected_time":1537000000000,"state":"active","ping":69},{"user_id":502,"name":"Zoot","steam_id":76561198121944243,"connected_time":8781000000000,"state":"active","ping":74},{"user_id":545,"name":"Mank","steam_id":76561198189421005,"connected_time":3831000000000,"state":"active","ping":46},{"user_id":576,"name":"Pok√©","steam_id":76561198100167641,"connected_time":1216000000000,"state":"active","ping":66},{"user_id":558,"name":"loser","steam_id":76561198259380127,"connected_time":2849000000000,"state":"active","ping":58},{"user_id":566,"name":"FishGod","steam_id":76561198056156434,"connected_time":1893000000000,"state":"active","ping":65},{"user_id":568,"name":"Scorchite","steam_id":76561198154359902,"connected_time":1841000000000,"state":"active","ping":52},{"user_id":570,"name":"GruntRule","steam_id":76561198039987143,"connected_time":1804000000000,"state":"active","ping":78},{"user_id":517,"name":"James Cordon","steam_id":76561198089294060,"connected_time":7213000000000,"state":"active","ping":77},{"user_id":544,"name":"Astoriae!","steam_id":76561199090168858,"connected_time":3950000000000,"state":"active","ping":70},{"user_id":564,"name":"Praise_to_the_Flashlight!","steam_id":76561199001728789,"connected_time":1967000000000,"state":"active","ping":60},{"user_id":571,"name":"Rix FPV","steam_id":76561198299320893,"connected_time":1786000000000,"state":"active","ping":70},{"user_id":575,"name":"TheBlackScottishMetallix","steam_id":76561199406667630,"connected_time":1271000000000,"state":"active","ping":79},{"user_id":542,"name":"Bee_Pirate","steam_id":76561199000599111,"connected_time":3983000000000,"state":"active","ping":78},{"user_id":580,"name":"Khaicchi","steam_id":76561198104454754,"connected_time":418000000000,"state":"active","ping":175},{"user_id":583,"name":"DinoGoof","steam_id":76561198998427283,"connected_time":25000000000,"state":"active","ping":68}]},{"server_id":106,"name":"Uncletopia | Chicago | 2 | All Maps","name_short":"chi-2","host":"chi-1.us.uncletopia.com","port":27025,"enabled":true,"region":"us-central","cc":"us","latitude":41.881832,"longitude":-87.62318,"reserved":0,"last_update":"0001-01-01T00:00:00Z","name_a2s":"Uncletopia | Chicago | 2 | All Maps","protocol":17,"map":"pl_pier","folder":"tf","game":"Team Fortress","app_id":440,"player_count":24,"max_players":24,"Bots":0,"server_type":"Dedicated","server_os":"Linux","password":true,"vac":true,"version":"7932396","steam_id":85568392924469985,"keywords":["nocrits","nodmgspread","payload","uncletopia"],"game_id":440,"stv_port":27026,"stv_name":"Uncletopia | Chicago | 2 | All Maps | STV","players":[{"user_id":801,"name":"chiswola","steam_id":76561198046920142,"connected_time":1982000000000,"state":"active","ping":72},{"user_id":791,"name":"eish","steam_id":76561198089463603,"connected_time":2425000000000,"state":"active","ping":123},{"user_id":805,"name":"TOBY!!!","steam_id":76561199380822531,"connected_time":1938000000000,"state":"active","ping":64},{"user_id":823,"name":"Two Homeless Men","steam_id":76561199179400763,"connected_time":259000000000,"state":"active","ping":67},{"user_id":755,"name":"Swash","steam_id":76561197969421355,"connected_time":4686000000000,"state":"active","ping":71},{"user_id":824,"name":"swan","steam_id":76561198012569200,"connected_time":242000000000,"state":"active","ping":77},{"user_id":821,"name":"Cold shoulder","steam_id":76561198453824178,"connected_time":288000000000,"state":"active","ping":143},{"user_id":789,"name":"eat Pant","steam_id":76561197974965536,"connected_time":2678000000000,"state":"active","ping":58},{"user_id":822,"name":"[El Fail] MR.BadassMCLee","steam_id":76561198043787818,"connected_time":286000000000,"state":"active","ping":120},{"user_id":812,"name":"Snapsy","steam_id":76561198170457318,"connected_time":1566000000000,"state":"active","ping":65},{"user_id":799,"name":"MattAttack","steam_id":76561198815505051,"connected_time":2031000000000,"state":"active","ping":158},{"user_id":758,"name":"Pixeled","steam_id":76561198088917077,"connected_time":4663000000000,"state":"active","ping":88},{"user_id":825,"name":"rachel epiphet","steam_id":76561198380018244,"connected_time":220000000000,"state":"active","ping":74},{"user_id":826,"name":"Proxy-mo","steam_id":76561198221741428,"connected_time":218000000000,"state":"active","ping":80},{"user_id":759,"name":"Blue","steam_id":76561199093604072,"connected_time":4653000000000,"state":"active","ping":75},{"user_id":827,"name":"herb","steam_id":76561198185980055,"connected_time":217000000000,"state":"active","ping":60},{"user_id":816,"name":"Kindagoodplayer","steam_id":76561198814625843,"connected_time":1454000000000,"state":"active","ping":71},{"user_id":828,"name":"tyg","steam_id":76561198056246867,"connected_time":211000000000,"state":"active","ping":75},{"user_id":721,"name":"hej","steam_id":76561197996366940,"connected_time":7505000000000,"state":"active","ping":60},{"user_id":831,"name":"D_10.Shin","steam_id":76561198209278033,"connected_time":55000000000,"state":"active","ping":176},{"user_id":793,"name":"Save","steam_id":76561198032740584,"connected_time":2410000000000,"state":"active","ping":74},{"user_id":819,"name":"Lumpy the Illegally Blind","steam_id":76561198053125768,"connected_time":299000000000,"state":"active","ping":141},{"user_id":817,"name":"Lia_Rein","steam_id":76561198151569597,"connected_time":545000000000,"state":"active","ping":145},{"user_id":820,"name":"An Erect Penis :)","steam_id":76561198086477485,"connected_time":298000000000,"state":"active","ping":45}]},{"server_id":402,"name":"Uncletopia | Chicago | 3 | All Maps","name_short":"chi-3","host":"chi-1.us.uncletopia.com","port":27035,"enabled":true,"region":"us-central","cc":"us","latitude":41.881832,"longitude":-87.62318,"reserved":0,"last_update":"0001-01-01T00:00:00Z","name_a2s":"Uncletopia | Chicago | 3 | All Maps","protocol":17,"map":"cp_mossrock","folder":"tf","game":"Team Fortress","app_id":440,"player_count":23,"max_players":24,"Bots":0,"server_type":"Dedicated","server_os":"Linux","password":true,"vac":true,"version":"7932396","steam_id":85568392924515191,"keywords":["cp","nocrits","nodmgspread","uncletopia"],"game_id":440,"stv_port":27036,"stv_name":"Uncletopia | Chicago | 3 | All Maps | STV","players":[{"user_id":544,"name":"5mech","steam_id":76561198979167520,"connected_time":4079000000000,"state":"active","ping":57},{"user_id":605,"name":"T√ñZI","steam_id":76561198045268695,"connected_time":270000000000,"state":"active","ping":81},{"user_id":570,"name":":)","steam_id":76561198093921290,"connected_time":2591000000000,"state":"active","ping":47},{"user_id":591,"name":"AlcoholicDad454","steam_id":76561198157414556,"connected_time":1343000000000,"state":"active","ping":83},{"user_id":564,"name":"Monochrome | Cashmoney","steam_id":76561198377320040,"connected_time":3125000000000,"state":"active","ping":77},{"user_id":595,"name":"Motreir","steam_id":76561198151717946,"connected_time":614000000000,"state":"active","ping":75},{"user_id":599,"name":"name420","steam_id":76561198129374525,"connected_time":453000000000,"state":"active","ping":66},{"user_id":598,"name":"Crabo Stabbo","steam_id":76561198061227228,"connected_time":486000000000,"state":"active","ping":57},{"user_id":600,"name":"EvilsConscience","steam_id":76561198073451760,"connected_time":396000000000,"state":"active","ping":56},{"user_id":601,"name":"Chillin Turt","steam_id":76561198025796849,"connected_time":386000000000,"state":"active","ping":67},{"user_id":593,"name":"ReDiculous22","steam_id":76561198038391383,"connected_time":1164000000000,"state":"active","ping":66},{"user_id":602,"name":"i dont know how to hold my mous","steam_id":76561199476816590,"connected_time":346000000000,"state":"active","ping":120},{"user_id":606,"name":"the Light Beast","steam_id":76561198111975583,"connected_time":160000000000,"state":"active","ping":78},{"user_id":607,"name":"richarven","steam_id":76561198189429665,"connected_time":101000000000,"state":"active","ping":65},{"user_id":603,"name":"Ockulus","steam_id":76561199069638460,"connected_time":340000000000,"state":"active","ping":104},{"user_id":608,"name":"footoftheday","steam_id":76561198052712449,"connected_time":38000000000,"state":"active","ping":77},{"user_id":576,"name":"Jesse","steam_id":76561198157305426,"connected_time":2399000000000,"state":"active","ping":64},{"user_id":609,"name":"Nefy","steam_id":76561198030017316,"connected_time":10000000000,"state":"spawning","ping":74},{"user_id":610,"name":"average manicotti enjoyer","steam_id":76561198059535856,"connected_time":9000000000,"state":"active","ping":104},{"user_id":566,"name":"Fiendish Frog","steam_id":76561198029478821,"connected_time":3079000000000,"state":"active","ping":71},{"user_id":590,"name":"Voids","steam_id":76561198128386726,"connected_time":1448000000000,"state":"active","ping":85},{"user_id":584,"name":"gagobears","steam_id":76561198086008437,"connected_time":1801000000000,"state":"active","ping":70},{"user_id":585,"name":"just call me joe","steam_id":76561198043911582,"connected_time":1738000000000,"state":"active","ping":60}]},{"server_id":403,"name":"Uncletopia | Chicago | 4 | All Maps","name_short":"chi-4","host":"chi-1.us.uncletopia.com","port":27045,"enabled":true,"region":"us-central","cc":"us","latitude":41.881832,"longitude":-87.62318,"reserved":0,"last_update":"0001-01-01T00:00:00Z","name_a2s":"Uncletopia | Chicago | 4 | All Maps","protocol":17,"map":"pl_borneo","folder":"tf","game":"Team Fortress","app_id":440,"player_count":24,"max_players":24,"Bots":0,"server_type":"Dedicated","server_os":"Linux","password":true,"vac":true,"version":"7932396","steam_id":85568392924515193,"keywords":["nocrits","nodmgspread","payload","uncletopia"],"game_id":440,"stv_port":27046,"stv_name":"Uncletopia | Chicago | 4 | All Maps | STV","players":[{"user_id":770,"name":"Miner2495","steam_id":76561198445904523,"connected_time":4148000000000,"state":"active","ping":68},{"user_id":817,"name":"Krispin Alexander","steam_id":76561199478696098,"connected_time":394000000000,"state":"active","ping":76},{"user_id":820,"name":"thai","steam_id":76561198052462287,"connected_time":314000000000,"state":"active","ping":89},{"user_id":758,"name":"festive ‡∂û","steam_id":76561198121568270,"connected_time":5121000000000,"state":"active","ping":141},{"user_id":804,"name":"banan team fortes","steam_id":76561199073621650,"connected_time":1279000000000,"state":"active","ping":96},{"user_id":788,"name":"heartcey","steam_id":76561198101585918,"connected_time":2721000000000,"state":"active","ping":71},{"user_id":829,"name":"ThomasRShay","steam_id":76561198371931872,"connected_time":159000000000,"state":"active","ping":84},{"user_id":595,"name":"eipi","steam_id":76561199084492097,"connected_time":15893000000000,"state":"active","ping":78},{"user_id":821,"name":"Viennetta","steam_id":76561198044088335,"connected_time":300000000000,"state":"active","ping":60},{"user_id":825,"name":"catrinaisahuman","steam_id":76561198281355729,"connected_time":244000000000,"state":"active","ping":74},{"user_id":746,"name":"Rambly Dambly","steam_id":76561198844496567,"connected_time":5336000000000,"state":"active","ping":56},{"user_id":830,"name":"4:3 warrior","steam_id":76561198097588802,"connected_time":128000000000,"state":"active","ping":45},{"user_id":822,"name":"SHADOW (he/him)","steam_id":76561198207768148,"connected_time":298000000000,"state":"active","ping":116},{"user_id":818,"name":"Nessie is my Waifu","steam_id":76561198076021620,"connected_time":394000000000,"state":"active","ping":69},{"user_id":824,"name":"Eurobeat too loud, can't hear :","steam_id":76561198330743199,"connected_time":272000000000,"state":"active","ping":102},{"user_id":827,"name":"fluffykitten :3","steam_id":76561198216487540,"connected_time":200000000000,"state":"active","ping":92},{"user_id":797,"name":"Punished Kong","steam_id":76561198973620882,"connected_time":2381000000000,"state":"active","ping":80},{"user_id":798,"name":"AkimboAoki","steam_id":76561198158323058,"connected_time":2296000000000,"state":"active","ping":98},{"user_id":828,"name":"pipepeepi","steam_id":76561198845905873,"connected_time":187000000000,"state":"active","ping":62},{"user_id":831,"name":"ChozoChorizo","steam_id":76561198272609196,"connected_time":111000000000,"state":"active","ping":63},{"user_id":811,"name":"Cheifer","steam_id":76561198372699269,"connected_time":946000000000,"state":"active","ping":87},{"user_id":718,"name":"J.G. Klaus","steam_id":76561198001111196,"connected_time":7507000000000,"state":"active","ping":54},{"user_id":792,"name":"gamerpro","steam_id":76561199207927917,"connected_time":2619000000000,"state":"active","ping":95},{"user_id":832,"name":"feed lips","steam_id":76561197971152439,"connected_time":101000000000,"state":"active","ping":86}]},{"server_id":36,"name":"Uncletopia | Chicago | 5 | All Maps","name_short":"chi-5","host":"chi-2.us.uncletopia.com","port":27015,"enabled":true,"region":"us-central","cc":"us","latitude":41.881832,"longitude":-87.62318,"reserved":0,"last_update":"0001-01-01T00:00:00Z","name_a2s":"Uncletopia | Chicago | 5 | All Maps","protocol":17,"map":"cp_process_final","folder":"tf","game":"Team Fortress","app_id":440,"player_count":24,"max_players":24,"Bots":0,"server_type":"Dedicated","server_os":"Linux","password":true,"vac":true,"version":"7932396","steam_id":85568392924866362,"keywords":["cp","nocrits","nodmgspread","uncletopia"],"game_id":440,"stv_port":27016,"stv_name":"Uncletopia | Chicago | 5 | All Maps | STV","players":[{"user_id":550,"name":"cran","steam_id":76561198178840075,"connected_time":574000000000,"state":"active","ping":83},{"user_id":522,"name":"b (she/they)","steam_id":76561198974476173,"connected_time":2471000000000,"state":"active","ping":60},{"user_id":529,"name":"Zig","steam_id":76561198817898109,"connected_time":2195000000000,"state":"active","ping":81},{"user_id":549,"name":"bladees saddest, realest verse","steam_id":76561198098099826,"connected_time":594000000000,"state":"active","ping":87},{"user_id":548,"name":"crankshaft","steam_id":76561197992798282,"connected_time":625000000000,"state":"active","ping":92},{"user_id":506,"name":"Tommy Pickles (Very Cool)","steam_id":76561198391261463,"connected_time":3406000000000,"state":"active","ping":69},{"user_id":525,"name":"Tri-Dot","steam_id":76561199075186597,"connected_time":2235000000000,"state":"active","ping":65},{"user_id":546,"name":"OneTrueCorvid","steam_id":76561199012953221,"connected_time":662000000000,"state":"active","ping":392},{"user_id":513,"name":"Techo","steam_id":76561199169405285,"connected_time":3107000000000,"state":"active","ping":101},{"user_id":518,"name":"ƒê√Ø…ê»ê…π…¶…Üa","steam_id":76561198981411945,"connected_time":3067000000000,"state":"active","ping":95},{"user_id":554,"name":"LProduct","steam_id":76561199442139670,"connected_time":424000000000,"state":"active","ping":110},{"user_id":539,"name":"trobin120","steam_id":76561199122420273,"connected_time":1396000000000,"state":"active","ping":66},{"user_id":552,"name":"kite man","steam_id":76561198156336213,"connected_time":538000000000,"state":"active","ping":75},{"user_id":562,"name":"wunkem","steam_id":76561198055948497,"connected_time":123000000000,"state":"active","ping":62},{"user_id":561,"name":"CJammy","steam_id":76561199074691047,"connected_time":296000000000,"state":"active","ping":99},{"user_id":555,"name":"gorf?","steam_id":76561198142286417,"connected_time":405000000000,"state":"active","ping":55},{"user_id":556,"name":"pirate pete","steam_id":76561198151048590,"connected_time":376000000000,"state":"active","ping":61},{"user_id":541,"name":"bdlance","steam_id":76561198218846360,"connected_time":1287000000000,"state":"active","ping":59},{"user_id":544,"name":"Insert_User_","steam_id":76561199229663997,"connected_time":732000000000,"state":"active","ping":83},{"user_id":558,"name":"Kid Named Team Fortress 2","steam_id":76561198879929343,"connected_time":358000000000,"state":"active","ping":67},{"user_id":559,"name":"emerge","steam_id":76561198186882891,"connected_time":358000000000,"state":"active","ping":62},{"user_id":560,"name":"kaputon","steam_id":76561198146299782,"connected_time":334000000000,"state":"active","ping":63},{"user_id":532,"name":"ShawnLmao","steam_id":76561198350691501,"connected_time":1971000000000,"state":"active","ping":84},{"user_id":564,"name":"Mehman big/balls","steam_id":76561199020244051,"connected_time":56000000000,"state":"active","ping":99}]},{"server_id":37,"name":"Uncletopia | Chicago | 6 | All Maps","name_short":"chi-6","host":"chi-2.us.uncletopia.com","port":27025,"enabled":true,"region":"us-central","cc":"us","latitude":41.881832,"longitude":-87.62318,"reserved":0,"last_update":"0001-01-01T00:00:00Z","name_a2s":"Uncletopia | Chicago | 6 | All Maps","protocol":17,"map":"plr_pipeline","folder":"tf","game":"Team Fortress","app_id":440,"player_count":20,"max_players":24,"Bots":0,"server_type":"Dedicated","server_os":"Linux","password":true,"vac":true,"version":"7932396","steam_id":85568392924866363,"keywords":["nocrits","nodmgspread","payload","uncletopia"],"game_id":440,"stv_port":27026,"stv_name":"Uncletopia | Chicago | 6 | All Maps | STV","players":[{"user_id":510,"name":"01","steam_id":76561198025437192,"connected_time":308000000000,"state":"active","ping":92},{"user_id":515,"name":"Still Alive","steam_id":76561198042523000,"connected_time":139000000000,"state":"active","ping":55},{"user_id":499,"name":"Mutzy‚Ñ¢","steam_id":76561198085858203,"connected_time":869000000000,"state":"active","ping":47},{"user_id":456,"name":"Sheets","steam_id":76561198182088207,"connected_time":3004000000000,"state":"active","ping":45},{"user_id":517,"name":"!mute","steam_id":76561198219209367,"connected_time":34000000000,"state":"active","ping":103},{"user_id":478,"name":"\u003cNULL\u003e","steam_id":76561198079489150,"connected_time":1860000000000,"state":"active","ping":66},{"user_id":494,"name":"Juno","steam_id":76561198042417277,"connected_time":994000000000,"state":"active","ping":75},{"user_id":516,"name":"rice","steam_id":76561198037565441,"connected_time":125000000000,"state":"active","ping":66},{"user_id":511,"name":"Mokikoda","steam_id":76561198277214735,"connected_time":294000000000,"state":"active","ping":46},{"user_id":503,"name":"CreateADebate","steam_id":76561198115760035,"connected_time":773000000000,"state":"active","ping":66},{"user_id":467,"name":"E4Estrogen","steam_id":76561198085813708,"connected_time":2684000000000,"state":"active","ping":70},{"user_id":502,"name":"Kobbert","steam_id":76561198045040833,"connected_time":836000000000,"state":"active","ping":46},{"user_id":486,"name":"lucil3 on Spotify","steam_id":76561198149063013,"connected_time":1638000000000,"state":"active","ping":74},{"user_id":487,"name":"malon milk","steam_id":76561198042558913,"connected_time":1612000000000,"state":"active","ping":82},{"user_id":484,"name":"JoJoJo","steam_id":76561198067153390,"connected_time":1756000000000,"state":"active","ping":52},{"user_id":506,"name":"C4K3","steam_id":76561197996963285,"connected_time":650000000000,"state":"active","ping":70},{"user_id":518,"name":"StillNotGinger","steam_id":76561198063419189,"connected_time":16000000000,"state":"active","ping":83},{"user_id":470,"name":"UNFAIR","steam_id":76561198071026825,"connected_time":1898000000000,"state":"active","ping":60},{"user_id":448,"name":"Your Pal, Vegeta","steam_id":76561198064916816,"connected_time":3835000000000,"state":"active","ping":89},{"user_id":455,"name":"Meme Foreskin II","steam_id":76561198028157625,"connected_time":3041000000000,"state":"active","ping":86}]},{"server_id":38,"name":"Uncletopia | Chicago | 7 | Stopwatch Beta","name_short":"chi-7","host":"chi-2.us.uncletopia.com","port":27035,"enabled":true,"region":"us-central","cc":"us","latitude":41.881832,"longitude":-87.62318,"reserved":0,"last_update":"0001-01-01T00:00:00Z","name_a2s":"Uncletopia | Chicago | 7 | Stopwatch Beta","protocol":17,"map":"cp_gullywash_final1","folder":"tf","game":"Team Fortress","app_id":440,"player_count":23,"max_players":24,"Bots":0,"server_type":"Dedicated","server_os":"Linux","password":true,"vac":true,"version":"7932396","steam_id":85568392924866364,"keywords":["cp","nocrits","nodmgspread","uncletopia"],"game_id":440,"stv_port":27036,"stv_name":"Uncletopia | Chicago | 7 | Stopwatch Beta | STV","players":[{"user_id":65,"name":"toastman","steam_id":76561198207073088,"connected_time":4261000000000,"state":"active","ping":81},{"user_id":70,"name":"Smoby","steam_id":76561198136642793,"connected_time":3984000000000,"state":"active","ping":84},{"user_id":84,"name":"lost in spaaaaace","steam_id":76561199085974120,"connected_time":3027000000000,"state":"active","ping":77},{"user_id":99,"name":"Farm3rJh0nson","steam_id":76561199166153873,"connected_time":1382000000000,"state":"active","ping":84},{"user_id":109,"name":"Misty Blu ‚úø","steam_id":76561198011442255,"connected_time":608000000000,"state":"active","ping":98},{"user_id":115,"name":"Thequirka","steam_id":76561198968058652,"connected_time":194000000000,"state":"active","ping":101},{"user_id":116,"name":"BrownMemeSter","steam_id":76561198113745020,"connected_time":162000000000,"state":"active","ping":71},{"user_id":117,"name":"Person Man","steam_id":76561198293857963,"connected_time":78000000000,"state":"active","ping":115},{"user_id":111,"name":"hot house cucumber","steam_id":76561198148135489,"connected_time":547000000000,"state":"active","ping":88},{"user_id":93,"name":"breakfast","steam_id":76561198043712978,"connected_time":2026000000000,"state":"active","ping":115},{"user_id":47,"name":"Evan","steam_id":76561197972292926,"connected_time":4725000000000,"state":"active","ping":74},{"user_id":112,"name":"The Cool Man","steam_id":76561198096420556,"connected_time":540000000000,"state":"active","ping":103},{"user_id":49,"name":"Frisbee","steam_id":76561197962808987,"connected_time":4717000000000,"state":"active","ping":59},{"user_id":118,"name":"kiesek","steam_id":76561198044089674,"connected_time":75000000000,"state":"active","ping":61},{"user_id":77,"name":"GUM_WRAPPER_GRILLS","steam_id":76561198144766439,"connected_time":3702000000000,"state":"active","ping":46},{"user_id":52,"name":"Eviscerator","steam_id":76561197980073637,"connected_time":4694000000000,"state":"active","ping":76},{"user_id":119,"name":"*","steam_id":76561198173047169,"connected_time":47000000000,"state":"active","ping":63},{"user_id":108,"name":"Plinko","steam_id":76561197968530638,"connected_time":694000000000,"state":"active","ping":53},{"user_id":97,"name":"johnny karate","steam_id":76561198165847261,"connected_time":1457000000000,"state":"active","ping":86},{"user_id":87,"name":"ROME Vio","steam_id":76561198068686187,"connected_time":2702000000000,"state":"active","ping":148},{"user_id":58,"name":"Yeti","steam_id":76561198035450920,"connected_time":4608000000000,"state":"active","ping":87},{"user_id":120,"name":"Infinitytacos","steam_id":76561198884260211,"connected_time":32000000000,"state":"active","ping":46},{"user_id":94,"name":"anonion","steam_id":76561198056477584,"connected_time":1855000000000,"state":"active","ping":90}]},{"server_id":39,"name":"Uncletopia | Chicago | 8 | Community","name_short":"chi-8","host":"chi-2.us.uncletopia.com","port":27045,"enabled":true,"region":"us-central","cc":"us","latitude":41.881832,"longitude":-87.62318,"reserved":0,"last_update":"0001-01-01T00:00:00Z","name_a2s":"Uncletopia | Chicago | 8 | Community","protocol":17,"map":"workshop/koth_bagel_rc6.ugc2514036946","folder":"tf","game":"Team Fortress","app_id":440,"player_count":24,"max_players":24,"Bots":0,"server_type":"Dedicated","server_os":"Linux","password":true,"vac":true,"version":"7932396","steam_id":85568392924866365,"keywords":["cp","nocrits","nodmgspread","uncletopia"],"game_id":440,"stv_port":27046,"stv_name":"Uncletopia | Chicago | 8 | Community | STV","players":[{"user_id":402,"name":"Yayifications","steam_id":76561198066227208,"connected_time":1254000000000,"state":"active","ping":61},{"user_id":390,"name":"Dog Goggles","steam_id":76561197995233692,"connected_time":2241000000000,"state":"active","ping":88},{"user_id":377,"name":"corygaming","steam_id":76561198035669409,"connected_time":2823000000000,"state":"active","ping":113},{"user_id":406,"name":"flame","steam_id":76561198079321914,"connected_time":949000000000,"state":"active","ping":100},{"user_id":378,"name":"squishy","steam_id":76561198015034116,"connected_time":2822000000000,"state":"active","ping":53},{"user_id":422,"name":"Captain S. Forrest","steam_id":76561198062463029,"connected_time":447000000000,"state":"active","ping":72},{"user_id":387,"name":"xLeoparrd","steam_id":76561198940657194,"connected_time":2565000000000,"state":"active","ping":78},{"user_id":354,"name":"Man Man","steam_id":76561199068338634,"connected_time":4624000000000,"state":"active","ping":74},{"user_id":423,"name":"‚ù§ Dolphiniz ‚ù§","steam_id":76561199093367765,"connected_time":307000000000,"state":"active","ping":104},{"user_id":408,"name":"I GOT LAID AT SHEN YUN 2023","steam_id":76561198844003641,"connected_time":937000000000,"state":"active","ping":113},{"user_id":409,"name":"Camper","steam_id":76561198972004586,"connected_time":900000000000,"state":"active","ping":74},{"user_id":315,"name":"Neophyte","steam_id":76561198027183394,"connected_time":7479000000000,"state":"active","ping":91},{"user_id":420,"name":"mel","steam_id":76561198097124190,"connected_time":566000000000,"state":"active","ping":76},{"user_id":403,"name":"entityfromohio","steam_id":76561198031675881,"connected_time":1097000000000,"state":"active","ping":44},{"user_id":410,"name":"lingulata","steam_id":76561198076208960,"connected_time":886000000000,"state":"active","ping":76},{"user_id":412,"name":"i havent had sex since 2003","steam_id":76561198168114366,"connected_time":855000000000,"state":"active","ping":64},{"user_id":427,"name":"fernando","steam_id":76561198142586591,"connected_time":146000000000,"state":"active","ping":90},{"user_id":396,"name":"LalitoTV","steam_id":76561198334302951,"connected_time":1854000000000,"state":"active","ping":122},{"user_id":411,"name":"chilis baby back ribs","steam_id":76561198813516435,"connected_time":879000000000,"state":"active","ping":96},{"user_id":415,"name":"Dinossauro Productions","steam_id":76561198141731081,"connected_time":785000000000,"state":"active","ping":179},{"user_id":425,"name":"Spike","steam_id":76561198141356571,"connected_time":296000000000,"state":"active","ping":64},{"user_id":394,"name":"Barney Calhoun Enjoyer","steam_id":76561198049419309,"connected_time":2099000000000,"state":"active","ping":76},{"user_id":426,"name":"Joshkinz","steam_id":76561199087994881,"connected_time":204000000000,"state":"active","ping":50},{"user_id":418,"name":"Jen5customcock","steam_id":76561199059931666,"connected_time":760000000000,"state":"active","ping":70}]},{"server_id":8,"name":"Uncletopia | Dallas | 1 | All Maps","name_short":"dal-1","host":"dal-1.us.uncletopia.com","port":27015,"enabled":true,"region":"us-central","cc":"us","latitude":32.779167,"longitude":-96.80889,"reserved":0,"last_update":"0001-01-01T00:00:00Z","name_a2s":"Uncletopia | Dallas | 1 | All Maps","protocol":17,"map":"koth_harvest_final","folder":"tf","game":"Team Fortress","app_id":440,"player_count":23,"max_players":24,"Bots":0,"server_type":"Dedicated","server_os":"Linux","password":true,"vac":true,"version":"7932396","steam_id":85568392924469986,"keywords":["cp","nocrits","nodmgspread","uncletopia"],"game_id":440,"stv_port":27016,"stv_name":"Uncletopia | Dallas | 1 | All Maps | STV","players":[{"user_id":711,"name":"MALWARE9000","steam_id":76561198065238093,"connected_time":991000000000,"state":"active","ping":63},{"user_id":681,"name":"Sableye","steam_id":76561198061247147,"connected_time":3645000000000,"state":"active","ping":73},{"user_id":719,"name":"mellowhype","steam_id":76561198040675606,"connected_time":295000000000,"state":"active","ping":57},{"user_id":670,"name":"Grumby","steam_id":76561198149175262,"connected_time":4288000000000,"state":"active","ping":56},{"user_id":700,"name":"C_hoffmanni","steam_id":76561198071417085,"connected_time":3163000000000,"state":"active","ping":108},{"user_id":690,"name":"trans lefts","steam_id":76561198031704886,"connected_time":3436000000000,"state":"active","ping":111},{"user_id":701,"name":"damiankiller1243","steam_id":76561198868885090,"connected_time":2981000000000,"state":"active","ping":66},{"user_id":720,"name":"kiciu≈õ","steam_id":76561198337705174,"connected_time":272000000000,"state":"active","ping":72},{"user_id":659,"name":"Greg Boberton 2012","steam_id":76561198983566026,"connected_time":5593000000000,"state":"active","ping":83},{"user_id":680,"name":"Insizhen","steam_id":76561198051352605,"connected_time":3972000000000,"state":"active","ping":47},{"user_id":709,"name":"rachael rabies","steam_id":76561198000851637,"connected_time":1543000000000,"state":"active","ping":118},{"user_id":703,"name":"Bottom Trans Cowgirl","steam_id":76561198304239680,"connected_time":2810000000000,"state":"active","ping":77},{"user_id":721,"name":"s2000","steam_id":76561198012414439,"connected_time":228000000000,"state":"active","ping":115},{"user_id":640,"name":"Fostrel","steam_id":76561198152160601,"connected_time":7064000000000,"state":"active","ping":78},{"user_id":717,"name":"strive","steam_id":76561199020439576,"connected_time":307000000000,"state":"active","ping":79},{"user_id":723,"name":"Bug","steam_id":76561198279239047,"connected_time":20000000000,"state":"active","ping":86},{"user_id":712,"name":"Interrobang","steam_id":76561198385044529,"connected_time":847000000000,"state":"active","ping":126},{"user_id":619,"name":"jarrettconsult","steam_id":76561198249998262,"connected_time":8653000000000,"state":"active","ping":76},{"user_id":722,"name":"FemboyNate","steam_id":76561198146636410,"connected_time":210000000000,"state":"active","ping":90},{"user_id":716,"name":"Manic","steam_id":76561198128149670,"connected_time":364000000000,"state":"active","ping":45},{"user_id":684,"name":"Roxie (she/her)","steam_id":76561198283084060,"connected_time":3524000000000,"state":"active","ping":83},{"user_id":646,"name":"ATL1 | on my hunting trip","steam_id":76561198315341646,"connected_time":6440000000000,"state":"active","ping":87},{"user_id":699,"name":"peebs","steam_id":76561198261319753,"connected_time":3197000000000,"state":"active","ping":55}]},{"server_id":108,"name":"Uncletopia | Dallas | 2 | All Maps","name_short":"dal-2","host":"dal-1.us.uncletopia.com","port":27025,"enabled":true,"region":"us-central","cc":"us","latitude":32.779167,"longitude":-96.80889,"reserved":0,"last_update":"0001-01-01T00:00:00Z","name_a2s":"Uncletopia | Dallas | 2 | All Maps","protocol":17,"map":"koth_king","folder":"tf","game":"Team Fortress","app_id":440,"player_count":24,"max_players":24,"Bots":0,"server_type":"Dedicated","server_os":"Linux","password":true,"vac":true,"version":"7932396","steam_id":85568392924469988,"keywords":["cp","nocrits","nodmgspread","uncletopia"],"game_id":440,"stv_port":27026,"stv_name":"Uncletopia | Dallas | 2 | All Maps | STV","players":[{"user_id":661,"name":"Dan","steam_id":76561198064012288,"connected_time":3772000000000,"state":"active","ping":51},{"user_id":674,"name":"GarlicDipp","steam_id":76561198064438763,"connected_time":2805000000000,"state":"active","ping":67},{"user_id":681,"name":"bea","steam_id":76561199085645300,"connected_time":2189000000000,"state":"active","ping":59},{"user_id":667,"name":"leopardo123atl","steam_id":76561198872648238,"connected_time":2939000000000,"state":"active","ping":74},{"user_id":711,"name":"SmokeyGalaxy","steam_id":76561198118780516,"connected_time":162000000000,"state":"active","ping":95},{"user_id":697,"name":"kyng_wzrd","steam_id":76561198088339492,"connected_time":764000000000,"state":"active","ping":78},{"user_id":706,"name":"Wigl","steam_id":76561198019324464,"connected_time":445000000000,"state":"active","ping":74},{"user_id":683,"name":"a hooman","steam_id":76561198421334106,"connected_time":2164000000000,"state":"active","ping":45},{"user_id":707,"name":"Woozy","steam_id":76561198008220735,"connected_time":438000000000,"state":"active","ping":90},{"user_id":702,"name":"TGD","steam_id":76561198197582594,"connected_time":683000000000,"state":"active","ping":45},{"user_id":712,"name":"AtomicSexMachine","steam_id":76561198886585159,"connected_time":155000000000,"state":"active","ping":497},{"user_id":671,"name":"Frog","steam_id":76561198170199881,"connected_time":2840000000000,"state":"active","ping":75},{"user_id":686,"name":"Rad","steam_id":76561198413125750,"connected_time":1971000000000,"state":"active","ping":88},{"user_id":703,"name":"Bones0010","steam_id":76561198096186958,"connected_time":667000000000,"state":"active","ping":67},{"user_id":660,"name":"apcsmoore","steam_id":76561199124727793,"connected_time":3810000000000,"state":"active","ping":83},{"user_id":689,"name":"sapphoroth","steam_id":76561198062263639,"connected_time":1701000000000,"state":"active","ping":53},{"user_id":670,"name":"Lex","steam_id":76561198069948353,"connected_time":2895000000000,"state":"active","ping":61},{"user_id":714,"name":"Dreysidel","steam_id":76561198056496183,"connected_time":43000000000,"state":"active","ping":99},{"user_id":688,"name":"MrTea","steam_id":76561198265593563,"connected_time":1848000000000,"state":"active","ping":76},{"user_id":701,"name":"Quietsharp","steam_id":76561198277968438,"connected_time":698000000000,"state":"active","ping":84},{"user_id":709,"name":"Lunatic Kaguya H.","steam_id":76561198345276434,"connected_time":347000000000,"state":"active","ping":67},{"user_id":665,"name":"errant","steam_id":76561197961758410,"connected_time":2971000000000,"state":"active","ping":44},{"user_id":715,"name":"Evenaris","steam_id":76561198087544319,"connected_time":40000000000,"state":"active","ping":82},{"user_id":666,"name":"YoteDab McFapDab.jpg","steam_id":76561197984870380,"connected_time":2970000000000,"state":"active","ping":96}]},{"server_id":5,"name":"Uncletopia | Frankfurt | 1 | All Maps","name_short":"frk-1","host":"frk-1.de.uncletopia.com","port":27015,"enabled":true,"region":"eu","cc":"de","latitude":50.110924,"longitude":8.682127,"reserved":0,"last_update":"0001-01-01T00:00:00Z","name_a2s":"Uncletopia | Frankfurt | 1 | All Maps","protocol":17,"map":"koth_highpass","folder":"tf","game":"Team Fortress","app_id":440,"player_count":0,"max_players":24,"Bots":0,"server_type":"Dedicated","server_os":"Linux","password":true,"vac":true,"version":"7932396","steam_id":85568392924469989,"keywords":["cp","nocrits","nodmgspread","uncletopia"],"game_id":440,"stv_port":27016,"stv_name":"Uncletopia | Frankfurt | 1 | All Maps | STV","players":null},{"server_id":110,"name":"Uncletopia | Frankfurt | 2 | All Maps","name_short":"frk-2","host":"frk-1.de.uncletopia.com","port":27025,"enabled":true,"region":"eu","cc":"de","latitude":50.110924,"longitude":8.682127,"reserved":0,"last_update":"0001-01-01T00:00:00Z","name_a2s":"Uncletopia | Frankfurt | 2 | All Maps","protocol":17,"map":"koth_lakeside_final","folder":"tf","game":"Team Fortress","app_id":440,"player_count":0,"max_players":24,"Bots":0,"server_type":"Dedicated","server_os":"Linux","password":true,"vac":true,"version":"7932396","steam_id":85568392924469990,"keywords":["cp","nocrits","nodmgspread","uncletopia"],"game_id":440,"stv_port":27026,"stv_name":"Uncletopia | Frankfurt | 2 | All Maps | STV","players":null},{"server_id":308,"name":"Uncletopia | Frankfurt | 3 | All Maps","name_short":"frk-3","host":"frk-1.de.uncletopia.com","port":27035,"enabled":true,"region":"eu","cc":"de","latitude":50.110924,"longitude":8.682127,"reserved":0,"last_update":"0001-01-01T00:00:00Z","name_a2s":"Uncletopia | Frankfurt | 3 | All Maps","protocol":17,"map":"ctf_2fort","folder":"tf","game":"Team Fortress","app_id":440,"player_count":0,"max_players":24,"Bots":0,"server_type":"Dedicated","server_os":"Linux","password":true,"vac":true,"version":"7932396","steam_id":85568392924504274,"keywords":["ctf","nocrits","nodmgspread","uncletopia"],"game_id":440,"stv_port":27036,"stv_name":"Uncletopia | Frankfurt | 3 | All Maps | STV","players":null},{"server_id":309,"name":"Uncletopia | Frankfurt | 4 | All Maps","name_short":"frk-4","host":"frk-1.de.uncletopia.com","port":27045,"enabled":true,"region":"eu","cc":"de","latitude":50.110924,"longitude":8.682127,"reserved":0,"last_update":"0001-01-01T00:00:00Z","name_a2s":"Uncletopia | Frankfurt | 4 | All Maps","protocol":17,"map":"cp_mountainlab","folder":"tf","game":"Team Fortress","app_id":440,"player_count":0,"max_players":24,"Bots":0,"server_type":"Dedicated","server_os":"Linux","password":true,"vac":true,"version":"7932396","steam_id":85568392924504275,"keywords":["cp","nocrits","nodmgspread","uncletopia"],"game_id":440,"stv_port":27046,"stv_name":"Uncletopia | Frankfurt | 4 | All Maps | STV","players":null},{"server_id":310,"name":"Uncletopia | Frankfurt | 5 | All Maps","name_short":"frk-5","host":"frk-1.de.uncletopia.com","port":27055,"enabled":true,"region":"eu","cc":"de","latitude":50.110924,"longitude":8.682127,"reserved":0,"last_update":"0001-01-01T00:00:00Z","name_a2s":"Uncletopia | Frankfurt | 5 | All Maps","protocol":17,"map":"pl_snowycoast","folder":"tf","game":"Team Fortress","app_id":440,"player_count":0,"max_players":24,"Bots":0,"server_type":"Dedicated","server_os":"Linux","password":true,"vac":true,"version":"7932396","steam_id":85568392924504277,"keywords":["nocrits","nodmgspread","payload","uncletopia"],"game_id":440,"stv_port":27056,"stv_name":"Uncletopia | Frankfurt | 5 | All Maps | STV","players":null},{"server_id":311,"name":"Uncletopia | Frankfurt | 6 | All Maps","name_short":"frk-6","host":"frk-1.de.uncletopia.com","port":27065,"enabled":true,"region":"eu","cc":"de","latitude":50.110924,"longitude":8.682127,"reserved":0,"last_update":"0001-01-01T00:00:00Z","name_a2s":"Uncletopia | Frankfurt | 6 | All Maps","protocol":17,"map":"pl_swiftwater_final1","folder":"tf","game":"Team Fortress","app_id":440,"player_count":0,"max_players":24,"Bots":0,"server_type":"Dedicated","server_os":"Linux","password":true,"vac":true,"version":"7932396","steam_id":85568392924504278,"keywords":["nocrits","nodmgspread","payload","uncletopia"],"game_id":440,"stv_port":27066,"stv_name":"Uncletopia | Frankfurt | 6 | All Maps | STV","players":null},{"server_id":23,"name":"Uncletopia | Frankfurt | 7 | Stopwatch Beta","name_short":"frk-7","host":"frk-1.de.uncletopia.com","port":27075,"enabled":true,"region":"eu","cc":"de","latitude":50.110924,"longitude":8.682127,"reserved":0,"last_update":"0001-01-01T00:00:00Z","name_a2s":"Uncletopia | Frankfurt | 7 | Stopwatch Beta","protocol":17,"map":"workshop/koth_ramjam_rc1.ugc459778887","folder":"tf","game":"Team Fortress","app_id":440,"player_count":0,"max_players":24,"Bots":0,"server_type":"Dedicated","server_os":"Linux","password":true,"vac":true,"version":"7932396","steam_id":85568392924742827,"keywords":["cp","nocrits","nodmgspread","uncletopia"],"game_id":440,"stv_port":27076,"stv_name":"Uncletopia | Frankfurt | 7 | Stopwatch Beta | STV","players":null},{"server_id":24,"name":"Uncletopia | Frankfurt | 8 | Community","name_short":"frk-8","host":"frk-1.de.uncletopia.com","port":27085,"enabled":true,"region":"eu","cc":"de","latitude":50.110924,"longitude":8.682127,"reserved":0,"last_update":"0001-01-01T00:00:00Z","name_a2s":"Uncletopia | Frankfurt | 8 | Community","protocol":17,"map":"workshop/koth_ramjam_rc1.ugc459778887","folder":"tf","game":"Team Fortress","app_id":440,"player_count":0,"max_players":24,"Bots":0,"server_type":"Dedicated","server_os":"Linux","password":true,"vac":true,"version":"7932396","steam_id":85568392924742828,"keywords":["cp","nocrits","nodmgspread","uncletopia"],"game_id":440,"stv_port":27086,"stv_name":"Uncletopia | Frankfurt | 8 | Community | STV","players":null},{"server_id":202,"name":"Uncletopia | Hong Kong | 1 | All Maps","name_short":"hgk-1","host":"hgk-1.hk.uncletopia.com","port":27015,"enabled":true,"region":"asia","cc":"hk","latitude":22.302711,"longitude":114.177216,"reserved":0,"last_update":"0001-01-01T00:00:00Z","name_a2s":"Uncletopia | Hong Kong | 1 | All Maps","protocol":17,"map":"pl_swiftwater_final1","folder":"tf","game":"Team Fortress","app_id":440,"player_count":2,"max_players":24,"Bots":0,"server_type":"Dedicated","server_os":"Linux","password":true,"vac":true,"version":"7932396","steam_id":85568392924494504,"keywords":["nocrits","nodmgspread","payload","uncletopia"],"game_id":440,"stv_port":27016,"stv_name":"Uncletopia | Hong Kong | 1 | All Maps | STV","players":[{"user_id":25,"name":"Hay","steam_id":76561199438952901,"connected_time":301000000000,"state":"active","ping":44},{"user_id":26,"name":"SugarCoat","steam_id":76561199230196794,"connected_time":257000000000,"state":"active","ping":117}]},{"server_id":1,"name":"Uncletopia | Los Angeles | 1 | All Maps","name_short":"lax-1","host":"lax-1.us.uncletopia.com","port":27015,"enabled":true,"region":"us-west","cc":"us","latitude":33.94279,"longitude":-118.41004,"reserved":0,"last_update":"0001-01-01T00:00:00Z","name_a2s":"Uncletopia | Los Angeles | 1 | All Maps","protocol":17,"map":"pl_badwater","folder":"tf","game":"Team Fortress","app_id":440,"player_count":24,"max_players":24,"Bots":0,"server_type":"Dedicated","server_os":"Linux","password":true,"vac":true,"version":"7932396","steam_id":85568392924469991,"keywords":["nocrits","nodmgspread","payload","uncletopia"],"game_id":440,"stv_port":27016,"stv_name":"Uncletopia | Los Angeles | 1 | All Maps | STV","players":[{"user_id":550,"name":"Ralph Kramden (Slim Charles)","steam_id":76561197981687895,"connected_time":577000000000,"state":"active","ping":56},{"user_id":546,"name":"RmBLe","steam_id":76561198150137369,"connected_time":1022000000000,"state":"active","ping":111},{"user_id":552,"name":"mynameisbeans","steam_id":76561198814945783,"connected_time":567000000000,"state":"active","ping":71},{"user_id":484,"name":"Dr. Zoidburg","steam_id":76561198174593497,"connected_time":8414000000000,"state":"active","ping":91},{"user_id":544,"name":"Cerby","steam_id":76561198052696183,"connected_time":1293000000000,"state":"active","ping":44},{"user_id":503,"name":"Stapler","steam_id":76561198099295077,"connected_time":6416000000000,"state":"active","ping":60},{"user_id":516,"name":"Lucas","steam_id":76561198399704604,"connected_time":4650000000000,"state":"active","ping":69},{"user_id":537,"name":"MakutaArty1987","steam_id":76561199048865492,"connected_time":1583000000000,"state":"active","ping":100},{"user_id":433,"name":"thebaconnator2016","steam_id":76561199100270424,"connected_time":12248000000000,"state":"active","ping":84},{"user_id":531,"name":"spherewithahat","steam_id":76561199122192660,"connected_time":2173000000000,"state":"active","ping":111},{"user_id":493,"name":"Gerbias","steam_id":76561198001002427,"connected_time":7605000000000,"state":"active","ping":61},{"user_id":555,"name":"HeroOfTime","steam_id":76561199096218001,"connected_time":25000000000,"state":"active","ping":62},{"user_id":538,"name":"lunamoon250","steam_id":76561199122331888,"connected_time":1574000000000,"state":"active","ping":118},{"user_id":539,"name":"the dishtv1605","steam_id":76561198061284371,"connected_time":1573000000000,"state":"active","ping":106},{"user_id":529,"name":"Nice","steam_id":76561199180653046,"connected_time":2897000000000,"state":"active","ping":165},{"user_id":495,"name":"shitass | troutsupply.net","steam_id":76561198210572481,"connected_time":7286000000000,"state":"active","ping":45},{"user_id":554,"name":"Ian","steam_id":76561198159334435,"connected_time":538000000000,"state":"active","ping":170},{"user_id":556,"name":"DJ-Whatchya #rEtiReD","steam_id":76561198060355298,"connected_time":19000000000,"state":"spawning","ping":137},{"user_id":477,"name":"Zigadox","steam_id":76561198079813479,"connected_time":9338000000000,"state":"active","ping":123},{"user_id":533,"name":"It's a Doggydog World","steam_id":76561198018232414,"connected_time":1941000000000,"state":"active","ping":76},{"user_id":553,"name":"Fargo","steam_id":76561198044703931,"connected_time":560000000000,"state":"active","ping":83},{"user_id":504,"name":"Brutalist Turkish Ice Cream Guy","steam_id":76561198067176829,"connected_time":6124000000000,"state":"active","ping":53},{"user_id":505,"name":"Sol","steam_id":76561198121500201,"connected_time":6013000000000,"state":"active","ping":45},{"user_id":551,"name":"kr1tsurf3r","steam_id":76561198076402476,"connected_time":577000000000,"state":"active","ping":66}]},{"server_id":112,"name":"Uncletopia | Los Angeles | 2 | All Maps","name_short":"lax-2","host":"lax-1.us.uncletopia.com","port":27025,"enabled":true,"region":"us-west","cc":"us","latitude":33.94279,"longitude":-118.41004,"reserved":0,"last_update":"0001-01-01T00:00:00Z","name_a2s":"Uncletopia | Los Angeles | 2 | All Maps","protocol":17,"map":"plr_hightower","folder":"tf","game":"Team Fortress","app_id":440,"player_count":24,"max_players":24,"Bots":0,"server_type":"Dedicated","server_os":"Linux","password":true,"vac":true,"version":"7932396","steam_id":85568392924469992,"keywords":["nocrits","nodmgspread","payload","uncletopia"],"game_id":440,"stv_port":27026,"stv_name":"Uncletopia | Los Angeles | 2 | All Maps | STV","players":[{"user_id":439,"name":"Sky","steam_id":76561198097549374,"connected_time":138000000000,"state":"active","ping":85},{"user_id":424,"name":"JohnnyBoi","steam_id":76561199082599937,"connected_time":1074000000000,"state":"active","ping":54},{"user_id":425,"name":"Mr lazy pants 72","steam_id":76561198396412589,"connected_time":1062000000000,"state":"active","ping":89},{"user_id":403,"name":"Crazy Hungarian","steam_id":76561198025498172,"connected_time":2677000000000,"state":"active","ping":64},{"user_id":408,"name":"Dragonsalt","steam_id":76561198141927559,"connected_time":2596000000000,"state":"active","ping":75},{"user_id":368,"name":"Ok then","steam_id":76561198891914787,"connected_time":5117000000000,"state":"active","ping":81},{"user_id":366,"name":"Dip","steam_id":76561198340433719,"connected_time":5477000000000,"state":"active","ping":91},{"user_id":433,"name":"Clover","steam_id":76561198038905361,"connected_time":669000000000,"state":"active","ping":95},{"user_id":438,"name":"An00bis","steam_id":76561198044084508,"connected_time":240000000000,"state":"active","ping":45},{"user_id":426,"name":"zDy-Caro","steam_id":76561198826557853,"connected_time":1051000000000,"state":"active","ping":72},{"user_id":427,"name":"Silly Shark","steam_id":76561198130714378,"connected_time":1050000000000,"state":"active","ping":88},{"user_id":394,"name":"Shadoe","steam_id":76561198218577281,"connected_time":3762000000000,"state":"active","ping":104},{"user_id":428,"name":"Huebert_Fidenth","steam_id":76561199486834369,"connected_time":1040000000000,"state":"active","ping":106},{"user_id":412,"name":"vaurien13","steam_id":76561198088553270,"connected_time":2546000000000,"state":"active","ping":100},{"user_id":429,"name":"DuckyDave","steam_id":76561199080644355,"connected_time":1013000000000,"state":"active","ping":128},{"user_id":417,"name":"G1i7c63d","steam_id":76561198439293439,"connected_time":2373000000000,"state":"active","ping":86},{"user_id":441,"name":"NagitoTheLucky","steam_id":76561198065096327,"connected_time":50000000000,"state":"active","ping":60},{"user_id":411,"name":"Not Ghostie","steam_id":76561198068686762,"connected_time":2563000000000,"state":"active","ping":108},{"user_id":437,"name":"walrooos","steam_id":76561198024521839,"connected_time":397000000000,"state":"active","ping":45},{"user_id":418,"name":"A UsedNom","steam_id":76561198402832756,"connected_time":2307000000000,"state":"active","ping":57},{"user_id":401,"name":"Your childhood","steam_id":76561198799385466,"connected_time":2861000000000,"state":"active","ping":117},{"user_id":415,"name":"RapidWizzard","steam_id":76561199248097034,"connected_time":2514000000000,"state":"active","ping":89},{"user_id":436,"name":"Type Three Dabeetus","steam_id":76561198062710038,"connected_time":494000000000,"state":"active","ping":59},{"user_id":352,"name":"Cmoon99999","steam_id":76561198928412604,"connected_time":6360000000000,"state":"active","ping":118}]},{"server_id":324,"name":"Uncletopia | Los Angeles | 3 | All Maps","name_short":"lax-3","host":"lax-1.us.uncletopia.com","port":27035,"enabled":true,"region":"us-west","cc":"us","latitude":33.94279,"longitude":-118.41004,"reserved":0,"last_update":"0001-01-01T00:00:00Z","name_a2s":"Uncletopia | Los Angeles | 3 | All Maps","protocol":17,"map":"pl_thundermountain","folder":"tf","game":"Team Fortress","app_id":440,"player_count":24,"max_players":24,"Bots":0,"server_type":"Dedicated","server_os":"Linux","password":true,"vac":true,"version":"7932396","steam_id":85568392924510198,"keywords":["nocrits","nodmgspread","payload","uncletopia"],"game_id":440,"stv_port":27036,"stv_name":"Uncletopia | Los Angeles | 3 | All Maps | STV","players":[{"user_id":97,"name":"Sozuki","steam_id":76561198961150367,"connected_time":2459000000000,"state":"active","ping":46},{"user_id":120,"name":"Unwavering Flavor","steam_id":76561198053306065,"connected_time":193000000000,"state":"active","ping":76},{"user_id":121,"name":"Peyote Peterson","steam_id":76561198071093032,"connected_time":154000000000,"state":"active","ping":36},{"user_id":81,"name":"UnReLinked","steam_id":76561199366044663,"connected_time":3730000000000,"state":"active","ping":75},{"user_id":76,"name":"Jacob Hornberger 2016","steam_id":76561198204549723,"connected_time":3912000000000,"state":"active","ping":128},{"user_id":39,"name":"naturia","steam_id":76561198092317849,"connected_time":5312000000000,"state":"active","ping":45},{"user_id":105,"name":"silvanae324","steam_id":76561199150642573,"connected_time":2034000000000,"state":"active","ping":84},{"user_id":122,"name":"the meat man","steam_id":76561198037921140,"connected_time":146000000000,"state":"active","ping":45},{"user_id":118,"name":"Sax","steam_id":76561198055425123,"connected_time":285000000000,"state":"active","ping":89},{"user_id":74,"name":"Herbal Infusion","steam_id":76561198146881319,"connected_time":4135000000000,"state":"active","ping":55},{"user_id":116,"name":"VicLoL","steam_id":76561198045580784,"connected_time":540000000000,"state":"active","ping":59},{"user_id":102,"name":"Shalom","steam_id":76561198410005222,"connected_time":2333000000000,"state":"active","ping":76},{"user_id":107,"name":"jungus","steam_id":76561198129862008,"connected_time":1525000000000,"state":"active","ping":46},{"user_id":96,"name":"-_-","steam_id":76561198048754646,"connected_time":2479000000000,"state":"active","ping":46},{"user_id":103,"name":"Titan Exodos","steam_id":76561198063852935,"connected_time":2328000000000,"state":"active","ping":82},{"user_id":94,"name":"Sleuth","steam_id":76561198418288939,"connected_time":2706000000000,"state":"active","ping":70},{"user_id":108,"name":"Null | Crack Clan","steam_id":76561198895762836,"connected_time":1452000000000,"state":"active","ping":61},{"user_id":86,"name":"The Benefactor","steam_id":76561198307247913,"connected_time":3605000000000,"state":"active","ping":52},{"user_id":114,"name":"Subderhenge","steam_id":76561198090955892,"connected_time":850000000000,"state":"active","ping":97},{"user_id":115,"name":"ryder","steam_id":76561199230391346,"connected_time":791000000000,"state":"active","ping":112},{"user_id":79,"name":"Santa Gaming","steam_id":76561198078391538,"connected_time":3831000000000,"state":"active","ping":103},{"user_id":56,"name":"Zion Chavez","steam_id":76561198178536999,"connected_time":5144000000000,"state":"active","ping":61},{"user_id":93,"name":"Woody","steam_id":76561198055842769,"connected_time":2770000000000,"state":"active","ping":45},{"user_id":106,"name":"Pyrotek‚Å¥","steam_id":76561198072747672,"connected_time":2003000000000,"state":"active","ping":45}]},{"server_id":25,"name":"Uncletopia | Los Angeles | 4 | Stopwatch Beta","name_short":"lax-4","host":"lax-1.us.uncletopia.com","port":27045,"enabled":true,"region":"us-west","cc":"us","latitude":33.94279,"longitude":-118.41004,"reserved":0,"last_update":"0001-01-01T00:00:00Z","name_a2s":"Uncletopia | Los Angeles | 4 | Stopwatch Beta","protocol":17,"map":"pl_swiftwater_final1","folder":"tf","game":"Team Fortress","app_id":440,"player_count":0,"max_players":24,"Bots":0,"server_type":"Dedicated","server_os":"Linux","password":true,"vac":true,"version":"7932396","steam_id":85568392924510199,"keywords":["nocrits","nodmgspread","payload","uncletopia"],"game_id":440,"stv_port":27046,"stv_name":"Uncletopia | Los Angeles | 4 | Stopwatch Beta | STV","players":null},{"server_id":11,"name":"Uncletopia | London | 1 | All Maps","name_short":"lon-1","host":"lon-1.uk.uncletopia.com","port":27015,"enabled":true,"region":"eu","cc":"gb","latitude":51.509865,"longitude":-0.118092,"reserved":0,"last_update":"0001-01-01T00:00:00Z","name_a2s":"Uncletopia | London | 1 | All Maps","protocol":17,"map":"pl_borneo","folder":"tf","game":"Team Fortress","app_id":440,"player_count":0,"max_players":24,"Bots":0,"server_type":"Dedicated","server_os":"Linux","password":true,"vac":true,"version":"7932396","steam_id":85568392924367362,"keywords":["nocrits","nodmgspread","payload","uncletopia"],"game_id":440,"stv_port":27016,"stv_name":"Uncletopia | London | 1 | All Maps | STV","players":null},{"server_id":114,"name":"Uncletopia | London | 2 | All Maps","name_short":"lon-2","host":"lon-1.uk.uncletopia.com","port":27025,"enabled":true,"region":"eu","cc":"gb","latitude":51.509865,"longitude":-0.118092,"reserved":0,"last_update":"0001-01-01T00:00:00Z","name_a2s":"Uncletopia | London | 2 | All Maps","protocol":17,"map":"cp_mercenarypark","folder":"tf","game":"Team Fortress","app_id":440,"player_count":19,"max_players":24,"Bots":0,"server_type":"Dedicated","server_os":"Linux","password":true,"vac":true,"version":"7932396","steam_id":85568392924470941,"keywords":["cp","nocrits","nodmgspread","uncletopia"],"game_id":440,"stv_port":27026,"stv_name":"Uncletopia | London | 2 | All Maps | STV","players":[{"user_id":909,"name":"Geese Goose","steam_id":76561198070903248,"connected_time":312000000000,"state":"active","ping":57},{"user_id":905,"name":"Omyskull","steam_id":76561198131711758,"connected_time":461000000000,"state":"active","ping":60},{"user_id":902,"name":"sokige","steam_id":76561198167112371,"connected_time":692000000000,"state":"active","ping":100},{"user_id":837,"name":"zherny","steam_id":76561198027033926,"connected_time":5568000000000,"state":"active","ping":45},{"user_id":894,"name":"GuSkand","steam_id":76561198043775605,"connected_time":1681000000000,"state":"active","ping":93},{"user_id":885,"name":"Mau","steam_id":76561198410945277,"connected_time":2532000000000,"state":"active","ping":119},{"user_id":864,"name":"scout TF2","steam_id":76561198072037878,"connected_time":4074000000000,"state":"active","ping":45},{"user_id":839,"name":"wat","steam_id":76561198145465595,"connected_time":5553000000000,"state":"active","ping":37},{"user_id":896,"name":"Kai","steam_id":76561198800004578,"connected_time":719000000000,"state":"active","ping":50},{"user_id":906,"name":"ted","steam_id":76561198119568042,"connected_time":344000000000,"state":"active","ping":45},{"user_id":887,"name":"TheMasterOfTheZaZa","steam_id":76561197994310420,"connected_time":2528000000000,"state":"active","ping":60},{"user_id":897,"name":"You","steam_id":76561198382668057,"connected_time":718000000000,"state":"active","ping":73},{"user_id":853,"name":"+2","steam_id":76561198116986693,"connected_time":4931000000000,"state":"active","ping":89},{"user_id":898,"name":"MatarArg","steam_id":76561198280246498,"connected_time":718000000000,"state":"active","ping":112},{"user_id":908,"name":"COULANTE SURPRISE","steam_id":76561198965913840,"connected_time":329000000000,"state":"active","ping":47},{"user_id":888,"name":"BlueBlueFox","steam_id":76561198053817230,"connected_time":2499000000000,"state":"active","ping":67},{"user_id":893,"name":"in the house like carpet","steam_id":76561199480942903,"connected_time":2230000000000,"state":"active","ping":75},{"user_id":889,"name":"Jmen","steam_id":76561198000501096,"connected_time":2484000000000,"state":"active","ping":57},{"user_id":891,"name":"stun","steam_id":76561198276681691,"connected_time":2319000000000,"state":"active","ping":46}]},{"server_id":320,"name":"Uncletopia | London | 3 | All Maps","name_short":"lon-3","host":"lon-1.uk.uncletopia.com","port":27035,"enabled":true,"region":"eu","cc":"gb","latitude":51.509865,"longitude":-0.118092,"reserved":0,"last_update":"0001-01-01T00:00:00Z","name_a2s":"Uncletopia | London | 3 | All Maps","protocol":17,"map":"pl_frontier_final","folder":"tf","game":"Team Fortress","app_id":440,"player_count":0,"max_players":24,"Bots":0,"server_type":"Dedicated","server_os":"Linux","password":true,"vac":true,"version":"7932396","steam_id":85568392924510192,"keywords":["nocrits","nodmgspread","payload","uncletopia"],"game_id":440,"stv_port":27036,"stv_name":"Uncletopia | London | 3 | All Maps | STV","players":null},{"server_id":321,"name":"Uncletopia | London | 4 | All Maps","name_short":"lon-4","host":"lon-1.uk.uncletopia.com","port":27045,"enabled":true,"region":"eu","cc":"gb","latitude":51.509865,"longitude":-0.118092,"reserved":0,"last_update":"0001-01-01T00:00:00Z","name_a2s":"Uncletopia | London | 4 | All Maps","protocol":17,"map":"koth_lakeside_final","folder":"tf","game":"Team Fortress","app_id":440,"player_count":0,"max_players":24,"Bots":0,"server_type":"Dedicated","server_os":"Linux","password":true,"vac":true,"version":"7932396","steam_id":85568392924510193,"keywords":["cp","nocrits","nodmgspread","uncletopia"],"game_id":440,"stv_port":27046,"stv_name":"Uncletopia | London | 4 | All Maps | STV","players":null},{"server_id":21,"name":"Uncletopia | London | 5 | All Maps","name_short":"lon-5","host":"lon-1.uk.uncletopia.com","port":27055,"enabled":true,"region":"eu","cc":"gb","latitude":51.509865,"longitude":-0.118092,"reserved":0,"last_update":"0001-01-01T00:00:00Z","name_a2s":"Uncletopia | London | 5 | All Maps","protocol":17,"map":"pl_swiftwater_final1","folder":"tf","game":"Team Fortress","app_id":440,"player_count":2,"max_players":24,"Bots":0,"server_type":"Dedicated","server_os":"Linux","password":true,"vac":true,"version":"7932396","steam_id":85568392924742829,"keywords":["nocrits","nodmgspread","payload","uncletopia"],"game_id":440,"stv_port":27056,"stv_name":"Uncletopia | London | 5 | All Maps | STV","players":[{"user_id":931,"name":"Sconedog04","steam_id":76561198410923783,"connected_time":510000000000,"state":"active","ping":131},{"user_id":925,"name":"ultra lox","steam_id":76561199427318825,"connected_time":1438000000000,"state":"active","ping":177}]},{"server_id":22,"name":"Uncletopia | London | 6 | All Maps","name_short":"lon-6","host":"lon-1.uk.uncletopia.com","port":27065,"enabled":true,"region":"eu","cc":"gb","latitude":51.509865,"longitude":-0.118092,"reserved":0,"last_update":"0001-01-01T00:00:00Z","name_a2s":"Uncletopia | London | 6 | All Maps","protocol":17,"map":"pl_snowycoast","folder":"tf","game":"Team Fortress","app_id":440,"player_count":0,"max_players":24,"Bots":0,"server_type":"Dedicated","server_os":"Linux","password":true,"vac":true,"version":"7932396","steam_id":85568392924742830,"keywords":["nocrits","nodmgspread","payload","uncletopia"],"game_id":440,"stv_port":27066,"stv_name":"Uncletopia | London | 6 | All Maps | STV","players":null},{"server_id":40,"name":"Uncletopia | London | 7 | No Payload","name_short":"lon-7","host":"lon-1.uk.uncletopia.com","port":27075,"enabled":true,"region":"eu","cc":"gb","latitude":51.509865,"longitude":-0.118092,"reserved":0,"last_update":"0001-01-01T00:00:00Z","name_a2s":"Uncletopia | London | 7 | No Payload","protocol":17,"map":"koth_nucleus","folder":"tf","game":"Team Fortress","app_id":440,"player_count":0,"max_players":24,"Bots":0,"server_type":"Dedicated","server_os":"Linux","password":true,"vac":true,"version":"7932396","steam_id":85568392924964314,"keywords":["cp","nocrits","nodmgspread","uncletopia"],"game_id":440,"stv_port":27076,"stv_name":"Uncletopia | London | 7 | No Payload | STV","players":null},{"server_id":41,"name":"Uncletopia | London | 8 | Community","name_short":"lon-8","host":"lon-1.uk.uncletopia.com","port":27085,"enabled":true,"region":"eu","cc":"gb","latitude":51.509865,"longitude":-0.118092,"reserved":0,"last_update":"0001-01-01T00:00:00Z","name_a2s":"Uncletopia | London | 8 | Community","protocol":17,"map":"workshop/pl_cashworks_final1.ugc2904065412","folder":"tf","game":"Team Fortress","app_id":440,"player_count":0,"max_players":24,"Bots":0,"server_type":"Dedicated","server_os":"Linux","password":true,"vac":true,"version":"7932396","steam_id":85568392924964315,"keywords":["nocrits","nodmgspread","payload","uncletopia"],"game_id":440,"stv_port":27086,"stv_name":"Uncletopia | London | 8 | Community | STV","players":null},{"server_id":300,"name":"Uncletopia | Montr√©al | 1 | All Maps","name_short":"mtl-1","host":"mtl-1.ca.uncletopia.com","port":27015,"enabled":true,"region":"us-east","cc":"ca","latitude":45.50889,"longitude":-73.56167,"reserved":0,"last_update":"0001-01-01T00:00:00Z","name_a2s":"Uncletopia | Montr√©al | 1 | All Maps","protocol":17,"map":"cp_dustbowl","folder":"tf","game":"Team Fortress","app_id":440,"player_count":24,"max_players":24,"Bots":0,"server_type":"Dedicated","server_os":"Linux","password":true,"vac":true,"version":"7932396","steam_id":85568392924500087,"keywords":["cp","nocrits","nodmgspread","uncletopia"],"game_id":440,"stv_port":27016,"stv_name":"Uncletopia | Montr√©al | 1 | All Maps | STV","players":[{"user_id":11,"name":"Munchyjr","steam_id":76561198041498014,"connected_time":6570000000000,"state":"active","ping":48},{"user_id":12,"name":"Morde","steam_id":76561198050920687,"connected_time":6553000000000,"state":"active","ping":37},{"user_id":64,"name":"Scooter O'Boyl","steam_id":76561197971687069,"connected_time":1811000000000,"state":"active","ping":69},{"user_id":14,"name":"Futo","steam_id":76561198023185653,"connected_time":6426000000000,"state":"active","ping":69},{"user_id":15,"name":"SonicSteve","steam_id":76561198044714546,"connected_time":6412000000000,"state":"active","ping":67},{"user_id":28,"name":"[VP]PurplePaladin","steam_id":76561198017011129,"connected_time":5605000000000,"state":"active","ping":50},{"user_id":53,"name":"HEE HOO DUSTBOWL!","steam_id":76561199389985063,"connected_time":4267000000000,"state":"active","ping":115},{"user_id":75,"name":"danielarmvt","steam_id":76561198799723201,"connected_time":49000000000,"state":"active","ping":104},{"user_id":30,"name":"Naramon","steam_id":76561198025645021,"connected_time":5530000000000,"state":"active","ping":113},{"user_id":55,"name":"Hatter","steam_id":76561198010341986,"connected_time":4147000000000,"state":"active","ping":60},{"user_id":22,"name":"CheddarCake","steam_id":76561198061993725,"connected_time":6039000000000,"state":"active","ping":60},{"user_id":76,"name":"Herdez Hot Salsa","steam_id":76561197991740906,"connected_time":21000000000,"state":"active","ping":62},{"user_id":54,"name":"Chrits","steam_id":76561198072082596,"connected_time":4266000000000,"state":"active","ping":72},{"user_id":49,"name":"Isles","steam_id":76561198036162511,"connected_time":4516000000000,"state":"active","ping":62},{"user_id":58,"name":"msay","steam_id":76561198170888029,"connected_time":3278000000000,"state":"active","ping":94},{"user_id":62,"name":"Komada337","steam_id":76561198153971124,"connected_time":2437000000000,"state":"active","ping":86},{"user_id":59,"name":"Zephyr","steam_id":76561198063155482,"connected_time":3215000000000,"state":"active","ping":77},{"user_id":66,"name":"I shovel mayonnaise in mouth","steam_id":76561199123118241,"connected_time":1742000000000,"state":"active","ping":125},{"user_id":56,"name":"Michaelpc1","steam_id":76561198088365519,"connected_time":4073000000000,"state":"active","ping":74},{"user_id":52,"name":"Alfonso Molestro","steam_id":76561197998677099,"connected_time":4359000000000,"state":"active","ping":67},{"user_id":74,"name":"fire","steam_id":76561198127149121,"connected_time":292000000000,"state":"active","ping":70},{"user_id":43,"name":"Stray","steam_id":76561198124726641,"connected_time":5173000000000,"state":"active","ping":84},{"user_id":60,"name":"Yams","steam_id":76561198068084541,"connected_time":2970000000000,"state":"active","ping":102},{"user_id":61,"name":"Hell's Reindeer","steam_id":76561198065310364,"connected_time":2647000000000,"state":"active","ping":71}]},{"server_id":301,"name":"Uncletopia | Montr√©al | 2 | All Maps","name_short":"mtl-2","host":"mtl-1.ca.uncletopia.com","port":27025,"enabled":true,"region":"us-east","cc":"ca","latitude":45.50889,"longitude":-73.56167,"reserved":0,"last_update":"0001-01-01T00:00:00Z","name_a2s":"Uncletopia | Montr√©al | 2 | All Maps","protocol":17,"map":"pl_borneo","folder":"tf","game":"Team Fortress","app_id":440,"player_count":23,"max_players":24,"Bots":0,"server_type":"Dedicated","server_os":"Linux","password":true,"vac":true,"version":"7932396","steam_id":85568392924500088,"keywords":["nocrits","nodmgspread","payload","uncletopia"],"game_id":440,"stv_port":27026,"stv_name":"Uncletopia | Montr√©al | 2 | All Maps | STV","players":[{"user_id":103,"name":"LittleFieryOne","steam_id":76561198107463724,"connected_time":5318000000000,"state":"active","ping":72},{"user_id":183,"name":"Rudy","steam_id":76561198013456828,"connected_time":630000000000,"state":"active","ping":57},{"user_id":181,"name":"El G√ºey","steam_id":76561197970450546,"connected_time":772000000000,"state":"active","ping":131},{"user_id":191,"name":"FADED THAN A HO","steam_id":76561199001348474,"connected_time":368000000000,"state":"active","ping":61},{"user_id":41,"name":"Szotski_house11","steam_id":76561199217545978,"connected_time":10108000000000,"state":"active","ping":135},{"user_id":129,"name":"Anamm","steam_id":76561198328762510,"connected_time":4199000000000,"state":"active","ping":56},{"user_id":185,"name":"you forgot the sauce","steam_id":76561198387016713,"connected_time":573000000000,"state":"active","ping":47},{"user_id":161,"name":"TwelvePackofSaltyBones","steam_id":76561198224764664,"connected_time":2184000000000,"state":"active","ping":77},{"user_id":140,"name":"hashmap","steam_id":76561198043794014,"connected_time":3312000000000,"state":"active","ping":45},{"user_id":177,"name":"Jo","steam_id":76561198060447015,"connected_time":882000000000,"state":"active","ping":85},{"user_id":186,"name":"SvicidalBug","steam_id":76561198221390504,"connected_time":533000000000,"state":"active","ping":110},{"user_id":174,"name":"$lime k‚úîng immaMuteD=B0Z0","steam_id":76561198283687382,"connected_time":1001000000000,"state":"active","ping":95},{"user_id":138,"name":"Donnie Blasto","steam_id":76561198043432005,"connected_time":3714000000000,"state":"active","ping":67},{"user_id":194,"name":"Sheev Palpatine","steam_id":76561198252332430,"connected_time":211000000000,"state":"active","ping":88},{"user_id":189,"name":"Indigolake","steam_id":76561198202215807,"connected_time":527000000000,"state":"active","ping":69},{"user_id":175,"name":"flootsmcdoots","steam_id":76561198124744765,"connected_time":986000000000,"state":"active","ping":63},{"user_id":139,"name":"Wiener Hole Paper Cut","steam_id":76561198000808203,"connected_time":3444000000000,"state":"active","ping":68},{"user_id":176,"name":"gon","steam_id":76561199422766504,"connected_time":971000000000,"state":"active","ping":128},{"user_id":153,"name":"acxeu","steam_id":76561198394435000,"connected_time":2719000000000,"state":"active","ping":67},{"user_id":190,"name":"Mr. Mackey","steam_id":76561199077027954,"connected_time":490000000000,"state":"active","ping":91},{"user_id":196,"name":"on that zaza?","steam_id":76561198038713198,"connected_time":32000000000,"state":"active","ping":60},{"user_id":158,"name":"Gubbington","steam_id":76561198959381302,"connected_time":2303000000000,"state":"active","ping":104},{"user_id":195,"name":"shroomjak","steam_id":76561198805154742,"connected_time":210000000000,"state":"active","ping":69}]},{"server_id":302,"name":"Uncletopia | Montr√©al | 3 | All Maps","name_short":"mtl-3","host":"mtl-1.ca.uncletopia.com","port":27035,"enabled":true,"region":"us-east","cc":"ca","latitude":45.50889,"longitude":-73.56167,"reserved":0,"last_update":"0001-01-01T00:00:00Z","name_a2s":"Uncletopia | Montr√©al | 3 | All Maps","protocol":17,"map":"cp_dustbowl","folder":"tf","game":"Team Fortress","app_id":440,"player_count":4,"max_players":24,"Bots":0,"server_type":"Dedicated","server_os":"Linux","password":true,"vac":true,"version":"7932396","steam_id":85568392924500089,"keywords":["cp","nocrits","nodmgspread","uncletopia"],"game_id":440,"stv_port":27036,"stv_name":"Uncletopia | Montr√©al | 3 | All Maps | STV","players":[{"user_id":13,"name":"Marineland","steam_id":76561198081285187,"connected_time":400000000000,"state":"active","ping":65},{"user_id":10,"name":"SteadyMetal0623","steam_id":76561198144942370,"connected_time":1325000000000,"state":"active","ping":71},{"user_id":11,"name":"darbun","steam_id":76561198121296628,"connected_time":696000000000,"state":"active","ping":178},{"user_id":12,"name":"Leshuguita","steam_id":76561198279130178,"connected_time":690000000000,"state":"active","ping":177}]},{"server_id":303,"name":"Uncletopia | Montr√©al | 4 | No Payload","name_short":"mtl-4","host":"mtl-1.ca.uncletopia.com","port":27045,"enabled":true,"region":"us-east","cc":"ca","latitude":45.50889,"longitude":-73.56167,"reserved":0,"last_update":"0001-01-01T00:00:00Z","name_a2s":"Uncletopia | Montr√©al | 4 | No Payload","protocol":17,"map":"koth_lakeside_final","folder":"tf","game":"Team Fortress","app_id":440,"player_count":0,"max_players":24,"Bots":0,"server_type":"Dedicated","server_os":"Linux","password":true,"vac":true,"version":"7932396","steam_id":85568392924500090,"keywords":["cp","nocrits","nodmgspread","uncletopia"],"game_id":440,"stv_port":27046,"stv_name":"Uncletopia | Montr√©al | 4 | No Payload | STV","players":null},{"server_id":13,"name":"Uncletopia | New York City | 1 | All Maps","name_short":"nyc-1","host":"nyc-1.us.uncletopia.com","port":27015,"enabled":true,"region":"us-east","cc":"us","latitude":40.73061,"longitude":-73.93524,"reserved":0,"last_update":"0001-01-01T00:00:00Z","name_a2s":"Uncletopia | New York City | 1 | All Maps","protocol":17,"map":"pl_pier","folder":"tf","game":"Team Fortress","app_id":440,"player_count":16,"max_players":24,"Bots":0,"server_type":"Dedicated","server_os":"Linux","password":true,"vac":true,"version":"7932396","steam_id":85568392924469993,"keywords":["nocrits","nodmgspread","payload","uncletopia"],"game_id":440,"stv_port":27016,"stv_name":"Uncletopia | New York City | 1 | All Maps | STV","players":[{"user_id":600,"name":"Awhsome Shause","steam_id":76561198042937036,"connected_time":2468000000000,"state":"active","ping":76},{"user_id":496,"name":"Jamendithas","steam_id":76561198119537716,"connected_time":10572000000000,"state":"active","ping":61},{"user_id":608,"name":"dillon","steam_id":76561198118054166,"connected_time":1505000000000,"state":"active","ping":53},{"user_id":617,"name":"·óúÀ¨·óú","steam_id":76561198049076233,"connected_time":724000000000,"state":"active","ping":50},{"user_id":607,"name":"PieSpie","steam_id":76561198054531169,"connected_time":1531000000000,"state":"active","ping":62},{"user_id":606,"name":"bendera","steam_id":76561197965486503,"connected_time":1556000000000,"state":"spawning","ping":72},{"user_id":619,"name":"Storethis","steam_id":76561198082792619,"connected_time":548000000000,"state":"active","ping":44},{"user_id":601,"name":"Chosen","steam_id":76561198443525987,"connected_time":2403000000000,"state":"spawning","ping":64},{"user_id":616,"name":"Eraserhead Baby","steam_id":76561198010968514,"connected_time":974000000000,"state":"active","ping":125},{"user_id":620,"name":"regular_consuelo","steam_id":76561198327831852,"connected_time":544000000000,"state":"active","ping":54},{"user_id":615,"name":"Hob-Goblin Jim The IV","steam_id":76561199046650666,"connected_time":1250000000000,"state":"active","ping":92},{"user_id":612,"name":"Patrick Mahomo","steam_id":76561198333858937,"connected_time":1419000000000,"state":"active","ping":105},{"user_id":618,"name":"BADLANDS CHUGS","steam_id":76561198129028971,"connected_time":651000000000,"state":"active","ping":54},{"user_id":613,"name":"SL164","steam_id":76561197970800276,"connected_time":1417000000000,"state":"active","ping":89},{"user_id":614,"name":"BubblyBoi","steam_id":76561198413223454,"connected_time":1417000000000,"state":"spawning","ping":56},{"user_id":525,"name":"Nerrrd_","steam_id":76561198870129960,"connected_time":8059000000000,"state":"active","ping":29}]},{"server_id":14,"name":"Uncletopia | New York City | 2 | All Maps","name_short":"nyc-2","host":"nyc-1.us.uncletopia.com","port":27025,"enabled":true,"region":"us-east","cc":"us","latitude":40.73061,"longitude":-73.93524,"reserved":0,"last_update":"0001-01-01T00:00:00Z","name_a2s":"Uncletopia | New York City | 2 | All Maps","protocol":17,"map":"pl_borneo","folder":"tf","game":"Team Fortress","app_id":440,"player_count":24,"max_players":24,"Bots":0,"server_type":"Dedicated","server_os":"Linux","password":true,"vac":true,"version":"7932396","steam_id":85568392924469994,"keywords":["nocrits","nodmgspread","payload","uncletopia"],"game_id":440,"stv_port":27026,"stv_name":"Uncletopia | New York City | 2 | All Maps | STV","players":[{"user_id":738,"name":"Rabbi Shlomo Berkowitz","steam_id":76561199166380439,"connected_time":502000000000,"state":"active","ping":42},{"user_id":716,"name":"shoxidizer","steam_id":76561198981983698,"connected_time":1204000000000,"state":"active","ping":64},{"user_id":699,"name":"vv","steam_id":76561198134813102,"connected_time":3264000000000,"state":"active","ping":62},{"user_id":705,"name":"KooKooKachue","steam_id":76561198391195262,"connected_time":2976000000000,"state":"active","ping":96},{"user_id":715,"name":"flwrgrl","steam_id":76561198815644949,"connected_time":1212000000000,"state":"active","ping":58},{"user_id":703,"name":"4jess20","steam_id":76561199488852383,"connected_time":2987000000000,"state":"active","ping":62},{"user_id":717,"name":"Lord Scrubling","steam_id":76561198263744445,"connected_time":1203000000000,"state":"active","ping":75},{"user_id":649,"name":"gIBBY","steam_id":76561198080099598,"connected_time":7340000000000,"state":"active","ping":42},{"user_id":718,"name":"Hecilious","steam_id":76561198193707370,"connected_time":1197000000000,"state":"active","ping":116},{"user_id":679,"name":"deadpixel","steam_id":76561198150249843,"connected_time":5360000000000,"state":"active","ping":75},{"user_id":739,"name":"Charlotte","steam_id":76561198194975870,"connected_time":417000000000,"state":"active","ping":61},{"user_id":601,"name":"alpharuby","steam_id":76561198051638462,"connected_time":11509000000000,"state":"active","ping":105},{"user_id":740,"name":"blockland.fan 4","steam_id":76561198173706067,"connected_time":410000000000,"state":"active","ping":127},{"user_id":733,"name":"drain.pablo.2005","steam_id":76561198303963691,"connected_time":846000000000,"state":"active","ping":72},{"user_id":675,"name":"blood-thirsty pitbull","steam_id":76561198106690989,"connected_time":5727000000000,"state":"active","ping":59},{"user_id":572,"name":"Phil Collins","steam_id":76561198068868644,"connected_time":13595000000000,"state":"active","ping":112},{"user_id":721,"name":"Peepster","steam_id":76561198297854733,"connected_time":1189000000000,"state":"active","ping":84},{"user_id":731,"name":"Giant Joseph Fan Boy","steam_id":76561199230019748,"connected_time":968000000000,"state":"active","ping":85},{"user_id":702,"name":"Mr. Durian","steam_id":76561198093813212,"connected_time":2997000000000,"state":"active","ping":65},{"user_id":726,"name":"cro","steam_id":76561198406023539,"connected_time":1077000000000,"state":"active","ping":115},{"user_id":732,"name":"crumpsycodger","steam_id":76561197972601902,"connected_time":967000000000,"state":"active","ping":105},{"user_id":713,"name":"Capybara Enjoyer","steam_id":76561199147114434,"connected_time":2148000000000,"state":"active","ping":136},{"user_id":741,"name":"A Rope, for big pits","steam_id":76561198068044782,"connected_time":395000000000,"state":"active","ping":59},{"user_id":728,"name":"Miken","steam_id":76561198433650369,"connected_time":1069000000000,"state":"active","ping":70}]},{"server_id":15,"name":"Uncletopia | New York City | 3 | Stopwatch Beta","name_short":"nyc-3","host":"nyc-1.us.uncletopia.com","port":27035,"enabled":true,"region":"us-east","cc":"us","latitude":40.73061,"longitude":-73.93524,"reserved":0,"last_update":"0001-01-01T00:00:00Z","name_a2s":"Uncletopia | New York City | 3 | Stopwatch Beta","protocol":17,"map":"workshop/koth_bagel_rc6.ugc2514036946","folder":"tf","game":"Team Fortress","app_id":440,"player_count":0,"max_players":24,"Bots":0,"server_type":"Dedicated","server_os":"Linux","password":true,"vac":true,"version":"7932396","steam_id":85568392924742820,"keywords":["cp","nocrits","nodmgspread","uncletopia"],"game_id":440,"stv_port":27036,"stv_name":"Uncletopia | New York City | 3 | Stopwatch Beta | STV","players":null},{"server_id":16,"name":"Uncletopia | New York City | 4 | Community","name_short":"nyc-4","host":"nyc-1.us.uncletopia.com","port":27045,"enabled":true,"region":"us-east","cc":"us","latitude":40.73061,"longitude":-73.93524,"reserved":0,"last_update":"0001-01-01T00:00:00Z","name_a2s":"Uncletopia | New York City | 4 | Community","protocol":17,"map":"workshop/koth_ashville_final.ugc2130459942","folder":"tf","game":"Team Fortress","app_id":440,"player_count":0,"max_players":24,"Bots":0,"server_type":"Dedicated","server_os":"Linux","password":true,"vac":true,"version":"7932396","steam_id":85568392924742821,"keywords":["cp","nocrits","nodmgspread","uncletopia"],"game_id":440,"stv_port":27046,"stv_name":"Uncletopia | New York City | 4 | Community | STV","players":null},{"server_id":142,"name":"Uncletopia | S√£o Paulo | 1 | All Maps","name_short":"sao-1","host":"sao-1.br.uncletopia.com","port":27015,"enabled":true,"region":"sa","cc":"br","latitude":-23.533773,"longitude":-46.62529,"reserved":0,"last_update":"0001-01-01T00:00:00Z","name_a2s":"Uncletopia | S√£o Paulo | 1 | All Maps","protocol":17,"map":"koth_highpass","folder":"tf","game":"Team Fortress","app_id":440,"player_count":1,"max_players":24,"Bots":0,"server_type":"Dedicated","server_os":"Linux","password":true,"vac":true,"version":"7932396","steam_id":85568392924469996,"keywords":["cp","nocrits","nodmgspread","uncletopia"],"game_id":440,"stv_port":27016,"stv_name":"Uncletopia | S√£o Paulo | 1 | All Maps | STV","players":[{"user_id":54,"name":"pabloczumelzu","steam_id":76561199487055247,"connected_time":352000000000,"state":"active","ping":120}]},{"server_id":143,"name":"Uncletopia | S√£o Paulo | 2 | All Maps","name_short":"sao-2","host":"sao-2.br.uncletopia.com","port":27015,"enabled":true,"region":"sa","cc":"br","latitude":-23.533773,"longitude":-46.62529,"reserved":0,"last_update":"0001-01-01T00:00:00Z","name_a2s":"Uncletopia | S√£o Paulo | 2 | All Maps","protocol":17,"map":"koth_brazil","folder":"tf","game":"Team Fortress","app_id":440,"player_count":0,"max_players":24,"Bots":0,"server_type":"Dedicated","server_os":"Linux","password":true,"vac":true,"version":"7932396","steam_id":85568392924485349,"keywords":["cp","nocrits","nodmgspread","uncletopia"],"game_id":440,"stv_port":27016,"stv_name":"Uncletopia | S√£o Paulo | 2 | All Maps | STV","players":null},{"server_id":7,"name":"Uncletopia | Seattle | 1 | All Maps","name_short":"sea-1","host":"sea-1.us.uncletopia.com","port":27015,"enabled":true,"region":"us-west","cc":"us","latitude":47.608013,"longitude":-122.33517,"reserved":0,"last_update":"0001-01-01T00:00:00Z","name_a2s":"Uncletopia | Seattle | 1 | All Maps","protocol":17,"map":"cp_metalworks","folder":"tf","game":"Team Fortress","app_id":440,"player_count":24,"max_players":24,"Bots":0,"server_type":"Dedicated","server_os":"Linux","password":true,"vac":true,"version":"7932396","steam_id":85568392924469997,"keywords":["cp","nocrits","nodmgspread","uncletopia"],"game_id":440,"stv_port":27016,"stv_name":"Uncletopia | Seattle | 1 | All Maps | STV","players":[{"user_id":638,"name":"Dr. Professor PJ, Ph.D","steam_id":76561198004429398,"connected_time":2439000000000,"state":"active","ping":94},{"user_id":666,"name":"The Super Mario Bros. Movie","steam_id":76561198871692156,"connected_time":495000000000,"state":"active","ping":46},{"user_id":664,"name":"girl let me she/them titties","steam_id":76561198107941274,"connected_time":670000000000,"state":"active","ping":77},{"user_id":471,"name":"VerminKing","steam_id":76561198060887391,"connected_time":17273000000000,"state":"active","ping":59},{"user_id":663,"name":"Strikerbolt","steam_id":76561199095622897,"connected_time":703000000000,"state":"active","ping":78},{"user_id":658,"name":"Xtar","steam_id":76561198301774048,"connected_time":1091000000000,"state":"active","ping":61},{"user_id":672,"name":"TwoForFlinching","steam_id":76561198073814209,"connected_time":99000000000,"state":"active","ping":123},{"user_id":617,"name":"beam man","steam_id":76561198060567341,"connected_time":3955000000000,"state":"active","ping":105},{"user_id":661,"name":"Security Chief Boper","steam_id":76561198218558897,"connected_time":1029000000000,"state":"active","ping":64},{"user_id":579,"name":"viciousskeetblaster","steam_id":76561198086876652,"connected_time":8664000000000,"state":"active","ping":76},{"user_id":671,"name":"Greskrendtregk","steam_id":76561197969553142,"connected_time":133000000000,"state":"active","ping":54},{"user_id":625,"name":"geemailman007","steam_id":76561198141283242,"connected_time":3182000000000,"state":"active","ping":45},{"user_id":642,"name":"Mocha Josie","steam_id":76561198066452726,"connected_time":2287000000000,"state":"active","ping":76},{"user_id":613,"name":"TROY","steam_id":76561197983852176,"connected_time":4430000000000,"state":"active","ping":71},{"user_id":616,"name":"The Quickster","steam_id":76561198087463787,"connected_time":3977000000000,"state":"active","ping":56},{"user_id":600,"name":"CashGordon","steam_id":76561197975594096,"connected_time":6605000000000,"state":"active","ping":40},{"user_id":660,"name":"Nea","steam_id":76561198408792773,"connected_time":1073000000000,"state":"active","ping":45},{"user_id":648,"name":"Meerkat","steam_id":76561199245435539,"connected_time":1753000000000,"state":"active","ping":91},{"user_id":619,"name":"fwoov","steam_id":76561198129166260,"connected_time":3822000000000,"state":"active","ping":88},{"user_id":594,"name":"goldhed","steam_id":76561198051751133,"connected_time":7128000000000,"state":"active","ping":61},{"user_id":668,"name":"GETTER BRODO","steam_id":76561199013331345,"connected_time":445000000000,"state":"active","ping":136},{"user_id":601,"name":"camp3r","steam_id":76561197992870439,"connected_time":6572000000000,"state":"active","ping":33},{"user_id":654,"name":"tropis","steam_id":76561198067365603,"connected_time":1235000000000,"state":"active","ping":106},{"user_id":670,"name":"sierra","steam_id":76561197969873415,"connected_time":309000000000,"state":"active","ping":168}]},{"server_id":119,"name":"Uncletopia | Seattle | 2 | All Maps","name_short":"sea-2","host":"sea-1.us.uncletopia.com","port":27025,"enabled":true,"region":"us-west","cc":"us","latitude":47.608013,"longitude":-122.33517,"reserved":0,"last_update":"0001-01-01T00:00:00Z","name_a2s":"Uncletopia | Seattle | 2 | All Maps","protocol":17,"map":"koth_sawmill","folder":"tf","game":"Team Fortress","app_id":440,"player_count":23,"max_players":24,"Bots":0,"server_type":"Dedicated","server_os":"Linux","password":true,"vac":true,"version":"7932396","steam_id":85568392924469998,"keywords":["cp","nocrits","nodmgspread","uncletopia"],"game_id":440,"stv_port":27026,"stv_name":"Uncletopia | Seattle | 2 | All Maps | STV","players":[{"user_id":592,"name":"lamadre07","steam_id":76561198067337453,"connected_time":565000000000,"state":"active","ping":127},{"user_id":599,"name":"legend","steam_id":76561198117694535,"connected_time":307000000000,"state":"active","ping":89},{"user_id":575,"name":"Clump","steam_id":76561198049690860,"connected_time":2860000000000,"state":"active","ping":58},{"user_id":594,"name":"‚ôÇ boss of this gym ‚ôÇ","steam_id":76561198027102212,"connected_time":525000000000,"state":"active","ping":72},{"user_id":584,"name":"gloobern","steam_id":76561198341190679,"connected_time":934000000000,"state":"active","ping":67},{"user_id":597,"name":"PJROCK101","steam_id":76561198070616561,"connected_time":393000000000,"state":"active","ping":62},{"user_id":586,"name":"DORK","steam_id":76561198037384555,"connected_time":931000000000,"state":"active","ping":71},{"user_id":571,"name":"BLU3","steam_id":76561198059652670,"connected_time":3323000000000,"state":"active","ping":46},{"user_id":587,"name":"Toest","steam_id":76561198076061844,"connected_time":910000000000,"state":"active","ping":105},{"user_id":595,"name":"Hat Stack","steam_id":76561198806729611,"connected_time":448000000000,"state":"active","ping":64},{"user_id":449,"name":"a single goal","steam_id":76561198042913843,"connected_time":12044000000000,"state":"active","ping":58},{"user_id":574,"name":"Dirt Mammal","steam_id":76561198040781653,"connected_time":2964000000000,"state":"active","ping":52},{"user_id":598,"name":"Seriously Bruh","steam_id":76561198070408485,"connected_time":379000000000,"state":"active","ping":61},{"user_id":549,"name":"Baggage","steam_id":76561198215128080,"connected_time":5765000000000,"state":"active","ping":71},{"user_id":576,"name":"ORANGE","steam_id":76561198000401769,"connected_time":2838000000000,"state":"active","ping":51},{"user_id":578,"name":"Zir√òhh","steam_id":76561198202286460,"connected_time":2226000000000,"state":"active","ping":135},{"user_id":588,"name":"ihavetapeworms","steam_id":76561198357040313,"connected_time":878000000000,"state":"active","ping":67},{"user_id":589,"name":"Skifity","steam_id":76561199304129838,"connected_time":872000000000,"state":"active","ping":107},{"user_id":551,"name":"RoseMari18","steam_id":76561198446827299,"connected_time":5753000000000,"state":"active","ping":102},{"user_id":503,"name":"Trueno","steam_id":76561199080515661,"connected_time":9021000000000,"state":"active","ping":69},{"user_id":582,"name":"Hindmost","steam_id":76561199081837220,"connected_time":1626000000000,"state":"active","ping":112},{"user_id":564,"name":"Grungus","steam_id":76561198047700230,"connected_time":4173000000000,"state":"active","ping":68},{"user_id":534,"name":"ArrantWolf","steam_id":76561198251820446,"connected_time":7041000000000,"state":"active","ping":78}]},{"server_id":406,"name":"Uncletopia | Seattle | 3 | Stopwatch Beta","name_short":"sea-3","host":"sea-1.us.uncletopia.com","port":27035,"enabled":true,"region":"us-west","cc":"us","latitude":47.608013,"longitude":-122.33517,"reserved":0,"last_update":"0001-01-01T00:00:00Z","name_a2s":"Uncletopia | Seattle | 3 | Stopwatch Beta","protocol":17,"map":"koth_lakeside_final","folder":"tf","game":"Team Fortress","app_id":440,"player_count":0,"max_players":24,"Bots":0,"server_type":"Dedicated","server_os":"Linux","password":true,"vac":true,"version":"7932396","steam_id":85568392924515217,"keywords":["cp","nocrits","nodmgspread","uncletopia"],"game_id":440,"stv_port":27036,"stv_name":"Uncletopia | Seattle | 3 | Stopwatch Beta | STV","players":null},{"server_id":17,"name":"Uncletopia | San Francisco | 1 | All Maps","name_short":"sfo-1","host":"sfo-1.us.uncletopia.com","port":27015,"enabled":true,"region":"us-west","cc":"us","latitude":37.77397,"longitude":-122.4313,"reserved":0,"last_update":"0001-01-01T00:00:00Z","name_a2s":"Uncletopia | San Francisco | 1 | All Maps","protocol":17,"map":"pl_frontier_final","folder":"tf","game":"Team Fortress","app_id":440,"player_count":24,"max_players":24,"Bots":0,"server_type":"Dedicated","server_os":"Linux","password":true,"vac":true,"version":"7932396","steam_id":85568392924469999,"keywords":["nocrits","nodmgspread","payload","uncletopia"],"game_id":440,"stv_port":27016,"stv_name":"Uncletopia | San Francisco | 1 | All Maps | STV","players":[{"user_id":559,"name":"lili","steam_id":76561199391478575,"connected_time":1716000000000,"state":"active","ping":85},{"user_id":551,"name":"ROGUE-PLANET","steam_id":76561198116023052,"connected_time":2368000000000,"state":"active","ping":74},{"user_id":587,"name":"Joesauce","steam_id":76561199066995014,"connected_time":104000000000,"state":"active","ping":101},{"user_id":548,"name":"Excrement","steam_id":76561198167740127,"connected_time":2716000000000,"state":"active","ping":57},{"user_id":550,"name":"Power Jake","steam_id":76561198051510260,"connected_time":2638000000000,"state":"active","ping":60},{"user_id":583,"name":"Norriss","steam_id":76561198920296293,"connected_time":286000000000,"state":"active","ping":53},{"user_id":574,"name":"Balls Insurance","steam_id":76561198005860388,"connected_time":1071000000000,"state":"active","ping":58},{"user_id":582,"name":"DarkShadowNen","steam_id":76561199152982873,"connected_time":404000000000,"state":"active","ping":115},{"user_id":575,"name":"SPC Ham Sandwich","steam_id":76561198035752185,"connected_time":991000000000,"state":"active","ping":69},{"user_id":561,"name":"big car","steam_id":76561198067082350,"connected_time":1693000000000,"state":"active","ping":48},{"user_id":553,"name":"selvhat","steam_id":76561198114225509,"connected_time":2144000000000,"state":"active","ping":57},{"user_id":585,"name":"Saucy Boy","steam_id":76561198178332031,"connected_time":219000000000,"state":"active","ping":118},{"user_id":538,"name":"TORN RETINAS","steam_id":76561198033822457,"connected_time":3897000000000,"state":"active","ping":76},{"user_id":579,"name":"Arenovas","steam_id":76561198042341811,"connected_time":633000000000,"state":"active","ping":53},{"user_id":563,"name":"caca sniffer","steam_id":76561199099914725,"connected_time":1601000000000,"state":"active","ping":64},{"user_id":588,"name":"Jack","steam_id":76561198162899711,"connected_time":94000000000,"state":"active","ping":111},{"user_id":557,"name":"mega","steam_id":76561198089520959,"connected_time":1779000000000,"state":"active","ping":95},{"user_id":566,"name":"Pluto","steam_id":76561198338593690,"connected_time":1496000000000,"state":"active","ping":115},{"user_id":586,"name":"Spaceman","steam_id":76561198349305249,"connected_time":171000000000,"state":"active","ping":69},{"user_id":573,"name":"FI LO","steam_id":76561198976530881,"connected_time":1105000000000,"state":"active","ping":45},{"user_id":578,"name":"The_RainbowTrout","steam_id":76561199309554436,"connected_time":653000000000,"state":"active","ping":63},{"user_id":589,"name":"Master Cannoli","steam_id":76561198272327518,"connected_time":91000000000,"state":"active","ping":64},{"user_id":549,"name":"MrHour","steam_id":76561198097762732,"connected_time":2712000000000,"state":"active","ping":45},{"user_id":555,"name":"Giorno Giovanna","steam_id":76561198044106874,"connected_time":1818000000000,"state":"active","ping":65}]},{"server_id":18,"name":"Uncletopia | San Francisco | 2 | All Maps","name_short":"sfo-2","host":"sfo-1.us.uncletopia.com","port":27025,"enabled":true,"region":"us-west","cc":"us","latitude":37.77397,"longitude":-122.4313,"reserved":0,"last_update":"0001-01-01T00:00:00Z","name_a2s":"Uncletopia | San Francisco | 2 | All Maps","protocol":17,"map":"pl_pier","folder":"tf","game":"Team Fortress","app_id":440,"player_count":22,"max_players":24,"Bots":0,"server_type":"Dedicated","server_os":"Linux","password":true,"vac":true,"version":"7932396","steam_id":85568392924470000,"keywords":["nocrits","nodmgspread","payload","uncletopia"],"game_id":440,"stv_port":27026,"stv_name":"Uncletopia | San Francisco | 2 | All Maps | STV","players":[{"user_id":362,"name":"frostedflakes99","steam_id":76561199049292578,"connected_time":1677000000000,"state":"active","ping":58},{"user_id":378,"name":"covered in ants","steam_id":76561198065266282,"connected_time":1093000000000,"state":"active","ping":117},{"user_id":379,"name":"Kankree","steam_id":76561198070805051,"connected_time":1049000000000,"state":"active","ping":61},{"user_id":361,"name":"Sahalanthro","steam_id":76561199073298722,"connected_time":1689000000000,"state":"active","ping":66},{"user_id":354,"name":"Sanamsam1","steam_id":76561198051890899,"connected_time":2492000000000,"state":"active","ping":109},{"user_id":288,"name":"nori_420","steam_id":76561199117134203,"connected_time":8970000000000,"state":"active","ping":63},{"user_id":371,"name":"YaBoi0_0","steam_id":76561198024122526,"connected_time":1503000000000,"state":"active","ping":114},{"user_id":375,"name":"Some Genius","steam_id":76561198101868089,"connected_time":1366000000000,"state":"active","ping":45},{"user_id":390,"name":"framp down","steam_id":76561198006316527,"connected_time":402000000000,"state":"active","ping":76},{"user_id":393,"name":"stick","steam_id":76561198134334367,"connected_time":188000000000,"state":"active","ping":80},{"user_id":360,"name":"G. Howard Dee","steam_id":76561198058382812,"connected_time":1704000000000,"state":"active","ping":60},{"user_id":329,"name":"‚ù§ Ashley ‚ù§","steam_id":76561198056428303,"connected_time":5040000000000,"state":"active","ping":47},{"user_id":384,"name":"ApertureCity","steam_id":76561198004153607,"connected_time":666000000000,"state":"active","ping":124},{"user_id":338,"name":"self sufficient kitten","steam_id":76561197960592612,"connected_time":4377000000000,"state":"active","ping":61},{"user_id":385,"name":"CollDragon","steam_id":76561198067534450,"connected_time":656000000000,"state":"active","ping":104},{"user_id":382,"name":"ForAPessimistImPrettyOptimistic","steam_id":76561198170128009,"connected_time":707000000000,"state":"active","ping":55},{"user_id":369,"name":"chrome 2008 (she/they)","steam_id":76561198321277216,"connected_time":1536000000000,"state":"active","ping":61},{"user_id":391,"name":"JohnnyGitGud","steam_id":76561198401455467,"connected_time":397000000000,"state":"active","ping":62},{"user_id":381,"name":"(VoodooMagicGuy)","steam_id":76561198271653436,"connected_time":1003000000000,"state":"active","ping":118},{"user_id":392,"name":"Yackaboi","steam_id":76561199444911765,"connected_time":353000000000,"state":"active","ping":86},{"user_id":389,"name":"BasedGod","steam_id":76561198061177973,"connected_time":528000000000,"state":"active","ping":47},{"user_id":322,"name":"Wizard02","steam_id":76561198178293623,"connected_time":5584000000000,"state":"active","ping":98}]},{"server_id":19,"name":"Uncletopia | San Francisco | 3 | Stopwatch Beta","name_short":"sfo-3","host":"sfo-1.us.uncletopia.com","port":27035,"enabled":true,"region":"us-west","cc":"us","latitude":37.77397,"longitude":-122.4313,"reserved":0,"last_update":"0001-01-01T00:00:00Z","name_a2s":"Uncletopia | San Francisco | 3 | Stopwatch Beta","protocol":17,"map":"workshop/koth_ramjam_rc1.ugc459778887","folder":"tf","game":"Team Fortress","app_id":440,"player_count":0,"max_players":24,"Bots":0,"server_type":"Dedicated","server_os":"Linux","password":true,"vac":true,"version":"7932396","steam_id":85568392924742824,"keywords":["cp","nocrits","nodmgspread","uncletopia"],"game_id":440,"stv_port":27036,"stv_name":"Uncletopia | San Francisco | 3 | Stopwatch Beta | STV","players":null},{"server_id":20,"name":"Uncletopia | San Francisco | 4 | Community","name_short":"sfo-4","host":"sfo-1.us.uncletopia.com","port":27045,"enabled":true,"region":"us-west","cc":"us","latitude":37.77397,"longitude":-122.4313,"reserved":0,"last_update":"0001-01-01T00:00:00Z","name_a2s":"Uncletopia | San Francisco | 4 | Community","protocol":17,"map":"workshop/koth_ashville_final.ugc2130459942","folder":"tf","game":"Team Fortress","app_id":440,"player_count":0,"max_players":24,"Bots":0,"server_type":"Dedicated","server_os":"Linux","password":true,"vac":true,"version":"7932396","steam_id":85568392924742826,"keywords":["cp","nocrits","nodmgspread","uncletopia"],"game_id":440,"stv_port":27046,"stv_name":"Uncletopia | San Francisco | 4 | Community | STV","players":null},{"server_id":141,"name":"Uncletopia | Sydney | 1 | All Maps","name_short":"syd-1","host":"syd-1.au.uncletopia.com","port":27015,"enabled":true,"region":"au","cc":"au","latitude":-33.865143,"longitude":151.2099,"reserved":0,"last_update":"0001-01-01T00:00:00Z","name_a2s":"Uncletopia | Sydney | 1 | All Maps","protocol":17,"map":"cp_snakewater_final1","folder":"tf","game":"Team Fortress","app_id":440,"player_count":0,"max_players":24,"Bots":0,"server_type":"Dedicated","server_os":"Linux","password":true,"vac":true,"version":"7932396","steam_id":85568392924470001,"keywords":["cp","nocrits","nodmgspread","uncletopia"],"game_id":440,"stv_port":27016,"stv_name":"Uncletopia | Sydney | 1 | All Maps | STV","players":null},{"server_id":123,"name":"Uncletopia | Sydney | 2 | All Maps","name_short":"syd-2","host":"syd-1.au.uncletopia.com","port":27025,"enabled":true,"region":"au","cc":"au","latitude":-33.865143,"longitude":151.2099,"reserved":0,"last_update":"0001-01-01T00:00:00Z","name_a2s":"Uncletopia | Sydney | 2 | All Maps","protocol":17,"map":"koth_lakeside_final","folder":"tf","game":"Team Fortress","app_id":440,"player_count":0,"max_players":24,"Bots":0,"server_type":"Dedicated","server_os":"Linux","password":true,"vac":true,"version":"7932396","steam_id":85568392924470002,"keywords":["cp","nocrits","nodmgspread","uncletopia"],"game_id":440,"stv_port":27026,"stv_name":"Uncletopia | Sydney | 2 | All Maps | STV","players":null},{"server_id":395,"name":"Uncletopia | Sydney | 3 | All Maps","name_short":"syd-3","host":"syd-1.au.uncletopia.com","port":27035,"enabled":true,"region":"au","cc":"au","latitude":-33.865143,"longitude":151.2099,"reserved":0,"last_update":"0001-01-01T00:00:00Z","name_a2s":"Uncletopia | Sydney | 3 | All Maps","protocol":17,"map":"pl_upward","folder":"tf","game":"Team Fortress","app_id":440,"player_count":3,"max_players":24,"Bots":0,"server_type":"Dedicated","server_os":"Linux","password":true,"vac":true,"version":"7932396","steam_id":85568392925194467,"keywords":["nocrits","nodmgspread","payload","uncletopia"],"game_id":440,"stv_port":27036,"stv_name":"Uncletopia | Sydney | 3 | All Maps | STV","players":[{"user_id":28,"name":"tim88435","steam_id":76561198089653987,"connected_time":520000000000,"state":"active","ping":40},{"user_id":29,"name":"mongolian dane","steam_id":76561199443930358,"connected_time":239000000000,"state":"active","ping":224},{"user_id":30,"name":"Bobby Wilkinson","steam_id":76561198054985347,"connected_time":13000000000,"state":"spawning","ping":44}]},{"server_id":396,"name":"Uncletopia | Sydney | 4 | All Maps","name_short":"syd-4","host":"syd-1.au.uncletopia.com","port":27045,"enabled":true,"region":"au","cc":"au","latitude":-33.865143,"longitude":151.2099,"reserved":0,"last_update":"0001-01-01T00:00:00Z","name_a2s":"Uncletopia | Sydney | 4 | All Maps","protocol":17,"map":"cp_dustbowl","folder":"tf","game":"Team Fortress","app_id":440,"player_count":23,"max_players":24,"Bots":0,"server_type":"Dedicated","server_os":"Linux","password":true,"vac":true,"version":"7932396","steam_id":85568392925397958,"keywords":["cp","nocrits","nodmgspread","uncletopia"],"game_id":440,"stv_port":27046,"stv_name":"Uncletopia | Sydney | 4 | All Maps | STV","players":[{"user_id":64,"name":"thrax","steam_id":76561197992385270,"connected_time":1161000000000,"state":"active","ping":69},{"user_id":70,"name":"Bill Nye","steam_id":76561198312898168,"connected_time":804000000000,"state":"active","ping":57},{"user_id":58,"name":"michael","steam_id":76561198052848358,"connected_time":1735000000000,"state":"active","ping":58},{"user_id":67,"name":"[1UP]Ralphy","steam_id":76561198019107403,"connected_time":951000000000,"state":"active","ping":70},{"user_id":29,"name":"A 1989 Nissan Patrol DX","steam_id":76561198152812718,"connected_time":4031000000000,"state":"active","ping":71},{"user_id":82,"name":"funGus","steam_id":76561198799796200,"connected_time":347000000000,"state":"active","ping":72},{"user_id":49,"name":"Robotrannic","steam_id":76561198166465998,"connected_time":2428000000000,"state":"active","ping":75},{"user_id":36,"name":"Mouse Balls","steam_id":76561199037470627,"connected_time":3273000000000,"state":"active","ping":114},{"user_id":60,"name":"Vaconcovat","steam_id":76561198024284041,"connected_time":1535000000000,"state":"active","ping":64},{"user_id":53,"name":"Toucan Sam (Real)","steam_id":76561198184873390,"connected_time":2005000000000,"state":"active","ping":53},{"user_id":54,"name":"perturb (feed/seed)","steam_id":76561198085124297,"connected_time":1994000000000,"state":"active","ping":56},{"user_id":55,"name":"Muffin","steam_id":76561198075391119,"connected_time":1918000000000,"state":"active","ping":54},{"user_id":56,"name":"Centrelink","steam_id":76561198988128327,"connected_time":1906000000000,"state":"active","ping":45},{"user_id":57,"name":"wom","steam_id":76561199375834537,"connected_time":1869000000000,"state":"active","ping":131},{"user_id":61,"name":"SilverPenguin","steam_id":76561199025744213,"connected_time":1525000000000,"state":"active","ping":98},{"user_id":83,"name":"SECT","steam_id":76561199122367855,"connected_time":265000000000,"state":"active","ping":155},{"user_id":63,"name":"hobo","steam_id":76561199046481213,"connected_time":1478000000000,"state":"active","ping":72},{"user_id":85,"name":"Bamooxa","steam_id":76561198067160709,"connected_time":53000000000,"state":"active","ping":75},{"user_id":80,"name":"cringe rizz","steam_id":76561198855798566,"connected_time":532000000000,"state":"active","ping":72},{"user_id":74,"name":"El Chupacabra","steam_id":76561198070641651,"connected_time":621000000000,"state":"active","ping":45},{"user_id":76,"name":"BigLadBoyga","steam_id":76561198985263763,"connected_time":604000000000,"state":"active","ping":72},{"user_id":77,"name":"dumbvent","steam_id":76561198190062810,"connected_time":601000000000,"state":"active","ping":60},{"user_id":84,"name":"Cris.p bacon","steam_id":76561199230423491,"connected_time":254000000000,"state":"active","ping":91}]},{"server_id":58,"name":"Uncletopia | Sydney | 5 | Stopwatch Beta","name_short":"syd-5","host":"syd-1.au.uncletopia.com","port":27055,"enabled":true,"region":"au","cc":"au","latitude":-33.865143,"longitude":151.2099,"reserved":0,"last_update":"0001-01-01T00:00:00Z","name_a2s":"Uncletopia | Sydney | 5 | Stopwatch Beta","protocol":17,"map":"workshop/koth_ashville_final.ugc2130459942","folder":"tf","game":"Team Fortress","app_id":440,"player_count":0,"max_players":24,"Bots":0,"server_type":"Dedicated","server_os":"Linux","password":true,"vac":true,"version":"7932396","steam_id":85568392925397959,"keywords":["cp","nocrits","nodmgspread","uncletopia"],"game_id":440,"stv_port":27056,"stv_name":"Uncletopia | Sydney | 5 | Stopwatch Beta | STV","players":null},{"server_id":59,"name":"Uncletopia | Sydney | 6 | Community","name_short":"syd-6","host":"syd-1.au.uncletopia.com","port":27065,"enabled":true,"region":"au","cc":"au","latitude":-33.865143,"longitude":151.2099,"reserved":0,"last_update":"0001-01-01T00:00:00Z","name_a2s":"Uncletopia | Sydney | 6 | Community","protocol":17,"map":"pl_badwater","folder":"tf","game":"Team Fortress","app_id":440,"player_count":0,"max_players":24,"Bots":0,"server_type":"Dedicated","server_os":"Linux","password":true,"vac":true,"version":"7932396","steam_id":85568392925397960,"keywords":["nocrits","nodmgspread","payload","uncletopia"],"game_id":440,"stv_port":27066,"stv_name":"Uncletopia | Sydney | 6 | Community | STV","players":null},{"server_id":49,"name":"Uncletopia | Warsaw | 1 | All Maps","name_short":"waw-1","host":"waw-1.pl.uncletopia.com","port":27015,"enabled":true,"region":"eu","cc":"pl","latitude":52.2297,"longitude":21.017532,"reserved":0,"last_update":"0001-01-01T00:00:00Z","name_a2s":"","protocol":0,"map":"","folder":"","game":"","app_id":0,"player_count":0,"max_players":0,"Bots":0,"server_type":"","server_os":"","password":false,"vac":false,"version":"","steam_id":0,"keywords":null,"game_id":0,"stv_port":0,"stv_name":"","players":null},{"server_id":50,"name":"Uncletopia | Warsaw | 2 | All Maps","name_short":"waw-2","host":"waw-1.pl.uncletopia.com","port":27025,"enabled":true,"region":"eu","cc":"pl","latitude":52.2297,"longitude":21.017532,"reserved":0,"last_update":"0001-01-01T00:00:00Z","name_a2s":"Uncletopia | Warsaw | 2 | All Maps","protocol":17,"map":"koth_nucleus","folder":"tf","game":"Team Fortress","app_id":440,"player_count":0,"max_players":24,"Bots":0,"server_type":"Dedicated","server_os":"Linux","password":true,"vac":true,"version":"7932396","steam_id":85568392925397851,"keywords":["cp","nocrits","nodmgspread","uncletopia"],"game_id":440,"stv_port":27026,"stv_name":"Uncletopia | Warsaw | 2 | All Maps | STV","players":null},{"server_id":51,"name":"Uncletopia | Warsaw | 3 | All Maps","name_short":"waw-3","host":"waw-1.pl.uncletopia.com","port":27035,"enabled":true,"region":"eu","cc":"pl","latitude":52.2297,"longitude":21.017532,"reserved":0,"last_update":"0001-01-01T00:00:00Z","name_a2s":"Uncletopia | Warsaw | 3 | All Maps","protocol":17,"map":"cp_mountainlab","folder":"tf","game":"Team Fortress","app_id":440,"player_count":0,"max_players":24,"Bots":0,"server_type":"Dedicated","server_os":"Linux","password":true,"vac":true,"version":"7932396","steam_id":85568392925397852,"keywords":["cp","nocrits","nodmgspread","uncletopia"],"game_id":440,"stv_port":27036,"stv_name":"Uncletopia | Warsaw | 3 | All Maps | STV","players":null},{"server_id":52,"name":"Uncletopia | Warsaw | 4 | All Maps","name_short":"waw-4","host":"waw-1.pl.uncletopia.com","port":27045,"enabled":true,"region":"eu","cc":"pl","latitude":52.2297,"longitude":21.017532,"reserved":0,"last_update":"0001-01-01T00:00:00Z","name_a2s":"Uncletopia | Warsaw | 4 | All Maps","protocol":17,"map":"pl_upward","folder":"tf","game":"Team Fortress","app_id":440,"player_count":0,"max_players":24,"Bots":0,"server_type":"Dedicated","server_os":"Linux","password":true,"vac":true,"version":"7932396","steam_id":85568392925397853,"keywords":["nocrits","nodmgspread","payload","uncletopia"],"game_id":440,"stv_port":27046,"stv_name":"Uncletopia | Warsaw | 4 | All Maps | STV","players":null},{"server_id":53,"name":"Uncletopia | Warsaw | 5 | Stopwatch Beta","name_short":"waw-5","host":"waw-1.pl.uncletopia.com","port":27055,"enabled":true,"region":"eu","cc":"pl","latitude":52.2297,"longitude":21.017532,"reserved":0,"last_update":"0001-01-01T00:00:00Z","name_a2s":"Uncletopia | Warsaw | 5 | Stopwatch Beta","protocol":17,"map":"koth_lakeside_final","folder":"tf","game":"Team Fortress","app_id":440,"player_count":0,"max_players":24,"Bots":0,"server_type":"Dedicated","server_os":"Linux","password":true,"vac":true,"version":"7932396","steam_id":85568392925397854,"keywords":["cp","nocrits","nodmgspread","uncletopia"],"game_id":440,"stv_port":27056,"stv_name":"Uncletopia | Warsaw | 5 | Stopwatch Beta | STV","players":null},{"server_id":54,"name":"Uncletopia | Warsaw | 6 | Community","name_short":"waw-6","host":"waw-1.pl.uncletopia.com","port":27065,"enabled":true,"region":"eu","cc":"pl","latitude":52.2297,"longitude":21.017532,"reserved":0,"last_update":"0001-01-01T00:00:00Z","name_a2s":"Uncletopia | Warsaw | 6 | Community","protocol":17,"map":"workshop/koth_ramjam_rc1.ugc459778887","folder":"tf","game":"Team Fortress","app_id":440,"player_count":0,"max_players":24,"Bots":0,"server_type":"Dedicated","server_os":"Linux","password":true,"vac":true,"version":"7932396","steam_id":85568392925397856,"keywords":["cp","nocrits","nodmgspread","uncletopia"],"game_id":440,"stv_port":27066,"stv_name":"Uncletopia | Warsaw | 6 | Community | STV","players":null}]}