{"status":true,"message":"","result":[{"server_id":9,"name":"Uncletopia | Atlanta | 1 | All Maps","name_short":"atl-1","host":"atl-1.us.uncletopia.com","port":27015,"enabled":true,"region":"us-east","cc":"us","latitude":33.753746,"longitude":-84.38633,"reserved":0,"last_update":"0001-01-01T00:00:00Z","name_a2s":"Uncletopia | Atlanta | 1 | All Maps","protocol":17,"map":"pl_barnblitz","folder":"tf","game":"Team Fortress","app_id":440,"player_count":24,"max_players":24,"Bots":0,"server_type":"Dedicated","server_os":"Linux","password":true,"vac":true,"version":"7961495","steam_id":85568392924469982,"keywords":["nocrits","nodmgspread","payload","uncletopia"],"game_id":440,"stv_port":27016,"stv_name":"Uncletopia | Atlanta | 1 | All Maps | STV","players":null},{"server_id":104,"name":"Uncletopia | Atlanta | 2 | All Maps","name_short":"atl-2","host":"atl-1.us.uncletopia.com","port":27025,"enabled":true,"region":"us-east","cc":"us","latitude":33.753746,"longitude":-84.38633,"reserved":0,"last_update":"0001-01-01T00:00:00Z","name_a2s":"Uncletopia | Atlanta | 2 | All Maps","protocol":17,"map":"ctf_doublecross","folder":"tf","game":"Team Fortress","app_id":440,"player_count":0,"max_players":24,"Bots":0,"server_type":"Dedicated","server_os":"Linux","password":true,"vac":true,"version":"7961495","steam_id":85568392924469983,"keywords":["ctf","nocrits","nodmgspread","uncletopia"],"game_id":440,"stv_port":27026,"stv_name":"Uncletopia | Atlanta | 2 | All Maps | STV","players":null},{"server_id":400,"name":"Uncletopia | Atlanta | 3 | Stopwatch","name_short":"atl-3","host":"atl-1.us.uncletopia.com","port":27035,"enabled":true,"region":"us-east","cc":"us","latitude":33.753746,"longitude":-84.38633,"reserved":0,"last_update":"0001-01-01T00:00:00Z","name_a2s":"Uncletopia | Atlanta | 3 | Stopwatch","protocol":17,"map":"koth_clearcut_b15","folder":"tf","game":"Team Fortress","app_id":440,"player_count":0,"max_players":24,"Bots":0,"server_type":"Dedicated","server_os":"Linux","password":true,"vac":true,"version":"7961495","steam_id":85568392924515187,"keywords":["cp","nocrits","nodmgspread","uncletopia"],"game_id":440,"stv_port":27036,"stv_name":"Uncletopia | Atlanta | 3 | Stopwatch | STV","players":null},{"server_id":401,"name":"Uncletopia | Atlanta | 4 | Community","name_short":"atl-4","host":"atl-1.us.uncletopia.com","port":27045,"enabled":true,"region":"us-east","cc":"us","latitude":33.753746,"longitude":-84.38633,"reserved":0,"last_update":"0001-01-01T00:00:00Z","name_a2s":"Uncletopia | Atlanta | 4 | Community","protocol":17,"map":"koth_kemptown_rc1","folder":"tf","game":"Team Fortress","app_id":440,"player_count":0,"max_players":24,"Bots":0,"server_type":"Dedicated","server_os":"Linux","password":true,"vac":true,"version":"7961495","steam_id":85568392924515188,"keywords":["cp","nocrits","nodmgspread","uncletopia"],"game_id":440,"stv_port":27046,"stv_name":"Uncletopia | Atlanta | 4 | Community | STV","players":null},{"server_id":2,"name":"Uncletopia | Chicago | 1 | All Maps","name_short":"chi-1","host":"chi-1.us.uncletopia.com","port":27015,"enabled":true,"region":"us-central","cc":"us","latitude":41.881832,"longitude":-87.62318,"reserved":0,"last_update":"0001-01-01T00:00:00Z","name_a2s":"Uncletopia | Chicago | 1 | All Maps","protocol":17,"map":"koth_lakeside_final","folder":"tf","game":"Team Fortress","app_id":440,"player_count":24,"max_players":24,"Bots":0,"server_type":"Dedicated","server_os":"Linux","password":true,"vac":true,"version":"7961495","steam_id":85568392924469984,"keywords":["cp","nocrits","nodmgspread","uncletopia"],"game_id":440,"stv_port":27016,"stv_name":"Uncletopia | Chicago | 1 | All Maps | STV","players":[{"user_id":395,"name":"guy","steam_id":76561198079925551,"connected_time":403000000000,"state":"active","ping":68},{"user_id":373,"name":"Your Local Queer Librarian","steam_id":76561198013077080,"connected_time":2089000000000,"state":"active","ping":59},{"user_id":379,"name":"Qball","steam_id":76561198179016466,"connected_time":1397000000000,"state":"active","ping":54},{"user_id":370,"name":"mario.hernandez.2006","steam_id":76561198811827433,"connected_time":2425000000000,"state":"active","ping":46},{"user_id":387,"name":"GlingGlop95","steam_id":76561198386865528,"connected_time":606000000000,"state":"active","ping":83},{"user_id":382,"name":"Space","steam_id":76561198350489754,"connected_time":805000000000,"state":"active","ping":50},{"user_id":352,"name":"fried rice","steam_id":76561198928939100,"connected_time":3689000000000,"state":"active","ping":81},{"user_id":400,"name":"EverythingIUseIsProbablyHorribl","steam_id":76561198997067030,"connected_time":197000000000,"state":"active","ping":83},{"user_id":398,"name":"Chestnut","steam_id":76561198078198968,"connected_time":316000000000,"state":"active","ping":65},{"user_id":403,"name":"Rx Auntie","steam_id":76561198051618393,"connected_time":8000000000,"state":"spawning","ping":51},{"user_id":385,"name":"vebr","steam_id":76561199189391772,"connected_time":656000000000,"state":"active","ping":60},{"user_id":383,"name":"♥Bunny♥Slut♥","steam_id":76561198206376851,"connected_time":803000000000,"state":"active","ping":147},{"user_id":393,"name":"SnowMan114","steam_id":76561198849397590,"connected_time":515000000000,"state":"active","ping":116},{"user_id":390,"name":"Jaksauce!","steam_id":76561199122343497,"connected_time":541000000000,"state":"active","ping":97},{"user_id":384,"name":"HOTA","steam_id":76561199002778841,"connected_time":771000000000,"state":"active","ping":72},{"user_id":399,"name":"Ejaculation Zach","steam_id":76561198203765200,"connected_time":313000000000,"state":"active","ping":57},{"user_id":397,"name":"Andrestor","steam_id":76561198005934930,"connected_time":377000000000,"state":"active","ping":119},{"user_id":378,"name":"Church","steam_id":76561199214866732,"connected_time":1432000000000,"state":"active","ping":70},{"user_id":405,"name":"fimbrethil","steam_id":76561198060869494,"connected_time":2000000000,"state":"spawning","ping":46},{"user_id":366,"name":"oink","steam_id":76561198111477518,"connected_time":2914000000000,"state":"active","ping":157},{"user_id":332,"name":"DinkleBerg","steam_id":76561198891626233,"connected_time":5092000000000,"state":"active","ping":53},{"user_id":356,"name":"Dan!","steam_id":76561199126958455,"connected_time":3440000000000,"state":"active","ping":97},{"user_id":402,"name":"t.tv/FamilyGuyFunnyMoments277","steam_id":76561198416047580,"connected_time":60000000000,"state":"active","ping":63},{"user_id":372,"name":"TheSpy","steam_id":76561198997837361,"connected_time":2314000000000,"state":"active","ping":58}]},{"server_id":106,"name":"Uncletopia | Chicago | 2 | All Maps","name_short":"chi-2","host":"chi-1.us.uncletopia.com","port":27025,"enabled":true,"region":"us-central","cc":"us","latitude":41.881832,"longitude":-87.62318,"reserved":0,"last_update":"0001-01-01T00:00:00Z","name_a2s":"Uncletopia | Chicago | 2 | All Maps","protocol":17,"map":"pl_thundermountain","folder":"tf","game":"Team Fortress","app_id":440,"player_count":24,"max_players":24,"Bots":0,"server_type":"Dedicated","server_os":"Linux","password":true,"vac":true,"version":"7961495","steam_id":85568392924469985,"keywords":["nocrits","nodmgspread","payload","uncletopia"],"game_id":440,"stv_port":27026,"stv_name":"Uncletopia | Chicago | 2 | All Maps | STV","players":[{"user_id":295,"name":"Sud","steam_id":76561199102300588,"connected_time":4126000000000,"state":"active","ping":96},{"user_id":355,"name":"Uncle Done","steam_id":76561198218558897,"connected_time":894000000000,"state":"active","ping":137},{"user_id":356,"name":"chungy","steam_id":76561198215559840,"connected_time":877000000000,"state":"active","ping":62},{"user_id":352,"name":"Darkmaen","steam_id":76561198060543390,"connected_time":984000000000,"state":"active","ping":138},{"user_id":329,"name":"Andrew","steam_id":76561198070615190,"connected_time":2360000000000,"state":"active","ping":61},{"user_id":357,"name":"Rustyorion","steam_id":76561198439186347,"connected_time":876000000000,"state":"active","ping":118},{"user_id":358,"name":"key ingredient","steam_id":76561198046055673,"connected_time":787000000000,"state":"active","ping":79},{"user_id":359,"name":"Alabit","steam_id":76561198065578560,"connected_time":773000000000,"state":"active","ping":81},{"user_id":337,"name":"Pyuku","steam_id":76561198811554257,"connected_time":2177000000000,"state":"active","ping":59},{"user_id":341,"name":"King's Disease","steam_id":76561198076639682,"connected_time":1581000000000,"state":"active","ping":74},{"user_id":354,"name":"Dalburgh","steam_id":76561198044331017,"connected_time":940000000000,"state":"active","ping":72},{"user_id":362,"name":"Little Man","steam_id":76561198106840052,"connected_time":728000000000,"state":"active","ping":45},{"user_id":335,"name":"DoomSpiral","steam_id":76561199099015519,"connected_time":2189000000000,"state":"active","ping":76},{"user_id":345,"name":"Post-It Paige","steam_id":76561198294059159,"connected_time":1440000000000,"state":"active","ping":88},{"user_id":287,"name":"Menace to Sobriety","steam_id":76561198245103000,"connected_time":4761000000000,"state":"active","ping":74},{"user_id":293,"name":"A Puppy","steam_id":76561198828184456,"connected_time":4233000000000,"state":"active","ping":63},{"user_id":347,"name":"Sergeant Snowflake","steam_id":76561198041474489,"connected_time":1397000000000,"state":"active","ping":57},{"user_id":342,"name":"Tito","steam_id":76561198041702529,"connected_time":1581000000000,"state":"active","ping":87},{"user_id":360,"name":"lexi","steam_id":76561198176299759,"connected_time":768000000000,"state":"active","ping":93},{"user_id":364,"name":"K4$P3Я","steam_id":76561198263271697,"connected_time":358000000000,"state":"active","ping":50},{"user_id":363,"name":"YummerBummer","steam_id":76561198094773987,"connected_time":719000000000,"state":"active","ping":72},{"user_id":361,"name":"Chowdie","steam_id":76561198039605762,"connected_time":760000000000,"state":"active","ping":61},{"user_id":339,"name":"BarrowBaron","steam_id":76561198013633236,"connected_time":2127000000000,"state":"active","ping":60},{"user_id":340,"name":"Lia_Rein TTV","steam_id":76561198151569597,"connected_time":2053000000000,"state":"active","ping":146}]},{"server_id":402,"name":"Uncletopia | Chicago | 3 | All Maps","name_short":"chi-3","host":"chi-1.us.uncletopia.com","port":27035,"enabled":true,"region":"us-central","cc":"us","latitude":41.881832,"longitude":-87.62318,"reserved":0,"last_update":"0001-01-01T00:00:00Z","name_a2s":"Uncletopia | Chicago | 3 | All Maps","protocol":17,"map":"pl_upward","folder":"tf","game":"Team Fortress","app_id":440,"player_count":24,"max_players":24,"Bots":0,"server_type":"Dedicated","server_os":"Linux","password":true,"vac":true,"version":"7961495","steam_id":85568392924515191,"keywords":["nocrits","nodmgspread","payload","uncletopia"],"game_id":440,"stv_port":27036,"stv_name":"Uncletopia | Chicago | 3 | All Maps | STV","players":[{"user_id":77,"name":"Eli","steam_id":76561198819439451,"connected_time":2395000000000,"state":"active","ping":63},{"user_id":97,"name":"ultralisk52","steam_id":76561198051666604,"connected_time":1535000000000,"state":"active","ping":60},{"user_id":108,"name":"super cheese","steam_id":76561198128444122,"connected_time":300000000000,"state":"active","ping":114},{"user_id":87,"name":"FM2eatspoo","steam_id":76561199102458114,"connected_time":1836000000000,"state":"active","ping":74},{"user_id":109,"name":"TheGuy101","steam_id":76561199201772624,"connected_time":297000000000,"state":"active","ping":106},{"user_id":93,"name":"Feared Gamer","steam_id":76561198350127514,"connected_time":1685000000000,"state":"active","ping":63},{"user_id":62,"name":"TÖZI","steam_id":76561198045268695,"connected_time":3415000000000,"state":"active","ping":78},{"user_id":107,"name":"PaperJamming","steam_id":76561198042335495,"connected_time":779000000000,"state":"active","ping":73},{"user_id":106,"name":"rickyrickyricky","steam_id":76561198041765918,"connected_time":892000000000,"state":"active","ping":81},{"user_id":70,"name":"Shoeshocker","steam_id":76561198174302467,"connected_time":3131000000000,"state":"active","ping":71},{"user_id":98,"name":"PTR","steam_id":76561198237253772,"connected_time":1526000000000,"state":"active","ping":72},{"user_id":21,"name":"Mindset","steam_id":76561198107074449,"connected_time":5238000000000,"state":"active","ping":56},{"user_id":52,"name":"vv","steam_id":76561198134813102,"connected_time":4160000000000,"state":"active","ping":55},{"user_id":64,"name":"CherriKat","steam_id":76561198821297512,"connected_time":3385000000000,"state":"active","ping":95},{"user_id":111,"name":"Rafl","steam_id":76561198055222756,"connected_time":145000000000,"state":"active","ping":60},{"user_id":105,"name":"Letters","steam_id":76561198035508148,"connected_time":1217000000000,"state":"active","ping":68},{"user_id":29,"name":"Allah-lover","steam_id":76561198076768673,"connected_time":5043000000000,"state":"active","ping":60},{"user_id":103,"name":"Lunacy","steam_id":76561198400892015,"connected_time":1478000000000,"state":"active","ping":77},{"user_id":55,"name":"TransSammie","steam_id":76561198046331930,"connected_time":4008000000000,"state":"active","ping":87},{"user_id":96,"name":"Fredrick","steam_id":76561197981419964,"connected_time":1576000000000,"state":"active","ping":69},{"user_id":112,"name":"Rodgedan","steam_id":76561198226236524,"connected_time":74000000000,"state":"active","ping":75},{"user_id":51,"name":"big bird","steam_id":76561199470354045,"connected_time":4169000000000,"state":"active","ping":134},{"user_id":101,"name":"card carrying member","steam_id":76561198043558709,"connected_time":1494000000000,"state":"active","ping":101},{"user_id":102,"name":"Spookghetti![VF4-0]","steam_id":76561198105093153,"connected_time":1484000000000,"state":"active","ping":61}]},{"server_id":403,"name":"Uncletopia | Chicago | 4 | All Maps","name_short":"chi-4","host":"chi-1.us.uncletopia.com","port":27045,"enabled":true,"region":"us-central","cc":"us","latitude":41.881832,"longitude":-87.62318,"reserved":0,"last_update":"0001-01-01T00:00:00Z","name_a2s":"Uncletopia | Chicago | 4 | All Maps","protocol":17,"map":"cp_mountainlab","folder":"tf","game":"Team Fortress","app_id":440,"player_count":24,"max_players":24,"Bots":0,"server_type":"Dedicated","server_os":"Linux","password":true,"vac":true,"version":"7961495","steam_id":85568392924515193,"keywords":["cp","nocrits","nodmgspread","uncletopia"],"game_id":440,"stv_port":27046,"stv_name":"Uncletopia | Chicago | 4 | All Maps | STV","players":[{"user_id":210,"name":"RoyuGO","steam_id":76561198317110281,"connected_time":1034000000000,"state":"active","ping":92},{"user_id":199,"name":"ElephantHydrogen4277882","steam_id":76561198175741741,"connected_time":1960000000000,"state":"active","ping":71},{"user_id":234,"name":"ToddStool","steam_id":76561198338144919,"connected_time":512000000000,"state":"active","ping":88},{"user_id":226,"name":"miNu","steam_id":76561198047799762,"connected_time":610000000000,"state":"active","ping":56},{"user_id":223,"name":"abdpocoyo","steam_id":76561198094321481,"connected_time":740000000000,"state":"active","ping":152},{"user_id":218,"name":"cart","steam_id":76561198253731826,"connected_time":866000000000,"state":"active","ping":59},{"user_id":191,"name":"13 INCHES OF HIGH TGIRL SCHLONG","steam_id":76561198122059018,"connected_time":2554000000000,"state":"active","ping":55},{"user_id":222,"name":"Fasted9","steam_id":76561198115425962,"connected_time":763000000000,"state":"active","ping":45},{"user_id":204,"name":"Goober","steam_id":76561198988863807,"connected_time":1708000000000,"state":"active","ping":75},{"user_id":233,"name":"MeatShield 2000","steam_id":76561199375192850,"connected_time":532000000000,"state":"active","ping":98},{"user_id":219,"name":"paypur -rng","steam_id":76561198214370515,"connected_time":860000000000,"state":"active","ping":67},{"user_id":230,"name":"french fries?","steam_id":76561199238480644,"connected_time":579000000000,"state":"active","ping":76},{"user_id":227,"name":"ImagineExisting","steam_id":76561198860261731,"connected_time":596000000000,"state":"active","ping":82},{"user_id":224,"name":"Bin","steam_id":76561198042557767,"connected_time":738000000000,"state":"active","ping":60},{"user_id":180,"name":"EmperorPrism","steam_id":76561199084344329,"connected_time":2760000000000,"state":"active","ping":80},{"user_id":220,"name":"winner","steam_id":76561198241948526,"connected_time":798000000000,"state":"active","ping":56},{"user_id":232,"name":"LemonZest","steam_id":76561199196369249,"connected_time":538000000000,"state":"active","ping":83},{"user_id":183,"name":"Solastruna","steam_id":76561199119692003,"connected_time":2687000000000,"state":"active","ping":61},{"user_id":216,"name":"Froot Loop box","steam_id":76561198298583060,"connected_time":921000000000,"state":"active","ping":89},{"user_id":235,"name":"Tideflat","steam_id":76561198179850851,"connected_time":450000000000,"state":"active","ping":98},{"user_id":236,"name":"stall","steam_id":76561199152861652,"connected_time":436000000000,"state":"active","ping":53},{"user_id":238,"name":"Lawnmower","steam_id":76561198186680197,"connected_time":192000000000,"state":"active","ping":85},{"user_id":237,"name":"frid","steam_id":76561198005806915,"connected_time":393000000000,"state":"active","ping":57},{"user_id":241,"name":"cactus god","steam_id":76561198292463064,"connected_time":144000000000,"state":"active","ping":104}]},{"server_id":36,"name":"Uncletopia | Chicago | 5 | All Maps","name_short":"chi-5","host":"chi-2.us.uncletopia.com","port":27015,"enabled":true,"region":"us-central","cc":"us","latitude":41.881832,"longitude":-87.62318,"reserved":0,"last_update":"0001-01-01T00:00:00Z","name_a2s":"Uncletopia | Chicago | 5 | All Maps","protocol":17,"map":"cp_dustbowl","folder":"tf","game":"Team Fortress","app_id":440,"player_count":24,"max_players":24,"Bots":0,"server_type":"Dedicated","server_os":"Linux","password":true,"vac":true,"version":"7961495","steam_id":85568392924866362,"keywords":["cp","nocrits","nodmgspread","uncletopia"],"game_id":440,"stv_port":27016,"stv_name":"Uncletopia | Chicago | 5 | All Maps | STV","players":[{"user_id":150,"name":"corned beef","steam_id":76561199366782761,"connected_time":525000000000,"state":"active","ping":147},{"user_id":101,"name":"mrappledumb","steam_id":76561199133590774,"connected_time":4339000000000,"state":"active","ping":62},{"user_id":105,"name":"Angry Ginger","steam_id":76561198256929349,"connected_time":4115000000000,"state":"active","ping":56},{"user_id":142,"name":"Degnut","steam_id":76561198087833182,"connected_time":1080000000000,"state":"active","ping":59},{"user_id":145,"name":"Devlyn77","steam_id":76561198108965341,"connected_time":720000000000,"state":"active","ping":43},{"user_id":146,"name":"frenemy","steam_id":76561198011363677,"connected_time":717000000000,"state":"active","ping":47},{"user_id":162,"name":"White_Wizard_Named_Corona","steam_id":76561198055652735,"connected_time":116000000000,"state":"active","ping":94},{"user_id":152,"name":"IAmAProfesonal","steam_id":76561199171858953,"connected_time":510000000000,"state":"active","ping":53},{"user_id":129,"name":"Tater Thot","steam_id":76561198156437343,"connected_time":1772000000000,"state":"active","ping":72},{"user_id":163,"name":"PudgyPat","steam_id":76561198844944465,"connected_time":116000000000,"state":"active","ping":80},{"user_id":137,"name":"penis scout (real?)","steam_id":76561199105479508,"connected_time":1653000000000,"state":"active","ping":82},{"user_id":139,"name":"Bork Bork","steam_id":76561198145554472,"connected_time":1304000000000,"state":"active","ping":69},{"user_id":140,"name":"kopatta","steam_id":76561198064773037,"connected_time":1159000000000,"state":"active","ping":74},{"user_id":153,"name":"Buckeye Crusader","steam_id":76561198126115279,"connected_time":501000000000,"state":"active","ping":70},{"user_id":141,"name":"Artgrendadier","steam_id":76561198063305359,"connected_time":1152000000000,"state":"active","ping":72},{"user_id":149,"name":"CrunchCisco","steam_id":76561199162724832,"connected_time":648000000000,"state":"active","ping":87},{"user_id":154,"name":"hannah1","steam_id":76561198094801861,"connected_time":434000000000,"state":"active","ping":61},{"user_id":120,"name":"Gluestick","steam_id":76561199013430308,"connected_time":2160000000000,"state":"active","ping":94},{"user_id":134,"name":"Discourse","steam_id":76561198984286678,"connected_time":1715000000000,"state":"active","ping":59},{"user_id":160,"name":"PublixWater","steam_id":76561199013291510,"connected_time":199000000000,"state":"active","ping":73},{"user_id":164,"name":"Dr. Chad Feelgood","steam_id":76561198454077219,"connected_time":101000000000,"state":"active","ping":76},{"user_id":119,"name":"Rhutebeer","steam_id":76561198018302761,"connected_time":2183000000000,"state":"active","ping":100},{"user_id":157,"name":"Gooby!","steam_id":76561198146580496,"connected_time":374000000000,"state":"active","ping":83},{"user_id":135,"name":"rock raiders enjoyer","steam_id":76561198139718219,"connected_time":1715000000000,"state":"active","ping":72}]},{"server_id":37,"name":"Uncletopia | Chicago | 6 | All Maps","name_short":"chi-6","host":"chi-2.us.uncletopia.com","port":27025,"enabled":true,"region":"us-central","cc":"us","latitude":41.881832,"longitude":-87.62318,"reserved":0,"last_update":"0001-01-01T00:00:00Z","name_a2s":"Uncletopia | Chicago | 6 | All Maps","protocol":17,"map":"koth_highpass","folder":"tf","game":"Team Fortress","app_id":440,"player_count":0,"max_players":24,"Bots":0,"server_type":"Dedicated","server_os":"Linux","password":true,"vac":true,"version":"7961495","steam_id":85568392924866363,"keywords":["cp","nocrits","nodmgspread","uncletopia"],"game_id":440,"stv_port":27026,"stv_name":"Uncletopia | Chicago | 6 | All Maps | STV","players":null},{"server_id":38,"name":"Uncletopia | Chicago | 7 | Stopwatch","name_short":"chi-7","host":"chi-2.us.uncletopia.com","port":27035,"enabled":true,"region":"us-central","cc":"us","latitude":41.881832,"longitude":-87.62318,"reserved":0,"last_update":"0001-01-01T00:00:00Z","name_a2s":"Uncletopia | Chicago | 7 | Stopwatch","protocol":17,"map":"pl_upward","folder":"tf","game":"Team Fortress","app_id":440,"player_count":23,"max_players":24,"Bots":0,"server_type":"Dedicated","server_os":"Linux","password":true,"vac":true,"version":"7961495","steam_id":85568392924866364,"keywords":["nocrits","nodmgspread","payload","uncletopia"],"game_id":440,"stv_port":27036,"stv_name":"Uncletopia | Chicago | 7 | Stopwatch | STV","players":[{"user_id":383,"name":"Gaiduk","steam_id":76561198112323877,"connected_time":128000000000,"state":"connecting","ping":76},{"user_id":315,"name":"npc energy","steam_id":76561198035342207,"connected_time":3268000000000,"state":"connecting","ping":57},{"user_id":386,"name":"nilftb","steam_id":76561198161952186,"connected_time":82000000000,"state":"connecting","ping":74},{"user_id":384,"name":"Mana_Kaktus","steam_id":76561198110468307,"connected_time":113000000000,"state":"connecting","ping":87},{"user_id":316,"name":"MAY CHAOS TAKE THE WORLD","steam_id":76561198180484659,"connected_time":3214000000000,"state":"connecting","ping":74},{"user_id":361,"name":"xFactr","steam_id":76561198129007422,"connected_time":1072000000000,"state":"connecting","ping":68},{"user_id":298,"name":"Rad0Dragon","steam_id":76561199351578880,"connected_time":4823000000000,"state":"connecting","ping":102},{"user_id":340,"name":"BLANK3T [They/He femboy on THC]","steam_id":76561198028875624,"connected_time":2072000000000,"state":"connecting","ping":119},{"user_id":372,"name":"rwrangler05","steam_id":76561198922899122,"connected_time":662000000000,"state":"connecting","ping":108},{"user_id":385,"name":"rude boi","steam_id":76561198006783260,"connected_time":96000000000,"state":"connecting","ping":62},{"user_id":374,"name":"♥ alixei! ♥","steam_id":76561198014557455,"connected_time":625000000000,"state":"connecting","ping":68},{"user_id":375,"name":"1-800-GHOST-DANCE","steam_id":76561198835430429,"connected_time":588000000000,"state":"connecting","ping":113},{"user_id":376,"name":"solar controller","steam_id":76561198838282369,"connected_time":583000000000,"state":"connecting","ping":94},{"user_id":324,"name":"C++","steam_id":76561199241890822,"connected_time":3051000000000,"state":"connecting","ping":67},{"user_id":377,"name":"k3ramb1t","steam_id":76561198097880352,"connected_time":541000000000,"state":"connecting","ping":79},{"user_id":389,"name":"emanthephantom","steam_id":76561198077592279,"connected_time":17000000000,"state":"connecting","ping":160},{"user_id":357,"name":"Killer Kiwi","steam_id":76561197984466804,"connected_time":1211000000000,"state":"connecting","ping":79},{"user_id":378,"name":"Joshy","steam_id":76561198061405421,"connected_time":469000000000,"state":"connecting","ping":106},{"user_id":388,"name":"leothecrafter09","steam_id":76561199482717105,"connected_time":22000000000,"state":"connecting","ping":89},{"user_id":379,"name":"cheesebro","steam_id":76561198002072852,"connected_time":452000000000,"state":"connecting","ping":128},{"user_id":365,"name":"for the king","steam_id":76561197973488858,"connected_time":1004000000000,"state":"connecting","ping":76},{"user_id":390,"name":"sheep gf (real)","steam_id":76561198068189558,"connected_time":2000000000,"state":"connecting","ping":109},{"user_id":355,"name":"muck","steam_id":76561198120437909,"connected_time":1328000000000,"state":"connecting","ping":82}]},{"server_id":39,"name":"Uncletopia | Chicago | 8 | Community","name_short":"chi-8","host":"chi-2.us.uncletopia.com","port":27045,"enabled":true,"region":"us-central","cc":"us","latitude":41.881832,"longitude":-87.62318,"reserved":0,"last_update":"0001-01-01T00:00:00Z","name_a2s":"Uncletopia | Chicago | 8 | Community","protocol":17,"map":"workshop/cp_hazyfort_rc6.ugc1365963729","folder":"tf","game":"Team Fortress","app_id":440,"player_count":0,"max_players":24,"Bots":0,"server_type":"Dedicated","server_os":"Linux","password":true,"vac":true,"version":"7961495","steam_id":85568392924866365,"keywords":["cp","nocrits","nodmgspread","uncletopia"],"game_id":440,"stv_port":27046,"stv_name":"Uncletopia | Chicago | 8 | Community | STV","players":null},{"server_id":8,"name":"Uncletopia | Dallas | 1 | All Maps","name_short":"dal-1","host":"dal-1.us.uncletopia.com","port":27015,"enabled":true,"region":"us-central","cc":"us","latitude":32.779167,"longitude":-96.80889,"reserved":0,"last_update":"0001-01-01T00:00:00Z","name_a2s":"Uncletopia | Dallas | 1 | All Maps","protocol":17,"map":"pl_swiftwater_final1","folder":"tf","game":"Team Fortress","app_id":440,"player_count":24,"max_players":24,"Bots":0,"server_type":"Dedicated","server_os":"Linux","password":true,"vac":true,"version":"7961495","steam_id":85568392924469986,"keywords":["nocrits","nodmgspread","payload","uncletopia"],"game_id":440,"stv_port":27016,"stv_name":"Uncletopia | Dallas | 1 | All Maps | STV","players":[{"user_id":588,"name":"Glaceon","steam_id":76561198177715869,"connected_time":1480000000000,"state":"active","ping":64},{"user_id":611,"name":"ATOMIC SPEED","steam_id":76561199407580843,"connected_time":83000000000,"state":"active","ping":88},{"user_id":608,"name":"Morningstar","steam_id":76561198271620345,"connected_time":134000000000,"state":"active","ping":62},{"user_id":556,"name":"deimos","steam_id":76561198148357768,"connected_time":3010000000000,"state":"active","ping":85},{"user_id":602,"name":"Rowdyshark101","steam_id":76561199019123695,"connected_time":167000000000,"state":"active","ping":56},{"user_id":604,"name":"Mocha Josie","steam_id":76561198066452726,"connected_time":155000000000,"state":"active","ping":79},{"user_id":525,"name":"ducc","steam_id":76561198284178076,"connected_time":5027000000000,"state":"active","ping":85},{"user_id":587,"name":"Shaggy from Ghostbusters","steam_id":76561198062763756,"connected_time":1581000000000,"state":"active","ping":76},{"user_id":458,"name":"sloppy blowjob devil","steam_id":76561198089852954,"connected_time":8945000000000,"state":"active","ping":80},{"user_id":557,"name":"small meth pouch","steam_id":76561198130412963,"connected_time":2987000000000,"state":"active","ping":61},{"user_id":597,"name":"fr","steam_id":76561198374871080,"connected_time":635000000000,"state":"active","ping":108},{"user_id":558,"name":"Gelliterate","steam_id":76561198107233070,"connected_time":2709000000000,"state":"active","ping":53},{"user_id":596,"name":"Dum_Bass(Fish)","steam_id":76561197988105207,"connected_time":677000000000,"state":"active","ping":87},{"user_id":575,"name":"Alkimia","steam_id":76561198385763137,"connected_time":2108000000000,"state":"active","ping":122},{"user_id":609,"name":"SamFire7645","steam_id":76561198171924179,"connected_time":122000000000,"state":"active","ping":104},{"user_id":565,"name":"dunker","steam_id":76561198066114874,"connected_time":2555000000000,"state":"active","ping":111},{"user_id":595,"name":"Sparse","steam_id":76561198865084441,"connected_time":1015000000000,"state":"active","ping":51},{"user_id":554,"name":"OwningTundra2","steam_id":76561198936893224,"connected_time":3226000000000,"state":"active","ping":57},{"user_id":591,"name":"D.E.O","steam_id":76561198096992957,"connected_time":1096000000000,"state":"active","ping":129},{"user_id":532,"name":"Truck-kun","steam_id":76561198113083770,"connected_time":4914000000000,"state":"active","ping":84},{"user_id":571,"name":"sobaka","steam_id":76561198116008934,"connected_time":2343000000000,"state":"active","ping":98},{"user_id":610,"name":"Tylogaming","steam_id":76561198025181395,"connected_time":112000000000,"state":"active","ping":65},{"user_id":605,"name":"Dimension Reduction","steam_id":76561198067369336,"connected_time":155000000000,"state":"active","ping":55},{"user_id":606,"name":"banana gaming","steam_id":76561198334907218,"connected_time":154000000000,"state":"active","ping":65}]},{"server_id":108,"name":"Uncletopia | Dallas | 2 | All Maps","name_short":"dal-2","host":"dal-1.us.uncletopia.com","port":27025,"enabled":true,"region":"us-central","cc":"us","latitude":32.779167,"longitude":-96.80889,"reserved":0,"last_update":"0001-01-01T00:00:00Z","name_a2s":"Uncletopia | Dallas | 2 | All Maps","protocol":17,"map":"cp_dustbowl","folder":"tf","game":"Team Fortress","app_id":440,"player_count":24,"max_players":24,"Bots":0,"server_type":"Dedicated","server_os":"Linux","password":true,"vac":true,"version":"7961495","steam_id":85568392924469988,"keywords":["cp","nocrits","nodmgspread","uncletopia"],"game_id":440,"stv_port":27026,"stv_name":"Uncletopia | Dallas | 2 | All Maps | STV","players":[{"user_id":110,"name":"Malac","steam_id":76561198004482629,"connected_time":1326000000000,"state":"active","ping":107},{"user_id":95,"name":"TrashPanda (she/her)","steam_id":76561198447864095,"connected_time":2403000000000,"state":"active","ping":60},{"user_id":123,"name":"zeb","steam_id":76561198408349402,"connected_time":449000000000,"state":"active","ping":96},{"user_id":124,"name":"d4ngerd4n","steam_id":76561198043758735,"connected_time":129000000000,"state":"active","ping":89},{"user_id":114,"name":"MonkeyNobody","steam_id":76561199451266605,"connected_time":1051000000000,"state":"active","ping":89},{"user_id":97,"name":"judesro","steam_id":76561198352244888,"connected_time":2369000000000,"state":"active","ping":103},{"user_id":62,"name":"[NAME-REDACTED]","steam_id":76561198035682975,"connected_time":4495000000000,"state":"active","ping":79},{"user_id":98,"name":"Rally","steam_id":76561198004485218,"connected_time":2356000000000,"state":"active","ping":90},{"user_id":120,"name":"Bestmaster202","steam_id":76561198235282680,"connected_time":844000000000,"state":"active","ping":102},{"user_id":118,"name":"Engineer","steam_id":76561199138738952,"connected_time":989000000000,"state":"active","ping":70},{"user_id":73,"name":"Kirby.exe","steam_id":76561198242714582,"connected_time":3738000000000,"state":"active","ping":65},{"user_id":108,"name":"Pegway","steam_id":76561198044303814,"connected_time":1370000000000,"state":"active","ping":82},{"user_id":121,"name":"TheNoFaceGuy","steam_id":76561198086398392,"connected_time":819000000000,"state":"active","ping":102},{"user_id":76,"name":"The Foolish Samurai","steam_id":76561198094494945,"connected_time":3713000000000,"state":"active","ping":89},{"user_id":112,"name":"Goblin","steam_id":76561199384665653,"connected_time":1157000000000,"state":"active","ping":77},{"user_id":115,"name":"Vv","steam_id":76561199052196750,"connected_time":1043000000000,"state":"active","ping":53},{"user_id":119,"name":"Boingo","steam_id":76561199086931535,"connected_time":905000000000,"state":"active","ping":59},{"user_id":91,"name":"I. C. Wiener","steam_id":76561198062777610,"connected_time":2639000000000,"state":"active","ping":70},{"user_id":117,"name":"GLXy","steam_id":76561198207551544,"connected_time":1002000000000,"state":"active","ping":87},{"user_id":89,"name":"Abra","steam_id":76561198086309918,"connected_time":2760000000000,"state":"active","ping":71},{"user_id":93,"name":"Sloth ❦","steam_id":76561197998378462,"connected_time":2590000000000,"state":"active","ping":106},{"user_id":122,"name":"minecraft","steam_id":76561198104345201,"connected_time":794000000000,"state":"active","ping":71},{"user_id":116,"name":"That Pyro Main","steam_id":76561198010204805,"connected_time":1034000000000,"state":"active","ping":71},{"user_id":104,"name":"Withered Bonnie (Real)","steam_id":76561198423310113,"connected_time":1616000000000,"state":"active","ping":56}]},{"server_id":404,"name":"Uncletopia | Dallas | 3 | All Maps","name_short":"dal-3","host":"dal-1.us.uncletopia.com","port":27035,"enabled":true,"region":"us-central","cc":"us","latitude":32.779167,"longitude":-96.80889,"reserved":0,"last_update":"0001-01-01T00:00:00Z","name_a2s":"Uncletopia | Dallas | 3 | All Maps","protocol":17,"map":"pl_badwater","folder":"tf","game":"Team Fortress","app_id":440,"player_count":24,"max_players":24,"Bots":0,"server_type":"Dedicated","server_os":"Linux","password":true,"vac":true,"version":"7961495","steam_id":85568392924515219,"keywords":["nocrits","nodmgspread","payload","uncletopia"],"game_id":440,"stv_port":27036,"stv_name":"Uncletopia | Dallas | 3 | All Maps | STV","players":[{"user_id":258,"name":"Isles","steam_id":76561198036162511,"connected_time":750000000000,"state":"active","ping":83},{"user_id":260,"name":"firefly","steam_id":76561198151308698,"connected_time":44000000000,"state":"active","ping":45},{"user_id":235,"name":"twitch.tv/kegaman_","steam_id":76561198043632775,"connected_time":2047000000000,"state":"active","ping":84},{"user_id":231,"name":"Hart","steam_id":76561199118241286,"connected_time":2930000000000,"state":"active","ping":72},{"user_id":238,"name":"Pavel","steam_id":76561199153150191,"connected_time":1929000000000,"state":"active","ping":107},{"user_id":254,"name":"Michaelpc1","steam_id":76561198088365519,"connected_time":1480000000000,"state":"active","ping":87},{"user_id":257,"name":"TechnoBear2099","steam_id":76561198238863596,"connected_time":761000000000,"state":"active","ping":47},{"user_id":255,"name":"Alfonso Molestro","steam_id":76561197998677099,"connected_time":1412000000000,"state":"active","ping":118},{"user_id":252,"name":"Gazelle","steam_id":76561198336397088,"connected_time":1639000000000,"state":"active","ping":68},{"user_id":237,"name":"Infernatious","steam_id":76561199483610732,"connected_time":1948000000000,"state":"active","ping":95},{"user_id":240,"name":"spacetoven","steam_id":76561198115821131,"connected_time":1924000000000,"state":"active","ping":88},{"user_id":220,"name":"Smuggley","steam_id":76561198078130271,"connected_time":3840000000000,"state":"active","ping":86},{"user_id":256,"name":"sniperstyx","steam_id":76561198357786932,"connected_time":802000000000,"state":"active","ping":177},{"user_id":229,"name":"Rock Kickass","steam_id":76561198450510841,"connected_time":3396000000000,"state":"active","ping":96},{"user_id":259,"name":"FaZe hyazzZzzzZzzzZ","steam_id":76561199100342013,"connected_time":720000000000,"state":"active","ping":79},{"user_id":242,"name":"Jaydyn","steam_id":76561198140326797,"connected_time":1923000000000,"state":"active","ping":102},{"user_id":215,"name":"Dejii","steam_id":76561199089703902,"connected_time":4285000000000,"state":"active","ping":71},{"user_id":243,"name":"DinK","steam_id":76561198284445667,"connected_time":1918000000000,"state":"active","ping":60},{"user_id":251,"name":"Gobl1n","steam_id":76561198808610991,"connected_time":1696000000000,"state":"active","ping":86},{"user_id":244,"name":"fallingtree123","steam_id":76561198937414442,"connected_time":1905000000000,"state":"active","ping":122},{"user_id":198,"name":"Pal","steam_id":76561198079657093,"connected_time":5216000000000,"state":"active","ping":46},{"user_id":230,"name":"fshndmn","steam_id":76561198999431215,"connected_time":3381000000000,"state":"active","ping":63},{"user_id":245,"name":"zz.","steam_id":76561198077970399,"connected_time":1901000000000,"state":"active","ping":71},{"user_id":249,"name":"jules.two","steam_id":76561198283462369,"connected_time":1855000000000,"state":"active","ping":89}]},{"server_id":405,"name":"Uncletopia | Dallas | 4 | Community","name_short":"dal-4","host":"dal-1.us.uncletopia.com","port":27045,"enabled":true,"region":"us-central","cc":"us","latitude":32.779167,"longitude":-96.80889,"reserved":0,"last_update":"0001-01-01T00:00:00Z","name_a2s":"Uncletopia | Dallas | 4 | Community","protocol":17,"map":"workshop/pl_corrode_rc2.ugc546577989","folder":"tf","game":"Team Fortress","app_id":440,"player_count":0,"max_players":24,"Bots":0,"server_type":"Dedicated","server_os":"Linux","password":true,"vac":true,"version":"7961495","steam_id":85568392924515220,"keywords":["nocrits","nodmgspread","payload","uncletopia"],"game_id":440,"stv_port":27046,"stv_name":"Uncletopia | Dallas | 4 | Community | STV","players":null},{"server_id":5,"name":"Uncletopia | Frankfurt | 1 | All Maps","name_short":"frk-1","host":"frk-1.de.uncletopia.com","port":27015,"enabled":true,"region":"eu","cc":"de","latitude":50.110924,"longitude":8.682127,"reserved":0,"last_update":"0001-01-01T00:00:00Z","name_a2s":"Uncletopia | Frankfurt | 1 | All Maps","protocol":17,"map":"cp_process_final","folder":"tf","game":"Team Fortress","app_id":440,"player_count":23,"max_players":24,"Bots":0,"server_type":"Dedicated","server_os":"Linux","password":true,"vac":true,"version":"7961495","steam_id":85568392924469989,"keywords":["cp","nocrits","nodmgspread","uncletopia"],"game_id":440,"stv_port":27016,"stv_name":"Uncletopia | Frankfurt | 1 | All Maps | STV","players":[{"user_id":429,"name":"⭐Bv","steam_id":76561198048943710,"connected_time":2037000000000,"state":"active","ping":45},{"user_id":431,"name":"⭐Wylenn⭍","steam_id":76561198024292352,"connected_time":2023000000000,"state":"active","ping":84},{"user_id":462,"name":"puddy","steam_id":76561198042047036,"connected_time":299000000000,"state":"active","ping":60},{"user_id":432,"name":"lexi ★","steam_id":76561198988695461,"connected_time":2013000000000,"state":"active","ping":51},{"user_id":463,"name":"Štěpán","steam_id":76561198275742101,"connected_time":293000000000,"state":"active","ping":61},{"user_id":464,"name":"aless","steam_id":76561198941165698,"connected_time":288000000000,"state":"active","ping":50},{"user_id":466,"name":"Aleknat","steam_id":76561198055379857,"connected_time":225000000000,"state":"active","ping":66},{"user_id":449,"name":"Nobody","steam_id":76561198151116796,"connected_time":1146000000000,"state":"active","ping":82},{"user_id":433,"name":"waj","steam_id":76561198053628243,"connected_time":2000000000000,"state":"active","ping":57},{"user_id":420,"name":"Ziy???","steam_id":76561197995765491,"connected_time":2473000000000,"state":"active","ping":62},{"user_id":404,"name":"Fick-Lé","steam_id":76561198284002919,"connected_time":3431000000000,"state":"active","ping":73},{"user_id":454,"name":"Time to die","steam_id":76561198081642249,"connected_time":996000000000,"state":"active","ping":56},{"user_id":458,"name":"End_Captain","steam_id":76561198984965056,"connected_time":371000000000,"state":"active","ping":75},{"user_id":467,"name":"\u003e\u003c\u003e","steam_id":76561198152392309,"connected_time":215000000000,"state":"active","ping":45},{"user_id":410,"name":"Luxotrics","steam_id":76561198053455161,"connected_time":3309000000000,"state":"active","ping":82},{"user_id":450,"name":"Xiqui","steam_id":76561198818386611,"connected_time":1139000000000,"state":"active","ping":93},{"user_id":453,"name":"-Kost1xx","steam_id":76561198160062258,"connected_time":1090000000000,"state":"active","ping":90},{"user_id":442,"name":"IgorVitoriev","steam_id":76561198075723591,"connected_time":1720000000000,"state":"active","ping":59},{"user_id":443,"name":"rixtrick","steam_id":76561197962149241,"connected_time":1698000000000,"state":"active","ping":63},{"user_id":447,"name":"Corvax","steam_id":76561198127439185,"connected_time":1207000000000,"state":"active","ping":52},{"user_id":468,"name":"Just1s","steam_id":76561198026597437,"connected_time":191000000000,"state":"active","ping":61},{"user_id":469,"name":"r1chvl","steam_id":76561198048308155,"connected_time":173000000000,"state":"active","ping":66},{"user_id":457,"name":"kipod616","steam_id":76561198431183777,"connected_time":432000000000,"state":"active","ping":93}]},{"server_id":110,"name":"Uncletopia | Frankfurt | 2 | All Maps","name_short":"frk-2","host":"frk-1.de.uncletopia.com","port":27025,"enabled":true,"region":"eu","cc":"de","latitude":50.110924,"longitude":8.682127,"reserved":0,"last_update":"0001-01-01T00:00:00Z","name_a2s":"Uncletopia | Frankfurt | 2 | All Maps","protocol":17,"map":"pl_pier","folder":"tf","game":"Team Fortress","app_id":440,"player_count":7,"max_players":24,"Bots":0,"server_type":"Dedicated","server_os":"Linux","password":true,"vac":true,"version":"7961495","steam_id":85568392924469990,"keywords":["nocrits","nodmgspread","payload","uncletopia"],"game_id":440,"stv_port":27026,"stv_name":"Uncletopia | Frankfurt | 2 | All Maps | STV","players":[{"user_id":339,"name":"rodeybodey","steam_id":76561198165351355,"connected_time":3863000000000,"state":"active","ping":88},{"user_id":341,"name":"Von","steam_id":76561198166177348,"connected_time":1291000000000,"state":"active","ping":49},{"user_id":343,"name":"God's Drunkest Driver","steam_id":76561199174579733,"connected_time":767000000000,"state":"active","ping":131},{"user_id":345,"name":"Geoff the Oracle","steam_id":76561198053759965,"connected_time":318000000000,"state":"active","ping":68},{"user_id":346,"name":"inteli-keeper","steam_id":76561199011763306,"connected_time":182000000000,"state":"active","ping":78},{"user_id":334,"name":"Sheen (Khang)","steam_id":76561198371062974,"connected_time":4098000000000,"state":"active","ping":86},{"user_id":335,"name":"crashkit2","steam_id":76561198042735356,"connected_time":4097000000000,"state":"active","ping":71}]},{"server_id":308,"name":"Uncletopia | Frankfurt | 3 | All Maps","name_short":"frk-3","host":"frk-1.de.uncletopia.com","port":27035,"enabled":true,"region":"eu","cc":"de","latitude":50.110924,"longitude":8.682127,"reserved":0,"last_update":"0001-01-01T00:00:00Z","name_a2s":"Uncletopia | Frankfurt | 3 | All Maps","protocol":17,"map":"cp_dustbowl","folder":"tf","game":"Team Fortress","app_id":440,"player_count":24,"max_players":24,"Bots":0,"server_type":"Dedicated","server_os":"Linux","password":true,"vac":true,"version":"7961495","steam_id":85568392924504274,"keywords":["cp","nocrits","nodmgspread","uncletopia"],"game_id":440,"stv_port":27036,"stv_name":"Uncletopia | Frankfurt | 3 | All Maps | STV","players":[{"user_id":707,"name":"Psychicpie","steam_id":76561198126065206,"connected_time":5599000000000,"state":"active","ping":46},{"user_id":782,"name":"race car driver jerry","steam_id":76561198054047446,"connected_time":1006000000000,"state":"active","ping":59},{"user_id":638,"name":"sticks","steam_id":76561198127099299,"connected_time":9798000000000,"state":"active","ping":51},{"user_id":744,"name":"Pong.#","steam_id":76561197986178601,"connected_time":2805000000000,"state":"active","ping":55},{"user_id":771,"name":"o_o","steam_id":76561198113045011,"connected_time":1313000000000,"state":"active","ping":90},{"user_id":776,"name":"calum92","steam_id":76561197992188760,"connected_time":1173000000000,"state":"active","ping":84},{"user_id":762,"name":"ibon","steam_id":76561199267376143,"connected_time":1743000000000,"state":"active","ping":105},{"user_id":764,"name":"Çodar","steam_id":76561198235518444,"connected_time":1670000000000,"state":"active","ping":50},{"user_id":735,"name":"xTheDarkLight","steam_id":76561198239128298,"connected_time":4045000000000,"state":"active","ping":47},{"user_id":772,"name":"thekoolest88","steam_id":76561199022415672,"connected_time":1311000000000,"state":"active","ping":162},{"user_id":783,"name":"Monke Hartmann","steam_id":76561198281389701,"connected_time":426000000000,"state":"active","ping":100},{"user_id":779,"name":"Artificial.Ignorance","steam_id":76561198453090180,"connected_time":1088000000000,"state":"active","ping":147},{"user_id":710,"name":"Finn","steam_id":76561198179960193,"connected_time":5556000000000,"state":"active","ping":56},{"user_id":745,"name":"Hussain_144","steam_id":76561198346029208,"connected_time":2769000000000,"state":"active","ping":178},{"user_id":721,"name":"Zamorocian","steam_id":76561198076604017,"connected_time":4699000000000,"state":"active","ping":53},{"user_id":780,"name":"rummy","steam_id":76561197997573379,"connected_time":1087000000000,"state":"active","ping":57},{"user_id":715,"name":"sarii ☆","steam_id":76561199155102111,"connected_time":5474000000000,"state":"active","ping":80},{"user_id":781,"name":"Engie Gaming","steam_id":76561198060988694,"connected_time":1068000000000,"state":"active","ping":103},{"user_id":746,"name":"Doritoshredder","steam_id":76561198826710752,"connected_time":2756000000000,"state":"active","ping":119},{"user_id":738,"name":"Mr. Watch","steam_id":76561198276103501,"connected_time":4002000000000,"state":"active","ping":82},{"user_id":731,"name":"The Lady","steam_id":76561198029895809,"connected_time":4471000000000,"state":"active","ping":80},{"user_id":748,"name":"Drastigater :)","steam_id":76561198136769459,"connected_time":2745000000000,"state":"active","ping":112},{"user_id":768,"name":"Vytuzas","steam_id":76561198012868436,"connected_time":1608000000000,"state":"active","ping":71},{"user_id":723,"name":"lacurio","steam_id":76561198059701776,"connected_time":4684000000000,"state":"active","ping":57}]},{"server_id":309,"name":"Uncletopia | Frankfurt | 4 | All Maps","name_short":"frk-4","host":"frk-1.de.uncletopia.com","port":27045,"enabled":true,"region":"eu","cc":"de","latitude":50.110924,"longitude":8.682127,"reserved":0,"last_update":"0001-01-01T00:00:00Z","name_a2s":"Uncletopia | Frankfurt | 4 | All Maps","protocol":17,"map":"koth_highpass","folder":"tf","game":"Team Fortress","app_id":440,"player_count":0,"max_players":24,"Bots":0,"server_type":"Dedicated","server_os":"Linux","password":true,"vac":true,"version":"7961495","steam_id":85568392924504275,"keywords":["cp","nocrits","nodmgspread","uncletopia"],"game_id":440,"stv_port":27046,"stv_name":"Uncletopia | Frankfurt | 4 | All Maps | STV","players":null},{"server_id":310,"name":"Uncletopia | Frankfurt | 5 | All Maps","name_short":"frk-5","host":"frk-1.de.uncletopia.com","port":27055,"enabled":true,"region":"eu","cc":"de","latitude":50.110924,"longitude":8.682127,"reserved":0,"last_update":"0001-01-01T00:00:00Z","name_a2s":"Uncletopia | Frankfurt | 5 | All Maps","protocol":17,"map":"cp_metalworks","folder":"tf","game":"Team Fortress","app_id":440,"player_count":0,"max_players":24,"Bots":0,"server_type":"Dedicated","server_os":"Linux","password":true,"vac":true,"version":"7961495","steam_id":85568392924504277,"keywords":["cp","nocrits","nodmgspread","uncletopia"],"game_id":440,"stv_port":27056,"stv_name":"Uncletopia | Frankfurt | 5 | All Maps | STV","players":null},{"server_id":311,"name":"Uncletopia | Frankfurt | 6 | All Maps","name_short":"frk-6","host":"frk-1.de.uncletopia.com","port":27065,"enabled":true,"region":"eu","cc":"de","latitude":50.110924,"longitude":8.682127,"reserved":0,"last_update":"0001-01-01T00:00:00Z","name_a2s":"Uncletopia | Frankfurt | 6 | All Maps","protocol":17,"map":"koth_viaduct","folder":"tf","game":"Team Fortress","app_id":440,"player_count":0,"max_players":24,"Bots":0,"server_type":"Dedicated","server_os":"Linux","password":true,"vac":true,"version":"7961495","steam_id":85568392924504278,"keywords":["cp","nocrits","nodmgspread","uncletopia"],"game_id":440,"stv_port":27066,"stv_name":"Uncletopia | Frankfurt | 6 | All Maps | STV","players":null},{"server_id":23,"name":"Uncletopia | Frankfurt | 7 | Stopwatch","name_short":"frk-7","host":"frk-1.de.uncletopia.com","port":27075,"enabled":true,"region":"eu","cc":"de","latitude":50.110924,"longitude":8.682127,"reserved":0,"last_update":"0001-01-01T00:00:00Z","name_a2s":"Uncletopia | Frankfurt | 7 | Stopwatch","protocol":17,"map":"pl_frontier_final","folder":"tf","game":"Team Fortress","app_id":440,"player_count":0,"max_players":24,"Bots":0,"server_type":"Dedicated","server_os":"Linux","password":true,"vac":true,"version":"7961495","steam_id":85568392924742827,"keywords":["nocrits","nodmgspread","payload","uncletopia"],"game_id":440,"stv_port":27076,"stv_name":"Uncletopia | Frankfurt | 7 | Stopwatch | STV","players":null},{"server_id":24,"name":"Uncletopia | Frankfurt | 8 | Community","name_short":"frk-8","host":"frk-1.de.uncletopia.com","port":27085,"enabled":true,"region":"eu","cc":"de","latitude":50.110924,"longitude":8.682127,"reserved":0,"last_update":"0001-01-01T00:00:00Z","name_a2s":"Uncletopia | Frankfurt | 8 | Community","protocol":17,"map":"workshop/koth_bagel_rc6.ugc2514036946","folder":"tf","game":"Team Fortress","app_id":440,"player_count":0,"max_players":24,"Bots":0,"server_type":"Dedicated","server_os":"Linux","password":true,"vac":true,"version":"7961495","steam_id":85568392924742828,"keywords":["cp","nocrits","nodmgspread","uncletopia"],"game_id":440,"stv_port":27086,"stv_name":"Uncletopia | Frankfurt | 8 | Community | STV","players":null},{"server_id":202,"name":"Uncletopia | Hong Kong | 1 | All Maps","name_short":"hgk-1","host":"hgk-1.hk.uncletopia.com","port":27015,"enabled":true,"region":"asia","cc":"hk","latitude":22.302711,"longitude":114.177216,"reserved":0,"last_update":"0001-01-01T00:00:00Z","name_a2s":"Uncletopia | Hong Kong | 1 | All Maps","protocol":17,"map":"pl_frontier_final","folder":"tf","game":"Team Fortress","app_id":440,"player_count":0,"max_players":24,"Bots":0,"server_type":"Dedicated","server_os":"Linux","password":true,"vac":true,"version":"7961495","steam_id":85568392924494504,"keywords":["nocrits","nodmgspread","payload","uncletopia"],"game_id":440,"stv_port":27016,"stv_name":"Uncletopia | Hong Kong | 1 | All Maps | STV","players":null},{"server_id":1,"name":"Uncletopia | Los Angeles | 1 | All Maps","name_short":"lax-1","host":"lax-1.us.uncletopia.com","port":27015,"enabled":true,"region":"us-west","cc":"us","latitude":33.94279,"longitude":-118.41004,"reserved":0,"last_update":"0001-01-01T00:00:00Z","name_a2s":"Uncletopia | Los Angeles | 1 | All Maps","protocol":17,"map":"cp_mountainlab","folder":"tf","game":"Team Fortress","app_id":440,"player_count":0,"max_players":24,"Bots":0,"server_type":"Dedicated","server_os":"Linux","password":true,"vac":true,"version":"7961495","steam_id":85568392924469991,"keywords":["cp","nocrits","nodmgspread","uncletopia"],"game_id":440,"stv_port":27016,"stv_name":"Uncletopia | Los Angeles | 1 | All Maps | STV","players":null},{"server_id":112,"name":"Uncletopia | Los Angeles | 2 | All Maps","name_short":"lax-2","host":"lax-1.us.uncletopia.com","port":27025,"enabled":true,"region":"us-west","cc":"us","latitude":33.94279,"longitude":-118.41004,"reserved":0,"last_update":"0001-01-01T00:00:00Z","name_a2s":"Uncletopia | Los Angeles | 2 | All Maps","protocol":17,"map":"koth_viaduct","folder":"tf","game":"Team Fortress","app_id":440,"player_count":0,"max_players":24,"Bots":0,"server_type":"Dedicated","server_os":"Linux","password":true,"vac":true,"version":"7961495","steam_id":85568392924469992,"keywords":["cp","nocrits","nodmgspread","uncletopia"],"game_id":440,"stv_port":27026,"stv_name":"Uncletopia | Los Angeles | 2 | All Maps | STV","players":null},{"server_id":324,"name":"Uncletopia | Los Angeles | 3 | All Maps","name_short":"lax-3","host":"lax-1.us.uncletopia.com","port":27035,"enabled":true,"region":"us-west","cc":"us","latitude":33.94279,"longitude":-118.41004,"reserved":0,"last_update":"0001-01-01T00:00:00Z","name_a2s":"Uncletopia | Los Angeles | 3 | All Maps","protocol":17,"map":"pl_frontier_final","folder":"tf","game":"Team Fortress","app_id":440,"player_count":0,"max_players":24,"Bots":0,"server_type":"Dedicated","server_os":"Linux","password":true,"vac":true,"version":"7961495","steam_id":85568392924510198,"keywords":["nocrits","nodmgspread","payload","uncletopia"],"game_id":440,"stv_port":27036,"stv_name":"Uncletopia | Los Angeles | 3 | All Maps | STV","players":null},{"server_id":25,"name":"Uncletopia | Los Angeles | 4 | Stopwatch","name_short":"lax-4","host":"lax-1.us.uncletopia.com","port":27045,"enabled":true,"region":"us-west","cc":"us","latitude":33.94279,"longitude":-118.41004,"reserved":0,"last_update":"0001-01-01T00:00:00Z","name_a2s":"Uncletopia | Los Angeles | 4 | Stopwatch","protocol":17,"map":"pl_barnblitz","folder":"tf","game":"Team Fortress","app_id":440,"player_count":0,"max_players":24,"Bots":0,"server_type":"Dedicated","server_os":"Linux","password":true,"vac":true,"version":"7961495","steam_id":85568392924510199,"keywords":["nocrits","nodmgspread","payload","uncletopia"],"game_id":440,"stv_port":27046,"stv_name":"Uncletopia | Los Angeles | 4 | Stopwatch | STV","players":null},{"server_id":11,"name":"Uncletopia | London | 1 | All Maps","name_short":"lon-1","host":"lon-1.uk.uncletopia.com","port":27015,"enabled":true,"region":"eu","cc":"gb","latitude":51.509865,"longitude":-0.118092,"reserved":0,"last_update":"0001-01-01T00:00:00Z","name_a2s":"Uncletopia | London | 1 | All Maps","protocol":17,"map":"pl_pier","folder":"tf","game":"Team Fortress","app_id":440,"player_count":24,"max_players":24,"Bots":0,"server_type":"Dedicated","server_os":"Linux","password":true,"vac":true,"version":"7961495","steam_id":85568392924367362,"keywords":["nocrits","nodmgspread","payload","uncletopia"],"game_id":440,"stv_port":27016,"stv_name":"Uncletopia | London | 1 | All Maps | STV","players":[{"user_id":788,"name":"Neiro👽ᗩYY ᒪᗰᗩO","steam_id":76561198046743985,"connected_time":779000000000,"state":"active","ping":68},{"user_id":787,"name":"krayy (blåhaj enjoyer)","steam_id":76561198035037830,"connected_time":829000000000,"state":"active","ping":51},{"user_id":802,"name":"Jim The Jackal","steam_id":76561198062998417,"connected_time":288000000000,"state":"active","ping":46},{"user_id":799,"name":"Massive GigaRandom","steam_id":76561197970114051,"connected_time":577000000000,"state":"active","ping":40},{"user_id":775,"name":"stroyo","steam_id":76561198409592046,"connected_time":2106000000000,"state":"active","ping":39},{"user_id":790,"name":"Lozo","steam_id":76561198091866601,"connected_time":733000000000,"state":"active","ping":59},{"user_id":784,"name":"Kabachok Aeronavt","steam_id":76561198123659806,"connected_time":1036000000000,"state":"active","ping":92},{"user_id":791,"name":"tanyathsus","steam_id":76561198089522447,"connected_time":731000000000,"state":"active","ping":61},{"user_id":792,"name":"mumbler","steam_id":76561197970641239,"connected_time":716000000000,"state":"active","ping":55},{"user_id":778,"name":"Gender Telecaster","steam_id":76561198106455841,"connected_time":1651000000000,"state":"active","ping":71},{"user_id":779,"name":"cansado","steam_id":76561198003898089,"connected_time":1633000000000,"state":"active","ping":62},{"user_id":785,"name":"hananamanna","steam_id":76561198006570285,"connected_time":1023000000000,"state":"active","ping":124},{"user_id":793,"name":"Cabbch","steam_id":76561198045955679,"connected_time":695000000000,"state":"active","ping":45},{"user_id":781,"name":"Epicdude51","steam_id":76561199496325985,"connected_time":1371000000000,"state":"active","ping":81},{"user_id":805,"name":"quiet","steam_id":76561199153121444,"connected_time":14000000000,"state":"active","ping":97},{"user_id":795,"name":"Charon","steam_id":76561198061714753,"connected_time":638000000000,"state":"active","ping":75},{"user_id":757,"name":"gerg","steam_id":76561198041663219,"connected_time":2960000000000,"state":"active","ping":47},{"user_id":796,"name":"Donac Dum","steam_id":76561198064089294,"connected_time":630000000000,"state":"active","ping":54},{"user_id":722,"name":"jermany","steam_id":76561198126599355,"connected_time":4860000000000,"state":"active","ping":55},{"user_id":797,"name":"Aroo","steam_id":76561198132601368,"connected_time":615000000000,"state":"active","ping":75},{"user_id":803,"name":"Purps","steam_id":76561198053886680,"connected_time":138000000000,"state":"active","ping":44},{"user_id":765,"name":"Piteras","steam_id":76561198858532207,"connected_time":2611000000000,"state":"active","ping":79},{"user_id":766,"name":"Ullr","steam_id":76561198140547483,"connected_time":2570000000000,"state":"active","ping":40},{"user_id":758,"name":"✪ Danny","steam_id":76561198104483241,"connected_time":2781000000000,"state":"active","ping":51}]},{"server_id":114,"name":"Uncletopia | London | 2 | All Maps","name_short":"lon-2","host":"lon-1.uk.uncletopia.com","port":27025,"enabled":true,"region":"eu","cc":"gb","latitude":51.509865,"longitude":-0.118092,"reserved":0,"last_update":"0001-01-01T00:00:00Z","name_a2s":"Uncletopia | London | 2 | All Maps","protocol":17,"map":"pl_pier","folder":"tf","game":"Team Fortress","app_id":440,"player_count":24,"max_players":24,"Bots":0,"server_type":"Dedicated","server_os":"Linux","password":true,"vac":true,"version":"7961495","steam_id":85568392924470941,"keywords":["nocrits","nodmgspread","payload","uncletopia"],"game_id":440,"stv_port":27026,"stv_name":"Uncletopia | London | 2 | All Maps | STV","players":[{"user_id":257,"name":"󠀡󠀡","steam_id":76561198199523126,"connected_time":143000000000,"state":"active","ping":68},{"user_id":249,"name":"Tenjiku","steam_id":76561198049983016,"connected_time":1011000000000,"state":"active","ping":105},{"user_id":231,"name":"randompixel","steam_id":76561198003941207,"connected_time":2458000000000,"state":"active","ping":57},{"user_id":250,"name":"Baba Sraka","steam_id":76561198128292318,"connected_time":1009000000000,"state":"active","ping":134},{"user_id":246,"name":"Vexu","steam_id":76561198113145846,"connected_time":1070000000000,"state":"active","ping":92},{"user_id":236,"name":"[UwU] Blackblood909","steam_id":76561198079427660,"connected_time":1720000000000,"state":"active","ping":88},{"user_id":256,"name":"Haha?","steam_id":76561198056882245,"connected_time":640000000000,"state":"active","ping":42},{"user_id":190,"name":"Zm4j","steam_id":76561198259465946,"connected_time":5238000000000,"state":"active","ping":83},{"user_id":258,"name":"Kallen","steam_id":76561198079693305,"connected_time":125000000000,"state":"active","ping":56},{"user_id":255,"name":"Cooki","steam_id":76561198051705314,"connected_time":892000000000,"state":"active","ping":157},{"user_id":263,"name":"LSKi","steam_id":76561198215470228,"connected_time":8000000000,"state":"spawning","ping":88},{"user_id":254,"name":"Caramel","steam_id":76561198021214844,"connected_time":920000000000,"state":"active","ping":45},{"user_id":146,"name":"Houlles","steam_id":76561198095277383,"connected_time":8958000000000,"state":"active","ping":45},{"user_id":239,"name":"Patatata","steam_id":76561198152188319,"connected_time":1516000000000,"state":"active","ping":78},{"user_id":252,"name":"Marquis de Hoto","steam_id":76561198080687708,"connected_time":1004000000000,"state":"active","ping":72},{"user_id":213,"name":"Toa LightMakuta","steam_id":76561198212178104,"connected_time":3660000000000,"state":"active","ping":58},{"user_id":245,"name":"Pigeon","steam_id":76561199109713313,"connected_time":1108000000000,"state":"active","ping":42},{"user_id":222,"name":"Charlie Kelly","steam_id":76561198211599767,"connected_time":2775000000000,"state":"active","ping":58},{"user_id":226,"name":"frosty","steam_id":76561198094560834,"connected_time":2614000000000,"state":"active","ping":45},{"user_id":260,"name":"VampWolfDoll (She/Her)","steam_id":76561198102301491,"connected_time":106000000000,"state":"active","ping":117},{"user_id":261,"name":"panakid","steam_id":76561198364121077,"connected_time":85000000000,"state":"active","ping":97},{"user_id":242,"name":"irritable vowel syndrome","steam_id":76561198117033273,"connected_time":1493000000000,"state":"active","ping":55},{"user_id":262,"name":"bowchika wowa #SlavaUkraine","steam_id":76561198159564550,"connected_time":70000000000,"state":"active","ping":71},{"user_id":253,"name":"Sabour","steam_id":76561197963965445,"connected_time":964000000000,"state":"active","ping":70}]},{"server_id":320,"name":"Uncletopia | London | 3 | All Maps","name_short":"lon-3","host":"lon-1.uk.uncletopia.com","port":27035,"enabled":true,"region":"eu","cc":"gb","latitude":51.509865,"longitude":-0.118092,"reserved":0,"last_update":"0001-01-01T00:00:00Z","name_a2s":"Uncletopia | London | 3 | All Maps","protocol":17,"map":"cp_snakewater_final1","folder":"tf","game":"Team Fortress","app_id":440,"player_count":0,"max_players":24,"Bots":0,"server_type":"Dedicated","server_os":"Linux","password":true,"vac":true,"version":"7961495","steam_id":85568392924510192,"keywords":["cp","nocrits","nodmgspread","uncletopia"],"game_id":440,"stv_port":27036,"stv_name":"Uncletopia | London | 3 | All Maps | STV","players":null},{"server_id":321,"name":"Uncletopia | London | 4 | All Maps","name_short":"lon-4","host":"lon-1.uk.uncletopia.com","port":27045,"enabled":true,"region":"eu","cc":"gb","latitude":51.509865,"longitude":-0.118092,"reserved":0,"last_update":"0001-01-01T00:00:00Z","name_a2s":"Uncletopia | London | 4 | All Maps","protocol":17,"map":"pl_barnblitz","folder":"tf","game":"Team Fortress","app_id":440,"player_count":23,"max_players":24,"Bots":0,"server_type":"Dedicated","server_os":"Linux","password":true,"vac":true,"version":"7961495","steam_id":85568392924510193,"keywords":["nocrits","nodmgspread","payload","uncletopia"],"game_id":440,"stv_port":27046,"stv_name":"Uncletopia | London | 4 | All Maps | STV","players":[{"user_id":341,"name":"joni110","steam_id":76561198098747929,"connected_time":930000000000,"state":"active","ping":75},{"user_id":337,"name":"Jedleo","steam_id":76561198347292531,"connected_time":1394000000000,"state":"active","ping":49},{"user_id":357,"name":"Kaupsýslumaðurinn","steam_id":76561198070358944,"connected_time":349000000000,"state":"active","ping":43},{"user_id":361,"name":"doomer speak","steam_id":76561198436059214,"connected_time":109000000000,"state":"active","ping":31},{"user_id":338,"name":"Dreamy Snoozer","steam_id":76561198268184742,"connected_time":1002000000000,"state":"active","ping":55},{"user_id":316,"name":"flange","steam_id":76561198040182692,"connected_time":3092000000000,"state":"active","ping":41},{"user_id":363,"name":"Jeryx","steam_id":76561197995602803,"connected_time":6000000000,"state":"spawning","ping":65},{"user_id":350,"name":"joachym","steam_id":76561198428579761,"connected_time":622000000000,"state":"active","ping":69},{"user_id":352,"name":"godmodule","steam_id":76561198165995444,"connected_time":596000000000,"state":"active","ping":75},{"user_id":353,"name":"Imverycringey","steam_id":76561198171020019,"connected_time":579000000000,"state":"active","ping":39},{"user_id":343,"name":"BELADIT","steam_id":76561198011911501,"connected_time":905000000000,"state":"active","ping":75},{"user_id":354,"name":"A Succulent Chinese Meal","steam_id":76561198069472440,"connected_time":435000000000,"state":"active","ping":61},{"user_id":306,"name":"Laryssa","steam_id":76561198271084076,"connected_time":3889000000000,"state":"active","ping":96},{"user_id":267,"name":"That Bussy Can Squirt","steam_id":76561199185615752,"connected_time":6792000000000,"state":"active","ping":54},{"user_id":359,"name":"warpig","steam_id":76561199226313309,"connected_time":163000000000,"state":"active","ping":131},{"user_id":348,"name":"shr1mple","steam_id":76561198173537027,"connected_time":721000000000,"state":"active","ping":54},{"user_id":336,"name":"Russenluster","steam_id":76561198118016220,"connected_time":1537000000000,"state":"active","ping":60},{"user_id":362,"name":"Ley #savetf2","steam_id":76561198989206104,"connected_time":98000000000,"state":"active","ping":113},{"user_id":334,"name":"brimstone","steam_id":76561197971672076,"connected_time":1815000000000,"state":"active","ping":46},{"user_id":309,"name":"Guthlaf","steam_id":76561198153564078,"connected_time":3873000000000,"state":"active","ping":97},{"user_id":327,"name":"Tombobx","steam_id":76561198862443949,"connected_time":2345000000000,"state":"active","ping":70},{"user_id":345,"name":"AnanasGerste","steam_id":76561198133825211,"connected_time":902000000000,"state":"active","ping":67},{"user_id":308,"name":"Cornmac","steam_id":76561198104780569,"connected_time":3879000000000,"state":"active","ping":67}]},{"server_id":21,"name":"Uncletopia | London | 5 | All Maps","name_short":"lon-5","host":"lon-1.uk.uncletopia.com","port":27055,"enabled":true,"region":"eu","cc":"gb","latitude":51.509865,"longitude":-0.118092,"reserved":0,"last_update":"0001-01-01T00:00:00Z","name_a2s":"Uncletopia | London | 5 | All Maps","protocol":17,"map":"cp_mountainlab","folder":"tf","game":"Team Fortress","app_id":440,"player_count":20,"max_players":24,"Bots":0,"server_type":"Dedicated","server_os":"Linux","password":true,"vac":true,"version":"7961495","steam_id":85568392924742829,"keywords":["cp","nocrits","nodmgspread","uncletopia"],"game_id":440,"stv_port":27056,"stv_name":"Uncletopia | London | 5 | All Maps | STV","players":[{"user_id":345,"name":"i loved her","steam_id":76561199496179862,"connected_time":491000000000,"state":"active","ping":47},{"user_id":357,"name":"Chiddcrew","steam_id":76561198322590784,"connected_time":243000000000,"state":"active","ping":58},{"user_id":361,"name":"AsuX","steam_id":76561197990333289,"connected_time":50000000000,"state":"active","ping":59},{"user_id":348,"name":"Cadillac","steam_id":76561198091017416,"connected_time":366000000000,"state":"active","ping":72},{"user_id":328,"name":"Lola bunny","steam_id":76561198214149431,"connected_time":2260000000000,"state":"active","ping":50},{"user_id":287,"name":"Linkstar07","steam_id":76561199053234564,"connected_time":3730000000000,"state":"active","ping":73},{"user_id":349,"name":"oggy et les kouffars","steam_id":76561198084798301,"connected_time":359000000000,"state":"active","ping":60},{"user_id":362,"name":"Canada","steam_id":76561199055270849,"connected_time":47000000000,"state":"active","ping":154},{"user_id":351,"name":"Sacetter","steam_id":76561198186614218,"connected_time":339000000000,"state":"active","ping":47},{"user_id":329,"name":"Bob D","steam_id":76561198026375630,"connected_time":2236000000000,"state":"active","ping":53},{"user_id":340,"name":"NitPig","steam_id":76561198212991935,"connected_time":1170000000000,"state":"active","ping":92},{"user_id":318,"name":"PxE","steam_id":76561198038034899,"connected_time":2657000000000,"state":"active","ping":53},{"user_id":359,"name":"MaTke","steam_id":76561198378170301,"connected_time":228000000000,"state":"active","ping":85},{"user_id":319,"name":"Endi","steam_id":76561198914938199,"connected_time":2583000000000,"state":"active","ping":102},{"user_id":354,"name":"Astrya","steam_id":76561198091242337,"connected_time":319000000000,"state":"active","ping":45},{"user_id":355,"name":"Hamedius","steam_id":76561199152512027,"connected_time":294000000000,"state":"active","ping":74},{"user_id":274,"name":"RUNΣ","steam_id":76561198130597407,"connected_time":5379000000000,"state":"active","ping":36},{"user_id":300,"name":"Vyllckart","steam_id":76561198119172997,"connected_time":3209000000000,"state":"active","ping":81},{"user_id":302,"name":"Spectra","steam_id":76561198086718879,"connected_time":3198000000000,"state":"active","ping":66},{"user_id":306,"name":"Katsu!","steam_id":76561198082570310,"connected_time":3161000000000,"state":"active","ping":86}]},{"server_id":22,"name":"Uncletopia | London | 6 | All Maps","name_short":"lon-6","host":"lon-1.uk.uncletopia.com","port":27065,"enabled":true,"region":"eu","cc":"gb","latitude":51.509865,"longitude":-0.118092,"reserved":0,"last_update":"0001-01-01T00:00:00Z","name_a2s":"Uncletopia | London | 6 | All Maps","protocol":17,"map":"cp_mountainlab","folder":"tf","game":"Team Fortress","app_id":440,"player_count":8,"max_players":24,"Bots":0,"server_type":"Dedicated","server_os":"Linux","password":true,"vac":true,"version":"7961495","steam_id":85568392924742830,"keywords":["cp","nocrits","nodmgspread","uncletopia"],"game_id":440,"stv_port":27066,"stv_name":"Uncletopia | London | 6 | All Maps | STV","players":[{"user_id":602,"name":"buldozeris","steam_id":76561198845943861,"connected_time":193000000000,"state":"active","ping":77},{"user_id":591,"name":"Mobster Tortoise","steam_id":76561199036837091,"connected_time":969000000000,"state":"active","ping":85},{"user_id":593,"name":"Moon","steam_id":76561198808108594,"connected_time":927000000000,"state":"active","ping":89},{"user_id":595,"name":"pabbott123110","steam_id":76561199231739796,"connected_time":828000000000,"state":"active","ping":138},{"user_id":604,"name":"Toasted Toby","steam_id":76561198002139581,"connected_time":108000000000,"state":"active","ping":67},{"user_id":576,"name":"Sentry hater","steam_id":76561199269309068,"connected_time":2139000000000,"state":"active","ping":82},{"user_id":584,"name":"Kiradias777","steam_id":76561198067176309,"connected_time":1927000000000,"state":"active","ping":158},{"user_id":587,"name":"Dario","steam_id":76561198138558896,"connected_time":1735000000000,"state":"active","ping":48}]},{"server_id":40,"name":"Uncletopia | London | 7 | Stopwatch","name_short":"lon-7","host":"lon-1.uk.uncletopia.com","port":27075,"enabled":true,"region":"eu","cc":"gb","latitude":51.509865,"longitude":-0.118092,"reserved":0,"last_update":"0001-01-01T00:00:00Z","name_a2s":"Uncletopia | London | 7 | Stopwatch","protocol":17,"map":"koth_highpass","folder":"tf","game":"Team Fortress","app_id":440,"player_count":5,"max_players":24,"Bots":0,"server_type":"Dedicated","server_os":"Linux","password":true,"vac":true,"version":"7961495","steam_id":85568392924964314,"keywords":["cp","nocrits","nodmgspread","uncletopia"],"game_id":440,"stv_port":27076,"stv_name":"Uncletopia | London | 7 | Stopwatch | STV","players":[{"user_id":34,"name":"DraGoN","steam_id":76561198006224312,"connected_time":409000000000,"state":"active","ping":180},{"user_id":35,"name":"SNaKe","steam_id":76561198249832738,"connected_time":366000000000,"state":"active","ping":205},{"user_id":36,"name":"ran is running","steam_id":76561199443185667,"connected_time":103000000000,"state":"active","ping":127},{"user_id":15,"name":"89384HDHSJDHU\u0026/","steam_id":76561198057833760,"connected_time":6378000000000,"state":"active","ping":72},{"user_id":25,"name":"Lowtidey","steam_id":76561198994887486,"connected_time":3725000000000,"state":"active","ping":117}]},{"server_id":41,"name":"Uncletopia | London | 8 | Community","name_short":"lon-8","host":"lon-1.uk.uncletopia.com","port":27085,"enabled":true,"region":"eu","cc":"gb","latitude":51.509865,"longitude":-0.118092,"reserved":0,"last_update":"0001-01-01T00:00:00Z","name_a2s":"Uncletopia | London | 8 | Community","protocol":17,"map":"workshop/koth_bagel_rc6.ugc2514036946","folder":"tf","game":"Team Fortress","app_id":440,"player_count":0,"max_players":24,"Bots":0,"server_type":"Dedicated","server_os":"Linux","password":true,"vac":true,"version":"7961495","steam_id":85568392924964315,"keywords":["cp","nocrits","nodmgspread","uncletopia"],"game_id":440,"stv_port":27086,"stv_name":"Uncletopia | London | 8 | Community | STV","players":null},{"server_id":300,"name":"Uncletopia | Montréal | 1 | All Maps","name_short":"mtl-1","host":"mtl-1.ca.uncletopia.com","port":27015,"enabled":true,"region":"us-east","cc":"ca","latitude":45.50889,"longitude":-73.56167,"reserved":0,"last_update":"0001-01-01T00:00:00Z","name_a2s":"","protocol":0,"map":"","folder":"","game":"","app_id":0,"player_count":1,"max_players":0,"Bots":0,"server_type":"","server_os":"","password":false,"vac":false,"version":"","steam_id":0,"keywords":null,"game_id":0,"stv_port":0,"stv_name":"","players":[{"user_id":12,"name":"Goose of Wisdom","steam_id":76561198233465044,"connected_time":233000000000,"state":"active","ping":49}]},{"server_id":301,"name":"Uncletopia | Montréal | 2 | ???","name_short":"mtl-2","host":"mtl-1.ca.uncletopia.com","port":27025,"enabled":true,"region":"us-east","cc":"ca","latitude":45.50889,"longitude":-73.56167,"reserved":0,"last_update":"0001-01-01T00:00:00Z","name_a2s":"","protocol":0,"map":"","folder":"","game":"","app_id":0,"player_count":0,"max_players":0,"Bots":0,"server_type":"","server_os":"","password":false,"vac":false,"version":"","steam_id":0,"keywords":null,"game_id":0,"stv_port":0,"stv_name":"","players":null},{"server_id":13,"name":"Uncletopia | New York City | 1 | All Maps","name_short":"nyc-1","host":"nyc-1.us.uncletopia.com","port":27015,"enabled":true,"region":"us-east","cc":"us","latitude":40.73061,"longitude":-73.93524,"reserved":0,"last_update":"0001-01-01T00:00:00Z","name_a2s":"Uncletopia | New York City | 1 | All Maps","protocol":17,"map":"cp_dustbowl","folder":"tf","game":"Team Fortress","app_id":440,"player_count":22,"max_players":24,"Bots":0,"server_type":"Dedicated","server_os":"Linux","password":true,"vac":true,"version":"7961495","steam_id":85568392924469993,"keywords":["cp","nocrits","nodmgspread","uncletopia"],"game_id":440,"stv_port":27016,"stv_name":"Uncletopia | New York City | 1 | All Maps | STV","players":[{"user_id":460,"name":"Literally Roxy's Wife Tsuyu","steam_id":76561198175421763,"connected_time":1095000000000,"state":"active","ping":74},{"user_id":450,"name":"Team Fortress","steam_id":76561198058722801,"connected_time":1464000000000,"state":"active","ping":116},{"user_id":451,"name":"Mr.Silver","steam_id":76561198156382508,"connected_time":1463000000000,"state":"active","ping":76},{"user_id":453,"name":"Mrs.Frizzle","steam_id":76561198117157085,"connected_time":1348000000000,"state":"active","ping":57},{"user_id":454,"name":"CCPodz","steam_id":76561199143506502,"connected_time":1322000000000,"state":"active","ping":70},{"user_id":455,"name":"Aerobro","steam_id":76561198033530996,"connected_time":1306000000000,"state":"active","ping":99},{"user_id":456,"name":"reko","steam_id":76561198278020887,"connected_time":1288000000000,"state":"active","ping":105},{"user_id":482,"name":"Bush.exe","steam_id":76561198124385307,"connected_time":366000000000,"state":"active","ping":69},{"user_id":462,"name":"Fushigio","steam_id":76561198219853285,"connected_time":935000000000,"state":"active","ping":65},{"user_id":459,"name":"mollusk_obliteration","steam_id":76561198085388962,"connected_time":1235000000000,"state":"active","ping":82},{"user_id":463,"name":"defcon","steam_id":76561198100656328,"connected_time":929000000000,"state":"active","ping":86},{"user_id":464,"name":"JustADuck","steam_id":76561198311260943,"connected_time":928000000000,"state":"active","ping":75},{"user_id":485,"name":"The Wave","steam_id":76561198268225109,"connected_time":117000000000,"state":"active","ping":107},{"user_id":469,"name":"SomeHobo454","steam_id":76561199093954927,"connected_time":848000000000,"state":"active","ping":58},{"user_id":472,"name":"Mr. Snrub","steam_id":76561199039358883,"connected_time":826000000000,"state":"active","ping":119},{"user_id":468,"name":"MLWeegee","steam_id":76561198096399823,"connected_time":853000000000,"state":"active","ping":54},{"user_id":470,"name":"jeff","steam_id":76561198059450566,"connected_time":839000000000,"state":"active","ping":61},{"user_id":471,"name":"Pan Wizard","steam_id":76561198031939694,"connected_time":834000000000,"state":"active","ping":72},{"user_id":483,"name":"nile","steam_id":76561197980035714,"connected_time":342000000000,"state":"active","ping":90},{"user_id":481,"name":"breathing meat donut","steam_id":76561198123566649,"connected_time":517000000000,"state":"active","ping":88},{"user_id":486,"name":"RedZone","steam_id":76561197973665180,"connected_time":102000000000,"state":"active","ping":86},{"user_id":480,"name":"FltySlnshWshpr","steam_id":76561198058427331,"connected_time":556000000000,"state":"active","ping":51}]},{"server_id":14,"name":"Uncletopia | New York City | 2 | All Maps","name_short":"nyc-2","host":"nyc-1.us.uncletopia.com","port":27025,"enabled":true,"region":"us-east","cc":"us","latitude":40.73061,"longitude":-73.93524,"reserved":0,"last_update":"0001-01-01T00:00:00Z","name_a2s":"Uncletopia | New York City | 2 | All Maps","protocol":17,"map":"pl_upward","folder":"tf","game":"Team Fortress","app_id":440,"player_count":24,"max_players":24,"Bots":0,"server_type":"Dedicated","server_os":"Linux","password":true,"vac":true,"version":"7961495","steam_id":85568392924469994,"keywords":["nocrits","nodmgspread","payload","uncletopia"],"game_id":440,"stv_port":27026,"stv_name":"Uncletopia | New York City | 2 | All Maps | STV","players":[{"user_id":118,"name":"yes daddy","steam_id":76561198166100997,"connected_time":4499000000000,"state":"active","ping":73},{"user_id":186,"name":"21 salvage","steam_id":76561198413930183,"connected_time":40000000000,"state":"active","ping":45},{"user_id":157,"name":"3/4'' x 18'' industrial pipe","steam_id":76561198094042613,"connected_time":2170000000000,"state":"active","ping":88},{"user_id":158,"name":"Brad Bones","steam_id":76561198068129320,"connected_time":2108000000000,"state":"active","ping":55},{"user_id":185,"name":"ansmew","steam_id":76561198075200670,"connected_time":59000000000,"state":"active","ping":60},{"user_id":174,"name":"sharkbyt3","steam_id":76561197985793803,"connected_time":981000000000,"state":"active","ping":56},{"user_id":170,"name":"0","steam_id":76561198077882008,"connected_time":1381000000000,"state":"active","ping":57},{"user_id":111,"name":"zen","steam_id":76561198066485047,"connected_time":4739000000000,"state":"active","ping":44},{"user_id":171,"name":"Urbanzpinapple","steam_id":76561198115426938,"connected_time":1088000000000,"state":"active","ping":73},{"user_id":165,"name":"Owl Pacino","steam_id":76561197979970666,"connected_time":1563000000000,"state":"active","ping":76},{"user_id":22,"name":"Noahthecrazy1","steam_id":76561199152995909,"connected_time":9982000000000,"state":"active","ping":70},{"user_id":145,"name":"Christophe","steam_id":76561198116640007,"connected_time":2941000000000,"state":"active","ping":149},{"user_id":176,"name":"Hoopla","steam_id":76561198327775508,"connected_time":615000000000,"state":"active","ping":43},{"user_id":154,"name":"Broadway Rose","steam_id":76561198046083342,"connected_time":2580000000000,"state":"active","ping":41},{"user_id":112,"name":"flappyflap2","steam_id":76561198285048973,"connected_time":4653000000000,"state":"active","ping":45},{"user_id":181,"name":"seeyouauntie","steam_id":76561198045852999,"connected_time":193000000000,"state":"active","ping":70},{"user_id":173,"name":"Portal2Player","steam_id":76561198062870114,"connected_time":1019000000000,"state":"active","ping":73},{"user_id":178,"name":"banjo","steam_id":76561199263719064,"connected_time":245000000000,"state":"active","ping":67},{"user_id":139,"name":"sibling wile 🟠 ツ","steam_id":76561198125261443,"connected_time":3247000000000,"state":"active","ping":133},{"user_id":175,"name":"dismissy","steam_id":76561198073904781,"connected_time":706000000000,"state":"active","ping":137},{"user_id":177,"name":"money-swagmodity","steam_id":76561198072179483,"connected_time":577000000000,"state":"active","ping":82},{"user_id":182,"name":"Kidzbopsicle","steam_id":76561198047660691,"connected_time":144000000000,"state":"active","ping":43},{"user_id":155,"name":"Walmart Employee","steam_id":76561198840373909,"connected_time":2433000000000,"state":"active","ping":99},{"user_id":110,"name":"vanta","steam_id":76561198084317504,"connected_time":4855000000000,"state":"active","ping":63}]},{"server_id":15,"name":"Uncletopia | New York City | 3 | Stopwatch","name_short":"nyc-3","host":"nyc-1.us.uncletopia.com","port":27035,"enabled":true,"region":"us-east","cc":"us","latitude":40.73061,"longitude":-73.93524,"reserved":0,"last_update":"0001-01-01T00:00:00Z","name_a2s":"Uncletopia | New York City | 3 | Stopwatch","protocol":17,"map":"workshop/koth_clearcut_b15.ugc2107050255","folder":"tf","game":"Team Fortress","app_id":440,"player_count":0,"max_players":24,"Bots":0,"server_type":"Dedicated","server_os":"Linux","password":true,"vac":true,"version":"7961495","steam_id":85568392924742820,"keywords":["cp","nocrits","nodmgspread","uncletopia"],"game_id":440,"stv_port":27036,"stv_name":"Uncletopia | New York City | 3 | Stopwatch | STV","players":null},{"server_id":16,"name":"Uncletopia | New York City | 4 | Community","name_short":"nyc-4","host":"nyc-1.us.uncletopia.com","port":27045,"enabled":true,"region":"us-east","cc":"us","latitude":40.73061,"longitude":-73.93524,"reserved":0,"last_update":"0001-01-01T00:00:00Z","name_a2s":"Uncletopia | New York City | 4 | Community","protocol":17,"map":"workshop/cp_sulfur_rc2.ugc619869471","folder":"tf","game":"Team Fortress","app_id":440,"player_count":0,"max_players":24,"Bots":0,"server_type":"Dedicated","server_os":"Linux","password":true,"vac":true,"version":"7961495","steam_id":85568392924742821,"keywords":["cp","nocrits","nodmgspread","uncletopia"],"game_id":440,"stv_port":27046,"stv_name":"Uncletopia | New York City | 4 | Community | STV","players":null},{"server_id":142,"name":"Uncletopia | São Paulo | 1 | All Maps","name_short":"sao-1","host":"sao-1.br.uncletopia.com","port":27015,"enabled":true,"region":"sa","cc":"br","latitude":-23.533773,"longitude":-46.62529,"reserved":0,"last_update":"0001-01-01T00:00:00Z","name_a2s":"Uncletopia | São Paulo | 1 | All Maps","protocol":17,"map":"koth_viaduct","folder":"tf","game":"Team Fortress","app_id":440,"player_count":0,"max_players":24,"Bots":0,"server_type":"Dedicated","server_os":"Linux","password":true,"vac":true,"version":"7961495","steam_id":85568392924469996,"keywords":["cp","nocrits","nodmgspread","uncletopia"],"game_id":440,"stv_port":27016,"stv_name":"Uncletopia | São Paulo | 1 | All Maps | STV","players":null},{"server_id":143,"name":"Uncletopia | São Paulo | 2 | Community","name_short":"sao-2","host":"sao-2.br.uncletopia.com","port":27015,"enabled":true,"region":"sa","cc":"br","latitude":-23.533773,"longitude":-46.62529,"reserved":0,"last_update":"0001-01-01T00:00:00Z","name_a2s":"Uncletopia | São Paulo | 2 | Community","protocol":17,"map":"workshop/cp_villa_b19.ugc2113052569","folder":"tf","game":"Team Fortress","app_id":440,"player_count":0,"max_players":24,"Bots":0,"server_type":"Dedicated","server_os":"Linux","password":true,"vac":true,"version":"7961495","steam_id":85568392924485349,"keywords":["cp","nocrits","nodmgspread","uncletopia"],"game_id":440,"stv_port":27016,"stv_name":"Uncletopia | São Paulo | 2 | Community | STV","players":null},{"server_id":7,"name":"Uncletopia | Seattle | 1 | All Maps","name_short":"sea-1","host":"sea-1.us.uncletopia.com","port":27015,"enabled":true,"region":"us-west","cc":"us","latitude":47.608013,"longitude":-122.33517,"reserved":0,"last_update":"0001-01-01T00:00:00Z","name_a2s":"Uncletopia | Seattle | 1 | All Maps","protocol":17,"map":"pl_borneo","folder":"tf","game":"Team Fortress","app_id":440,"player_count":24,"max_players":24,"Bots":0,"server_type":"Dedicated","server_os":"Linux","password":true,"vac":true,"version":"7961495","steam_id":85568392924469997,"keywords":["nocrits","nodmgspread","payload","uncletopia"],"game_id":440,"stv_port":27016,"stv_name":"Uncletopia | Seattle | 1 | All Maps | STV","players":[{"user_id":431,"name":"Karg","steam_id":76561198091387866,"connected_time":214000000000,"state":"active","ping":67},{"user_id":419,"name":"BlazedBunny","steam_id":76561198243610560,"connected_time":1721000000000,"state":"active","ping":62},{"user_id":433,"name":"Main Opp","steam_id":76561198124910662,"connected_time":157000000000,"state":"spawning","ping":83},{"user_id":382,"name":"woodpigeon","steam_id":76561199391478575,"connected_time":6094000000000,"state":"active","ping":51},{"user_id":405,"name":"Keamy","steam_id":76561199471434875,"connected_time":2901000000000,"state":"active","ping":45},{"user_id":418,"name":"Igrium","steam_id":76561198119549811,"connected_time":1762000000000,"state":"active","ping":66},{"user_id":432,"name":"canna van gogh","steam_id":76561198056331193,"connected_time":199000000000,"state":"active","ping":49},{"user_id":422,"name":"gnome zone","steam_id":76561198883349445,"connected_time":1677000000000,"state":"active","ping":74},{"user_id":427,"name":"Chef Clatsboris","steam_id":76561198162117215,"connected_time":1227000000000,"state":"active","ping":64},{"user_id":421,"name":"smeasly","steam_id":76561198028718812,"connected_time":1679000000000,"state":"active","ping":40},{"user_id":320,"name":"Corbezy","steam_id":76561197993398349,"connected_time":10318000000000,"state":"active","ping":121},{"user_id":362,"name":"dust | it/she","steam_id":76561198045218909,"connected_time":7171000000000,"state":"active","ping":41},{"user_id":423,"name":"Ishy the Lagger","steam_id":76561198835943890,"connected_time":1647000000000,"state":"active","ping":137},{"user_id":402,"name":"bear1boss fan","steam_id":76561198047850813,"connected_time":3758000000000,"state":"active","ping":45},{"user_id":435,"name":"Juustin","steam_id":76561198121922413,"connected_time":19000000000,"state":"active","ping":79},{"user_id":415,"name":"♥ Milo Stefferson ♥ (Soupca","steam_id":76561198056269538,"connected_time":2234000000000,"state":"active","ping":45},{"user_id":417,"name":"jovial","steam_id":76561198297130941,"connected_time":2035000000000,"state":"active","ping":88},{"user_id":414,"name":"yeeting","steam_id":76561198197408802,"connected_time":2656000000000,"state":"active","ping":138},{"user_id":426,"name":"Cardboardcoin","steam_id":76561199421284163,"connected_time":1437000000000,"state":"active","ping":95},{"user_id":413,"name":"greens beans","steam_id":76561198153611491,"connected_time":2668000000000,"state":"active","ping":44},{"user_id":397,"name":"Maine","steam_id":76561199151477293,"connected_time":4199000000000,"state":"active","ping":42},{"user_id":430,"name":"Strikerbolt","steam_id":76561199095622897,"connected_time":920000000000,"state":"active","ping":77},{"user_id":398,"name":"mega","steam_id":76561198089520959,"connected_time":4061000000000,"state":"active","ping":96},{"user_id":354,"name":"COOL master_9","steam_id":76561198073041151,"connected_time":7515000000000,"state":"active","ping":86}]},{"server_id":119,"name":"Uncletopia | Seattle | 2 | All Maps","name_short":"sea-2","host":"sea-1.us.uncletopia.com","port":27025,"enabled":true,"region":"us-west","cc":"us","latitude":47.608013,"longitude":-122.33517,"reserved":0,"last_update":"0001-01-01T00:00:00Z","name_a2s":"Uncletopia | Seattle | 2 | All Maps","protocol":17,"map":"koth_highpass","folder":"tf","game":"Team Fortress","app_id":440,"player_count":0,"max_players":24,"Bots":0,"server_type":"Dedicated","server_os":"Linux","password":true,"vac":true,"version":"7961495","steam_id":85568392924469998,"keywords":["cp","nocrits","nodmgspread","uncletopia"],"game_id":440,"stv_port":27026,"stv_name":"Uncletopia | Seattle | 2 | All Maps | STV","players":null},{"server_id":406,"name":"Uncletopia | Seattle | 3 | Stopwatch","name_short":"sea-3","host":"sea-1.us.uncletopia.com","port":27035,"enabled":true,"region":"us-west","cc":"us","latitude":47.608013,"longitude":-122.33517,"reserved":0,"last_update":"0001-01-01T00:00:00Z","name_a2s":"Uncletopia | Seattle | 3 | Stopwatch","protocol":17,"map":"cp_gullywash_final1","folder":"tf","game":"Team Fortress","app_id":440,"player_count":0,"max_players":24,"Bots":0,"server_type":"Dedicated","server_os":"Linux","password":true,"vac":true,"version":"7961495","steam_id":85568392924515217,"keywords":["cp","nocrits","nodmgspread","uncletopia"],"game_id":440,"stv_port":27036,"stv_name":"Uncletopia | Seattle | 3 | Stopwatch | STV","players":null},{"server_id":17,"name":"Uncletopia | San Francisco | 1 | All Maps","name_short":"sfo-1","host":"sfo-1.us.uncletopia.com","port":27015,"enabled":true,"region":"us-west","cc":"us","latitude":37.77397,"longitude":-122.4313,"reserved":0,"last_update":"0001-01-01T00:00:00Z","name_a2s":"Uncletopia | San Francisco | 1 | All Maps","protocol":17,"map":"koth_cascade","folder":"tf","game":"Team Fortress","app_id":440,"player_count":0,"max_players":24,"Bots":0,"server_type":"Dedicated","server_os":"Linux","password":true,"vac":true,"version":"7961495","steam_id":85568392924469999,"keywords":["cp","nocrits","nodmgspread","uncletopia"],"game_id":440,"stv_port":27016,"stv_name":"Uncletopia | San Francisco | 1 | All Maps | STV","players":null},{"server_id":18,"name":"Uncletopia | San Francisco | 2 | All Maps","name_short":"sfo-2","host":"sfo-1.us.uncletopia.com","port":27025,"enabled":true,"region":"us-west","cc":"us","latitude":37.77397,"longitude":-122.4313,"reserved":0,"last_update":"0001-01-01T00:00:00Z","name_a2s":"Uncletopia | San Francisco | 2 | All Maps","protocol":17,"map":"pl_frontier_final","folder":"tf","game":"Team Fortress","app_id":440,"player_count":0,"max_players":24,"Bots":0,"server_type":"Dedicated","server_os":"Linux","password":true,"vac":true,"version":"7961495","steam_id":85568392924470000,"keywords":["nocrits","nodmgspread","payload","uncletopia"],"game_id":440,"stv_port":27026,"stv_name":"Uncletopia | San Francisco | 2 | All Maps | STV","players":null},{"server_id":19,"name":"Uncletopia | San Francisco | 3 | Stopwatch","name_short":"sfo-3","host":"sfo-1.us.uncletopia.com","port":27035,"enabled":true,"region":"us-west","cc":"us","latitude":37.77397,"longitude":-122.4313,"reserved":0,"last_update":"0001-01-01T00:00:00Z","name_a2s":"Uncletopia | San Francisco | 3 | Stopwatch","protocol":17,"map":"pl_pier","folder":"tf","game":"Team Fortress","app_id":440,"player_count":0,"max_players":24,"Bots":0,"server_type":"Dedicated","server_os":"Linux","password":true,"vac":true,"version":"7961495","steam_id":85568392924742824,"keywords":["nocrits","nodmgspread","payload","uncletopia"],"game_id":440,"stv_port":27036,"stv_name":"Uncletopia | San Francisco | 3 | Stopwatch | STV","players":null},{"server_id":20,"name":"Uncletopia | San Francisco | 4 | Community","name_short":"sfo-4","host":"sfo-1.us.uncletopia.com","port":27045,"enabled":true,"region":"us-west","cc":"us","latitude":37.77397,"longitude":-122.4313,"reserved":0,"last_update":"0001-01-01T00:00:00Z","name_a2s":"Uncletopia | San Francisco | 4 | Community","protocol":17,"map":"workshop/koth_synthetic_rc6a.ugc1549817316","folder":"tf","game":"Team Fortress","app_id":440,"player_count":0,"max_players":24,"Bots":0,"server_type":"Dedicated","server_os":"Linux","password":true,"vac":true,"version":"7961495","steam_id":85568392924742826,"keywords":["cp","nocrits","nodmgspread","uncletopia"],"game_id":440,"stv_port":27046,"stv_name":"Uncletopia | San Francisco | 4 | Community | STV","players":null},{"server_id":141,"name":"Uncletopia | Sydney | 1 | All Maps","name_short":"syd-1","host":"syd-1.au.uncletopia.com","port":27015,"enabled":true,"region":"au","cc":"au","latitude":-33.865143,"longitude":151.2099,"reserved":0,"last_update":"0001-01-01T00:00:00Z","name_a2s":"Uncletopia | Sydney | 1 | All Maps","protocol":17,"map":"koth_viaduct","folder":"tf","game":"Team Fortress","app_id":440,"player_count":0,"max_players":24,"Bots":0,"server_type":"Dedicated","server_os":"Linux","password":true,"vac":true,"version":"7961495","steam_id":85568392924470001,"keywords":["cp","nocrits","nodmgspread","uncletopia"],"game_id":440,"stv_port":27016,"stv_name":"Uncletopia | Sydney | 1 | All Maps | STV","players":null},{"server_id":123,"name":"Uncletopia | Sydney | 2 | All Maps","name_short":"syd-2","host":"syd-1.au.uncletopia.com","port":27025,"enabled":true,"region":"au","cc":"au","latitude":-33.865143,"longitude":151.2099,"reserved":0,"last_update":"0001-01-01T00:00:00Z","name_a2s":"Uncletopia | Sydney | 2 | All Maps","protocol":17,"map":"koth_lakeside_final","folder":"tf","game":"Team Fortress","app_id":440,"player_count":0,"max_players":24,"Bots":0,"server_type":"Dedicated","server_os":"Linux","password":true,"vac":true,"version":"7961495","steam_id":85568392924470002,"keywords":["cp","nocrits","nodmgspread","uncletopia"],"game_id":440,"stv_port":27026,"stv_name":"Uncletopia | Sydney | 2 | All Maps | STV","players":null},{"server_id":395,"name":"Uncletopia | Sydney | 3 | All Maps","name_short":"syd-3","host":"syd-1.au.uncletopia.com","port":27035,"enabled":true,"region":"au","cc":"au","latitude":-33.865143,"longitude":151.2099,"reserved":0,"last_update":"0001-01-01T00:00:00Z","name_a2s":"Uncletopia | Sydney | 3 | All Maps","protocol":17,"map":"cp_mountainlab","folder":"tf","game":"Team Fortress","app_id":440,"player_count":0,"max_players":24,"Bots":0,"server_type":"Dedicated","server_os":"Linux","password":true,"vac":true,"version":"7961495","steam_id":85568392925194467,"keywords":["cp","nocrits","nodmgspread","uncletopia"],"game_id":440,"stv_port":27036,"stv_name":"Uncletopia | Sydney | 3 | All Maps | STV","players":null},{"server_id":396,"name":"Uncletopia | Sydney | 4 | All Maps","name_short":"syd-4","host":"syd-1.au.uncletopia.com","port":27045,"enabled":true,"region":"au","cc":"au","latitude":-33.865143,"longitude":151.2099,"reserved":0,"last_update":"0001-01-01T00:00:00Z","name_a2s":"Uncletopia | Sydney | 4 | All Maps","protocol":17,"map":"cp_process_final","folder":"tf","game":"Team Fortress","app_id":440,"player_count":0,"max_players":24,"Bots":0,"server_type":"Dedicated","server_os":"Linux","password":true,"vac":true,"version":"7961495","steam_id":85568392925397958,"keywords":["cp","nocrits","nodmgspread","uncletopia"],"game_id":440,"stv_port":27046,"stv_name":"Uncletopia | Sydney | 4 | All Maps | STV","players":null},{"server_id":58,"name":"Uncletopia | Sydney | 5 | Stopwatch","name_short":"syd-5","host":"syd-1.au.uncletopia.com","port":27055,"enabled":true,"region":"au","cc":"au","latitude":-33.865143,"longitude":151.2099,"reserved":0,"last_update":"0001-01-01T00:00:00Z","name_a2s":"Uncletopia | Sydney | 5 | Stopwatch","protocol":17,"map":"workshop/koth_clearcut_b15.ugc2107050255","folder":"tf","game":"Team Fortress","app_id":440,"player_count":0,"max_players":24,"Bots":0,"server_type":"Dedicated","server_os":"Linux","password":true,"vac":true,"version":"7961495","steam_id":85568392925397959,"keywords":["cp","nocrits","nodmgspread","uncletopia"],"game_id":440,"stv_port":27056,"stv_name":"Uncletopia | Sydney | 5 | Stopwatch | STV","players":null},{"server_id":59,"name":"Uncletopia | Sydney | 6 | Community","name_short":"syd-6","host":"syd-1.au.uncletopia.com","port":27065,"enabled":true,"region":"au","cc":"au","latitude":-33.865143,"longitude":151.2099,"reserved":0,"last_update":"0001-01-01T00:00:00Z","name_a2s":"Uncletopia | Sydney | 6 | Community","protocol":17,"map":"cp_sunshine","folder":"tf","game":"Team Fortress","app_id":440,"player_count":0,"max_players":24,"Bots":0,"server_type":"Dedicated","server_os":"Linux","password":true,"vac":true,"version":"7961495","steam_id":85568392925397960,"keywords":["cp","nocrits","nodmgspread","uncletopia"],"game_id":440,"stv_port":27066,"stv_name":"Uncletopia | Sydney | 6 | Community | STV","players":null},{"server_id":49,"name":"Uncletopia | Warsaw | 1 | All Maps","name_short":"waw-1","host":"waw-1.pl.uncletopia.com","port":27015,"enabled":true,"region":"eu","cc":"pl","latitude":52.2297,"longitude":21.017532,"reserved":0,"last_update":"0001-01-01T00:00:00Z","name_a2s":"Uncletopia | Warsaw | 1 | All Maps","protocol":17,"map":"cp_sunshine","folder":"tf","game":"Team Fortress","app_id":440,"player_count":0,"max_players":24,"Bots":0,"server_type":"Dedicated","server_os":"Linux","password":true,"vac":true,"version":"7961495","steam_id":85568392925397850,"keywords":["cp","nocrits","nodmgspread","uncletopia"],"game_id":440,"stv_port":27016,"stv_name":"Uncletopia | Warsaw | 1 | All Maps | STV","players":null},{"server_id":50,"name":"Uncletopia | Warsaw | 2 | All Maps","name_short":"waw-2","host":"waw-1.pl.uncletopia.com","port":27025,"enabled":true,"region":"eu","cc":"pl","latitude":52.2297,"longitude":21.017532,"reserved":0,"last_update":"0001-01-01T00:00:00Z","name_a2s":"Uncletopia | Warsaw | 2 | All Maps","protocol":17,"map":"koth_cascade","folder":"tf","game":"Team Fortress","app_id":440,"player_count":0,"max_players":24,"Bots":0,"server_type":"Dedicated","server_os":"Linux","password":true,"vac":true,"version":"7961495","steam_id":85568392925397851,"keywords":["cp","nocrits","nodmgspread","uncletopia"],"game_id":440,"stv_port":27026,"stv_name":"Uncletopia | Warsaw | 2 | All Maps | STV","players":null},{"server_id":51,"name":"Uncletopia | Warsaw | 3 | All Maps","name_short":"waw-3","host":"waw-1.pl.uncletopia.com","port":27035,"enabled":true,"region":"eu","cc":"pl","latitude":52.2297,"longitude":21.017532,"reserved":0,"last_update":"0001-01-01T00:00:00Z","name_a2s":"Uncletopia | Warsaw | 3 | All Maps","protocol":17,"map":"pl_frontier_final","folder":"tf","game":"Team Fortress","app_id":440,"player_count":0,"max_players":24,"Bots":0,"server_type":"Dedicated","server_os":"Linux","password":true,"vac":true,"version":"7961495","steam_id":85568392925397852,"keywords":["nocrits","nodmgspread","payload","uncletopia"],"game_id":440,"stv_port":27036,"stv_name":"Uncletopia | Warsaw | 3 | All Maps | STV","players":null},{"server_id":52,"name":"Uncletopia | Warsaw | 4 | All Maps","name_short":"waw-4","host":"waw-1.pl.uncletopia.com","port":27045,"enabled":true,"region":"eu","cc":"pl","latitude":52.2297,"longitude":21.017532,"reserved":0,"last_update":"0001-01-01T00:00:00Z","name_a2s":"Uncletopia | Warsaw | 4 | All Maps","protocol":17,"map":"koth_lakeside_final","folder":"tf","game":"Team Fortress","app_id":440,"player_count":0,"max_players":24,"Bots":0,"server_type":"Dedicated","server_os":"Linux","password":true,"vac":true,"version":"7961495","steam_id":85568392925397853,"keywords":["cp","nocrits","nodmgspread","uncletopia"],"game_id":440,"stv_port":27046,"stv_name":"Uncletopia | Warsaw | 4 | All Maps | STV","players":null},{"server_id":53,"name":"Uncletopia | Warsaw | 5 | Stopwatch","name_short":"waw-5","host":"waw-1.pl.uncletopia.com","port":27055,"enabled":true,"region":"eu","cc":"pl","latitude":52.2297,"longitude":21.017532,"reserved":0,"last_update":"0001-01-01T00:00:00Z","name_a2s":"Uncletopia | Warsaw | 5 | Stopwatch","protocol":17,"map":"workshop/pl_vigil_rc10.ugc1266210012","folder":"tf","game":"Team Fortress","app_id":440,"player_count":0,"max_players":24,"Bots":0,"server_type":"Dedicated","server_os":"Linux","password":true,"vac":true,"version":"7961495","steam_id":85568392925397854,"keywords":["nocrits","nodmgspread","payload","uncletopia"],"game_id":440,"stv_port":27056,"stv_name":"Uncletopia | Warsaw | 5 | Stopwatch | STV","players":null},{"server_id":54,"name":"Uncletopia | Warsaw | 6 | Community","name_short":"waw-6","host":"waw-1.pl.uncletopia.com","port":27065,"enabled":true,"region":"eu","cc":"pl","latitude":52.2297,"longitude":21.017532,"reserved":0,"last_update":"0001-01-01T00:00:00Z","name_a2s":"Uncletopia | Warsaw | 6 | Community","protocol":17,"map":"workshop/cp_mannbase_rc2a.ugc1900737467","folder":"tf","game":"Team Fortress","app_id":440,"player_count":0,"max_players":24,"Bots":0,"server_type":"Dedicated","server_os":"Linux","password":true,"vac":true,"version":"7961495","steam_id":85568392925397856,"keywords":["cp","nocrits","nodmgspread","uncletopia"],"game_id":440,"stv_port":27066,"stv_name":"Uncletopia | Warsaw | 6 | Community | STV","players":null}]}