{"status":true,"message":"","result":[{"server_id":9,"name":"Uncletopia | Atlanta | 1 | All Maps","name_short":"atl-1","host":"atl-1.us.uncletopia.com","port":27015,"enabled":true,"region":"us-east","cc":"us","latitude":33.753746,"longitude":-84.38633,"reserved":0,"last_update":"0001-01-01T00:00:00Z","name_a2s":"Uncletopia | Atlanta | 1 | All Maps","protocol":17,"map":"koth_cascade","folder":"tf","game":"Team Fortress","app_id":440,"player_count":25,"max_players":24,"Bots":0,"server_type":"Dedicated","server_os":"Linux","password":true,"vac":true,"version":"7882260","steam_id":85568392924469982,"keywords":["cp","nocrits","nodmgspread","uncletopia"],"game_id":440,"stv_port":27016,"stv_name":"Uncletopia | Atlanta | 1 | All Maps | STV","players":[{"user_id":116,"name":"unico!! ^_^","steam_id":76561198838282369,"connected_time":702000000000,"state":"active","ping":53},{"user_id":90,"name":"camツ","steam_id":76561199061128505,"connected_time":2086000000000,"state":"active","ping":76},{"user_id":124,"name":"Ninty","steam_id":76561199364725776,"connected_time":413000000000,"state":"active","ping":67},{"user_id":94,"name":"Boop","steam_id":76561198376703875,"connected_time":1634000000000,"state":"active","ping":72},{"user_id":113,"name":"put me in roach","steam_id":76561198202843510,"connected_time":938000000000,"state":"active","ping":72},{"user_id":122,"name":"slafflow","steam_id":76561199381012350,"connected_time":489000000000,"state":"active","ping":89},{"user_id":117,"name":"Orc_estrion","steam_id":76561198210943347,"connected_time":647000000000,"state":"active","ping":70},{"user_id":89,"name":"[Z80] Princess Kittycath","steam_id":76561198023770278,"connected_time":2105000000000,"state":"active","ping":57},{"user_id":105,"name":".9 lg","steam_id":76561198092238353,"connected_time":1249000000000,"state":"active","ping":86},{"user_id":118,"name":"Nekro Kitty","steam_id":76561198025054596,"connected_time":636000000000,"state":"active","ping":93},{"user_id":74,"name":"Ġ1 ♦ Synth","steam_id":76561198058660228,"connected_time":3251000000000,"state":"active","ping":45},{"user_id":75,"name":"Waluigi","steam_id":76561199003782138,"connected_time":3249000000000,"state":"active","ping":77},{"user_id":119,"name":"Rin \"Hindwing\" Redtail","steam_id":76561199074865638,"connected_time":573000000000,"state":"active","ping":61},{"user_id":120,"name":"dr peppah chug!","steam_id":76561198068835693,"connected_time":562000000000,"state":"active","ping":106},{"user_id":103,"name":"YourFriendJessie #savetf2","steam_id":76561198176883097,"connected_time":1460000000000,"state":"active","ping":86},{"user_id":114,"name":"Jexdra","steam_id":76561198154501381,"connected_time":825000000000,"state":"active","ping":78},{"user_id":123,"name":"bubbles","steam_id":76561198974276335,"connected_time":487000000000,"state":"active","ping":76},{"user_id":110,"name":"drunkangel","steam_id":76561198030274584,"connected_time":1031000000000,"state":"active","ping":67},{"user_id":104,"name":"A_Malebolgia","steam_id":76561198097722818,"connected_time":1349000000000,"state":"active","ping":92},{"user_id":127,"name":"Sanic_Bum","steam_id":76561198094179822,"connected_time":272000000000,"state":"active","ping":60},{"user_id":125,"name":"dirt scout","steam_id":76561198318058488,"connected_time":358000000000,"state":"active","ping":59},{"user_id":80,"name":"Tropic Banana","steam_id":76561199124435247,"connected_time":2881000000000,"state":"active","ping":78},{"user_id":51,"name":"dr sex, md (sexologist)","steam_id":76561198115874625,"connected_time":5833000000000,"state":"active","ping":98},{"user_id":67,"name":"Koishi","steam_id":76561198054541054,"connected_time":4134000000000,"state":"active","ping":61},{"user_id":143,"name":"freyja","steam_id":76561198249206656,"connected_time":0,"state":"spawning","ping":0}]},{"server_id":104,"name":"Uncletopia | Atlanta | 2 | All Maps","name_short":"atl-2","host":"atl-1.us.uncletopia.com","port":27025,"enabled":true,"region":"us-east","cc":"us","latitude":33.753746,"longitude":-84.38633,"reserved":0,"last_update":"0001-01-01T00:00:00Z","name_a2s":"Uncletopia | Atlanta | 2 | All Maps","protocol":17,"map":"cp_dustbowl","folder":"tf","game":"Team Fortress","app_id":440,"player_count":24,"max_players":24,"Bots":0,"server_type":"Dedicated","server_os":"Linux","password":true,"vac":true,"version":"7882260","steam_id":85568392924469983,"keywords":["cp","nocrits","nodmgspread","uncletopia"],"game_id":440,"stv_port":27026,"stv_name":"Uncletopia | Atlanta | 2 | All Maps | STV","players":[{"user_id":56,"name":"Noble","steam_id":76561199013705323,"connected_time":1065000000000,"state":"active","ping":65},{"user_id":43,"name":"pinglefingle","steam_id":76561198216580197,"connected_time":1358000000000,"state":"active","ping":86},{"user_id":19,"name":"Stan","steam_id":76561198209150708,"connected_time":2554000000000,"state":"active","ping":65},{"user_id":62,"name":"dr spwewps","steam_id":76561198144784420,"connected_time":635000000000,"state":"active","ping":81},{"user_id":74,"name":"Soul_Intern","steam_id":76561198310238109,"connected_time":205000000000,"state":"active","ping":103},{"user_id":71,"name":"Ventastega","steam_id":76561197999366317,"connected_time":283000000000,"state":"active","ping":86},{"user_id":39,"name":"Goblin (Real)","steam_id":76561199160926985,"connected_time":1515000000000,"state":"active","ping":54},{"user_id":26,"name":"andyiscolorless","steam_id":76561199239870921,"connected_time":1975000000000,"state":"active","ping":124},{"user_id":53,"name":"ZooWeeMama","steam_id":76561198353593569,"connected_time":1143000000000,"state":"active","ping":40},{"user_id":40,"name":"jello_hey","steam_id":76561199176327650,"connected_time":1497000000000,"state":"active","ping":56},{"user_id":67,"name":"Sturdy","steam_id":76561198138131840,"connected_time":320000000000,"state":"active","ping":68},{"user_id":63,"name":"Unwavering Flavor","steam_id":76561198053306065,"connected_time":539000000000,"state":"active","ping":71},{"user_id":68,"name":"Sarah","steam_id":76561198380024462,"connected_time":319000000000,"state":"active","ping":165},{"user_id":38,"name":"SnowFox","steam_id":76561199157634528,"connected_time":1534000000000,"state":"active","ping":88},{"user_id":44,"name":"Firecrotch Fredo","steam_id":76561198099658220,"connected_time":1346000000000,"state":"active","ping":73},{"user_id":45,"name":"CollDragon","steam_id":76561198067534450,"connected_time":1344000000000,"state":"active","ping":62},{"user_id":69,"name":"HOODOO_LOVER_2007","steam_id":76561199087691214,"connected_time":305000000000,"state":"active","ping":67},{"user_id":51,"name":"kennedy","steam_id":76561198304536343,"connected_time":1210000000000,"state":"active","ping":73},{"user_id":76,"name":"Blue Eyes Ace Dragon.","steam_id":76561198048214237,"connected_time":116000000000,"state":"active","ping":59},{"user_id":73,"name":"cactus eater","steam_id":76561199107499844,"connected_time":261000000000,"state":"active","ping":114},{"user_id":65,"name":"Minus273C","steam_id":76561197967510404,"connected_time":537000000000,"state":"active","ping":80},{"user_id":58,"name":"Angry Ginger","steam_id":76561198256929349,"connected_time":1056000000000,"state":"active","ping":69},{"user_id":75,"name":"iamnotstalin","steam_id":76561199130622077,"connected_time":192000000000,"state":"active","ping":83},{"user_id":77,"name":"Cad","steam_id":76561198312145232,"connected_time":100000000000,"state":"active","ping":80}]},{"server_id":400,"name":"Uncletopia | Atlanta | 3 | Community","name_short":"atl-3","host":"atl-1.us.uncletopia.com","port":27035,"enabled":true,"region":"us-east","cc":"us","latitude":33.753746,"longitude":-84.38633,"reserved":0,"last_update":"0001-01-01T00:00:00Z","name_a2s":"Uncletopia | Atlanta | 3 | Community","protocol":17,"map":"workshop/cp_croissant_final.ugc458840209","folder":"tf","game":"Team Fortress","app_id":440,"player_count":0,"max_players":24,"Bots":0,"server_type":"Dedicated","server_os":"Linux","password":true,"vac":true,"version":"7882260","steam_id":85568392924515187,"keywords":["cp","nocrits","nodmgspread","uncletopia"],"game_id":440,"stv_port":27036,"stv_name":"Uncletopia | Atlanta | 3 | Community | STV","players":null},{"server_id":401,"name":"Uncletopia | Atlanta | 4 | No Payload","name_short":"atl-4","host":"atl-1.us.uncletopia.com","port":27045,"enabled":true,"region":"us-east","cc":"us","latitude":33.753746,"longitude":-84.38633,"reserved":0,"last_update":"0001-01-01T00:00:00Z","name_a2s":"","protocol":0,"map":"","folder":"","game":"","app_id":0,"player_count":0,"max_players":0,"Bots":0,"server_type":"","server_os":"","password":false,"vac":false,"version":"","steam_id":0,"keywords":null,"game_id":0,"stv_port":0,"stv_name":"","players":null},{"server_id":2,"name":"Uncletopia | Chicago | 1 | All Maps","name_short":"chi-1","host":"chi-1.us.uncletopia.com","port":27015,"enabled":true,"region":"us-central","cc":"us","latitude":41.881832,"longitude":-87.62318,"reserved":0,"last_update":"0001-01-01T00:00:00Z","name_a2s":"Uncletopia | Chicago | 1 | All Maps","protocol":17,"map":"pl_barnblitz","folder":"tf","game":"Team Fortress","app_id":440,"player_count":24,"max_players":24,"Bots":0,"server_type":"Dedicated","server_os":"Linux","password":true,"vac":true,"version":"7882260","steam_id":85568392924469984,"keywords":["nocrits","nodmgspread","payload","uncletopia"],"game_id":440,"stv_port":27016,"stv_name":"Uncletopia | Chicago | 1 | All Maps | STV","players":[{"user_id":55,"name":"waltuh","steam_id":76561198363541736,"connected_time":2976000000000,"state":"active","ping":89},{"user_id":93,"name":"Squilliam Fancyson","steam_id":76561198211062267,"connected_time":378000000000,"state":"active","ping":54},{"user_id":86,"name":"rudy","steam_id":76561198088712799,"connected_time":963000000000,"state":"active","ping":70},{"user_id":95,"name":"Kim Possible's Mom","steam_id":76561198206517160,"connected_time":221000000000,"state":"active","ping":54},{"user_id":66,"name":"Sean Bae","steam_id":76561198036909521,"connected_time":2141000000000,"state":"active","ping":88},{"user_id":67,"name":"Gwando","steam_id":76561198294629124,"connected_time":2139000000000,"state":"active","ping":65},{"user_id":73,"name":"El Bondin","steam_id":76561198820792434,"connected_time":2083000000000,"state":"active","ping":98},{"user_id":78,"name":"Prymtime","steam_id":76561198156140502,"connected_time":1732000000000,"state":"active","ping":54},{"user_id":68,"name":"good_s1r","steam_id":76561199010842391,"connected_time":2129000000000,"state":"active","ping":71},{"user_id":79,"name":"Ta5K","steam_id":76561198939558155,"connected_time":1705000000000,"state":"active","ping":44},{"user_id":70,"name":"The Jar","steam_id":76561198146013385,"connected_time":2114000000000,"state":"active","ping":79},{"user_id":77,"name":"upside down cat","steam_id":76561198028288349,"connected_time":1884000000000,"state":"active","ping":92},{"user_id":62,"name":"TheWumbologist","steam_id":76561198065355069,"connected_time":2593000000000,"state":"active","ping":71},{"user_id":96,"name":"lasagna","steam_id":76561198882758067,"connected_time":209000000000,"state":"active","ping":45},{"user_id":83,"name":"kite","steam_id":76561198346516392,"connected_time":1186000000000,"state":"active","ping":71},{"user_id":64,"name":"Lost","steam_id":76561198093713427,"connected_time":2171000000000,"state":"active","ping":60},{"user_id":97,"name":"squidDMV","steam_id":76561199481268436,"connected_time":167000000000,"state":"active","ping":70},{"user_id":89,"name":"GLaDOS Simp","steam_id":76561198084849541,"connected_time":943000000000,"state":"active","ping":61},{"user_id":72,"name":"FS Jorda (She/Her)","steam_id":76561198071421459,"connected_time":2107000000000,"state":"active","ping":60},{"user_id":82,"name":"Kyzer","steam_id":76561198048034600,"connected_time":1468000000000,"state":"active","ping":67},{"user_id":91,"name":"TeeTree","steam_id":76561198862307874,"connected_time":607000000000,"state":"active","ping":60},{"user_id":98,"name":"idosu","steam_id":76561198132225073,"connected_time":155000000000,"state":"active","ping":99},{"user_id":46,"name":"Motreir","steam_id":76561198151717946,"connected_time":4375000000000,"state":"active","ping":78},{"user_id":94,"name":"Toottoot","steam_id":76561197992404836,"connected_time":264000000000,"state":"active","ping":48}]},{"server_id":106,"name":"Uncletopia | Chicago | 2 | All Maps","name_short":"chi-2","host":"chi-1.us.uncletopia.com","port":27025,"enabled":true,"region":"us-central","cc":"us","latitude":41.881832,"longitude":-87.62318,"reserved":0,"last_update":"0001-01-01T00:00:00Z","name_a2s":"Uncletopia | Chicago | 2 | All Maps","protocol":17,"map":"pl_barnblitz","folder":"tf","game":"Team Fortress","app_id":440,"player_count":24,"max_players":24,"Bots":0,"server_type":"Dedicated","server_os":"Linux","password":true,"vac":true,"version":"7882260","steam_id":85568392924469985,"keywords":["nocrits","nodmgspread","payload","uncletopia"],"game_id":440,"stv_port":27026,"stv_name":"Uncletopia | Chicago | 2 | All Maps | STV","players":[{"user_id":276,"name":"kibsta","steam_id":76561198991982630,"connected_time":354000000000,"state":"active","ping":52},{"user_id":241,"name":"ThatGamingKiwi","steam_id":76561199170522237,"connected_time":3193000000000,"state":"active","ping":73},{"user_id":282,"name":"chromebookgamer420","steam_id":76561198337692867,"connected_time":79000000000,"state":"active","ping":66},{"user_id":274,"name":"I am a mooshroom","steam_id":76561198104198295,"connected_time":932000000000,"state":"active","ping":77},{"user_id":271,"name":"Train","steam_id":76561198383867591,"connected_time":1273000000000,"state":"active","ping":75},{"user_id":240,"name":"Silvercoat's Stargazer","steam_id":76561198399525329,"connected_time":3301000000000,"state":"active","ping":80},{"user_id":211,"name":"LunarrD","steam_id":76561198811220107,"connected_time":5168000000000,"state":"active","ping":85},{"user_id":235,"name":"Ballin546","steam_id":76561199387318962,"connected_time":3817000000000,"state":"active","ping":64},{"user_id":281,"name":"Fuzzy Toast","steam_id":76561198028067781,"connected_time":281000000000,"state":"active","ping":41},{"user_id":256,"name":"HOTA","steam_id":76561199002778841,"connected_time":2292000000000,"state":"active","ping":74},{"user_id":250,"name":"Questor","steam_id":76561198034859665,"connected_time":2853000000000,"state":"active","ping":113},{"user_id":277,"name":"professional sucker double gawk","steam_id":76561199039152146,"connected_time":354000000000,"state":"active","ping":71},{"user_id":199,"name":"Mailer","steam_id":76561198062690074,"connected_time":5920000000000,"state":"active","ping":138},{"user_id":266,"name":"Npcutz64","steam_id":76561198320867336,"connected_time":1455000000000,"state":"active","ping":77},{"user_id":268,"name":"uszaru","steam_id":76561199004082219,"connected_time":1425000000000,"state":"active","ping":123},{"user_id":273,"name":"Letters","steam_id":76561198035508148,"connected_time":1024000000000,"state":"active","ping":95},{"user_id":269,"name":":3","steam_id":76561198077449460,"connected_time":1424000000000,"state":"active","ping":65},{"user_id":239,"name":"ExtremeDucks","steam_id":76561198351756464,"connected_time":3316000000000,"state":"active","ping":74},{"user_id":275,"name":"Bear of the Polar Variety","steam_id":76561198370330710,"connected_time":392000000000,"state":"active","ping":57},{"user_id":257,"name":"femboy foxgirl","steam_id":76561198056432756,"connected_time":2146000000000,"state":"active","ping":60},{"user_id":248,"name":"Mr.Bady","steam_id":76561199094651706,"connected_time":3098000000000,"state":"active","ping":73},{"user_id":270,"name":"Luke","steam_id":76561198253533632,"connected_time":1392000000000,"state":"active","ping":72},{"user_id":262,"name":"Cat in Your Backyard","steam_id":76561197979078330,"connected_time":1882000000000,"state":"active","ping":63},{"user_id":139,"name":"bouncyballs.com","steam_id":76561198236166288,"connected_time":9914000000000,"state":"active","ping":74}]},{"server_id":402,"name":"Uncletopia | Chicago | 3 | All Maps","name_short":"chi-3","host":"chi-1.us.uncletopia.com","port":27035,"enabled":true,"region":"us-central","cc":"us","latitude":41.881832,"longitude":-87.62318,"reserved":0,"last_update":"0001-01-01T00:00:00Z","name_a2s":"Uncletopia | Chicago | 3 | All Maps","protocol":17,"map":"pl_badwater","folder":"tf","game":"Team Fortress","app_id":440,"player_count":24,"max_players":24,"Bots":0,"server_type":"Dedicated","server_os":"Linux","password":true,"vac":true,"version":"7882260","steam_id":85568392924515191,"keywords":["nocrits","nodmgspread","payload","uncletopia"],"game_id":440,"stv_port":27036,"stv_name":"Uncletopia | Chicago | 3 | All Maps | STV","players":[{"user_id":267,"name":"Chin, Bruce Lee's Relative","steam_id":76561198240105522,"connected_time":205000000000,"state":"active","ping":86},{"user_id":255,"name":"Joshua31704","steam_id":76561198125898714,"connected_time":1262000000000,"state":"active","ping":69},{"user_id":252,"name":"♥ kiss me ♥","steam_id":76561198014557455,"connected_time":1566000000000,"state":"active","ping":51},{"user_id":253,"name":"Fiendish Frog","steam_id":76561198029478821,"connected_time":1286000000000,"state":"active","ping":67},{"user_id":235,"name":"Mr.Frundles","steam_id":76561198134559026,"connected_time":2600000000000,"state":"active","ping":69},{"user_id":257,"name":"George","steam_id":76561198020046873,"connected_time":1225000000000,"state":"active","ping":55},{"user_id":254,"name":"MoiMoi","steam_id":76561198873850038,"connected_time":1272000000000,"state":"active","ping":76},{"user_id":270,"name":"Grumpy","steam_id":76561198039465859,"connected_time":91000000000,"state":"active","ping":62},{"user_id":271,"name":"Yeeticus6000","steam_id":76561199385470749,"connected_time":90000000000,"state":"active","ping":70},{"user_id":241,"name":"Daddy Topps","steam_id":76561198203594332,"connected_time":2277000000000,"state":"active","ping":85},{"user_id":261,"name":"carrot cake","steam_id":76561198055174915,"connected_time":830000000000,"state":"active","ping":70},{"user_id":269,"name":"LG_Fridge_User","steam_id":76561198977815014,"connected_time":147000000000,"state":"active","ping":77},{"user_id":181,"name":"Bangushonkle","steam_id":76561198218887511,"connected_time":7281000000000,"state":"active","ping":87},{"user_id":182,"name":"pogo","steam_id":76561198148913461,"connected_time":7270000000000,"state":"active","ping":60},{"user_id":258,"name":"Terminator69","steam_id":76561198809283651,"connected_time":1224000000000,"state":"active","ping":60},{"user_id":272,"name":"Octomal800","steam_id":76561199453595616,"connected_time":87000000000,"state":"active","ping":75},{"user_id":273,"name":"cornfoot","steam_id":76561198070676354,"connected_time":75000000000,"state":"active","ping":84},{"user_id":184,"name":"LiftN","steam_id":76561198167974713,"connected_time":7243000000000,"state":"active","ping":71},{"user_id":251,"name":"Piss man","steam_id":76561198880428283,"connected_time":1721000000000,"state":"active","ping":77},{"user_id":277,"name":"Retro Phoenix","steam_id":76561198077176271,"connected_time":21000000000,"state":"active","ping":66},{"user_id":260,"name":"Smileyface101","steam_id":76561198072769766,"connected_time":866000000000,"state":"active","ping":102},{"user_id":263,"name":"jema","steam_id":76561198276513608,"connected_time":760000000000,"state":"active","ping":168},{"user_id":276,"name":"stoiccreeper107","steam_id":76561199109422781,"connected_time":49000000000,"state":"spawning","ping":89},{"user_id":246,"name":"Takumi Fujiwara","steam_id":76561198146281101,"connected_time":2020000000000,"state":"active","ping":73}]},{"server_id":403,"name":"Uncletopia | Chicago | 4 | All Maps","name_short":"chi-4","host":"chi-1.us.uncletopia.com","port":27045,"enabled":true,"region":"us-central","cc":"us","latitude":41.881832,"longitude":-87.62318,"reserved":0,"last_update":"0001-01-01T00:00:00Z","name_a2s":"Uncletopia | Chicago | 4 | All Maps","protocol":17,"map":"koth_cascade","folder":"tf","game":"Team Fortress","app_id":440,"player_count":0,"max_players":24,"Bots":0,"server_type":"Dedicated","server_os":"Linux","password":true,"vac":true,"version":"7882260","steam_id":85568392924515193,"keywords":["cp","nocrits","nodmgspread","uncletopia"],"game_id":440,"stv_port":27046,"stv_name":"Uncletopia | Chicago | 4 | All Maps | STV","players":null},{"server_id":36,"name":"Uncletopia | Chicago | 5 | All Maps","name_short":"chi-5","host":"chi-2.us.uncletopia.com","port":27015,"enabled":true,"region":"us-central","cc":"us","latitude":41.881832,"longitude":-87.62318,"reserved":0,"last_update":"0001-01-01T00:00:00Z","name_a2s":"Uncletopia | Chicago | 5 | All Maps","protocol":17,"map":"ctf_2fort","folder":"tf","game":"Team Fortress","app_id":440,"player_count":24,"max_players":24,"Bots":0,"server_type":"Dedicated","server_os":"Linux","password":true,"vac":true,"version":"7882260","steam_id":85568392924866362,"keywords":["ctf","nocrits","nodmgspread","uncletopia"],"game_id":440,"stv_port":27016,"stv_name":"Uncletopia | Chicago | 5 | All Maps | STV","players":[{"user_id":144,"name":"strangified aluminum pile","steam_id":76561197975540289,"connected_time":875000000000,"state":"active","ping":60},{"user_id":160,"name":"Passion","steam_id":76561198818233217,"connected_time":291000000000,"state":"active","ping":79},{"user_id":161,"name":"GotYourNose","steam_id":76561198803527852,"connected_time":44000000000,"state":"active","ping":60},{"user_id":157,"name":"canakblasteran","steam_id":76561199472518822,"connected_time":413000000000,"state":"active","ping":99},{"user_id":162,"name":"creepycrawler","steam_id":76561198352016831,"connected_time":41000000000,"state":"active","ping":55},{"user_id":141,"name":"Jack The Racc","steam_id":76561198044762365,"connected_time":936000000000,"state":"active","ping":48},{"user_id":150,"name":"Mike Hock","steam_id":76561199470441954,"connected_time":604000000000,"state":"active","ping":93},{"user_id":70,"name":"Lord Razor","steam_id":76561198373286283,"connected_time":8120000000000,"state":"active","ping":84},{"user_id":78,"name":"starvin marvin","steam_id":76561198347286009,"connected_time":6994000000000,"state":"active","ping":70},{"user_id":134,"name":"Animaljamfan126","steam_id":76561199013267492,"connected_time":2408000000000,"state":"active","ping":68},{"user_id":136,"name":"siodoge","steam_id":76561198061184951,"connected_time":2064000000000,"state":"active","ping":83},{"user_id":125,"name":"Gallowglass07","steam_id":76561199286102917,"connected_time":3039000000000,"state":"active","ping":97},{"user_id":127,"name":"basil smoking weed","steam_id":76561198119590214,"connected_time":3017000000000,"state":"active","ping":61},{"user_id":158,"name":"Kurt Biscuitmaker","steam_id":76561198331701823,"connected_time":390000000000,"state":"active","ping":85},{"user_id":151,"name":"Sturmwolken [1312]","steam_id":76561198260905784,"connected_time":553000000000,"state":"active","ping":74},{"user_id":105,"name":"GrapeGoodra","steam_id":76561198042141579,"connected_time":5553000000000,"state":"active","ping":52},{"user_id":126,"name":"cjip","steam_id":76561198261703372,"connected_time":3039000000000,"state":"active","ping":93},{"user_id":111,"name":"jazztree14","steam_id":76561199239395356,"connected_time":5170000000000,"state":"active","ping":63},{"user_id":107,"name":"Revenant","steam_id":76561198074139416,"connected_time":5542000000000,"state":"active","ping":72},{"user_id":152,"name":"gaming with sam (awesomegamer)","steam_id":76561198370578975,"connected_time":545000000000,"state":"active","ping":126},{"user_id":153,"name":"Sods","steam_id":76561198010204565,"connected_time":522000000000,"state":"active","ping":70},{"user_id":159,"name":"gonk","steam_id":76561198061206732,"connected_time":346000000000,"state":"active","ping":73},{"user_id":155,"name":"Duder","steam_id":76561198823224784,"connected_time":503000000000,"state":"active","ping":83},{"user_id":156,"name":"loyaldandan0764","steam_id":76561199231020424,"connected_time":491000000000,"state":"active","ping":116}]},{"server_id":37,"name":"Uncletopia | Chicago | 6 | All Maps","name_short":"chi-6","host":"chi-2.us.uncletopia.com","port":27025,"enabled":true,"region":"us-central","cc":"us","latitude":41.881832,"longitude":-87.62318,"reserved":0,"last_update":"0001-01-01T00:00:00Z","name_a2s":"Uncletopia | Chicago | 6 | All Maps","protocol":17,"map":"pl_upward","folder":"tf","game":"Team Fortress","app_id":440,"player_count":21,"max_players":24,"Bots":0,"server_type":"Dedicated","server_os":"Linux","password":true,"vac":true,"version":"7882260","steam_id":85568392924866363,"keywords":["nocrits","nodmgspread","payload","uncletopia"],"game_id":440,"stv_port":27026,"stv_name":"Uncletopia | Chicago | 6 | All Maps | STV","players":[{"user_id":13,"name":"Theta_Line","steam_id":76561198194764277,"connected_time":2932000000000,"state":"active","ping":142},{"user_id":65,"name":"Majestic-A","steam_id":76561198988062101,"connected_time":194000000000,"state":"active","ping":88},{"user_id":51,"name":"Generic_Soda","steam_id":76561197993528721,"connected_time":1345000000000,"state":"active","ping":49},{"user_id":8,"name":"Nelson","steam_id":76561198850327678,"connected_time":3299000000000,"state":"active","ping":91},{"user_id":41,"name":"the gamer hermit crab","steam_id":76561198969402276,"connected_time":1964000000000,"state":"active","ping":92},{"user_id":10,"name":"James 4:4","steam_id":76561198121933439,"connected_time":3230000000000,"state":"active","ping":86},{"user_id":63,"name":"Carthage (TRANSRIGHTS)","steam_id":76561198049001571,"connected_time":370000000000,"state":"active","ping":106},{"user_id":16,"name":"I'm trying my best","steam_id":76561198886157874,"connected_time":2675000000000,"state":"active","ping":58},{"user_id":60,"name":"It's Jover","steam_id":76561199291431188,"connected_time":661000000000,"state":"active","ping":60},{"user_id":62,"name":"Smug Pug","steam_id":76561198059423334,"connected_time":398000000000,"state":"active","ping":46},{"user_id":68,"name":"King De","steam_id":76561198194427422,"connected_time":17000000000,"state":"spawning","ping":2545},{"user_id":45,"name":"Void, the Violet Knight","steam_id":76561198025470758,"connected_time":1745000000000,"state":"active","ping":70},{"user_id":22,"name":"Yeets3er","steam_id":76561199137127757,"connected_time":2419000000000,"state":"active","ping":163},{"user_id":52,"name":"Idk","steam_id":76561198971629959,"connected_time":1334000000000,"state":"spawning","ping":333},{"user_id":55,"name":"Blud done walked 0 miles","steam_id":76561199285074344,"connected_time":1097000000000,"state":"active","ping":79},{"user_id":26,"name":"weezer","steam_id":76561199434431257,"connected_time":2387000000000,"state":"active","ping":72},{"user_id":69,"name":"felted","steam_id":76561198099507130,"connected_time":4000000000,"state":"spawning","ping":65},{"user_id":61,"name":"Regi","steam_id":76561198271508598,"connected_time":595000000000,"state":"active","ping":46},{"user_id":44,"name":"maple","steam_id":76561198071737566,"connected_time":1773000000000,"state":"active","ping":63},{"user_id":66,"name":"the bron jame","steam_id":76561198371235518,"connected_time":134000000000,"state":"active","ping":139},{"user_id":43,"name":"Mocanthl","steam_id":76561198043778324,"connected_time":1779000000000,"state":"active","ping":62}]},{"server_id":38,"name":"Uncletopia | Chicago | 7 | Stopwatch Beta","name_short":"chi-7","host":"chi-2.us.uncletopia.com","port":27035,"enabled":true,"region":"us-central","cc":"us","latitude":41.881832,"longitude":-87.62318,"reserved":0,"last_update":"0001-01-01T00:00:00Z","name_a2s":"Uncletopia | Chicago | 7 | Stopwatch Beta","protocol":17,"map":"pl_borneo","folder":"tf","game":"Team Fortress","app_id":440,"player_count":0,"max_players":24,"Bots":0,"server_type":"Dedicated","server_os":"Linux","password":true,"vac":true,"version":"7882260","steam_id":85568392924866364,"keywords":["nocrits","nodmgspread","payload","uncletopia"],"game_id":440,"stv_port":27036,"stv_name":"Uncletopia | Chicago | 7 | Stopwatch Beta | STV","players":null},{"server_id":39,"name":"Uncletopia | Chicago | 8 | Community","name_short":"chi-8","host":"chi-2.us.uncletopia.com","port":27045,"enabled":true,"region":"us-central","cc":"us","latitude":41.881832,"longitude":-87.62318,"reserved":0,"last_update":"0001-01-01T00:00:00Z","name_a2s":"Uncletopia | Chicago | 8 | Community","protocol":17,"map":"workshop/cp_fulgur_rc2a.ugc2068252300","folder":"tf","game":"Team Fortress","app_id":440,"player_count":0,"max_players":24,"Bots":0,"server_type":"Dedicated","server_os":"Linux","password":true,"vac":true,"version":"7882260","steam_id":85568392924866365,"keywords":["cp","nocrits","nodmgspread","uncletopia"],"game_id":440,"stv_port":27046,"stv_name":"Uncletopia | Chicago | 8 | Community | STV","players":null},{"server_id":8,"name":"Uncletopia | Dallas | 1 | All Maps","name_short":"dal-1","host":"dal-1.us.uncletopia.com","port":27015,"enabled":true,"region":"us-central","cc":"us","latitude":32.779167,"longitude":-96.80889,"reserved":0,"last_update":"0001-01-01T00:00:00Z","name_a2s":"Uncletopia | Dallas | 1 | All Maps","protocol":17,"map":"cp_dustbowl","folder":"tf","game":"Team Fortress","app_id":440,"player_count":24,"max_players":24,"Bots":0,"server_type":"Dedicated","server_os":"Linux","password":true,"vac":true,"version":"7882260","steam_id":85568392924469986,"keywords":["cp","nocrits","nodmgspread","uncletopia"],"game_id":440,"stv_port":27016,"stv_name":"Uncletopia | Dallas | 1 | All Maps | STV","players":[{"user_id":115,"name":"Cheesi","steam_id":76561199417190840,"connected_time":354000000000,"state":"active","ping":99},{"user_id":116,"name":"TheHiddenBlade","steam_id":76561199129787866,"connected_time":332000000000,"state":"active","ping":90},{"user_id":104,"name":"Sunshine","steam_id":76561198885528098,"connected_time":1708000000000,"state":"active","ping":85},{"user_id":40,"name":"TeriyakiDynamite","steam_id":76561198050049346,"connected_time":7251000000000,"state":"active","ping":94},{"user_id":63,"name":"kingjeffry2012@hotmail.com","steam_id":76561198314104415,"connected_time":5999000000000,"state":"active","ping":84},{"user_id":92,"name":"Haiti's Space Agency","steam_id":76561197997819072,"connected_time":2942000000000,"state":"active","ping":47},{"user_id":96,"name":"死","steam_id":76561198127525888,"connected_time":2313000000000,"state":"active","ping":46},{"user_id":121,"name":"Dragonofponies","steam_id":76561199016800803,"connected_time":213000000000,"state":"active","ping":55},{"user_id":105,"name":"Dustin Bones","steam_id":76561198019314474,"connected_time":1704000000000,"state":"active","ping":60},{"user_id":122,"name":"Devkid","steam_id":76561199472254358,"connected_time":197000000000,"state":"active","ping":66},{"user_id":127,"name":"good soup guy","steam_id":76561199210237835,"connected_time":22000000000,"state":"active","ping":91},{"user_id":82,"name":"Half-Alpha","steam_id":76561199274000697,"connected_time":4162000000000,"state":"active","ping":100},{"user_id":90,"name":"bo scrungulus","steam_id":76561198038036122,"connected_time":3331000000000,"state":"active","ping":60},{"user_id":119,"name":"teatimesukka","steam_id":76561198978749594,"connected_time":238000000000,"state":"active","ping":36},{"user_id":120,"name":"Driffter","steam_id":76561199122194221,"connected_time":234000000000,"state":"active","ping":116},{"user_id":123,"name":"The Undone Sage","steam_id":76561198261998561,"connected_time":194000000000,"state":"active","ping":77},{"user_id":110,"name":"Angel_Bonnie","steam_id":76561199229447760,"connected_time":1158000000000,"state":"active","ping":101},{"user_id":91,"name":"LooneyMonkey","steam_id":76561198414675183,"connected_time":3203000000000,"state":"active","ping":64},{"user_id":124,"name":"AddonFails","steam_id":76561199122241547,"connected_time":180000000000,"state":"active","ping":89},{"user_id":125,"name":"Hot Milk + Sweet Delight","steam_id":76561197988989149,"connected_time":83000000000,"state":"active","ping":86},{"user_id":113,"name":"green ninja [Skeletor]","steam_id":76561199087344972,"connected_time":857000000000,"state":"active","ping":77},{"user_id":128,"name":"s1lence","steam_id":76561198115542047,"connected_time":9000000000,"state":"active","ping":109},{"user_id":109,"name":"Chimpish","steam_id":76561199263493270,"connected_time":1603000000000,"state":"active","ping":97}]},{"server_id":108,"name":"Uncletopia | Dallas | 2 | All Maps","name_short":"dal-2","host":"dal-1.us.uncletopia.com","port":27025,"enabled":true,"region":"us-central","cc":"us","latitude":32.779167,"longitude":-96.80889,"reserved":0,"last_update":"0001-01-01T00:00:00Z","name_a2s":"Uncletopia | Dallas | 2 | All Maps","protocol":17,"map":"pl_upward","folder":"tf","game":"Team Fortress","app_id":440,"player_count":7,"max_players":24,"Bots":0,"server_type":"Dedicated","server_os":"Linux","password":true,"vac":true,"version":"7882260","steam_id":85568392924469988,"keywords":["nocrits","nodmgspread","payload","uncletopia"],"game_id":440,"stv_port":27026,"stv_name":"Uncletopia | Dallas | 2 | All Maps | STV","players":[{"user_id":16,"name":"benjababy","steam_id":76561199086747139,"connected_time":2862000000000,"state":"active","ping":51},{"user_id":14,"name":"bobletoob","steam_id":76561199184464900,"connected_time":3009000000000,"state":"active","ping":78},{"user_id":18,"name":"feenman","steam_id":76561199383834799,"connected_time":2543000000000,"state":"active","ping":69},{"user_id":23,"name":"The Legolord","steam_id":76561199101367611,"connected_time":1485000000000,"state":"active","ping":60},{"user_id":24,"name":"Blaze","steam_id":76561199057409736,"connected_time":466000000000,"state":"active","ping":66},{"user_id":26,"name":"asm_ghost","steam_id":76561199205363547,"connected_time":355000000000,"state":"active","ping":100},{"user_id":28,"name":"_normal","steam_id":76561198338505734,"connected_time":13000000000,"state":"active","ping":35}]},{"server_id":5,"name":"Uncletopia | Frankfurt | 1 | All Maps","name_short":"frk-1","host":"frk-1.de.uncletopia.com","port":27015,"enabled":true,"region":"eu","cc":"de","latitude":50.110924,"longitude":8.682127,"reserved":0,"last_update":"0001-01-01T00:00:00Z","name_a2s":"Uncletopia | Frankfurt | 1 | All Maps","protocol":17,"map":"pl_pier","folder":"tf","game":"Team Fortress","app_id":440,"player_count":23,"max_players":24,"Bots":0,"server_type":"Dedicated","server_os":"Linux","password":true,"vac":true,"version":"7882260","steam_id":85568392924469989,"keywords":["nocrits","nodmgspread","payload","uncletopia"],"game_id":440,"stv_port":27016,"stv_name":"Uncletopia | Frankfurt | 1 | All Maps | STV","players":[{"user_id":305,"name":"Murphy","steam_id":76561198271394131,"connected_time":3068000000000,"state":"active","ping":59},{"user_id":297,"name":"Wardruna96","steam_id":76561199057083828,"connected_time":4960000000000,"state":"active","ping":75},{"user_id":354,"name":"Zizman","steam_id":76561198446562910,"connected_time":620000000000,"state":"active","ping":143},{"user_id":349,"name":"Mlanky","steam_id":76561198047796778,"connected_time":738000000000,"state":"active","ping":45},{"user_id":341,"name":"why rum gone","steam_id":76561198158484784,"connected_time":1067000000000,"state":"active","ping":60},{"user_id":342,"name":"\u003c blank \u003e","steam_id":76561198059375315,"connected_time":1046000000000,"state":"active","ping":65},{"user_id":278,"name":"Flash","steam_id":76561198067379855,"connected_time":6277000000000,"state":"active","ping":56},{"user_id":359,"name":"xavier","steam_id":76561198076494034,"connected_time":333000000000,"state":"active","ping":55},{"user_id":343,"name":"vurtun","steam_id":76561198857395274,"connected_time":992000000000,"state":"active","ping":53},{"user_id":350,"name":"yard man","steam_id":76561198019477093,"connected_time":730000000000,"state":"active","ping":75},{"user_id":323,"name":"JAZZ COMMANDO","steam_id":76561198031766068,"connected_time":2422000000000,"state":"active","ping":60},{"user_id":357,"name":"Ham","steam_id":76561198248478444,"connected_time":453000000000,"state":"active","ping":87},{"user_id":338,"name":"qwertyrealschru_lll","steam_id":76561199120083473,"connected_time":1275000000000,"state":"active","ping":79},{"user_id":352,"name":"Dictatorial Karelian","steam_id":76561198196736457,"connected_time":678000000000,"state":"active","ping":75},{"user_id":355,"name":"Thors","steam_id":76561197968739075,"connected_time":540000000000,"state":"active","ping":47},{"user_id":292,"name":"DrExplosive 30fps gaming","steam_id":76561198063678579,"connected_time":5144000000000,"state":"active","ping":65},{"user_id":317,"name":"Sex Man TF2","steam_id":76561198798657045,"connected_time":2896000000000,"state":"active","ping":76},{"user_id":358,"name":"oskar.collins2","steam_id":76561199092232637,"connected_time":413000000000,"state":"active","ping":79},{"user_id":346,"name":"GREEK MGE GOD","steam_id":76561197988085026,"connected_time":912000000000,"state":"active","ping":61},{"user_id":314,"name":"Luc3ky","steam_id":76561198301031826,"connected_time":2982000000000,"state":"active","ping":62},{"user_id":360,"name":"Diggity","steam_id":76561198297157085,"connected_time":218000000000,"state":"active","ping":53},{"user_id":260,"name":"Nintyuk","steam_id":76561197994176164,"connected_time":7671000000000,"state":"active","ping":56},{"user_id":328,"name":"dumdum","steam_id":76561198069430083,"connected_time":1813000000000,"state":"active","ping":86}]},{"server_id":110,"name":"Uncletopia | Frankfurt | 2 | All Maps","name_short":"frk-2","host":"frk-1.de.uncletopia.com","port":27025,"enabled":true,"region":"eu","cc":"de","latitude":50.110924,"longitude":8.682127,"reserved":0,"last_update":"0001-01-01T00:00:00Z","name_a2s":"Uncletopia | Frankfurt | 2 | All Maps","protocol":17,"map":"cp_mercenarypark","folder":"tf","game":"Team Fortress","app_id":440,"player_count":6,"max_players":24,"Bots":0,"server_type":"Dedicated","server_os":"Linux","password":true,"vac":true,"version":"7882260","steam_id":85568392924469990,"keywords":["cp","nocrits","nodmgspread","uncletopia"],"game_id":440,"stv_port":27026,"stv_name":"Uncletopia | Frankfurt | 2 | All Maps | STV","players":[{"user_id":230,"name":"Toin","steam_id":76561198439323729,"connected_time":852000000000,"state":"active","ping":66},{"user_id":227,"name":"band-aid copyright infringement","steam_id":76561199027095451,"connected_time":1618000000000,"state":"active","ping":72},{"user_id":232,"name":"Game Alex","steam_id":76561198325069908,"connected_time":735000000000,"state":"active","ping":97},{"user_id":228,"name":"AxyzS | affenbr0t_6o4","steam_id":76561197981823456,"connected_time":1386000000000,"state":"active","ping":71},{"user_id":235,"name":"TheFox.tf","steam_id":76561197996851702,"connected_time":144000000000,"state":"active","ping":60},{"user_id":237,"name":"Rare bulldog owner","steam_id":76561199407941086,"connected_time":104000000000,"state":"active","ping":58}]},{"server_id":308,"name":"Uncletopia | Frankfurt | 3 | All Maps","name_short":"frk-3","host":"frk-1.de.uncletopia.com","port":27035,"enabled":true,"region":"eu","cc":"de","latitude":50.110924,"longitude":8.682127,"reserved":0,"last_update":"0001-01-01T00:00:00Z","name_a2s":"Uncletopia | Frankfurt | 3 | All Maps","protocol":17,"map":"pl_upward","folder":"tf","game":"Team Fortress","app_id":440,"player_count":24,"max_players":24,"Bots":0,"server_type":"Dedicated","server_os":"Linux","password":true,"vac":true,"version":"7882260","steam_id":85568392924504274,"keywords":["nocrits","nodmgspread","payload","uncletopia"],"game_id":440,"stv_port":27036,"stv_name":"Uncletopia | Frankfurt | 3 | All Maps | STV","players":[{"user_id":143,"name":"After8","steam_id":76561198090750865,"connected_time":11497000000000,"state":"active","ping":67},{"user_id":239,"name":"The Abbiatons","steam_id":76561198133085347,"connected_time":3865000000000,"state":"active","ping":54},{"user_id":284,"name":"Sensei","steam_id":76561198383582429,"connected_time":1221000000000,"state":"active","ping":90},{"user_id":266,"name":"Chillrend | #SaveTF2","steam_id":76561198452963141,"connected_time":2051000000000,"state":"active","ping":77},{"user_id":281,"name":"Tin","steam_id":76561198022201818,"connected_time":1529000000000,"state":"active","ping":47},{"user_id":242,"name":"adam.prochazka2009","steam_id":76561198157511897,"connected_time":3795000000000,"state":"active","ping":45},{"user_id":206,"name":"bagasser","steam_id":76561198051283300,"connected_time":7883000000000,"state":"active","ping":75},{"user_id":268,"name":"Philosophos_Alpha","steam_id":76561198951264580,"connected_time":2023000000000,"state":"active","ping":105},{"user_id":290,"name":"Driver's drunkest God","steam_id":76561198969373800,"connected_time":70000000000,"state":"active","ping":71},{"user_id":264,"name":"Christmas Ham","steam_id":76561198119601623,"connected_time":2353000000000,"state":"active","ping":72},{"user_id":258,"name":"Rimx","steam_id":76561198053034840,"connected_time":2616000000000,"state":"active","ping":98},{"user_id":269,"name":"arcticcu","steam_id":76561198002435882,"connected_time":1992000000000,"state":"active","ping":91},{"user_id":289,"name":"Makłowicz","steam_id":76561198281831506,"connected_time":162000000000,"state":"active","ping":88},{"user_id":285,"name":"panakid","steam_id":76561198364121077,"connected_time":939000000000,"state":"active","ping":112},{"user_id":262,"name":"SOGET","steam_id":76561198859799048,"connected_time":2424000000000,"state":"active","ping":81},{"user_id":275,"name":"wasto-/-™","steam_id":76561198102888038,"connected_time":1893000000000,"state":"active","ping":46},{"user_id":286,"name":"LiønHeart","steam_id":76561198081370704,"connected_time":387000000000,"state":"active","ping":46},{"user_id":200,"name":"cinny","steam_id":76561198832112629,"connected_time":7991000000000,"state":"active","ping":73},{"user_id":276,"name":"Magic1L","steam_id":76561198831787182,"connected_time":1788000000000,"state":"active","ping":59},{"user_id":288,"name":"Leonardo808","steam_id":76561198310645061,"connected_time":317000000000,"state":"active","ping":196},{"user_id":278,"name":"Prole","steam_id":76561198049837199,"connected_time":1779000000000,"state":"active","ping":139},{"user_id":282,"name":"Maxnatur","steam_id":76561198311570023,"connected_time":1528000000000,"state":"active","ping":69},{"user_id":223,"name":"Captain Scrumpe","steam_id":76561198032206577,"connected_time":6080000000000,"state":"active","ping":84},{"user_id":250,"name":"žlutářepa","steam_id":76561198152633755,"connected_time":3580000000000,"state":"active","ping":47}]},{"server_id":309,"name":"Uncletopia | Frankfurt | 4 | All Maps","name_short":"frk-4","host":"frk-1.de.uncletopia.com","port":27045,"enabled":true,"region":"eu","cc":"de","latitude":50.110924,"longitude":8.682127,"reserved":0,"last_update":"0001-01-01T00:00:00Z","name_a2s":"Uncletopia | Frankfurt | 4 | All Maps","protocol":17,"map":"pl_rumford_event","folder":"tf","game":"Team Fortress","app_id":440,"player_count":21,"max_players":24,"Bots":0,"server_type":"Dedicated","server_os":"Linux","password":true,"vac":true,"version":"7882260","steam_id":85568392924504275,"keywords":["nocrits","nodmgspread","payload","uncletopia"],"game_id":440,"stv_port":27046,"stv_name":"Uncletopia | Frankfurt | 4 | All Maps | STV","players":[{"user_id":202,"name":"youmme95","steam_id":76561198049802823,"connected_time":33000000000,"state":"active","ping":76},{"user_id":200,"name":"犬のたわごと","steam_id":76561199031996943,"connected_time":216000000000,"state":"active","ping":89},{"user_id":192,"name":"nikkielmao","steam_id":76561198086229832,"connected_time":549000000000,"state":"active","ping":56},{"user_id":148,"name":"smell_my_cheese","steam_id":76561198008517427,"connected_time":3942000000000,"state":"active","ping":69},{"user_id":145,"name":"The Reaper","steam_id":76561199485533961,"connected_time":4148000000000,"state":"active","ping":88},{"user_id":189,"name":"RudiPrico4","steam_id":76561199014381495,"connected_time":625000000000,"state":"active","ping":49},{"user_id":201,"name":"SkillFullNinja","steam_id":76561198376246441,"connected_time":207000000000,"state":"active","ping":117},{"user_id":75,"name":"ONDRASEKCUKROUSEK","steam_id":76561198254030118,"connected_time":8698000000000,"state":"active","ping":46},{"user_id":190,"name":"Цветочек","steam_id":76561198446579045,"connected_time":605000000000,"state":"active","ping":50},{"user_id":191,"name":"Carrot Arc","steam_id":76561198164957006,"connected_time":587000000000,"state":"active","ping":72},{"user_id":174,"name":"Lana Evøl Åttog","steam_id":76561198066287297,"connected_time":1442000000000,"state":"active","ping":47},{"user_id":178,"name":"Josh","steam_id":76561198274546904,"connected_time":1088000000000,"state":"active","ping":134},{"user_id":194,"name":"kyuta","steam_id":76561198382281653,"connected_time":404000000000,"state":"active","ping":75},{"user_id":179,"name":"Itai","steam_id":76561198804555329,"connected_time":1052000000000,"state":"active","ping":96},{"user_id":180,"name":"Dr.Nefario","steam_id":76561198874586020,"connected_time":1046000000000,"state":"active","ping":65},{"user_id":81,"name":"KnugenIV","steam_id":76561198127091993,"connected_time":8613000000000,"state":"active","ping":55},{"user_id":196,"name":"♛perry the platypus♛","steam_id":76561199379159771,"connected_time":392000000000,"state":"active","ping":138},{"user_id":183,"name":"Prostate Tickler","steam_id":76561198375230907,"connected_time":1016000000000,"state":"active","ping":73},{"user_id":197,"name":"znunney","steam_id":76561199438501613,"connected_time":376000000000,"state":"active","ping":75},{"user_id":198,"name":"JOE BIDEN","steam_id":76561198847191826,"connected_time":363000000000,"state":"active","ping":70},{"user_id":165,"name":"ok","steam_id":76561198044451693,"connected_time":2363000000000,"state":"active","ping":108}]},{"server_id":310,"name":"Uncletopia | Frankfurt | 5 | All Maps","name_short":"frk-5","host":"frk-1.de.uncletopia.com","port":27055,"enabled":true,"region":"eu","cc":"de","latitude":50.110924,"longitude":8.682127,"reserved":0,"last_update":"0001-01-01T00:00:00Z","name_a2s":"Uncletopia | Frankfurt | 5 | All Maps","protocol":17,"map":"pl_pier","folder":"tf","game":"Team Fortress","app_id":440,"player_count":24,"max_players":24,"Bots":0,"server_type":"Dedicated","server_os":"Linux","password":true,"vac":true,"version":"7882260","steam_id":85568392924504277,"keywords":["nocrits","nodmgspread","payload","uncletopia"],"game_id":440,"stv_port":27056,"stv_name":"Uncletopia | Frankfurt | 5 | All Maps | STV","players":[{"user_id":258,"name":"Xriasp","steam_id":76561198104721321,"connected_time":900000000000,"state":"active","ping":72},{"user_id":135,"name":"poliakov.noam","steam_id":76561199259322961,"connected_time":7568000000000,"state":"active","ping":104},{"user_id":268,"name":"Oriuke","steam_id":76561197992166123,"connected_time":52000000000,"state":"active","ping":59},{"user_id":200,"name":"Fran","steam_id":76561199070516960,"connected_time":3989000000000,"state":"active","ping":58},{"user_id":259,"name":"TheKees301","steam_id":76561198827506371,"connected_time":851000000000,"state":"active","ping":79},{"user_id":267,"name":"Ardello","steam_id":76561198864484125,"connected_time":261000000000,"state":"spawning","ping":710},{"user_id":260,"name":"4","steam_id":76561197964945192,"connected_time":793000000000,"state":"active","ping":53},{"user_id":237,"name":"The Third Degree collector","steam_id":76561199165355017,"connected_time":2285000000000,"state":"active","ping":100},{"user_id":262,"name":"Ziemniaczki z koperkiem","steam_id":76561198829123464,"connected_time":713000000000,"state":"active","ping":79},{"user_id":156,"name":"jill valentine","steam_id":76561198075068529,"connected_time":6298000000000,"state":"active","ping":57},{"user_id":176,"name":"Ketich","steam_id":76561198021772703,"connected_time":5477000000000,"state":"active","ping":74},{"user_id":247,"name":"Muli","steam_id":76561198001270460,"connected_time":1954000000000,"state":"active","ping":67},{"user_id":204,"name":"soop","steam_id":76561199031638932,"connected_time":3848000000000,"state":"active","ping":84},{"user_id":233,"name":"9TByron","steam_id":76561198086730020,"connected_time":2336000000000,"state":"active","ping":51},{"user_id":269,"name":"Ruffles","steam_id":76561198104896547,"connected_time":11000000000,"state":"active","ping":79},{"user_id":250,"name":"1couver","steam_id":76561198168553215,"connected_time":1807000000000,"state":"active","ping":91},{"user_id":264,"name":"Covetousix","steam_id":76561198293936824,"connected_time":697000000000,"state":"active","ping":74},{"user_id":257,"name":"Battle_Pass90","steam_id":76561199367142516,"connected_time":956000000000,"state":"active","ping":75},{"user_id":182,"name":"jeff","steam_id":76561198272815746,"connected_time":5408000000000,"state":"active","ping":58},{"user_id":265,"name":"Matrix108","steam_id":76561198180382327,"connected_time":551000000000,"state":"active","ping":60},{"user_id":241,"name":"Dzan50","steam_id":76561198059758591,"connected_time":2246000000000,"state":"active","ping":111},{"user_id":248,"name":"Francjirachi","steam_id":76561198070339070,"connected_time":1945000000000,"state":"active","ping":74},{"user_id":242,"name":"KAZAM | Tervez","steam_id":76561198045459068,"connected_time":2220000000000,"state":"active","ping":84},{"user_id":254,"name":"WALTER WHITE","steam_id":76561199147666336,"connected_time":1169000000000,"state":"active","ping":65}]},{"server_id":311,"name":"Uncletopia | Frankfurt | 6 | All Maps","name_short":"frk-6","host":"frk-1.de.uncletopia.com","port":27065,"enabled":true,"region":"eu","cc":"de","latitude":50.110924,"longitude":8.682127,"reserved":0,"last_update":"0001-01-01T00:00:00Z","name_a2s":"Uncletopia | Frankfurt | 6 | All Maps","protocol":17,"map":"pl_snowycoast","folder":"tf","game":"Team Fortress","app_id":440,"player_count":24,"max_players":24,"Bots":0,"server_type":"Dedicated","server_os":"Linux","password":true,"vac":true,"version":"7882260","steam_id":85568392924504278,"keywords":["nocrits","nodmgspread","payload","uncletopia"],"game_id":440,"stv_port":27066,"stv_name":"Uncletopia | Frankfurt | 6 | All Maps | STV","players":[{"user_id":24,"name":"Femboy","steam_id":76561198384909993,"connected_time":4659000000000,"state":"active","ping":109},{"user_id":82,"name":"lenny","steam_id":76561198064545300,"connected_time":1320000000000,"state":"active","ping":75},{"user_id":97,"name":"strideΔ","steam_id":76561199007826093,"connected_time":426000000000,"state":"active","ping":74},{"user_id":71,"name":"avewszystkim","steam_id":76561199382492530,"connected_time":1927000000000,"state":"active","ping":59},{"user_id":98,"name":"Vollys","steam_id":76561198018077773,"connected_time":380000000000,"state":"active","ping":63},{"user_id":99,"name":"Cross Breeze","steam_id":76561198043420803,"connected_time":373000000000,"state":"active","ping":61},{"user_id":68,"name":"finbar","steam_id":76561198056812396,"connected_time":2063000000000,"state":"active","ping":67},{"user_id":105,"name":"BRICK TOP","steam_id":76561198014366715,"connected_time":17000000000,"state":"active","ping":60},{"user_id":72,"name":"WOW i'm dead","steam_id":76561199082267619,"connected_time":1747000000000,"state":"active","ping":84},{"user_id":93,"name":"SlowMode","steam_id":76561198039631442,"connected_time":886000000000,"state":"active","ping":81},{"user_id":106,"name":"O4W Guz tf2medium.com","steam_id":76561198384689388,"connected_time":12000000000,"state":"active","ping":159},{"user_id":70,"name":"leminsc8","steam_id":76561198825084995,"connected_time":1998000000000,"state":"active","ping":43},{"user_id":94,"name":"Núúb","steam_id":76561198111933414,"connected_time":807000000000,"state":"active","ping":60},{"user_id":100,"name":"Princess","steam_id":76561198247250066,"connected_time":368000000000,"state":"active","ping":62},{"user_id":101,"name":"cazador","steam_id":76561198123096922,"connected_time":360000000000,"state":"active","ping":88},{"user_id":88,"name":"(/•0•)/ WoW","steam_id":76561198144990790,"connected_time":1119000000000,"state":"active","ping":72},{"user_id":102,"name":"O4W P1N tf2hard.com","steam_id":76561198382749493,"connected_time":353000000000,"state":"active","ping":83},{"user_id":55,"name":"sunshine (he/him)","steam_id":76561198084597975,"connected_time":3480000000000,"state":"active","ping":64},{"user_id":103,"name":"pardner","steam_id":76561198451471161,"connected_time":348000000000,"state":"active","ping":71},{"user_id":91,"name":"YuraGreek","steam_id":76561198050182252,"connected_time":968000000000,"state":"active","ping":75},{"user_id":104,"name":"Purplik","steam_id":76561198431679104,"connected_time":345000000000,"state":"active","ping":54},{"user_id":80,"name":"Bayoyo","steam_id":76561199069591774,"connected_time":1609000000000,"state":"active","ping":71},{"user_id":86,"name":"WATANG!","steam_id":76561198040478926,"connected_time":1161000000000,"state":"active","ping":73},{"user_id":92,"name":"LivEssense","steam_id":76561198052476979,"connected_time":921000000000,"state":"active","ping":76}]},{"server_id":23,"name":"Uncletopia | Frankfurt | 7 | Stopwatch Beta","name_short":"frk-7","host":"frk-1.de.uncletopia.com","port":27075,"enabled":true,"region":"eu","cc":"de","latitude":50.110924,"longitude":8.682127,"reserved":0,"last_update":"0001-01-01T00:00:00Z","name_a2s":"Uncletopia | Frankfurt | 7 | Stopwatch Beta","protocol":17,"map":"koth_lakeside_final","folder":"tf","game":"Team Fortress","app_id":440,"player_count":3,"max_players":24,"Bots":0,"server_type":"Dedicated","server_os":"Linux","password":true,"vac":true,"version":"7882260","steam_id":85568392924742827,"keywords":["cp","nocrits","nodmgspread","uncletopia"],"game_id":440,"stv_port":27076,"stv_name":"Uncletopia | Frankfurt | 7 | Stopwatch Beta | STV","players":[{"user_id":21,"name":"Lithuanian Crusader","steam_id":76561198403305795,"connected_time":71000000000,"state":"active","ping":86},{"user_id":22,"name":"Sir Bedivere","steam_id":76561198868943570,"connected_time":62000000000,"state":"active","ping":67},{"user_id":23,"name":"XDomce","steam_id":76561199002171003,"connected_time":34000000000,"state":"active","ping":84}]},{"server_id":24,"name":"Uncletopia | Frankfurt | 8 | Community","name_short":"frk-8","host":"frk-1.de.uncletopia.com","port":27085,"enabled":true,"region":"eu","cc":"de","latitude":50.110924,"longitude":8.682127,"reserved":0,"last_update":"0001-01-01T00:00:00Z","name_a2s":"Uncletopia | Frankfurt | 8 | Community","protocol":17,"map":"workshop/pl_cactuscanyon_redux_final2.ugc2579644293","folder":"tf","game":"Team Fortress","app_id":440,"player_count":0,"max_players":24,"Bots":0,"server_type":"Dedicated","server_os":"Linux","password":true,"vac":true,"version":"7882260","steam_id":85568392924742828,"keywords":["nocrits","nodmgspread","payload","uncletopia"],"game_id":440,"stv_port":27086,"stv_name":"Uncletopia | Frankfurt | 8 | Community | STV","players":null},{"server_id":202,"name":"Uncletopia | Hong Kong | 1 | All Maps","name_short":"hgk-1","host":"hgk-1.hk.uncletopia.com","port":27015,"enabled":true,"region":"asia","cc":"hk","latitude":22.302711,"longitude":114.177216,"reserved":0,"last_update":"0001-01-01T00:00:00Z","name_a2s":"Uncletopia | Hong Kong | 1 | All Maps","protocol":17,"map":"pl_badwater","folder":"tf","game":"Team Fortress","app_id":440,"player_count":22,"max_players":24,"Bots":0,"server_type":"Dedicated","server_os":"Linux","password":true,"vac":true,"version":"7882260","steam_id":85568392924494504,"keywords":["nocrits","nodmgspread","payload","uncletopia"],"game_id":440,"stv_port":27016,"stv_name":"Uncletopia | Hong Kong | 1 | All Maps | STV","players":[{"user_id":581,"name":"쿠키","steam_id":76561197997220367,"connected_time":3980000000000,"state":"active","ping":49},{"user_id":612,"name":"xebec","steam_id":76561198055693046,"connected_time":647000000000,"state":"active","ping":77},{"user_id":457,"name":"Vortex Swagger","steam_id":76561198833527091,"connected_time":12060000000000,"state":"active","ping":82},{"user_id":610,"name":"UtPoetic","steam_id":76561198202448367,"connected_time":1159000000000,"state":"active","ping":59},{"user_id":613,"name":"lsf","steam_id":76561198908975024,"connected_time":637000000000,"state":"active","ping":35},{"user_id":595,"name":"V","steam_id":76561198261975237,"connected_time":2831000000000,"state":"active","ping":141},{"user_id":605,"name":"9300gs","steam_id":76561198105138237,"connected_time":1813000000000,"state":"active","ping":87},{"user_id":494,"name":"Azule","steam_id":76561198136804802,"connected_time":8462000000000,"state":"active","ping":86},{"user_id":564,"name":"AmaiGai(?)","steam_id":76561199122491157,"connected_time":5436000000000,"state":"active","ping":77},{"user_id":597,"name":"Spider Dog","steam_id":76561198403834864,"connected_time":2748000000000,"state":"active","ping":90},{"user_id":584,"name":"Blarx","steam_id":76561198837822442,"connected_time":3716000000000,"state":"active","ping":122},{"user_id":620,"name":"m 1 k o","steam_id":76561198337154745,"connected_time":245000000000,"state":"active","ping":82},{"user_id":614,"name":"Samoyed","steam_id":76561198299150410,"connected_time":577000000000,"state":"active","ping":101},{"user_id":622,"name":"ispongebobz11","steam_id":76561198862843572,"connected_time":49000000000,"state":"active","ping":272},{"user_id":576,"name":"L + dont care + didnt ask","steam_id":76561198062865762,"connected_time":4572000000000,"state":"active","ping":41},{"user_id":618,"name":"Sally","steam_id":76561198982748186,"connected_time":383000000000,"state":"active","ping":79},{"user_id":619,"name":"[TW]宅男一個GameTame.com","steam_id":76561198142107032,"connected_time":280000000000,"state":"active","ping":108},{"user_id":547,"name":"Heavy Fingers Guy","steam_id":76561199016545154,"connected_time":6355000000000,"state":"active","ping":33},{"user_id":579,"name":"The Black Ninja from Ninjago","steam_id":76561199019247258,"connected_time":4269000000000,"state":"active","ping":73},{"user_id":621,"name":"Joya","steam_id":76561198073525052,"connected_time":171000000000,"state":"active","ping":111},{"user_id":537,"name":"母の肉団子@hao123.com","steam_id":76561198069561896,"connected_time":6773000000000,"state":"active","ping":41},{"user_id":578,"name":"Milf (The fan O'Milk)","steam_id":76561198213031155,"connected_time":4453000000000,"state":"active","ping":99}]},{"server_id":1,"name":"Uncletopia | Los Angeles | 1 | All Maps","name_short":"lax-1","host":"lax-1.us.uncletopia.com","port":27015,"enabled":true,"region":"us-west","cc":"us","latitude":33.94279,"longitude":-118.41004,"reserved":0,"last_update":"0001-01-01T00:00:00Z","name_a2s":"Uncletopia | Los Angeles | 1 | All Maps","protocol":17,"map":"pl_pier","folder":"tf","game":"Team Fortress","app_id":440,"player_count":0,"max_players":24,"Bots":0,"server_type":"Dedicated","server_os":"Linux","password":true,"vac":true,"version":"7882260","steam_id":85568392924469991,"keywords":["nocrits","nodmgspread","payload","uncletopia"],"game_id":440,"stv_port":27016,"stv_name":"Uncletopia | Los Angeles | 1 | All Maps | STV","players":null},{"server_id":112,"name":"Uncletopia | Los Angeles | 2 | All Maps","name_short":"lax-2","host":"lax-1.us.uncletopia.com","port":27025,"enabled":true,"region":"us-west","cc":"us","latitude":33.94279,"longitude":-118.41004,"reserved":0,"last_update":"0001-01-01T00:00:00Z","name_a2s":"Uncletopia | Los Angeles | 2 | All Maps","protocol":17,"map":"pl_snowycoast","folder":"tf","game":"Team Fortress","app_id":440,"player_count":0,"max_players":24,"Bots":0,"server_type":"Dedicated","server_os":"Linux","password":true,"vac":true,"version":"7882260","steam_id":85568392924469992,"keywords":["nocrits","nodmgspread","payload","uncletopia"],"game_id":440,"stv_port":27026,"stv_name":"Uncletopia | Los Angeles | 2 | All Maps | STV","players":null},{"server_id":324,"name":"Uncletopia | Los Angeles | 3 | All Maps","name_short":"lax-3","host":"lax-1.us.uncletopia.com","port":27035,"enabled":true,"region":"us-west","cc":"us","latitude":33.94279,"longitude":-118.41004,"reserved":0,"last_update":"0001-01-01T00:00:00Z","name_a2s":"Uncletopia | Los Angeles | 3 | All Maps","protocol":17,"map":"cp_sunshine","folder":"tf","game":"Team Fortress","app_id":440,"player_count":0,"max_players":24,"Bots":0,"server_type":"Dedicated","server_os":"Linux","password":true,"vac":true,"version":"7882260","steam_id":85568392924510198,"keywords":["cp","nocrits","nodmgspread","uncletopia"],"game_id":440,"stv_port":27036,"stv_name":"Uncletopia | Los Angeles | 3 | All Maps | STV","players":null},{"server_id":25,"name":"Uncletopia | Los Angeles | 4 | Stopwatch Beta","name_short":"lax-4","host":"lax-1.us.uncletopia.com","port":27045,"enabled":true,"region":"us-west","cc":"us","latitude":33.94279,"longitude":-118.41004,"reserved":0,"last_update":"0001-01-01T00:00:00Z","name_a2s":"Uncletopia | Los Angeles | 4 | Stopwatch Beta","protocol":17,"map":"koth_lakeside_final","folder":"tf","game":"Team Fortress","app_id":440,"player_count":0,"max_players":24,"Bots":0,"server_type":"Dedicated","server_os":"Linux","password":true,"vac":true,"version":"7882260","steam_id":85568392924510199,"keywords":["cp","nocrits","nodmgspread","uncletopia"],"game_id":440,"stv_port":27046,"stv_name":"Uncletopia | Los Angeles | 4 | Stopwatch Beta | STV","players":null},{"server_id":11,"name":"Uncletopia | London | 1 | All Maps","name_short":"lon-1","host":"lon-1.uk.uncletopia.com","port":27015,"enabled":true,"region":"eu","cc":"gb","latitude":51.509865,"longitude":-0.118092,"reserved":0,"last_update":"0001-01-01T00:00:00Z","name_a2s":"Uncletopia | London | 1 | All Maps","protocol":17,"map":"cp_process_final","folder":"tf","game":"Team Fortress","app_id":440,"player_count":22,"max_players":24,"Bots":0,"server_type":"Dedicated","server_os":"Linux","password":true,"vac":true,"version":"7882260","steam_id":85568392924367362,"keywords":["cp","nocrits","nodmgspread","uncletopia"],"game_id":440,"stv_port":27016,"stv_name":"Uncletopia | London | 1 | All Maps | STV","players":[{"user_id":437,"name":"XD","steam_id":76561198004676393,"connected_time":937000000000,"state":"active","ping":76},{"user_id":418,"name":"mfw0071","steam_id":76561198111713446,"connected_time":1827000000000,"state":"active","ping":47},{"user_id":425,"name":"volkiano","steam_id":76561198319802031,"connected_time":1301000000000,"state":"active","ping":45},{"user_id":440,"name":"Mafew","steam_id":76561198119993886,"connected_time":831000000000,"state":"active","ping":78},{"user_id":415,"name":"Pesky Plumber","steam_id":76561198241999094,"connected_time":1937000000000,"state":"active","ping":42},{"user_id":389,"name":"MasterNaglis","steam_id":76561198348834177,"connected_time":2937000000000,"state":"active","ping":78},{"user_id":444,"name":"dog","steam_id":76561198063919822,"connected_time":722000000000,"state":"active","ping":43},{"user_id":424,"name":"kel584","steam_id":76561199484115378,"connected_time":1348000000000,"state":"active","ping":75},{"user_id":431,"name":"TheTiredMario","steam_id":76561199062425739,"connected_time":1074000000000,"state":"active","ping":147},{"user_id":453,"name":"JOHN GAMING (#1 gunspy)","steam_id":76561199085822219,"connected_time":425000000000,"state":"active","ping":87},{"user_id":442,"name":"Dragon","steam_id":76561198163255365,"connected_time":762000000000,"state":"active","ping":113},{"user_id":445,"name":"M/S Jeeztonia","steam_id":76561198123592400,"connected_time":619000000000,"state":"active","ping":93},{"user_id":410,"name":"presuming ed","steam_id":76561198011155232,"connected_time":2087000000000,"state":"active","ping":77},{"user_id":392,"name":"Iphy","steam_id":76561198137519489,"connected_time":2900000000000,"state":"active","ping":76},{"user_id":446,"name":"Sex lord","steam_id":76561198436817109,"connected_time":617000000000,"state":"active","ping":45},{"user_id":393,"name":"Bridget's butt hitboxes","steam_id":76561198101624996,"connected_time":2889000000000,"state":"active","ping":81},{"user_id":454,"name":"MajorMartin","steam_id":76561198367989381,"connected_time":411000000000,"state":"active","ping":63},{"user_id":455,"name":"shooer!","steam_id":76561198110531281,"connected_time":62000000000,"state":"spawning","ping":49},{"user_id":450,"name":"Kahvi","steam_id":76561198723244199,"connected_time":574000000000,"state":"active","ping":75},{"user_id":417,"name":"ODanial","steam_id":76561198034854402,"connected_time":1914000000000,"state":"active","ping":80},{"user_id":452,"name":"Comrade_BUCKETS","steam_id":76561198053853136,"connected_time":502000000000,"state":"active","ping":44},{"user_id":434,"name":"★ Luxe","steam_id":76561198866691839,"connected_time":1069000000000,"state":"active","ping":52}]},{"server_id":114,"name":"Uncletopia | London | 2 | All Maps","name_short":"lon-2","host":"lon-1.uk.uncletopia.com","port":27025,"enabled":true,"region":"eu","cc":"gb","latitude":51.509865,"longitude":-0.118092,"reserved":0,"last_update":"0001-01-01T00:00:00Z","name_a2s":"Uncletopia | London | 2 | All Maps","protocol":17,"map":"pl_thundermountain","folder":"tf","game":"Team Fortress","app_id":440,"player_count":24,"max_players":24,"Bots":0,"server_type":"Dedicated","server_os":"Linux","password":true,"vac":true,"version":"7882260","steam_id":85568392924470941,"keywords":["nocrits","nodmgspread","payload","uncletopia"],"game_id":440,"stv_port":27026,"stv_name":"Uncletopia | London | 2 | All Maps | STV","players":[{"user_id":349,"name":"Rizz","steam_id":76561198192135953,"connected_time":348000000000,"state":"active","ping":80},{"user_id":353,"name":"dropkickas","steam_id":76561198105121641,"connected_time":207000000000,"state":"active","ping":61},{"user_id":315,"name":"Creative","steam_id":76561198835034247,"connected_time":3019000000000,"state":"active","ping":78},{"user_id":319,"name":"Cha0tikip","steam_id":76561197963860634,"connected_time":2673000000000,"state":"active","ping":96},{"user_id":258,"name":"LemonLeCitron","steam_id":76561198215545267,"connected_time":7060000000000,"state":"active","ping":65},{"user_id":348,"name":"Burpman","steam_id":76561198022897937,"connected_time":647000000000,"state":"active","ping":48},{"user_id":260,"name":"Breizbuc","steam_id":76561198118220633,"connected_time":6497000000000,"state":"active","ping":69},{"user_id":325,"name":"mr_hlaf","steam_id":76561199418761445,"connected_time":2528000000000,"state":"active","ping":161},{"user_id":338,"name":"Malsi","steam_id":76561199061284165,"connected_time":1689000000000,"state":"active","ping":92},{"user_id":293,"name":"Mr_Pulse_","steam_id":76561198095001602,"connected_time":4674000000000,"state":"active","ping":109},{"user_id":350,"name":"Margaret \"Gamer\" Thatcher","steam_id":76561198819871606,"connected_time":335000000000,"state":"active","ping":101},{"user_id":341,"name":"laser","steam_id":76561198036030697,"connected_time":1148000000000,"state":"active","ping":71},{"user_id":121,"name":"Melon wizard","steam_id":76561198455781892,"connected_time":16840000000000,"state":"active","ping":63},{"user_id":311,"name":"Mav","steam_id":76561198004403881,"connected_time":3133000000000,"state":"active","ping":66},{"user_id":322,"name":"An_Unoriginal_Gamer","steam_id":76561198864060760,"connected_time":2634000000000,"state":"active","ping":99},{"user_id":187,"name":"Rabiot420","steam_id":76561199072230477,"connected_time":12808000000000,"state":"active","ping":60},{"user_id":235,"name":"VampiuS","steam_id":76561197998827007,"connected_time":9346000000000,"state":"active","ping":69},{"user_id":352,"name":"Ewelinka Zniszczenia","steam_id":76561198307374456,"connected_time":254000000000,"state":"active","ping":79},{"user_id":291,"name":"madijo","steam_id":76561198012617400,"connected_time":4964000000000,"state":"active","ping":70},{"user_id":344,"name":"burgz","steam_id":76561198109955787,"connected_time":929000000000,"state":"active","ping":56},{"user_id":351,"name":"Ardbeg","steam_id":76561197973483985,"connected_time":314000000000,"state":"active","ping":60},{"user_id":326,"name":"WICKED BARSIK","steam_id":76561198120927230,"connected_time":2526000000000,"state":"active","ping":119},{"user_id":354,"name":"cheezy27","steam_id":76561198071067236,"connected_time":206000000000,"state":"active","ping":87},{"user_id":336,"name":"Busta-Ma-Balls","steam_id":76561198005777658,"connected_time":1916000000000,"state":"active","ping":134}]},{"server_id":320,"name":"Uncletopia | London | 3 | All Maps","name_short":"lon-3","host":"lon-1.uk.uncletopia.com","port":27035,"enabled":true,"region":"eu","cc":"gb","latitude":51.509865,"longitude":-0.118092,"reserved":0,"last_update":"0001-01-01T00:00:00Z","name_a2s":"Uncletopia | London | 3 | All Maps","protocol":17,"map":"cp_process_final","folder":"tf","game":"Team Fortress","app_id":440,"player_count":2,"max_players":24,"Bots":0,"server_type":"Dedicated","server_os":"Linux","password":true,"vac":true,"version":"7882260","steam_id":85568392924510192,"keywords":["cp","nocrits","nodmgspread","uncletopia"],"game_id":440,"stv_port":27036,"stv_name":"Uncletopia | London | 3 | All Maps | STV","players":[{"user_id":404,"name":"Anonymous47007","steam_id":76561199005211417,"connected_time":2092000000000,"state":"active","ping":80},{"user_id":409,"name":"ultra lox","steam_id":76561199427318825,"connected_time":737000000000,"state":"active","ping":473}]},{"server_id":321,"name":"Uncletopia | London | 4 | All Maps","name_short":"lon-4","host":"lon-1.uk.uncletopia.com","port":27045,"enabled":true,"region":"eu","cc":"gb","latitude":51.509865,"longitude":-0.118092,"reserved":0,"last_update":"0001-01-01T00:00:00Z","name_a2s":"Uncletopia | London | 4 | All Maps","protocol":17,"map":"cp_dustbowl","folder":"tf","game":"Team Fortress","app_id":440,"player_count":24,"max_players":24,"Bots":0,"server_type":"Dedicated","server_os":"Linux","password":true,"vac":true,"version":"7882260","steam_id":85568392924510193,"keywords":["cp","nocrits","nodmgspread","uncletopia"],"game_id":440,"stv_port":27046,"stv_name":"Uncletopia | London | 4 | All Maps | STV","players":[{"user_id":120,"name":"Pain in a Box","steam_id":76561197990777173,"connected_time":635000000000,"state":"active","ping":111},{"user_id":70,"name":"Orbit","steam_id":76561198242999878,"connected_time":4945000000000,"state":"active","ping":55},{"user_id":65,"name":"Mauve","steam_id":76561198371121377,"connected_time":5512000000000,"state":"active","ping":50},{"user_id":118,"name":"DRBlade","steam_id":76561198165122805,"connected_time":877000000000,"state":"active","ping":85},{"user_id":95,"name":"MarkCukierberg","steam_id":76561198079277129,"connected_time":2775000000000,"state":"active","ping":78},{"user_id":127,"name":"Pouffpouff","steam_id":76561199109103760,"connected_time":198000000000,"state":"active","ping":86},{"user_id":103,"name":"senior pomidor","steam_id":76561198123659806,"connected_time":2193000000000,"state":"active","ping":92},{"user_id":121,"name":"mulliganjon2020","steam_id":76561199091193870,"connected_time":423000000000,"state":"active","ping":176},{"user_id":124,"name":"DaddyChristmas","steam_id":76561198194572274,"connected_time":360000000000,"state":"active","ping":72},{"user_id":107,"name":"панклав","steam_id":76561198181348635,"connected_time":1774000000000,"state":"active","ping":78},{"user_id":128,"name":"inebriation of the senses","steam_id":76561198977420882,"connected_time":171000000000,"state":"active","ping":44},{"user_id":135,"name":"José Antonio Primo de Rivera","steam_id":76561197981932264,"connected_time":26000000000,"state":"spawning","ping":44},{"user_id":111,"name":"meatsoupcube","steam_id":76561198276802249,"connected_time":1555000000000,"state":"active","ping":103},{"user_id":123,"name":"kat\u003c3","steam_id":76561198159722251,"connected_time":394000000000,"state":"active","ping":56},{"user_id":125,"name":"Frigo [1g™]","steam_id":76561197980853294,"connected_time":248000000000,"state":"active","ping":45},{"user_id":126,"name":"NuGs","steam_id":76561198305550934,"connected_time":243000000000,"state":"active","ping":46},{"user_id":129,"name":"GentJudgeDredd | #savetf2","steam_id":76561198387107099,"connected_time":132000000000,"state":"active","ping":82},{"user_id":130,"name":"Weeb exterminator","steam_id":76561198078964973,"connected_time":118000000000,"state":"active","ping":71},{"user_id":131,"name":"Joe","steam_id":76561198061717026,"connected_time":89000000000,"state":"active","ping":40},{"user_id":132,"name":"eepy man","steam_id":76561199001657140,"connected_time":55000000000,"state":"active","ping":90},{"user_id":133,"name":"Hudri Wudri","steam_id":76561198064115286,"connected_time":38000000000,"state":"active","ping":71},{"user_id":89,"name":"BastLover","steam_id":76561198247062724,"connected_time":3431000000000,"state":"active","ping":60},{"user_id":71,"name":"A Pigeon","steam_id":76561198114090555,"connected_time":4932000000000,"state":"active","ping":75},{"user_id":134,"name":"png.png","steam_id":76561198444446521,"connected_time":35000000000,"state":"spawning","ping":127}]},{"server_id":21,"name":"Uncletopia | London | 5 | All Maps","name_short":"lon-5","host":"lon-1.uk.uncletopia.com","port":27055,"enabled":true,"region":"eu","cc":"gb","latitude":51.509865,"longitude":-0.118092,"reserved":0,"last_update":"0001-01-01T00:00:00Z","name_a2s":"Uncletopia | London | 5 | All Maps","protocol":17,"map":"pl_snowycoast","folder":"tf","game":"Team Fortress","app_id":440,"player_count":24,"max_players":24,"Bots":0,"server_type":"Dedicated","server_os":"Linux","password":true,"vac":true,"version":"7882260","steam_id":85568392924742829,"keywords":["nocrits","nodmgspread","payload","uncletopia"],"game_id":440,"stv_port":27056,"stv_name":"Uncletopia | London | 5 | All Maps | STV","players":[{"user_id":87,"name":"dun-Dun-DUUUUUN!","steam_id":76561198193357946,"connected_time":5975000000000,"state":"active","ping":103},{"user_id":188,"name":"James ;)","steam_id":76561198123159605,"connected_time":494000000000,"state":"active","ping":56},{"user_id":176,"name":"Priceybay","steam_id":76561198055389492,"connected_time":784000000000,"state":"active","ping":40},{"user_id":175,"name":"I Can Look Into Your Thoughts","steam_id":76561198027033926,"connected_time":850000000000,"state":"active","ping":59},{"user_id":122,"name":"Remmy","steam_id":76561198268857418,"connected_time":4054000000000,"state":"active","ping":144},{"user_id":115,"name":"/ff brujman","steam_id":76561198095238286,"connected_time":4246000000000,"state":"active","ping":45},{"user_id":178,"name":"Spich","steam_id":76561199017245962,"connected_time":749000000000,"state":"active","ping":96},{"user_id":179,"name":"Saihtama","steam_id":76561198067497192,"connected_time":738000000000,"state":"active","ping":69},{"user_id":130,"name":"Watermelon","steam_id":76561198078349914,"connected_time":3714000000000,"state":"active","ping":48},{"user_id":195,"name":"Monsieur Monopoly","steam_id":76561198414755778,"connected_time":197000000000,"state":"active","ping":83},{"user_id":118,"name":"Craig","steam_id":76561198123346614,"connected_time":4152000000000,"state":"active","ping":144},{"user_id":194,"name":"gentlefard","steam_id":76561199098960193,"connected_time":294000000000,"state":"active","ping":80},{"user_id":191,"name":"LOBZIK","steam_id":76561198114830120,"connected_time":417000000000,"state":"active","ping":80},{"user_id":184,"name":"big carrot field. growing well","steam_id":76561198069649097,"connected_time":571000000000,"state":"active","ping":47},{"user_id":190,"name":"KHEY","steam_id":76561198035380064,"connected_time":430000000000,"state":"active","ping":59},{"user_id":71,"name":"strohkopf9","steam_id":76561198059349860,"connected_time":7092000000000,"state":"active","ping":80},{"user_id":185,"name":"Lyell","steam_id":76561198350329389,"connected_time":540000000000,"state":"active","ping":80},{"user_id":141,"name":"TheBeardedM1G","steam_id":76561198040208946,"connected_time":2576000000000,"state":"active","ping":44},{"user_id":180,"name":"Tiberius Bingleton","steam_id":76561198855873744,"connected_time":736000000000,"state":"active","ping":53},{"user_id":181,"name":"lettuce out of stock","steam_id":76561199401283123,"connected_time":722000000000,"state":"active","ping":51},{"user_id":196,"name":"dirty rascal","steam_id":76561198000871038,"connected_time":81000000000,"state":"active","ping":45},{"user_id":187,"name":"slim skulla","steam_id":76561198048721726,"connected_time":517000000000,"state":"active","ping":59},{"user_id":193,"name":"Random","steam_id":76561199116602799,"connected_time":405000000000,"state":"active","ping":45},{"user_id":172,"name":"Na'vi Misato (by popular demand","steam_id":76561198130860698,"connected_time":885000000000,"state":"active","ping":59}]},{"server_id":22,"name":"Uncletopia | London | 6 | All Maps","name_short":"lon-6","host":"lon-1.uk.uncletopia.com","port":27065,"enabled":true,"region":"eu","cc":"gb","latitude":51.509865,"longitude":-0.118092,"reserved":0,"last_update":"0001-01-01T00:00:00Z","name_a2s":"Uncletopia | London | 6 | All Maps","protocol":17,"map":"pl_badwater","folder":"tf","game":"Team Fortress","app_id":440,"player_count":24,"max_players":24,"Bots":0,"server_type":"Dedicated","server_os":"Linux","password":true,"vac":true,"version":"7882260","steam_id":85568392924742830,"keywords":["nocrits","nodmgspread","payload","uncletopia"],"game_id":440,"stv_port":27066,"stv_name":"Uncletopia | London | 6 | All Maps | STV","players":[{"user_id":491,"name":"radiation","steam_id":76561198001157602,"connected_time":413000000000,"state":"active","ping":146},{"user_id":413,"name":"boofing prozac","steam_id":76561198851157897,"connected_time":5067000000000,"state":"active","ping":60},{"user_id":492,"name":"fshfkr","steam_id":76561198095979282,"connected_time":138000000000,"state":"active","ping":39},{"user_id":366,"name":"sumire.gg (inactive)","steam_id":76561198072250111,"connected_time":8470000000000,"state":"active","ping":56},{"user_id":475,"name":"Big Dick Dave","steam_id":76561198136404794,"connected_time":1076000000000,"state":"active","ping":42},{"user_id":456,"name":"53512512412123121","steam_id":76561199234688598,"connected_time":1981000000000,"state":"active","ping":88},{"user_id":469,"name":"rudi","steam_id":76561199121842872,"connected_time":1441000000000,"state":"active","ping":55},{"user_id":488,"name":"WE HAVE THE TECHNOLOGY","steam_id":76561198798803845,"connected_time":469000000000,"state":"active","ping":46},{"user_id":452,"name":"dwayne the johnson \"thecock\"","steam_id":76561199442459698,"connected_time":2395000000000,"state":"active","ping":88},{"user_id":489,"name":"Proofmean","steam_id":76561198878552103,"connected_time":435000000000,"state":"active","ping":52},{"user_id":448,"name":"Hayds Gaming [TER]","steam_id":76561199461851882,"connected_time":2688000000000,"state":"active","ping":71},{"user_id":493,"name":"el wiwi","steam_id":76561199384892422,"connected_time":28000000000,"state":"active","ping":65},{"user_id":438,"name":"ARENTRIR","steam_id":76561198334126785,"connected_time":3222000000000,"state":"active","ping":76},{"user_id":490,"name":"Nugget","steam_id":76561198338916407,"connected_time":422000000000,"state":"active","ping":83},{"user_id":365,"name":"AleXandriX","steam_id":76561198035203950,"connected_time":8505000000000,"state":"active","ping":62},{"user_id":445,"name":"MrBen lft low/open spy","steam_id":76561198409744393,"connected_time":2862000000000,"state":"active","ping":65},{"user_id":477,"name":"MiManTV","steam_id":76561198094459522,"connected_time":1068000000000,"state":"active","ping":78},{"user_id":428,"name":"forsen","steam_id":76561197996468677,"connected_time":3522000000000,"state":"active","ping":74},{"user_id":484,"name":"Bukayo Zaza","steam_id":76561198307037169,"connected_time":566000000000,"state":"active","ping":59},{"user_id":480,"name":"Vectillion","steam_id":76561198074292454,"connected_time":923000000000,"state":"active","ping":65},{"user_id":482,"name":"JP","steam_id":76561199175268268,"connected_time":800000000000,"state":"active","ping":82},{"user_id":391,"name":"Rori","steam_id":76561198052582902,"connected_time":6814000000000,"state":"active","ping":112},{"user_id":466,"name":"Yukshi","steam_id":76561197994000142,"connected_time":1593000000000,"state":"active","ping":66},{"user_id":444,"name":"Ash","steam_id":76561198148738525,"connected_time":2952000000000,"state":"active","ping":116}]},{"server_id":40,"name":"Uncletopia | London | 7 | No Payload","name_short":"lon-7","host":"lon-1.uk.uncletopia.com","port":27075,"enabled":true,"region":"eu","cc":"gb","latitude":51.509865,"longitude":-0.118092,"reserved":0,"last_update":"0001-01-01T00:00:00Z","name_a2s":"Uncletopia | London | 7 | No Payload","protocol":17,"map":"plr_hightower","folder":"tf","game":"Team Fortress","app_id":440,"player_count":24,"max_players":24,"Bots":0,"server_type":"Dedicated","server_os":"Linux","password":true,"vac":true,"version":"7882260","steam_id":85568392924964314,"keywords":["nocrits","nodmgspread","payload","uncletopia"],"game_id":440,"stv_port":27076,"stv_name":"Uncletopia | London | 7 | No Payload | STV","players":[{"user_id":288,"name":"IndigoJones","steam_id":76561198050284262,"connected_time":13522000000000,"state":"active","ping":50},{"user_id":473,"name":"The.Real.Genesis","steam_id":76561198999652040,"connected_time":1074000000000,"state":"active","ping":48},{"user_id":250,"name":"M2rtRa","steam_id":76561198111036466,"connected_time":16210000000000,"state":"active","ping":74},{"user_id":476,"name":"Weebot00","steam_id":76561199479204459,"connected_time":820000000000,"state":"active","ping":57},{"user_id":453,"name":"Lucarion","steam_id":76561198362020727,"connected_time":2704000000000,"state":"active","ping":133},{"user_id":478,"name":"pano","steam_id":76561198157446722,"connected_time":742000000000,"state":"active","ping":75},{"user_id":442,"name":"Something🤙","steam_id":76561198375358222,"connected_time":3311000000000,"state":"active","ping":46},{"user_id":430,"name":"Stańczyk","steam_id":76561197998906563,"connected_time":5062000000000,"state":"active","ping":43},{"user_id":471,"name":"Marukuso","steam_id":76561198154229845,"connected_time":1292000000000,"state":"active","ping":61},{"user_id":466,"name":"lomse_","steam_id":76561198146939162,"connected_time":2205000000000,"state":"active","ping":57},{"user_id":468,"name":"Sham!","steam_id":76561198050434275,"connected_time":1746000000000,"state":"active","ping":59},{"user_id":477,"name":"Magical","steam_id":76561198150913565,"connected_time":814000000000,"state":"active","ping":52},{"user_id":446,"name":"28ilija28","steam_id":76561198868993172,"connected_time":3119000000000,"state":"active","ping":72},{"user_id":479,"name":"tree__dude","steam_id":76561198975762241,"connected_time":568000000000,"state":"active","ping":115},{"user_id":470,"name":"El_Kommadante","steam_id":76561198079551685,"connected_time":1617000000000,"state":"active","ping":63},{"user_id":441,"name":":3","steam_id":76561199057953617,"connected_time":3339000000000,"state":"active","ping":70},{"user_id":391,"name":"morris33morris","steam_id":76561198196456242,"connected_time":7621000000000,"state":"active","ping":71},{"user_id":375,"name":"Arthur","steam_id":76561198066109166,"connected_time":8607000000000,"state":"active","ping":81},{"user_id":457,"name":"zaleek69","steam_id":76561198058877595,"connected_time":2554000000000,"state":"active","ping":73},{"user_id":485,"name":"Napp","steam_id":76561198060077423,"connected_time":26000000000,"state":"spawning","ping":79},{"user_id":484,"name":"Lalo Salamanca","steam_id":76561198319726270,"connected_time":289000000000,"state":"active","ping":156},{"user_id":449,"name":"myself","steam_id":76561198445052636,"connected_time":3008000000000,"state":"active","ping":98},{"user_id":450,"name":"e9","steam_id":76561198890193313,"connected_time":2981000000000,"state":"active","ping":57},{"user_id":483,"name":"robin010","steam_id":76561198191327877,"connected_time":353000000000,"state":"active","ping":69}]},{"server_id":41,"name":"Uncletopia | London | 8 | Community","name_short":"lon-8","host":"lon-1.uk.uncletopia.com","port":27085,"enabled":true,"region":"eu","cc":"gb","latitude":51.509865,"longitude":-0.118092,"reserved":0,"last_update":"0001-01-01T00:00:00Z","name_a2s":"Uncletopia | London | 8 | Community","protocol":17,"map":"workshop/koth_ramjam_rc1.ugc459778887","folder":"tf","game":"Team Fortress","app_id":440,"player_count":0,"max_players":24,"Bots":0,"server_type":"Dedicated","server_os":"Linux","password":true,"vac":true,"version":"7882260","steam_id":85568392924964315,"keywords":["cp","nocrits","nodmgspread","uncletopia"],"game_id":440,"stv_port":27086,"stv_name":"Uncletopia | London | 8 | Community | STV","players":null},{"server_id":300,"name":"Uncletopia | Montréal | 1 | All Maps","name_short":"mtl-1","host":"mtl-1.ca.uncletopia.com","port":27015,"enabled":true,"region":"us-east","cc":"ca","latitude":45.50889,"longitude":-73.56167,"reserved":0,"last_update":"0001-01-01T00:00:00Z","name_a2s":"Uncletopia | Montréal | 1 | All Maps","protocol":17,"map":"pl_snowycoast","folder":"tf","game":"Team Fortress","app_id":440,"player_count":0,"max_players":24,"Bots":0,"server_type":"Dedicated","server_os":"Linux","password":true,"vac":true,"version":"7882260","steam_id":85568392924500087,"keywords":["nocrits","nodmgspread","payload","uncletopia"],"game_id":440,"stv_port":27016,"stv_name":"Uncletopia | Montréal | 1 | All Maps | STV","players":null},{"server_id":301,"name":"Uncletopia | Montréal | 2 | All Maps","name_short":"mtl-2","host":"mtl-1.ca.uncletopia.com","port":27025,"enabled":true,"region":"us-east","cc":"ca","latitude":45.50889,"longitude":-73.56167,"reserved":0,"last_update":"0001-01-01T00:00:00Z","name_a2s":"Uncletopia | Montréal | 2 | All Maps","protocol":17,"map":"cp_sunshine","folder":"tf","game":"Team Fortress","app_id":440,"player_count":0,"max_players":24,"Bots":0,"server_type":"Dedicated","server_os":"Linux","password":true,"vac":true,"version":"7882260","steam_id":85568392924500088,"keywords":["cp","nocrits","nodmgspread","uncletopia"],"game_id":440,"stv_port":27026,"stv_name":"Uncletopia | Montréal | 2 | All Maps | STV","players":null},{"server_id":302,"name":"Uncletopia | Montréal | 3 | All Maps","name_short":"mtl-3","host":"mtl-1.ca.uncletopia.com","port":27035,"enabled":true,"region":"us-east","cc":"ca","latitude":45.50889,"longitude":-73.56167,"reserved":0,"last_update":"0001-01-01T00:00:00Z","name_a2s":"Uncletopia | Montréal | 3 | All Maps","protocol":17,"map":"cp_snakewater_final1","folder":"tf","game":"Team Fortress","app_id":440,"player_count":0,"max_players":24,"Bots":0,"server_type":"Dedicated","server_os":"Linux","password":true,"vac":true,"version":"7882260","steam_id":85568392924500089,"keywords":["cp","nocrits","nodmgspread","uncletopia"],"game_id":440,"stv_port":27036,"stv_name":"Uncletopia | Montréal | 3 | All Maps | STV","players":null},{"server_id":303,"name":"Uncletopia | Montréal | 4 | No Payload","name_short":"mtl-4","host":"mtl-1.ca.uncletopia.com","port":27045,"enabled":true,"region":"us-east","cc":"ca","latitude":45.50889,"longitude":-73.56167,"reserved":0,"last_update":"0001-01-01T00:00:00Z","name_a2s":"Uncletopia | Montréal | 4 | No Payload","protocol":17,"map":"cp_altitude","folder":"tf","game":"Team Fortress","app_id":440,"player_count":0,"max_players":24,"Bots":0,"server_type":"Dedicated","server_os":"Linux","password":true,"vac":true,"version":"7882260","steam_id":85568392924500090,"keywords":["cp","nocrits","nodmgspread","uncletopia"],"game_id":440,"stv_port":27046,"stv_name":"Uncletopia | Montréal | 4 | No Payload | STV","players":null},{"server_id":13,"name":"Uncletopia | New York City | 1 | All Maps","name_short":"nyc-1","host":"nyc-1.us.uncletopia.com","port":27015,"enabled":true,"region":"us-east","cc":"us","latitude":40.73061,"longitude":-73.93524,"reserved":0,"last_update":"0001-01-01T00:00:00Z","name_a2s":"Uncletopia | New York City | 1 | All Maps","protocol":17,"map":"pl_borneo","folder":"tf","game":"Team Fortress","app_id":440,"player_count":24,"max_players":24,"Bots":0,"server_type":"Dedicated","server_os":"Linux","password":true,"vac":true,"version":"7882260","steam_id":85568392924469993,"keywords":["nocrits","nodmgspread","payload","uncletopia"],"game_id":440,"stv_port":27016,"stv_name":"Uncletopia | New York City | 1 | All Maps | STV","players":[{"user_id":258,"name":"GLaDOS","steam_id":76561199066769185,"connected_time":1264000000000,"state":"active","ping":59},{"user_id":246,"name":"Raspey1","steam_id":76561197965338309,"connected_time":2797000000000,"state":"active","ping":65},{"user_id":238,"name":"you forgot the sauce","steam_id":76561198387016713,"connected_time":3272000000000,"state":"active","ping":60},{"user_id":250,"name":"The Roys are Back in Town","steam_id":76561198078565975,"connected_time":1851000000000,"state":"active","ping":49},{"user_id":245,"name":"glue sniffer","steam_id":76561198044689778,"connected_time":2842000000000,"state":"active","ping":45},{"user_id":266,"name":"meth ape","steam_id":76561199110579692,"connected_time":53000000000,"state":"active","ping":65},{"user_id":257,"name":"FooFLit","steam_id":76561198236967080,"connected_time":1296000000000,"state":"active","ping":69},{"user_id":263,"name":"BIG HOG","steam_id":76561198079923652,"connected_time":865000000000,"state":"active","ping":87},{"user_id":252,"name":"typhoon","steam_id":76561198165123178,"connected_time":1602000000000,"state":"active","ping":72},{"user_id":227,"name":"King","steam_id":76561198039763676,"connected_time":4336000000000,"state":"active","ping":73},{"user_id":260,"name":"ZingZunkasGoofy","steam_id":76561199413065993,"connected_time":1221000000000,"state":"active","ping":145},{"user_id":254,"name":"meat glasses","steam_id":76561198046742645,"connected_time":1578000000000,"state":"active","ping":55},{"user_id":262,"name":"cavemanDv","steam_id":76561198111927196,"connected_time":1116000000000,"state":"active","ping":67},{"user_id":242,"name":"Captain Autism","steam_id":76561198156732178,"connected_time":3032000000000,"state":"active","ping":70},{"user_id":222,"name":"6' 4\" 270 lbs ALL MUSCLE","steam_id":76561198021308963,"connected_time":4517000000000,"state":"active","ping":96},{"user_id":234,"name":"SgtMaj Soggy Titties","steam_id":76561198067732216,"connected_time":3585000000000,"state":"active","ping":67},{"user_id":216,"name":"XD_ChaChingXD","steam_id":76561199103086783,"connected_time":5401000000000,"state":"active","ping":66},{"user_id":247,"name":"BackroomDread","steam_id":76561199434585584,"connected_time":2486000000000,"state":"active","ping":75},{"user_id":231,"name":"Catch The Rainbow","steam_id":76561199195104977,"connected_time":3642000000000,"state":"active","ping":57},{"user_id":224,"name":"seljum","steam_id":76561198188021354,"connected_time":4515000000000,"state":"active","ping":55},{"user_id":186,"name":"Brown_Dream","steam_id":76561198975766145,"connected_time":8065000000000,"state":"active","ping":79},{"user_id":229,"name":"Lord Theodore XIII","steam_id":76561198085842797,"connected_time":3701000000000,"state":"active","ping":88},{"user_id":256,"name":"Void","steam_id":76561199186496740,"connected_time":1484000000000,"state":"active","ping":87},{"user_id":249,"name":"Chomp","steam_id":76561198091663444,"connected_time":2064000000000,"state":"active","ping":157}]},{"server_id":14,"name":"Uncletopia | New York City | 2 | All Maps","name_short":"nyc-2","host":"nyc-1.us.uncletopia.com","port":27025,"enabled":true,"region":"us-east","cc":"us","latitude":40.73061,"longitude":-73.93524,"reserved":0,"last_update":"0001-01-01T00:00:00Z","name_a2s":"Uncletopia | New York City | 2 | All Maps","protocol":17,"map":"koth_highpass","folder":"tf","game":"Team Fortress","app_id":440,"player_count":1,"max_players":24,"Bots":0,"server_type":"Dedicated","server_os":"Linux","password":true,"vac":true,"version":"7882260","steam_id":85568392924469994,"keywords":["cp","nocrits","nodmgspread","uncletopia"],"game_id":440,"stv_port":27026,"stv_name":"Uncletopia | New York City | 2 | All Maps | STV","players":[{"user_id":17,"name":"Mr. Taunt","steam_id":76561199062155197,"connected_time":628000000000,"state":"active","ping":53}]},{"server_id":15,"name":"Uncletopia | New York City | 3 | Stopwatch Beta","name_short":"nyc-3","host":"nyc-1.us.uncletopia.com","port":27035,"enabled":true,"region":"us-east","cc":"us","latitude":40.73061,"longitude":-73.93524,"reserved":0,"last_update":"0001-01-01T00:00:00Z","name_a2s":"Uncletopia | New York City | 3 | Stopwatch Beta","protocol":17,"map":"koth_lakeside_final","folder":"tf","game":"Team Fortress","app_id":440,"player_count":0,"max_players":24,"Bots":0,"server_type":"Dedicated","server_os":"Linux","password":true,"vac":true,"version":"7882260","steam_id":85568392924742820,"keywords":["cp","nocrits","nodmgspread","uncletopia"],"game_id":440,"stv_port":27036,"stv_name":"Uncletopia | New York City | 3 | Stopwatch Beta | STV","players":null},{"server_id":16,"name":"Uncletopia | New York City | 4 | Community","name_short":"nyc-4","host":"nyc-1.us.uncletopia.com","port":27045,"enabled":true,"region":"us-east","cc":"us","latitude":40.73061,"longitude":-73.93524,"reserved":0,"last_update":"0001-01-01T00:00:00Z","name_a2s":"Uncletopia | New York City | 4 | Community","protocol":17,"map":"workshop/koth_product_final.ugc454272353","folder":"tf","game":"Team Fortress","app_id":440,"player_count":0,"max_players":24,"Bots":0,"server_type":"Dedicated","server_os":"Linux","password":true,"vac":true,"version":"7882260","steam_id":85568392924742821,"keywords":["cp","nocrits","nodmgspread","uncletopia"],"game_id":440,"stv_port":27046,"stv_name":"Uncletopia | New York City | 4 | Community | STV","players":null},{"server_id":142,"name":"Uncletopia | São Paulo | 1 | All Maps","name_short":"sao-1","host":"sao-1.br.uncletopia.com","port":27015,"enabled":true,"region":"sa","cc":"br","latitude":-23.533773,"longitude":-46.62529,"reserved":0,"last_update":"0001-01-01T00:00:00Z","name_a2s":"Uncletopia | São Paulo | 1 | All Maps","protocol":17,"map":"cp_snakewater_final1","folder":"tf","game":"Team Fortress","app_id":440,"player_count":0,"max_players":24,"Bots":0,"server_type":"Dedicated","server_os":"Linux","password":true,"vac":true,"version":"7882260","steam_id":85568392924469996,"keywords":["cp","nocrits","nodmgspread","uncletopia"],"game_id":440,"stv_port":27016,"stv_name":"Uncletopia | São Paulo | 1 | All Maps | STV","players":null},{"server_id":143,"name":"Uncletopia | São Paulo | 2 | All Maps","name_short":"sao-2","host":"sao-2.br.uncletopia.com","port":27015,"enabled":true,"region":"sa","cc":"br","latitude":-23.533773,"longitude":-46.62529,"reserved":0,"last_update":"0001-01-01T00:00:00Z","name_a2s":"Uncletopia | São Paulo | 2 | All Maps","protocol":17,"map":"koth_cascade","folder":"tf","game":"Team Fortress","app_id":440,"player_count":0,"max_players":24,"Bots":0,"server_type":"Dedicated","server_os":"Linux","password":true,"vac":true,"version":"7882260","steam_id":85568392924485349,"keywords":["cp","nocrits","nodmgspread","uncletopia"],"game_id":440,"stv_port":27016,"stv_name":"Uncletopia | São Paulo | 2 | All Maps | STV","players":null},{"server_id":7,"name":"Uncletopia | Seattle | 1 | All Maps","name_short":"sea-1","host":"sea-1.us.uncletopia.com","port":27015,"enabled":true,"region":"us-west","cc":"us","latitude":47.608013,"longitude":-122.33517,"reserved":0,"last_update":"0001-01-01T00:00:00Z","name_a2s":"Uncletopia | Seattle | 1 | All Maps","protocol":17,"map":"cp_mountainlab","folder":"tf","game":"Team Fortress","app_id":440,"player_count":24,"max_players":24,"Bots":0,"server_type":"Dedicated","server_os":"Linux","password":true,"vac":true,"version":"7882260","steam_id":85568392924469997,"keywords":["cp","nocrits","nodmgspread","uncletopia"],"game_id":440,"stv_port":27016,"stv_name":"Uncletopia | Seattle | 1 | All Maps | STV","players":[{"user_id":22,"name":"Banzai","steam_id":76561198196503877,"connected_time":7351000000000,"state":"active","ping":47},{"user_id":71,"name":"ghosttᗝ","steam_id":76561199214430703,"connected_time":3813000000000,"state":"active","ping":97},{"user_id":104,"name":"RocketofPanda(It/They)","steam_id":76561198133133187,"connected_time":75000000000,"state":"active","ping":82},{"user_id":91,"name":"Zom_Named_Zam","steam_id":76561198328066203,"connected_time":1231000000000,"state":"active","ping":85},{"user_id":102,"name":"Django","steam_id":76561197971158403,"connected_time":389000000000,"state":"active","ping":126},{"user_id":86,"name":"Sectus","steam_id":76561198034616577,"connected_time":1565000000000,"state":"active","ping":97},{"user_id":68,"name":"jayeskae","steam_id":76561198144220801,"connected_time":3964000000000,"state":"active","ping":44},{"user_id":85,"name":"dust | she/it","steam_id":76561198045218909,"connected_time":1580000000000,"state":"active","ping":44},{"user_id":101,"name":"yerbamate","steam_id":76561198153788401,"connected_time":515000000000,"state":"active","ping":60},{"user_id":73,"name":"uncle 'ardboss","steam_id":76561198055490732,"connected_time":3743000000000,"state":"active","ping":92},{"user_id":38,"name":"Renz","steam_id":76561198118995036,"connected_time":5563000000000,"state":"active","ping":44},{"user_id":94,"name":"Sgt Autmn","steam_id":76561198072047939,"connected_time":1001000000000,"state":"active","ping":45},{"user_id":87,"name":"jbsuperfan","steam_id":76561199003458938,"connected_time":1525000000000,"state":"active","ping":55},{"user_id":62,"name":"DanceBunny","steam_id":76561198243610560,"connected_time":4698000000000,"state":"active","ping":73},{"user_id":95,"name":"\u003c3Elise\u003c3","steam_id":76561198146435005,"connected_time":889000000000,"state":"active","ping":72},{"user_id":105,"name":"XxDragon4321xX","steam_id":76561198046705735,"connected_time":65000000000,"state":"active","ping":101},{"user_id":103,"name":"Confirmed Bachelor","steam_id":76561198441041496,"connected_time":144000000000,"state":"active","ping":56},{"user_id":67,"name":"Tyler\u0026Fingers","steam_id":76561198085154485,"connected_time":4165000000000,"state":"active","ping":134},{"user_id":99,"name":"sagekiss","steam_id":76561198038831240,"connected_time":619000000000,"state":"active","ping":60},{"user_id":106,"name":"The Horselords and Animal Gods","steam_id":76561197975094050,"connected_time":28000000000,"state":"active","ping":77},{"user_id":52,"name":"carpet","steam_id":76561198207881077,"connected_time":5269000000000,"state":"active","ping":103},{"user_id":92,"name":"Wacks","steam_id":76561198079476100,"connected_time":1126000000000,"state":"active","ping":61},{"user_id":63,"name":"ふわふわ毛布","steam_id":76561198088403016,"connected_time":4698000000000,"state":"active","ping":179},{"user_id":81,"name":"Integral","steam_id":76561198158225481,"connected_time":2474000000000,"state":"active","ping":62}]},{"server_id":119,"name":"Uncletopia | Seattle | 2 | All Maps","name_short":"sea-2","host":"sea-1.us.uncletopia.com","port":27025,"enabled":true,"region":"us-west","cc":"us","latitude":47.608013,"longitude":-122.33517,"reserved":0,"last_update":"0001-01-01T00:00:00Z","name_a2s":"Uncletopia | Seattle | 2 | All Maps","protocol":17,"map":"koth_highpass","folder":"tf","game":"Team Fortress","app_id":440,"player_count":0,"max_players":24,"Bots":0,"server_type":"Dedicated","server_os":"Linux","password":true,"vac":true,"version":"7882260","steam_id":85568392924469998,"keywords":["cp","nocrits","nodmgspread","uncletopia"],"game_id":440,"stv_port":27026,"stv_name":"Uncletopia | Seattle | 2 | All Maps | STV","players":null},{"server_id":406,"name":"Uncletopia | Seattle | 3 | Stopwatch Beta","name_short":"sea-3","host":"sea-1.us.uncletopia.com","port":27035,"enabled":true,"region":"us-west","cc":"us","latitude":47.608013,"longitude":-122.33517,"reserved":0,"last_update":"0001-01-01T00:00:00Z","name_a2s":"Uncletopia | Seattle | 3 | Stopwatch Beta","protocol":17,"map":"cp_mountainlab","folder":"tf","game":"Team Fortress","app_id":440,"player_count":0,"max_players":24,"Bots":0,"server_type":"Dedicated","server_os":"Linux","password":true,"vac":true,"version":"7882260","steam_id":85568392924515217,"keywords":["cp","nocrits","nodmgspread","uncletopia"],"game_id":440,"stv_port":27036,"stv_name":"Uncletopia | Seattle | 3 | Stopwatch Beta | STV","players":null},{"server_id":17,"name":"Uncletopia | San Francisco | 1 | All Maps","name_short":"sfo-1","host":"sfo-1.us.uncletopia.com","port":27015,"enabled":true,"region":"us-west","cc":"us","latitude":37.77397,"longitude":-122.4313,"reserved":0,"last_update":"0001-01-01T00:00:00Z","name_a2s":"Uncletopia | San Francisco | 1 | All Maps","protocol":17,"map":"pl_frontier_final","folder":"tf","game":"Team Fortress","app_id":440,"player_count":0,"max_players":24,"Bots":0,"server_type":"Dedicated","server_os":"Linux","password":true,"vac":true,"version":"7882260","steam_id":85568392924469999,"keywords":["nocrits","nodmgspread","payload","uncletopia"],"game_id":440,"stv_port":27016,"stv_name":"Uncletopia | San Francisco | 1 | All Maps | STV","players":null},{"server_id":18,"name":"Uncletopia | San Francisco | 2 | All Maps","name_short":"sfo-2","host":"sfo-1.us.uncletopia.com","port":27025,"enabled":true,"region":"us-west","cc":"us","latitude":37.77397,"longitude":-122.4313,"reserved":0,"last_update":"0001-01-01T00:00:00Z","name_a2s":"Uncletopia | San Francisco | 2 | All Maps","protocol":17,"map":"pl_swiftwater_final1","folder":"tf","game":"Team Fortress","app_id":440,"player_count":0,"max_players":24,"Bots":0,"server_type":"Dedicated","server_os":"Linux","password":true,"vac":true,"version":"7882260","steam_id":85568392924470000,"keywords":["nocrits","nodmgspread","payload","uncletopia"],"game_id":440,"stv_port":27026,"stv_name":"Uncletopia | San Francisco | 2 | All Maps | STV","players":null},{"server_id":19,"name":"Uncletopia | San Francisco | 3 | Stopwatch Beta","name_short":"sfo-3","host":"sfo-1.us.uncletopia.com","port":27035,"enabled":true,"region":"us-west","cc":"us","latitude":37.77397,"longitude":-122.4313,"reserved":0,"last_update":"0001-01-01T00:00:00Z","name_a2s":"Uncletopia | San Francisco | 3 | Stopwatch Beta","protocol":17,"map":"pl_frontier_final","folder":"tf","game":"Team Fortress","app_id":440,"player_count":0,"max_players":24,"Bots":0,"server_type":"Dedicated","server_os":"Linux","password":true,"vac":true,"version":"7882260","steam_id":85568392924742824,"keywords":["nocrits","nodmgspread","payload","uncletopia"],"game_id":440,"stv_port":27036,"stv_name":"Uncletopia | San Francisco | 3 | Stopwatch Beta | STV","players":null},{"server_id":20,"name":"Uncletopia | San Francisco | 4 | Community","name_short":"sfo-4","host":"sfo-1.us.uncletopia.com","port":27045,"enabled":true,"region":"us-west","cc":"us","latitude":37.77397,"longitude":-122.4313,"reserved":0,"last_update":"0001-01-01T00:00:00Z","name_a2s":"Uncletopia | San Francisco | 4 | Community","protocol":17,"map":"workshop/cp_propaganda_b18.ugc1603743849","folder":"tf","game":"Team Fortress","app_id":440,"player_count":0,"max_players":24,"Bots":0,"server_type":"Dedicated","server_os":"Linux","password":true,"vac":true,"version":"7882260","steam_id":85568392924742826,"keywords":["cp","nocrits","nodmgspread","uncletopia"],"game_id":440,"stv_port":27046,"stv_name":"Uncletopia | San Francisco | 4 | Community | STV","players":null},{"server_id":141,"name":"Uncletopia | Sydney | 1 | All Maps","name_short":"syd-1","host":"syd-1.au.uncletopia.com","port":27015,"enabled":true,"region":"au","cc":"au","latitude":-33.865143,"longitude":151.2099,"reserved":0,"last_update":"0001-01-01T00:00:00Z","name_a2s":"Uncletopia | Sydney | 1 | All Maps","protocol":17,"map":"koth_lakeside_final","folder":"tf","game":"Team Fortress","app_id":440,"player_count":0,"max_players":24,"Bots":0,"server_type":"Dedicated","server_os":"Linux","password":true,"vac":true,"version":"7882260","steam_id":85568392924470001,"keywords":["cp","nocrits","nodmgspread","uncletopia"],"game_id":440,"stv_port":27016,"stv_name":"Uncletopia | Sydney | 1 | All Maps | STV","players":null},{"server_id":123,"name":"Uncletopia | Sydney | 2 | All Maps","name_short":"syd-2","host":"syd-1.au.uncletopia.com","port":27025,"enabled":true,"region":"au","cc":"au","latitude":-33.865143,"longitude":151.2099,"reserved":0,"last_update":"0001-01-01T00:00:00Z","name_a2s":"Uncletopia | Sydney | 2 | All Maps","protocol":17,"map":"koth_cascade","folder":"tf","game":"Team Fortress","app_id":440,"player_count":0,"max_players":24,"Bots":0,"server_type":"Dedicated","server_os":"Linux","password":true,"vac":true,"version":"7882260","steam_id":85568392924470002,"keywords":["cp","nocrits","nodmgspread","uncletopia"],"game_id":440,"stv_port":27026,"stv_name":"Uncletopia | Sydney | 2 | All Maps | STV","players":null},{"server_id":395,"name":"Uncletopia | Sydney | 3 | All Maps","name_short":"syd-3","host":"syd-1.au.uncletopia.com","port":27035,"enabled":true,"region":"au","cc":"au","latitude":-33.865143,"longitude":151.2099,"reserved":0,"last_update":"0001-01-01T00:00:00Z","name_a2s":"Uncletopia | Sydney | 3 | All Maps","protocol":17,"map":"koth_viaduct","folder":"tf","game":"Team Fortress","app_id":440,"player_count":0,"max_players":24,"Bots":0,"server_type":"Dedicated","server_os":"Linux","password":true,"vac":true,"version":"7882260","steam_id":85568392925194467,"keywords":["cp","nocrits","nodmgspread","uncletopia"],"game_id":440,"stv_port":27036,"stv_name":"Uncletopia | Sydney | 3 | All Maps | STV","players":null},{"server_id":396,"name":"Uncletopia | Sydney | 4 | All Maps","name_short":"syd-4","host":"syd-1.au.uncletopia.com","port":27045,"enabled":true,"region":"au","cc":"au","latitude":-33.865143,"longitude":151.2099,"reserved":0,"last_update":"0001-01-01T00:00:00Z","name_a2s":"Uncletopia | Sydney | 4 | All Maps","protocol":17,"map":"koth_highpass","folder":"tf","game":"Team Fortress","app_id":440,"player_count":0,"max_players":24,"Bots":0,"server_type":"Dedicated","server_os":"Linux","password":true,"vac":true,"version":"7882260","steam_id":85568392925397958,"keywords":["cp","nocrits","nodmgspread","uncletopia"],"game_id":440,"stv_port":27046,"stv_name":"Uncletopia | Sydney | 4 | All Maps | STV","players":null},{"server_id":58,"name":"Uncletopia | Sydney | 5 | Stopwatch Beta","name_short":"syd-5","host":"syd-1.au.uncletopia.com","port":27055,"enabled":true,"region":"au","cc":"au","latitude":-33.865143,"longitude":151.2099,"reserved":0,"last_update":"0001-01-01T00:00:00Z","name_a2s":"Uncletopia | Sydney | 5 | Stopwatch Beta","protocol":17,"map":"koth_highpass","folder":"tf","game":"Team Fortress","app_id":440,"player_count":0,"max_players":24,"Bots":0,"server_type":"Dedicated","server_os":"Linux","password":true,"vac":true,"version":"7882260","steam_id":85568392925397959,"keywords":["cp","nocrits","nodmgspread","uncletopia"],"game_id":440,"stv_port":27056,"stv_name":"Uncletopia | Sydney | 5 | Stopwatch Beta | STV","players":null},{"server_id":59,"name":"Uncletopia | Sydney | 6 | Community","name_short":"syd-6","host":"syd-1.au.uncletopia.com","port":27065,"enabled":true,"region":"au","cc":"au","latitude":-33.865143,"longitude":151.2099,"reserved":0,"last_update":"0001-01-01T00:00:00Z","name_a2s":"Uncletopia | Sydney | 6 | Community","protocol":17,"map":"workshop/koth_product_final.ugc454272353","folder":"tf","game":"Team Fortress","app_id":440,"player_count":0,"max_players":24,"Bots":0,"server_type":"Dedicated","server_os":"Linux","password":true,"vac":true,"version":"7882260","steam_id":85568392925397960,"keywords":["cp","nocrits","nodmgspread","uncletopia"],"game_id":440,"stv_port":27066,"stv_name":"Uncletopia | Sydney | 6 | Community | STV","players":null},{"server_id":49,"name":"Uncletopia | Warsaw | 1 | All Maps","name_short":"waw-1","host":"waw-1.pl.uncletopia.com","port":27015,"enabled":true,"region":"eu","cc":"pl","latitude":52.2297,"longitude":21.017532,"reserved":0,"last_update":"0001-01-01T00:00:00Z","name_a2s":"","protocol":0,"map":"","folder":"","game":"","app_id":0,"player_count":0,"max_players":0,"Bots":0,"server_type":"","server_os":"","password":false,"vac":false,"version":"","steam_id":0,"keywords":null,"game_id":0,"stv_port":0,"stv_name":"","players":null},{"server_id":50,"name":"Uncletopia | Warsaw | 2 | All Maps","name_short":"waw-2","host":"waw-1.pl.uncletopia.com","port":27025,"enabled":true,"region":"eu","cc":"pl","latitude":52.2297,"longitude":21.017532,"reserved":0,"last_update":"0001-01-01T00:00:00Z","name_a2s":"Uncletopia | Warsaw | 2 | All Maps","protocol":17,"map":"cp_mountainlab","folder":"tf","game":"Team Fortress","app_id":440,"player_count":0,"max_players":24,"Bots":0,"server_type":"Dedicated","server_os":"Linux","password":true,"vac":true,"version":"7882260","steam_id":85568392925397851,"keywords":["cp","nocrits","nodmgspread","uncletopia"],"game_id":440,"stv_port":27026,"stv_name":"Uncletopia | Warsaw | 2 | All Maps | STV","players":null},{"server_id":51,"name":"Uncletopia | Warsaw | 3 | All Maps","name_short":"waw-3","host":"waw-1.pl.uncletopia.com","port":27035,"enabled":true,"region":"eu","cc":"pl","latitude":52.2297,"longitude":21.017532,"reserved":0,"last_update":"0001-01-01T00:00:00Z","name_a2s":"Uncletopia | Warsaw | 3 | All Maps","protocol":17,"map":"koth_viaduct","folder":"tf","game":"Team Fortress","app_id":440,"player_count":0,"max_players":24,"Bots":0,"server_type":"Dedicated","server_os":"Linux","password":true,"vac":true,"version":"7882260","steam_id":85568392925397852,"keywords":["cp","nocrits","nodmgspread","uncletopia"],"game_id":440,"stv_port":27036,"stv_name":"Uncletopia | Warsaw | 3 | All Maps | STV","players":null},{"server_id":52,"name":"Uncletopia | Warsaw | 4 | All Maps","name_short":"waw-4","host":"waw-1.pl.uncletopia.com","port":27045,"enabled":true,"region":"eu","cc":"pl","latitude":52.2297,"longitude":21.017532,"reserved":0,"last_update":"0001-01-01T00:00:00Z","name_a2s":"Uncletopia | Warsaw | 4 | All Maps","protocol":17,"map":"koth_highpass","folder":"tf","game":"Team Fortress","app_id":440,"player_count":0,"max_players":24,"Bots":0,"server_type":"Dedicated","server_os":"Linux","password":true,"vac":true,"version":"7882260","steam_id":85568392925397853,"keywords":["cp","nocrits","nodmgspread","uncletopia"],"game_id":440,"stv_port":27046,"stv_name":"Uncletopia | Warsaw | 4 | All Maps | STV","players":null},{"server_id":53,"name":"Uncletopia | Warsaw | 5 | Stopwatch Beta","name_short":"waw-5","host":"waw-1.pl.uncletopia.com","port":27055,"enabled":true,"region":"eu","cc":"pl","latitude":52.2297,"longitude":21.017532,"reserved":0,"last_update":"0001-01-01T00:00:00Z","name_a2s":"Uncletopia | Warsaw | 5 | Stopwatch Beta","protocol":17,"map":"cp_mountainlab","folder":"tf","game":"Team Fortress","app_id":440,"player_count":1,"max_players":24,"Bots":0,"server_type":"Dedicated","server_os":"Linux","password":true,"vac":true,"version":"7882260","steam_id":85568392925397854,"keywords":["cp","nocrits","nodmgspread","uncletopia"],"game_id":440,"stv_port":27056,"stv_name":"Uncletopia | Warsaw | 5 | Stopwatch Beta | STV","players":[{"user_id":3,"name":"Luf1k","steam_id":76561199384207994,"connected_time":8000000000,"state":"connecting","ping":0}]},{"server_id":54,"name":"Uncletopia | Warsaw | 6 | Community","name_short":"waw-6","host":"waw-1.pl.uncletopia.com","port":27065,"enabled":true,"region":"eu","cc":"pl","latitude":52.2297,"longitude":21.017532,"reserved":0,"last_update":"0001-01-01T00:00:00Z","name_a2s":"Uncletopia | Warsaw | 6 | Community","protocol":17,"map":"koth_viaduct","folder":"tf","game":"Team Fortress","app_id":440,"player_count":0,"max_players":24,"Bots":0,"server_type":"Dedicated","server_os":"Linux","password":true,"vac":true,"version":"7882260","steam_id":85568392925397856,"keywords":["cp","nocrits","nodmgspread","uncletopia"],"game_id":440,"stv_port":27066,"stv_name":"Uncletopia | Warsaw | 6 | Community | STV","players":null}]}