{"status":true,"message":"","result":[{"server_id":9,"name":"Uncletopia | Atlanta | 1 | All Maps","name_short":"atl-1","host":"atl-1.us.uncletopia.com","port":27015,"enabled":true,"region":"us-east","cc":"us","latitude":33.753746,"longitude":-84.38633,"reserved":0,"last_update":"0001-01-01T00:00:00Z","name_a2s":"Uncletopia | Atlanta | 1 | All Maps","protocol":17,"map":"koth_cascade","folder":"tf","game":"Team Fortress","app_id":440,"player_count":0,"max_players":24,"Bots":0,"server_type":"Dedicated","server_os":"Linux","password":true,"vac":true,"version":"7932396","steam_id":85568392924469982,"keywords":["cp","nocrits","nodmgspread","uncletopia"],"game_id":440,"stv_port":27016,"stv_name":"Uncletopia | Atlanta | 1 | All Maps | STV","players":null},{"server_id":104,"name":"Uncletopia | Atlanta | 2 | All Maps","name_short":"atl-2","host":"atl-1.us.uncletopia.com","port":27025,"enabled":true,"region":"us-east","cc":"us","latitude":33.753746,"longitude":-84.38633,"reserved":0,"last_update":"0001-01-01T00:00:00Z","name_a2s":"Uncletopia | Atlanta | 2 | All Maps","protocol":17,"map":"pl_badwater","folder":"tf","game":"Team Fortress","app_id":440,"player_count":3,"max_players":24,"Bots":0,"server_type":"Dedicated","server_os":"Linux","password":true,"vac":true,"version":"7932396","steam_id":85568392924469983,"keywords":["nocrits","nodmgspread","payload","uncletopia"],"game_id":440,"stv_port":27026,"stv_name":"Uncletopia | Atlanta | 2 | All Maps | STV","players":[{"user_id":1243,"name":"Moonadoo","steam_id":76561198133377546,"connected_time":567000000000,"state":"active","ping":75},{"user_id":1188,"name":"Isotope","steam_id":76561199480883504,"connected_time":2577000000000,"state":"active","ping":70},{"user_id":1245,"name":"cabannoahn","steam_id":76561199232960410,"connected_time":62000000000,"state":"active","ping":99}]},{"server_id":400,"name":"Uncletopia | Atlanta | 3 | Community","name_short":"atl-3","host":"atl-1.us.uncletopia.com","port":27035,"enabled":true,"region":"us-east","cc":"us","latitude":33.753746,"longitude":-84.38633,"reserved":0,"last_update":"0001-01-01T00:00:00Z","name_a2s":"Uncletopia | Atlanta | 3 | Community","protocol":17,"map":"workshop/rd_asteroid_redux_b1.ugc2154902912","folder":"tf","game":"Team Fortress","app_id":440,"player_count":0,"max_players":24,"Bots":0,"server_type":"Dedicated","server_os":"Linux","password":true,"vac":true,"version":"7932396","steam_id":85568392924515187,"keywords":["beta","nocrits","nodmgspread","rd","uncletopia"],"game_id":440,"stv_port":27036,"stv_name":"Uncletopia | Atlanta | 3 | Community | STV","players":null},{"server_id":401,"name":"Uncletopia | Atlanta | 4 | No Payload","name_short":"atl-4","host":"atl-1.us.uncletopia.com","port":27045,"enabled":true,"region":"us-east","cc":"us","latitude":33.753746,"longitude":-84.38633,"reserved":0,"last_update":"0001-01-01T00:00:00Z","name_a2s":"","protocol":0,"map":"","folder":"","game":"","app_id":0,"player_count":0,"max_players":0,"Bots":0,"server_type":"","server_os":"","password":false,"vac":false,"version":"","steam_id":0,"keywords":null,"game_id":0,"stv_port":0,"stv_name":"","players":null},{"server_id":2,"name":"Uncletopia | Chicago | 1 | All Maps","name_short":"chi-1","host":"chi-1.us.uncletopia.com","port":27015,"enabled":true,"region":"us-central","cc":"us","latitude":41.881832,"longitude":-87.62318,"reserved":0,"last_update":"0001-01-01T00:00:00Z","name_a2s":"Uncletopia | Chicago | 1 | All Maps","protocol":17,"map":"koth_viaduct","folder":"tf","game":"Team Fortress","app_id":440,"player_count":24,"max_players":24,"Bots":0,"server_type":"Dedicated","server_os":"Linux","password":true,"vac":true,"version":"7932396","steam_id":85568392924469984,"keywords":["cp","nocrits","nodmgspread","uncletopia"],"game_id":440,"stv_port":27016,"stv_name":"Uncletopia | Chicago | 1 | All Maps | STV","players":[{"user_id":484,"name":"tidal47","steam_id":76561198219084819,"connected_time":2292000000000,"state":"active","ping":90},{"user_id":412,"name":"Ziath","steam_id":76561198094009164,"connected_time":9056000000000,"state":"active","ping":62},{"user_id":491,"name":"Mr. Soupman","steam_id":76561198021649598,"connected_time":1008000000000,"state":"active","ping":63},{"user_id":460,"name":"Method Mon Mothma","steam_id":76561197976110189,"connected_time":4521000000000,"state":"active","ping":68},{"user_id":492,"name":"DragonFalcon™","steam_id":76561198044559930,"connected_time":370000000000,"state":"active","ping":83},{"user_id":483,"name":"Wizard Raccoon","steam_id":76561198072562591,"connected_time":2313000000000,"state":"active","ping":87},{"user_id":472,"name":"Melody","steam_id":76561198407789232,"connected_time":3559000000000,"state":"active","ping":129},{"user_id":478,"name":"FizzleWizard","steam_id":76561198045990868,"connected_time":2929000000000,"state":"active","ping":58},{"user_id":489,"name":"Da̵ksuki","steam_id":76561198084127751,"connected_time":1082000000000,"state":"active","ping":106},{"user_id":485,"name":"eveie0mlets","steam_id":76561198259172011,"connected_time":2179000000000,"state":"active","ping":82},{"user_id":479,"name":"SirKnight5067","steam_id":76561198377306047,"connected_time":2926000000000,"state":"active","ping":62},{"user_id":494,"name":"DinoGoof","steam_id":76561198998427283,"connected_time":57000000000,"state":"active","ping":66},{"user_id":486,"name":"Drapph","steam_id":76561199384213314,"connected_time":1686000000000,"state":"active","ping":60},{"user_id":474,"name":"SquishyDog","steam_id":76561198059014380,"connected_time":3095000000000,"state":"active","ping":52},{"user_id":493,"name":"SoaringPhoenix","steam_id":76561198445103637,"connected_time":369000000000,"state":"active","ping":59},{"user_id":476,"name":"Santamen","steam_id":76561198119478199,"connected_time":2997000000000,"state":"active","ping":48},{"user_id":475,"name":"Takyon","steam_id":76561198172075186,"connected_time":3024000000000,"state":"active","ping":169},{"user_id":396,"name":"Thundermonkey (SMOKE)","steam_id":76561198017631728,"connected_time":10101000000000,"state":"active","ping":59},{"user_id":459,"name":"Luca!","steam_id":76561198137880777,"connected_time":4610000000000,"state":"active","ping":71},{"user_id":480,"name":"Kravixx","steam_id":76561197995777255,"connected_time":2914000000000,"state":"active","ping":57},{"user_id":482,"name":"fudge lord","steam_id":76561198118318422,"connected_time":2880000000000,"state":"active","ping":93},{"user_id":490,"name":"LtK","steam_id":76561197993180943,"connected_time":1069000000000,"state":"active","ping":61},{"user_id":440,"name":"ash","steam_id":76561198127890645,"connected_time":5851000000000,"state":"active","ping":85},{"user_id":384,"name":"Mank","steam_id":76561198189421005,"connected_time":11189000000000,"state":"active","ping":53}]},{"server_id":106,"name":"Uncletopia | Chicago | 2 | All Maps","name_short":"chi-2","host":"chi-1.us.uncletopia.com","port":27025,"enabled":true,"region":"us-central","cc":"us","latitude":41.881832,"longitude":-87.62318,"reserved":0,"last_update":"0001-01-01T00:00:00Z","name_a2s":"Uncletopia | Chicago | 2 | All Maps","protocol":17,"map":"cp_process_final","folder":"tf","game":"Team Fortress","app_id":440,"player_count":24,"max_players":24,"Bots":0,"server_type":"Dedicated","server_os":"Linux","password":true,"vac":true,"version":"7932396","steam_id":85568392924469985,"keywords":["cp","nocrits","nodmgspread","uncletopia"],"game_id":440,"stv_port":27026,"stv_name":"Uncletopia | Chicago | 2 | All Maps | STV","players":[{"user_id":743,"name":"Mason","steam_id":76561198067984258,"connected_time":1106000000000,"state":"active","ping":56},{"user_id":747,"name":"OWEENIE","steam_id":76561198083135927,"connected_time":1095000000000,"state":"active","ping":45},{"user_id":735,"name":"HE’S IN THE GODDAMN WALLS","steam_id":76561198363267009,"connected_time":3035000000000,"state":"active","ping":76},{"user_id":750,"name":"Big Oil","steam_id":76561199238964574,"connected_time":906000000000,"state":"active","ping":65},{"user_id":713,"name":"xX_HimboSwallower_Xx","steam_id":76561198016029965,"connected_time":3818000000000,"state":"active","ping":60},{"user_id":753,"name":"Truffles","steam_id":76561198095868800,"connected_time":612000000000,"state":"active","ping":82},{"user_id":754,"name":"object permanence","steam_id":76561198050393061,"connected_time":380000000000,"state":"active","ping":69},{"user_id":724,"name":"Disco Fever","steam_id":76561198069532215,"connected_time":3642000000000,"state":"active","ping":72},{"user_id":730,"name":"venomew2","steam_id":76561198327081077,"connected_time":3369000000000,"state":"active","ping":85},{"user_id":748,"name":"UNATCO","steam_id":76561198167585268,"connected_time":1089000000000,"state":"active","ping":62},{"user_id":725,"name":"Gason Homoa","steam_id":76561199000180522,"connected_time":3632000000000,"state":"active","ping":86},{"user_id":672,"name":"Dead_Stranger","steam_id":76561198120804563,"connected_time":7833000000000,"state":"active","ping":104},{"user_id":755,"name":"如願","steam_id":76561198038486613,"connected_time":273000000000,"state":"active","ping":62},{"user_id":717,"name":"shploopie","steam_id":76561198264289810,"connected_time":3763000000000,"state":"active","ping":79},{"user_id":693,"name":"Grand","steam_id":76561198290143399,"connected_time":5912000000000,"state":"active","ping":67},{"user_id":744,"name":"Jo","steam_id":76561198060447015,"connected_time":1105000000000,"state":"active","ping":77},{"user_id":751,"name":"Tavros","steam_id":76561198297961039,"connected_time":745000000000,"state":"active","ping":76},{"user_id":732,"name":"Byte The Protogen","steam_id":76561199229871383,"connected_time":3315000000000,"state":"active","ping":113},{"user_id":739,"name":"demoknight tf2","steam_id":76561198070393998,"connected_time":2996000000000,"state":"active","ping":75},{"user_id":719,"name":"emilee (evil)","steam_id":76561198061455664,"connected_time":3758000000000,"state":"active","ping":67},{"user_id":740,"name":"Kid_with_beanie","steam_id":76561198799382173,"connected_time":2962000000000,"state":"active","ping":114},{"user_id":720,"name":"American Dad","steam_id":76561198059711448,"connected_time":3757000000000,"state":"active","ping":72},{"user_id":752,"name":"lost in spaaaaace","steam_id":76561199085974120,"connected_time":625000000000,"state":"active","ping":74},{"user_id":734,"name":"captainspatklz","steam_id":76561198432167270,"connected_time":3072000000000,"state":"active","ping":78}]},{"server_id":402,"name":"Uncletopia | Chicago | 3 | All Maps","name_short":"chi-3","host":"chi-1.us.uncletopia.com","port":27035,"enabled":true,"region":"us-central","cc":"us","latitude":41.881832,"longitude":-87.62318,"reserved":0,"last_update":"0001-01-01T00:00:00Z","name_a2s":"Uncletopia | Chicago | 3 | All Maps","protocol":17,"map":"pl_snowycoast","folder":"tf","game":"Team Fortress","app_id":440,"player_count":24,"max_players":24,"Bots":0,"server_type":"Dedicated","server_os":"Linux","password":true,"vac":true,"version":"7932396","steam_id":85568392924515191,"keywords":["nocrits","nodmgspread","payload","uncletopia"],"game_id":440,"stv_port":27036,"stv_name":"Uncletopia | Chicago | 3 | All Maps | STV","players":[{"user_id":542,"name":"GeneralKMG","steam_id":76561198239195806,"connected_time":2355000000000,"state":"active","ping":112},{"user_id":523,"name":"Jesse","steam_id":76561198157305426,"connected_time":3179000000000,"state":"active","ping":62},{"user_id":563,"name":"charm quark","steam_id":76561198098770777,"connected_time":781000000000,"state":"active","ping":105},{"user_id":538,"name":"AC3S Spade","steam_id":76561198266913930,"connected_time":2391000000000,"state":"active","ping":96},{"user_id":564,"name":"Benis Gonzalez","steam_id":76561198799391259,"connected_time":745000000000,"state":"active","ping":110},{"user_id":574,"name":"[SK] Punish ♥ 牧濑红莉栖","steam_id":76561198207987376,"connected_time":59000000000,"state":"active","ping":46},{"user_id":565,"name":"Walt","steam_id":76561198964107245,"connected_time":710000000000,"state":"active","ping":98},{"user_id":499,"name":"l4d2 marshall","steam_id":76561198042570322,"connected_time":4871000000000,"state":"active","ping":61},{"user_id":503,"name":"AlcoholicDad454","steam_id":76561198157414556,"connected_time":4475000000000,"state":"active","ping":72},{"user_id":548,"name":"SamIam","steam_id":76561198813390673,"connected_time":2308000000000,"state":"active","ping":129},{"user_id":573,"name":"bikerkid207","steam_id":76561198390782783,"connected_time":162000000000,"state":"active","ping":69},{"user_id":572,"name":"ntjohn","steam_id":76561198043367011,"connected_time":181000000000,"state":"active","ping":59},{"user_id":547,"name":"Luh Gëeky","steam_id":76561198053621664,"connected_time":2315000000000,"state":"active","ping":45},{"user_id":557,"name":"Edgy McEdgeison","steam_id":76561198047845399,"connected_time":2001000000000,"state":"active","ping":72},{"user_id":550,"name":"Conclusion E²","steam_id":76561198100017156,"connected_time":2286000000000,"state":"active","ping":62},{"user_id":495,"name":"Pizza","steam_id":76561198118748364,"connected_time":4946000000000,"state":"active","ping":75},{"user_id":551,"name":"Sgt. Satire","steam_id":76561198104193483,"connected_time":2253000000000,"state":"active","ping":119},{"user_id":530,"name":"the piss boiling machine","steam_id":76561198113716047,"connected_time":2882000000000,"state":"active","ping":71},{"user_id":562,"name":"feed lips","steam_id":76561197971152439,"connected_time":1483000000000,"state":"active","ping":77},{"user_id":552,"name":"toes","steam_id":76561198221151676,"connected_time":2247000000000,"state":"active","ping":90},{"user_id":553,"name":"Barmy","steam_id":76561198111626352,"connected_time":2227000000000,"state":"active","ping":91},{"user_id":559,"name":"A Can of AriZona Green Tea","steam_id":76561198062481133,"connected_time":1812000000000,"state":"active","ping":77},{"user_id":561,"name":"Sariff","steam_id":76561198136446352,"connected_time":1716000000000,"state":"active","ping":65},{"user_id":535,"name":"Kingpin","steam_id":76561198362916241,"connected_time":2491000000000,"state":"active","ping":75}]},{"server_id":403,"name":"Uncletopia | Chicago | 4 | All Maps","name_short":"chi-4","host":"chi-1.us.uncletopia.com","port":27045,"enabled":true,"region":"us-central","cc":"us","latitude":41.881832,"longitude":-87.62318,"reserved":0,"last_update":"0001-01-01T00:00:00Z","name_a2s":"Uncletopia | Chicago | 4 | All Maps","protocol":17,"map":"pl_borneo","folder":"tf","game":"Team Fortress","app_id":440,"player_count":23,"max_players":24,"Bots":0,"server_type":"Dedicated","server_os":"Linux","password":true,"vac":true,"version":"7932396","steam_id":85568392924515193,"keywords":["nocrits","nodmgspread","payload","uncletopia"],"game_id":440,"stv_port":27046,"stv_name":"Uncletopia | Chicago | 4 | All Maps | STV","players":[{"user_id":619,"name":"Mereana Mordegard Glesgorv","steam_id":76561198930116758,"connected_time":1060000000000,"state":"active","ping":31},{"user_id":569,"name":"postgres","steam_id":76561198011204750,"connected_time":5286000000000,"state":"active","ping":96},{"user_id":621,"name":"xFactr","steam_id":76561198129007422,"connected_time":898000000000,"state":"active","ping":54},{"user_id":622,"name":"Riven","steam_id":76561198091701349,"connected_time":896000000000,"state":"active","ping":46},{"user_id":632,"name":"Q47","steam_id":76561198087128341,"connected_time":464000000000,"state":"active","ping":126},{"user_id":613,"name":"kazoo2","steam_id":76561198260473504,"connected_time":1508000000000,"state":"active","ping":88},{"user_id":611,"name":"Discourse","steam_id":76561198984286678,"connected_time":1703000000000,"state":"active","ping":55},{"user_id":631,"name":"spaceboots","steam_id":76561197977322319,"connected_time":468000000000,"state":"active","ping":64},{"user_id":602,"name":"reymundo","steam_id":76561197989412830,"connected_time":1904000000000,"state":"active","ping":116},{"user_id":600,"name":"Gary","steam_id":76561199246023546,"connected_time":1946000000000,"state":"active","ping":113},{"user_id":628,"name":"wwwillsux","steam_id":76561198201819066,"connected_time":704000000000,"state":"active","ping":82},{"user_id":629,"name":"salt\u0026pepper","steam_id":76561198172743366,"connected_time":473000000000,"state":"active","ping":83},{"user_id":614,"name":"zod","steam_id":76561198071374501,"connected_time":1433000000000,"state":"active","ping":64},{"user_id":618,"name":"UncLE DAnE","steam_id":76561198435354491,"connected_time":1098000000000,"state":"active","ping":56},{"user_id":630,"name":"IMM0RTAL","steam_id":76561198013747901,"connected_time":469000000000,"state":"active","ping":75},{"user_id":605,"name":"AudaCD","steam_id":76561198202775853,"connected_time":1878000000000,"state":"active","ping":49},{"user_id":561,"name":"daemon","steam_id":76561198001541433,"connected_time":5787000000000,"state":"active","ping":56},{"user_id":597,"name":"crexorz","steam_id":76561198890949432,"connected_time":2665000000000,"state":"active","ping":60},{"user_id":612,"name":"Mail Delivery","steam_id":76561198290046318,"connected_time":1631000000000,"state":"active","ping":65},{"user_id":590,"name":"VidzCMC","steam_id":76561198848142973,"connected_time":3815000000000,"state":"active","ping":51},{"user_id":610,"name":"Feel the bern","steam_id":76561198078824519,"connected_time":1734000000000,"state":"active","ping":105},{"user_id":620,"name":"1001NinjaDucks","steam_id":76561198058169660,"connected_time":1006000000000,"state":"active","ping":72},{"user_id":626,"name":"Cyanide","steam_id":76561198289684083,"connected_time":883000000000,"state":"active","ping":71}]},{"server_id":36,"name":"Uncletopia | Chicago | 5 | All Maps","name_short":"chi-5","host":"chi-2.us.uncletopia.com","port":27015,"enabled":true,"region":"us-central","cc":"us","latitude":41.881832,"longitude":-87.62318,"reserved":0,"last_update":"0001-01-01T00:00:00Z","name_a2s":"Uncletopia | Chicago | 5 | All Maps","protocol":17,"map":"koth_cascade","folder":"tf","game":"Team Fortress","app_id":440,"player_count":24,"max_players":24,"Bots":0,"server_type":"Dedicated","server_os":"Linux","password":true,"vac":true,"version":"7932396","steam_id":85568392924866362,"keywords":["cp","nocrits","nodmgspread","uncletopia"],"game_id":440,"stv_port":27016,"stv_name":"Uncletopia | Chicago | 5 | All Maps | STV","players":[{"user_id":824,"name":"beyond","steam_id":76561198051009126,"connected_time":366000000000,"state":"active","ping":63},{"user_id":825,"name":"ATL","steam_id":76561198431196926,"connected_time":358000000000,"state":"active","ping":87},{"user_id":788,"name":"Zollap","steam_id":76561198056269568,"connected_time":3316000000000,"state":"active","ping":105},{"user_id":810,"name":"RANROSE","steam_id":76561197972366808,"connected_time":2250000000000,"state":"active","ping":49},{"user_id":831,"name":"☙ Corrupt ❧","steam_id":76561197977631915,"connected_time":186000000000,"state":"active","ping":71},{"user_id":745,"name":"Real Azure #SaveTF2","steam_id":76561198095912284,"connected_time":6424000000000,"state":"active","ping":101},{"user_id":826,"name":"who ate the cheese","steam_id":76561198275408467,"connected_time":336000000000,"state":"active","ping":47},{"user_id":809,"name":"The Poop Dealer","steam_id":76561198141198352,"connected_time":2374000000000,"state":"active","ping":46},{"user_id":827,"name":"♿","steam_id":76561198296145819,"connected_time":319000000000,"state":"active","ping":82},{"user_id":828,"name":"prson404","steam_id":76561199094698591,"connected_time":288000000000,"state":"active","ping":74},{"user_id":798,"name":"Etzan","steam_id":76561198026897084,"connected_time":3059000000000,"state":"active","ping":105},{"user_id":829,"name":"sc67","steam_id":76561199302471485,"connected_time":263000000000,"state":"active","ping":43},{"user_id":830,"name":"Nav","steam_id":76561198238895786,"connected_time":194000000000,"state":"active","ping":76},{"user_id":832,"name":"Kzjytsugn","steam_id":76561198130241974,"connected_time":169000000000,"state":"active","ping":80},{"user_id":782,"name":"tf2pyro","steam_id":76561198388184353,"connected_time":3557000000000,"state":"active","ping":84},{"user_id":819,"name":"D4NMAR","steam_id":76561198056453091,"connected_time":1148000000000,"state":"active","ping":47},{"user_id":833,"name":"Farseer Ulwithy","steam_id":76561197965179245,"connected_time":158000000000,"state":"active","ping":82},{"user_id":800,"name":"HOTA","steam_id":76561199002778841,"connected_time":3044000000000,"state":"active","ping":75},{"user_id":817,"name":"Urbanzpinapple","steam_id":76561198115426938,"connected_time":1729000000000,"state":"active","ping":61},{"user_id":834,"name":"Grand Wizard King","steam_id":76561198099802660,"connected_time":152000000000,"state":"active","ping":82},{"user_id":821,"name":"El Güey","steam_id":76561197970450546,"connected_time":850000000000,"state":"active","ping":117},{"user_id":794,"name":"NewGuy","steam_id":76561198968058652,"connected_time":3249000000000,"state":"active","ping":102},{"user_id":799,"name":"charitysheep","steam_id":76561198127484292,"connected_time":3058000000000,"state":"active","ping":82},{"user_id":808,"name":"RailRunner66","steam_id":76561198053779091,"connected_time":2679000000000,"state":"active","ping":91}]},{"server_id":37,"name":"Uncletopia | Chicago | 6 | All Maps","name_short":"chi-6","host":"chi-2.us.uncletopia.com","port":27025,"enabled":true,"region":"us-central","cc":"us","latitude":41.881832,"longitude":-87.62318,"reserved":0,"last_update":"0001-01-01T00:00:00Z","name_a2s":"Uncletopia | Chicago | 6 | All Maps","protocol":17,"map":"cp_snakewater_final1","folder":"tf","game":"Team Fortress","app_id":440,"player_count":23,"max_players":24,"Bots":0,"server_type":"Dedicated","server_os":"Linux","password":true,"vac":true,"version":"7932396","steam_id":85568392924866363,"keywords":["cp","nocrits","nodmgspread","uncletopia"],"game_id":440,"stv_port":27026,"stv_name":"Uncletopia | Chicago | 6 | All Maps | STV","players":[{"user_id":883,"name":"Darghul the Skeleton Lord","steam_id":76561198004140161,"connected_time":2492000000000,"state":"active","ping":44},{"user_id":824,"name":"Shaunt","steam_id":76561198171551057,"connected_time":6860000000000,"state":"active","ping":52},{"user_id":901,"name":"feel alive","steam_id":76561198173047169,"connected_time":911000000000,"state":"active","ping":59},{"user_id":862,"name":"i'm in the house like carpet","steam_id":76561198046111695,"connected_time":4647000000000,"state":"active","ping":61},{"user_id":875,"name":"Joey Lemons","steam_id":76561198068104187,"connected_time":2645000000000,"state":"active","ping":43},{"user_id":895,"name":"Jousty","steam_id":76561199162677853,"connected_time":1798000000000,"state":"active","ping":90},{"user_id":876,"name":"wanye","steam_id":76561198216398577,"connected_time":2640000000000,"state":"active","ping":61},{"user_id":897,"name":"giveit5","steam_id":76561198030815437,"connected_time":1633000000000,"state":"active","ping":91},{"user_id":873,"name":"A Large Side Salad","steam_id":76561198106937700,"connected_time":2733000000000,"state":"active","ping":73},{"user_id":900,"name":"Ace Attorney","steam_id":76561198133011705,"connected_time":1069000000000,"state":"active","ping":65},{"user_id":902,"name":"Xmoonsheep","steam_id":76561198158384685,"connected_time":831000000000,"state":"active","ping":59},{"user_id":904,"name":"ultralisk52","steam_id":76561198051666604,"connected_time":414000000000,"state":"active","ping":62},{"user_id":903,"name":"raw.xiaolongbao","steam_id":76561198033033884,"connected_time":471000000000,"state":"active","ping":64},{"user_id":858,"name":"munch","steam_id":76561198820480684,"connected_time":4850000000000,"state":"active","ping":56},{"user_id":899,"name":"Provocator","steam_id":76561197961830410,"connected_time":1299000000000,"state":"active","ping":69},{"user_id":882,"name":"stardust!","steam_id":76561198123721061,"connected_time":2562000000000,"state":"active","ping":51},{"user_id":893,"name":"JACK BRUNO","steam_id":76561198027957690,"connected_time":2220000000000,"state":"active","ping":110},{"user_id":838,"name":"bagel sandwich","steam_id":76561198087971968,"connected_time":5841000000000,"state":"active","ping":64},{"user_id":888,"name":"Plinko","steam_id":76561197968530638,"connected_time":2428000000000,"state":"active","ping":59},{"user_id":889,"name":"Frisbee","steam_id":76561197962808987,"connected_time":2425000000000,"state":"active","ping":59},{"user_id":890,"name":"Jazz2T","steam_id":76561198154418867,"connected_time":2422000000000,"state":"active","ping":103},{"user_id":891,"name":"Red","steam_id":76561198001939529,"connected_time":2370000000000,"state":"active","ping":99},{"user_id":789,"name":"mendokusai","steam_id":76561197965022076,"connected_time":8969000000000,"state":"active","ping":58}]},{"server_id":38,"name":"Uncletopia | Chicago | 7 | Stopwatch Beta","name_short":"chi-7","host":"chi-2.us.uncletopia.com","port":27035,"enabled":true,"region":"us-central","cc":"us","latitude":41.881832,"longitude":-87.62318,"reserved":0,"last_update":"0001-01-01T00:00:00Z","name_a2s":"Uncletopia | Chicago | 7 | Stopwatch Beta","protocol":17,"map":"pl_swiftwater_final1","folder":"tf","game":"Team Fortress","app_id":440,"player_count":0,"max_players":24,"Bots":0,"server_type":"Dedicated","server_os":"Linux","password":true,"vac":true,"version":"7932396","steam_id":85568392924866364,"keywords":["nocrits","nodmgspread","payload","uncletopia"],"game_id":440,"stv_port":27036,"stv_name":"Uncletopia | Chicago | 7 | Stopwatch Beta | STV","players":null},{"server_id":39,"name":"Uncletopia | Chicago | 8 | Community","name_short":"chi-8","host":"chi-2.us.uncletopia.com","port":27045,"enabled":true,"region":"us-central","cc":"us","latitude":41.881832,"longitude":-87.62318,"reserved":0,"last_update":"0001-01-01T00:00:00Z","name_a2s":"Uncletopia | Chicago | 8 | Community","protocol":17,"map":"workshop/pl_barnblitz_pro7.ugc582280235","folder":"tf","game":"Team Fortress","app_id":440,"player_count":24,"max_players":24,"Bots":0,"server_type":"Dedicated","server_os":"Linux","password":true,"vac":true,"version":"7932396","steam_id":85568392924866365,"keywords":["nocrits","nodmgspread","payload","uncletopia"],"game_id":440,"stv_port":27046,"stv_name":"Uncletopia | Chicago | 8 | Community | STV","players":[{"user_id":266,"name":"Bongwater Basin","steam_id":76561198059868632,"connected_time":2700000000000,"state":"active","ping":75},{"user_id":296,"name":"FRANKY!!!","steam_id":76561199211305343,"connected_time":884000000000,"state":"active","ping":97},{"user_id":250,"name":"way up high","steam_id":76561198224614084,"connected_time":3904000000000,"state":"active","ping":72},{"user_id":231,"name":"sonikro","steam_id":76561197989428692,"connected_time":5541000000000,"state":"active","ping":59},{"user_id":298,"name":"Bogeyman","steam_id":76561198829294071,"connected_time":706000000000,"state":"active","ping":70},{"user_id":303,"name":"Fermenting Kiwi","steam_id":76561198253303497,"connected_time":421000000000,"state":"active","ping":79},{"user_id":300,"name":"▽","steam_id":76561198232617936,"connected_time":630000000000,"state":"active","ping":46},{"user_id":288,"name":"JelloMotion","steam_id":76561198045892038,"connected_time":1487000000000,"state":"active","ping":73},{"user_id":240,"name":"lxzvrdwxzvrd","steam_id":76561198111975583,"connected_time":4734000000000,"state":"active","ping":85},{"user_id":306,"name":"[_Dr.Scythe_]","steam_id":76561198845245858,"connected_time":231000000000,"state":"active","ping":85},{"user_id":280,"name":"bhutanese shadow garden grown e","steam_id":76561199487373269,"connected_time":1870000000000,"state":"active","ping":64},{"user_id":241,"name":"Hare-Trigger","steam_id":76561198062671986,"connected_time":4719000000000,"state":"active","ping":62},{"user_id":274,"name":"OddBread","steam_id":76561198339301792,"connected_time":2612000000000,"state":"active","ping":55},{"user_id":225,"name":"Piyono","steam_id":76561197962188504,"connected_time":6115000000000,"state":"active","ping":85},{"user_id":242,"name":"richarven","steam_id":76561198189429665,"connected_time":4718000000000,"state":"active","ping":74},{"user_id":304,"name":"STILLZ","steam_id":76561198131892406,"connected_time":387000000000,"state":"active","ping":91},{"user_id":265,"name":"OldManHenderson1976","steam_id":76561198148713751,"connected_time":2851000000000,"state":"active","ping":94},{"user_id":282,"name":"Smokey","steam_id":76561198093158117,"connected_time":1574000000000,"state":"active","ping":63},{"user_id":234,"name":"GreekGoat_Coffee","steam_id":76561198129331088,"connected_time":5480000000000,"state":"active","ping":50},{"user_id":305,"name":"frank","steam_id":76561198137777483,"connected_time":282000000000,"state":"active","ping":70},{"user_id":301,"name":"¥","steam_id":76561198037518646,"connected_time":596000000000,"state":"active","ping":60},{"user_id":291,"name":"super-oofio64","steam_id":76561198954052123,"connected_time":1182000000000,"state":"active","ping":110},{"user_id":284,"name":"vepis","steam_id":76561198015884720,"connected_time":1555000000000,"state":"active","ping":78},{"user_id":295,"name":"Mongolian Joe","steam_id":76561198414228736,"connected_time":990000000000,"state":"active","ping":113}]},{"server_id":8,"name":"Uncletopia | Dallas | 1 | All Maps","name_short":"dal-1","host":"dal-1.us.uncletopia.com","port":27015,"enabled":true,"region":"us-central","cc":"us","latitude":32.779167,"longitude":-96.80889,"reserved":0,"last_update":"0001-01-01T00:00:00Z","name_a2s":"Uncletopia | Dallas | 1 | All Maps","protocol":17,"map":"pl_barnblitz","folder":"tf","game":"Team Fortress","app_id":440,"player_count":24,"max_players":24,"Bots":0,"server_type":"Dedicated","server_os":"Linux","password":true,"vac":true,"version":"7932396","steam_id":85568392924469986,"keywords":["nocrits","nodmgspread","payload","uncletopia"],"game_id":440,"stv_port":27016,"stv_name":"Uncletopia | Dallas | 1 | All Maps | STV","players":[{"user_id":503,"name":"HanakoToast","steam_id":76561198045233131,"connected_time":1019000000000,"state":"active","ping":89},{"user_id":502,"name":"Strangelove","steam_id":76561198353773611,"connected_time":1035000000000,"state":"active","ping":100},{"user_id":395,"name":"Moonflower ✦","steam_id":76561198191782483,"connected_time":11839000000000,"state":"active","ping":52},{"user_id":521,"name":"GuyGoom","steam_id":76561198254522178,"connected_time":118000000000,"state":"active","ping":61},{"user_id":479,"name":"mac_cheese","steam_id":76561198071334162,"connected_time":3842000000000,"state":"active","ping":90},{"user_id":486,"name":"Grumby","steam_id":76561198149175262,"connected_time":2816000000000,"state":"active","ping":60},{"user_id":504,"name":"mEch114","steam_id":76561198236936060,"connected_time":1003000000000,"state":"active","ping":47},{"user_id":492,"name":"Crafty","steam_id":76561199217624073,"connected_time":2316000000000,"state":"active","ping":80},{"user_id":505,"name":"||:♩♩♩♪:|| Opplydead","steam_id":76561198028630334,"connected_time":993000000000,"state":"active","ping":74},{"user_id":515,"name":"RoxyRubyG (she/her)","steam_id":76561198451067525,"connected_time":574000000000,"state":"active","ping":76},{"user_id":522,"name":"Sentient Trash Can","steam_id":76561199438622491,"connected_time":106000000000,"state":"active","ping":111},{"user_id":478,"name":"Just Chuck","steam_id":76561198121697504,"connected_time":3850000000000,"state":"active","ping":75},{"user_id":509,"name":"fish","steam_id":76561198194508197,"connected_time":925000000000,"state":"active","ping":102},{"user_id":523,"name":"Major_Pippy","steam_id":76561198004482878,"connected_time":78000000000,"state":"active","ping":98},{"user_id":516,"name":"uwuziel","steam_id":76561198143355561,"connected_time":558000000000,"state":"active","ping":79},{"user_id":487,"name":"Nemir","steam_id":76561198063123150,"connected_time":2618000000000,"state":"active","ping":43},{"user_id":507,"name":"Zoro01","steam_id":76561198407989540,"connected_time":986000000000,"state":"active","ping":98},{"user_id":493,"name":"nori_420","steam_id":76561199117134203,"connected_time":2302000000000,"state":"active","ping":87},{"user_id":510,"name":"UneditedAndy","steam_id":76561198982544947,"connected_time":884000000000,"state":"active","ping":83},{"user_id":508,"name":"JunkyardBronze","steam_id":76561198429161642,"connected_time":986000000000,"state":"active","ping":64},{"user_id":527,"name":"Bread Makes you Fat","steam_id":76561198985126532,"connected_time":46000000000,"state":"active","ping":41},{"user_id":525,"name":"RagingRoosevelt","steam_id":76561197985483153,"connected_time":73000000000,"state":"active","ping":102},{"user_id":511,"name":"Daperlin (LP!)","steam_id":76561198091299113,"connected_time":805000000000,"state":"active","ping":101},{"user_id":520,"name":"Local Babyfur Unicorn","steam_id":76561198155526516,"connected_time":245000000000,"state":"active","ping":43}]},{"server_id":108,"name":"Uncletopia | Dallas | 2 | All Maps","name_short":"dal-2","host":"dal-1.us.uncletopia.com","port":27025,"enabled":true,"region":"us-central","cc":"us","latitude":32.779167,"longitude":-96.80889,"reserved":0,"last_update":"0001-01-01T00:00:00Z","name_a2s":"Uncletopia | Dallas | 2 | All Maps","protocol":17,"map":"cp_dustbowl","folder":"tf","game":"Team Fortress","app_id":440,"player_count":23,"max_players":24,"Bots":0,"server_type":"Dedicated","server_os":"Linux","password":true,"vac":true,"version":"7932396","steam_id":85568392924469988,"keywords":["cp","nocrits","nodmgspread","uncletopia"],"game_id":440,"stv_port":27026,"stv_name":"Uncletopia | Dallas | 2 | All Maps | STV","players":[{"user_id":402,"name":"JimmySquid","steam_id":76561198254242530,"connected_time":2695000000000,"state":"active","ping":59},{"user_id":382,"name":"how to fly?","steam_id":76561198064255155,"connected_time":5877000000000,"state":"active","ping":66},{"user_id":440,"name":"The Hunter of Hunters","steam_id":76561198079508469,"connected_time":525000000000,"state":"active","ping":61},{"user_id":437,"name":"mae","steam_id":76561198116842967,"connected_time":607000000000,"state":"active","ping":66},{"user_id":371,"name":"Propaniac Gaming ☑","steam_id":76561198133963270,"connected_time":6434000000000,"state":"active","ping":50},{"user_id":427,"name":"E P H E M E R A L","steam_id":76561198128614882,"connected_time":769000000000,"state":"active","ping":96},{"user_id":399,"name":"Vorpas Jabwak","steam_id":76561198112186064,"connected_time":3246000000000,"state":"active","ping":71},{"user_id":430,"name":"Lord Peebs","steam_id":76561198129864896,"connected_time":728000000000,"state":"active","ping":76},{"user_id":355,"name":"redkingbright","steam_id":76561198297514625,"connected_time":6913000000000,"state":"active","ping":93},{"user_id":429,"name":"GlizzLord","steam_id":76561198321010427,"connected_time":763000000000,"state":"active","ping":82},{"user_id":441,"name":"Compiavelli","steam_id":76561198152535839,"connected_time":315000000000,"state":"active","ping":109},{"user_id":431,"name":"Father Jon","steam_id":76561198324730919,"connected_time":725000000000,"state":"active","ping":73},{"user_id":432,"name":"Count Spankula","steam_id":76561198069395837,"connected_time":718000000000,"state":"active","ping":60},{"user_id":423,"name":"Goldensliv","steam_id":76561198161673891,"connected_time":909000000000,"state":"active","ping":66},{"user_id":421,"name":"Punished \"Venom\" Snick","steam_id":76561198066566813,"connected_time":913000000000,"state":"active","ping":110},{"user_id":424,"name":"Arrluk","steam_id":76561198396679452,"connected_time":909000000000,"state":"active","ping":109},{"user_id":422,"name":"Sprit ♥","steam_id":76561198268780781,"connected_time":912000000000,"state":"active","ping":62},{"user_id":433,"name":"noot","steam_id":76561198201575581,"connected_time":703000000000,"state":"active","ping":108},{"user_id":418,"name":"warp","steam_id":76561198190417719,"connected_time":1920000000000,"state":"active","ping":66},{"user_id":434,"name":"averagebonkenjoyer","steam_id":76561198313518948,"connected_time":699000000000,"state":"active","ping":83},{"user_id":435,"name":"Saucy Boy","steam_id":76561198178332031,"connected_time":698000000000,"state":"active","ping":90},{"user_id":419,"name":"spiderguy","steam_id":76561198412074955,"connected_time":930000000000,"state":"active","ping":63},{"user_id":414,"name":"Chase","steam_id":76561198239498628,"connected_time":2379000000000,"state":"active","ping":79}]},{"server_id":5,"name":"Uncletopia | Frankfurt | 1 | All Maps","name_short":"frk-1","host":"frk-1.de.uncletopia.com","port":27015,"enabled":true,"region":"eu","cc":"de","latitude":50.110924,"longitude":8.682127,"reserved":0,"last_update":"0001-01-01T00:00:00Z","name_a2s":"Uncletopia | Frankfurt | 1 | All Maps","protocol":17,"map":"pl_snowycoast","folder":"tf","game":"Team Fortress","app_id":440,"player_count":0,"max_players":24,"Bots":0,"server_type":"Dedicated","server_os":"Linux","password":true,"vac":true,"version":"7932396","steam_id":85568392924469989,"keywords":["nocrits","nodmgspread","payload","uncletopia"],"game_id":440,"stv_port":27016,"stv_name":"Uncletopia | Frankfurt | 1 | All Maps | STV","players":null},{"server_id":110,"name":"Uncletopia | Frankfurt | 2 | All Maps","name_short":"frk-2","host":"frk-1.de.uncletopia.com","port":27025,"enabled":true,"region":"eu","cc":"de","latitude":50.110924,"longitude":8.682127,"reserved":0,"last_update":"0001-01-01T00:00:00Z","name_a2s":"Uncletopia | Frankfurt | 2 | All Maps","protocol":17,"map":"koth_cascade","folder":"tf","game":"Team Fortress","app_id":440,"player_count":0,"max_players":24,"Bots":0,"server_type":"Dedicated","server_os":"Linux","password":true,"vac":true,"version":"7932396","steam_id":85568392924469990,"keywords":["cp","nocrits","nodmgspread","uncletopia"],"game_id":440,"stv_port":27026,"stv_name":"Uncletopia | Frankfurt | 2 | All Maps | STV","players":null},{"server_id":308,"name":"Uncletopia | Frankfurt | 3 | All Maps","name_short":"frk-3","host":"frk-1.de.uncletopia.com","port":27035,"enabled":true,"region":"eu","cc":"de","latitude":50.110924,"longitude":8.682127,"reserved":0,"last_update":"0001-01-01T00:00:00Z","name_a2s":"Uncletopia | Frankfurt | 3 | All Maps","protocol":17,"map":"koth_viaduct","folder":"tf","game":"Team Fortress","app_id":440,"player_count":0,"max_players":24,"Bots":0,"server_type":"Dedicated","server_os":"Linux","password":true,"vac":true,"version":"7932396","steam_id":85568392924504274,"keywords":["cp","nocrits","nodmgspread","uncletopia"],"game_id":440,"stv_port":27036,"stv_name":"Uncletopia | Frankfurt | 3 | All Maps | STV","players":null},{"server_id":309,"name":"Uncletopia | Frankfurt | 4 | All Maps","name_short":"frk-4","host":"frk-1.de.uncletopia.com","port":27045,"enabled":true,"region":"eu","cc":"de","latitude":50.110924,"longitude":8.682127,"reserved":0,"last_update":"0001-01-01T00:00:00Z","name_a2s":"Uncletopia | Frankfurt | 4 | All Maps","protocol":17,"map":"koth_cascade","folder":"tf","game":"Team Fortress","app_id":440,"player_count":0,"max_players":24,"Bots":0,"server_type":"Dedicated","server_os":"Linux","password":true,"vac":true,"version":"7932396","steam_id":85568392924504275,"keywords":["cp","nocrits","nodmgspread","uncletopia"],"game_id":440,"stv_port":27046,"stv_name":"Uncletopia | Frankfurt | 4 | All Maps | STV","players":null},{"server_id":310,"name":"Uncletopia | Frankfurt | 5 | All Maps","name_short":"frk-5","host":"frk-1.de.uncletopia.com","port":27055,"enabled":true,"region":"eu","cc":"de","latitude":50.110924,"longitude":8.682127,"reserved":0,"last_update":"0001-01-01T00:00:00Z","name_a2s":"Uncletopia | Frankfurt | 5 | All Maps","protocol":17,"map":"koth_lakeside_final","folder":"tf","game":"Team Fortress","app_id":440,"player_count":0,"max_players":24,"Bots":0,"server_type":"Dedicated","server_os":"Linux","password":true,"vac":true,"version":"7932396","steam_id":85568392924504277,"keywords":["cp","nocrits","nodmgspread","uncletopia"],"game_id":440,"stv_port":27056,"stv_name":"Uncletopia | Frankfurt | 5 | All Maps | STV","players":null},{"server_id":311,"name":"Uncletopia | Frankfurt | 6 | All Maps","name_short":"frk-6","host":"frk-1.de.uncletopia.com","port":27065,"enabled":true,"region":"eu","cc":"de","latitude":50.110924,"longitude":8.682127,"reserved":0,"last_update":"0001-01-01T00:00:00Z","name_a2s":"Uncletopia | Frankfurt | 6 | All Maps","protocol":17,"map":"pl_frontier_final","folder":"tf","game":"Team Fortress","app_id":440,"player_count":0,"max_players":24,"Bots":0,"server_type":"Dedicated","server_os":"Linux","password":true,"vac":true,"version":"7932396","steam_id":85568392924504278,"keywords":["nocrits","nodmgspread","payload","uncletopia"],"game_id":440,"stv_port":27066,"stv_name":"Uncletopia | Frankfurt | 6 | All Maps | STV","players":null},{"server_id":23,"name":"Uncletopia | Frankfurt | 7 | Stopwatch Beta","name_short":"frk-7","host":"frk-1.de.uncletopia.com","port":27075,"enabled":true,"region":"eu","cc":"de","latitude":50.110924,"longitude":8.682127,"reserved":0,"last_update":"0001-01-01T00:00:00Z","name_a2s":"Uncletopia | Frankfurt | 7 | Stopwatch Beta","protocol":17,"map":"workshop/koth_product_final.ugc454272353","folder":"tf","game":"Team Fortress","app_id":440,"player_count":0,"max_players":24,"Bots":0,"server_type":"Dedicated","server_os":"Linux","password":true,"vac":true,"version":"7932396","steam_id":85568392924742827,"keywords":["cp","nocrits","nodmgspread","uncletopia"],"game_id":440,"stv_port":27076,"stv_name":"Uncletopia | Frankfurt | 7 | Stopwatch Beta | STV","players":null},{"server_id":24,"name":"Uncletopia | Frankfurt | 8 | Community","name_short":"frk-8","host":"frk-1.de.uncletopia.com","port":27085,"enabled":true,"region":"eu","cc":"de","latitude":50.110924,"longitude":8.682127,"reserved":0,"last_update":"0001-01-01T00:00:00Z","name_a2s":"Uncletopia | Frankfurt | 8 | Community","protocol":17,"map":"workshop/koth_slaughter_rc1.ugc1712845210","folder":"tf","game":"Team Fortress","app_id":440,"player_count":0,"max_players":24,"Bots":0,"server_type":"Dedicated","server_os":"Linux","password":true,"vac":true,"version":"7932396","steam_id":85568392924742828,"keywords":["cp","nocrits","nodmgspread","uncletopia"],"game_id":440,"stv_port":27086,"stv_name":"Uncletopia | Frankfurt | 8 | Community | STV","players":null},{"server_id":202,"name":"Uncletopia | Hong Kong | 1 | All Maps","name_short":"hgk-1","host":"hgk-1.hk.uncletopia.com","port":27015,"enabled":true,"region":"asia","cc":"hk","latitude":22.302711,"longitude":114.177216,"reserved":0,"last_update":"0001-01-01T00:00:00Z","name_a2s":"Uncletopia | Hong Kong | 1 | All Maps","protocol":17,"map":"cp_process_final","folder":"tf","game":"Team Fortress","app_id":440,"player_count":9,"max_players":24,"Bots":0,"server_type":"Dedicated","server_os":"Linux","password":true,"vac":true,"version":"7932396","steam_id":85568392924494504,"keywords":["cp","nocrits","nodmgspread","uncletopia"],"game_id":440,"stv_port":27016,"stv_name":"Uncletopia | Hong Kong | 1 | All Maps | STV","players":[{"user_id":11,"name":"jarell","steam_id":76561198271534653,"connected_time":2544000000000,"state":"active","ping":78},{"user_id":10,"name":"DeesDeeds","steam_id":76561199244400513,"connected_time":2835000000000,"state":"active","ping":56},{"user_id":18,"name":"4th Wall \"Breaker\"","steam_id":76561199328855877,"connected_time":782000000000,"state":"active","ping":104},{"user_id":13,"name":"Gefin","steam_id":76561198944317181,"connected_time":2071000000000,"state":"active","ping":75},{"user_id":14,"name":"DarkGamer TF2","steam_id":76561199234460334,"connected_time":1822000000000,"state":"active","ping":94},{"user_id":25,"name":"Sizrayn","steam_id":76561198438091233,"connected_time":122000000000,"state":"active","ping":67},{"user_id":26,"name":".zyphex","steam_id":76561198160355719,"connected_time":53000000000,"state":"active","ping":116},{"user_id":20,"name":"Roychi","steam_id":76561198425020293,"connected_time":720000000000,"state":"active","ping":93},{"user_id":21,"name":"bangerlop","steam_id":76561199349993627,"connected_time":698000000000,"state":"active","ping":84}]},{"server_id":1,"name":"Uncletopia | Los Angeles | 1 | All Maps","name_short":"lax-1","host":"lax-1.us.uncletopia.com","port":27015,"enabled":true,"region":"us-west","cc":"us","latitude":33.94279,"longitude":-118.41004,"reserved":0,"last_update":"0001-01-01T00:00:00Z","name_a2s":"Uncletopia | Los Angeles | 1 | All Maps","protocol":17,"map":"pl_barnblitz","folder":"tf","game":"Team Fortress","app_id":440,"player_count":24,"max_players":24,"Bots":0,"server_type":"Dedicated","server_os":"Linux","password":true,"vac":true,"version":"7932396","steam_id":85568392924469991,"keywords":["nocrits","nodmgspread","payload","uncletopia"],"game_id":440,"stv_port":27016,"stv_name":"Uncletopia | Los Angeles | 1 | All Maps | STV","players":[{"user_id":462,"name":"Pez","steam_id":76561199197778137,"connected_time":379000000000,"state":"active","ping":64},{"user_id":463,"name":"vulture pupy","steam_id":76561198061963965,"connected_time":359000000000,"state":"active","ping":90},{"user_id":464,"name":"Roosevelt Chadwick","steam_id":76561198278169311,"connected_time":343000000000,"state":"active","ping":71},{"user_id":441,"name":"HoboJr.","steam_id":76561198152043227,"connected_time":2641000000000,"state":"active","ping":55},{"user_id":465,"name":"d'oh i missed","steam_id":76561198145320480,"connected_time":335000000000,"state":"active","ping":110},{"user_id":454,"name":"tax fraud","steam_id":76561198202554372,"connected_time":1510000000000,"state":"active","ping":42},{"user_id":438,"name":"deep","steam_id":76561198021961551,"connected_time":2681000000000,"state":"active","ping":71},{"user_id":459,"name":"MeowMixCereal","steam_id":76561198252307806,"connected_time":1146000000000,"state":"active","ping":51},{"user_id":433,"name":"DefinitelyATurtle","steam_id":76561199023218568,"connected_time":2951000000000,"state":"active","ping":54},{"user_id":450,"name":"thebaconnator2016","steam_id":76561199100270424,"connected_time":2061000000000,"state":"active","ping":84},{"user_id":455,"name":"MPINO","steam_id":76561198071217038,"connected_time":1508000000000,"state":"active","ping":58},{"user_id":445,"name":"trashbro","steam_id":76561199417993197,"connected_time":2398000000000,"state":"active","ping":64},{"user_id":446,"name":"SQbuilder","steam_id":76561198076473375,"connected_time":2382000000000,"state":"active","ping":44},{"user_id":440,"name":"Optimore","steam_id":76561198047662990,"connected_time":2668000000000,"state":"active","ping":44},{"user_id":468,"name":"Boone","steam_id":76561198398931575,"connected_time":89000000000,"state":"active","ping":58},{"user_id":461,"name":"xeryl","steam_id":76561198304342044,"connected_time":413000000000,"state":"active","ping":99},{"user_id":412,"name":"carpe diem","steam_id":76561198094396873,"connected_time":5256000000000,"state":"active","ping":40},{"user_id":442,"name":"Slippy","steam_id":76561198334059206,"connected_time":2628000000000,"state":"active","ping":55},{"user_id":469,"name":"air fryer","steam_id":76561198319442494,"connected_time":81000000000,"state":"active","ping":56},{"user_id":453,"name":"Mr.Nostalgic","steam_id":76561198083240822,"connected_time":1513000000000,"state":"active","ping":77},{"user_id":451,"name":"Taps","steam_id":76561198976946972,"connected_time":1902000000000,"state":"active","ping":62},{"user_id":456,"name":"Doctor Sex","steam_id":76561198136205032,"connected_time":1502000000000,"state":"active","ping":64},{"user_id":460,"name":"Walrus","steam_id":76561198001799905,"connected_time":869000000000,"state":"active","ping":45},{"user_id":467,"name":"peanut ball :}","steam_id":76561198309911829,"connected_time":234000000000,"state":"active","ping":63}]},{"server_id":112,"name":"Uncletopia | Los Angeles | 2 | All Maps","name_short":"lax-2","host":"lax-1.us.uncletopia.com","port":27025,"enabled":true,"region":"us-west","cc":"us","latitude":33.94279,"longitude":-118.41004,"reserved":0,"last_update":"0001-01-01T00:00:00Z","name_a2s":"Uncletopia | Los Angeles | 2 | All Maps","protocol":17,"map":"pl_borneo","folder":"tf","game":"Team Fortress","app_id":440,"player_count":24,"max_players":24,"Bots":0,"server_type":"Dedicated","server_os":"Linux","password":true,"vac":true,"version":"7932396","steam_id":85568392924469992,"keywords":["nocrits","nodmgspread","payload","uncletopia"],"game_id":440,"stv_port":27026,"stv_name":"Uncletopia | Los Angeles | 2 | All Maps | STV","players":[{"user_id":242,"name":"yaoipilled","steam_id":76561198055486814,"connected_time":1546000000000,"state":"active","ping":75},{"user_id":252,"name":"Drive-By-Fish-Guy","steam_id":76561198105513652,"connected_time":1167000000000,"state":"active","ping":56},{"user_id":274,"name":"cringeass nae-nae girl","steam_id":76561198108753857,"connected_time":424000000000,"state":"active","ping":94},{"user_id":241,"name":"big fish","steam_id":76561198186479818,"connected_time":1586000000000,"state":"active","ping":56},{"user_id":282,"name":"Medic Boyfriend","steam_id":76561198104086771,"connected_time":76000000000,"state":"active","ping":46},{"user_id":281,"name":"Grizzakk","steam_id":76561198115821923,"connected_time":135000000000,"state":"active","ping":73},{"user_id":267,"name":"maddie","steam_id":76561198164460801,"connected_time":492000000000,"state":"active","ping":60},{"user_id":268,"name":"RouteVenus","steam_id":76561198002147522,"connected_time":477000000000,"state":"active","ping":93},{"user_id":278,"name":"Ronchini","steam_id":76561198308142155,"connected_time":285000000000,"state":"active","ping":88},{"user_id":243,"name":"gragam","steam_id":76561198093346068,"connected_time":1541000000000,"state":"active","ping":68},{"user_id":273,"name":"SGT OwO","steam_id":76561198038480911,"connected_time":448000000000,"state":"active","ping":130},{"user_id":244,"name":"Balerion the Black Dread","steam_id":76561198003728369,"connected_time":1539000000000,"state":"active","ping":56},{"user_id":209,"name":"Brain damage squirrel","steam_id":76561198846344452,"connected_time":4116000000000,"state":"active","ping":52},{"user_id":257,"name":"westward (was/were)","steam_id":76561198805512350,"connected_time":864000000000,"state":"active","ping":86},{"user_id":277,"name":"RUF","steam_id":76561198062315805,"connected_time":325000000000,"state":"active","ping":60},{"user_id":276,"name":"AAAAAAAAAAAAAAAAAAAAAAAAAAAAAAA","steam_id":76561198125467937,"connected_time":350000000000,"state":"active","ping":72},{"user_id":271,"name":"pooblygonzooly2012","steam_id":76561198982054880,"connected_time":463000000000,"state":"active","ping":54},{"user_id":247,"name":"JawnyMac","steam_id":76561198179529599,"connected_time":1497000000000,"state":"active","ping":68},{"user_id":280,"name":"KellyKapoor","steam_id":76561198040828123,"connected_time":211000000000,"state":"active","ping":74},{"user_id":272,"name":"level 7 firemancer","steam_id":76561198209571677,"connected_time":449000000000,"state":"active","ping":93},{"user_id":256,"name":"blobmasterer","steam_id":76561198001131403,"connected_time":888000000000,"state":"active","ping":53},{"user_id":260,"name":"HeinzRichter","steam_id":76561198854966161,"connected_time":811000000000,"state":"active","ping":60},{"user_id":275,"name":"AT✪MIC","steam_id":76561198100385184,"connected_time":374000000000,"state":"active","ping":51},{"user_id":251,"name":"help","steam_id":76561198044689625,"connected_time":1274000000000,"state":"active","ping":74}]},{"server_id":324,"name":"Uncletopia | Los Angeles | 3 | All Maps","name_short":"lax-3","host":"lax-1.us.uncletopia.com","port":27035,"enabled":true,"region":"us-west","cc":"us","latitude":33.94279,"longitude":-118.41004,"reserved":0,"last_update":"0001-01-01T00:00:00Z","name_a2s":"Uncletopia | Los Angeles | 3 | All Maps","protocol":17,"map":"cp_gorge","folder":"tf","game":"Team Fortress","app_id":440,"player_count":24,"max_players":24,"Bots":0,"server_type":"Dedicated","server_os":"Linux","password":true,"vac":true,"version":"7932396","steam_id":85568392924510198,"keywords":["cp","nocrits","nodmgspread","uncletopia"],"game_id":440,"stv_port":27036,"stv_name":"Uncletopia | Los Angeles | 3 | All Maps | STV","players":[{"user_id":160,"name":"ibu","steam_id":76561197968084065,"connected_time":643000000000,"state":"active","ping":86},{"user_id":176,"name":"Every Villain Is Lemons","steam_id":76561198041440563,"connected_time":159000000000,"state":"active","ping":87},{"user_id":161,"name":"Giorno_Giovanna","steam_id":76561199014402406,"connected_time":634000000000,"state":"active","ping":131},{"user_id":174,"name":"O-mega","steam_id":76561199175970696,"connected_time":330000000000,"state":"active","ping":107},{"user_id":162,"name":"Zom_Named_Zam","steam_id":76561198328066203,"connected_time":609000000000,"state":"active","ping":56},{"user_id":163,"name":"Quon Grene for Vice Prez","steam_id":76561198127545817,"connected_time":604000000000,"state":"active","ping":82},{"user_id":159,"name":"Mr. Blubber","steam_id":76561198338906916,"connected_time":668000000000,"state":"active","ping":50},{"user_id":164,"name":"i unga, therefore i bunga","steam_id":76561198139413703,"connected_time":592000000000,"state":"active","ping":79},{"user_id":172,"name":"JohnnyGitGud","steam_id":76561198401455467,"connected_time":398000000000,"state":"active","ping":66},{"user_id":110,"name":"The Badpal","steam_id":76561198183890593,"connected_time":5645000000000,"state":"active","ping":54},{"user_id":125,"name":"CadenLCheese","steam_id":76561199105517435,"connected_time":4242000000000,"state":"active","ping":89},{"user_id":171,"name":"log","steam_id":76561198386992717,"connected_time":474000000000,"state":"active","ping":124},{"user_id":166,"name":"CAR BATTERY","steam_id":76561199122915452,"connected_time":543000000000,"state":"active","ping":81},{"user_id":51,"name":"Joe Biden TF2","steam_id":76561198837570484,"connected_time":9075000000000,"state":"active","ping":48},{"user_id":167,"name":"Solifuga","steam_id":76561198119569902,"connected_time":512000000000,"state":"active","ping":70},{"user_id":177,"name":"SneekiCheekiQbone","steam_id":76561198045077980,"connected_time":156000000000,"state":"active","ping":42},{"user_id":103,"name":"vioxynteris","steam_id":76561198161428666,"connected_time":5961000000000,"state":"active","ping":29},{"user_id":157,"name":"Baggage","steam_id":76561198215128080,"connected_time":1579000000000,"state":"active","ping":64},{"user_id":175,"name":"RoastyMyToasty23","steam_id":76561199112245728,"connected_time":222000000000,"state":"active","ping":113},{"user_id":169,"name":"incredirocks","steam_id":76561198061079993,"connected_time":510000000000,"state":"active","ping":105},{"user_id":158,"name":"regular_consuelo","steam_id":76561198327831852,"connected_time":1251000000000,"state":"active","ping":119},{"user_id":50,"name":"lasagnalarry12","steam_id":76561198162688146,"connected_time":9082000000000,"state":"active","ping":49},{"user_id":170,"name":"VibinRacc","steam_id":76561198830728559,"connected_time":507000000000,"state":"active","ping":102},{"user_id":148,"name":"Ratchet55","steam_id":76561198208655521,"connected_time":2943000000000,"state":"active","ping":87}]},{"server_id":25,"name":"Uncletopia | Los Angeles | 4 | Stopwatch Beta","name_short":"lax-4","host":"lax-1.us.uncletopia.com","port":27045,"enabled":true,"region":"us-west","cc":"us","latitude":33.94279,"longitude":-118.41004,"reserved":0,"last_update":"0001-01-01T00:00:00Z","name_a2s":"Uncletopia | Los Angeles | 4 | Stopwatch Beta","protocol":17,"map":"workshop/cp_reckoner_rc6.ugc674719999","folder":"tf","game":"Team Fortress","app_id":440,"player_count":0,"max_players":24,"Bots":0,"server_type":"Dedicated","server_os":"Linux","password":true,"vac":true,"version":"7932396","steam_id":85568392924510199,"keywords":["cp","nocrits","nodmgspread","uncletopia"],"game_id":440,"stv_port":27046,"stv_name":"Uncletopia | Los Angeles | 4 | Stopwatch Beta | STV","players":null},{"server_id":11,"name":"Uncletopia | London | 1 | All Maps","name_short":"lon-1","host":"lon-1.uk.uncletopia.com","port":27015,"enabled":true,"region":"eu","cc":"gb","latitude":51.509865,"longitude":-0.118092,"reserved":0,"last_update":"0001-01-01T00:00:00Z","name_a2s":"Uncletopia | London | 1 | All Maps","protocol":17,"map":"pl_frontier_final","folder":"tf","game":"Team Fortress","app_id":440,"player_count":19,"max_players":24,"Bots":0,"server_type":"Dedicated","server_os":"Linux","password":true,"vac":true,"version":"7932396","steam_id":85568392924367362,"keywords":["nocrits","nodmgspread","payload","uncletopia"],"game_id":440,"stv_port":27016,"stv_name":"Uncletopia | London | 1 | All Maps | STV","players":[{"user_id":892,"name":"JoeFalco","steam_id":76561198064005012,"connected_time":822000000000,"state":"active","ping":189},{"user_id":867,"name":"Salesman Doren","steam_id":76561198076098142,"connected_time":2792000000000,"state":"active","ping":39},{"user_id":885,"name":"aemiil","steam_id":76561199273601234,"connected_time":1365000000000,"state":"active","ping":76},{"user_id":906,"name":"noided","steam_id":76561199480942903,"connected_time":27000000000,"state":"active","ping":72},{"user_id":897,"name":"Worm","steam_id":76561198296497176,"connected_time":624000000000,"state":"active","ping":46},{"user_id":875,"name":"63756d","steam_id":76561198808699024,"connected_time":2264000000000,"state":"active","ping":77},{"user_id":891,"name":"Eidolon","steam_id":76561198043919565,"connected_time":978000000000,"state":"active","ping":59},{"user_id":869,"name":"BoxLag","steam_id":76561198303995144,"connected_time":2683000000000,"state":"active","ping":45},{"user_id":902,"name":"Bobo","steam_id":76561198052308399,"connected_time":179000000000,"state":"active","ping":69},{"user_id":876,"name":"Xx_EpicGaymer_xX","steam_id":76561198846784757,"connected_time":2260000000000,"state":"active","ping":56},{"user_id":903,"name":"Philippe","steam_id":76561199063606000,"connected_time":166000000000,"state":"active","ping":92},{"user_id":904,"name":"hayley ♥","steam_id":76561198093125555,"connected_time":158000000000,"state":"active","ping":63},{"user_id":812,"name":"volkiano","steam_id":76561198319802031,"connected_time":7306000000000,"state":"active","ping":45},{"user_id":905,"name":"thats a big problem","steam_id":76561198080310253,"connected_time":130000000000,"state":"active","ping":45},{"user_id":877,"name":"Fr3unen","steam_id":76561198096044051,"connected_time":2251000000000,"state":"active","ping":69},{"user_id":900,"name":"A3517","steam_id":76561198346434027,"connected_time":516000000000,"state":"active","ping":113},{"user_id":854,"name":"snowycoast","steam_id":76561198346638308,"connected_time":4049000000000,"state":"active","ping":57},{"user_id":855,"name":"[\u003e\u003c] OTP Uncle Sam","steam_id":76561198186666399,"connected_time":4016000000000,"state":"active","ping":60},{"user_id":858,"name":"OTP °Roticher","steam_id":76561198194559879,"connected_time":3982000000000,"state":"active","ping":58}]},{"server_id":114,"name":"Uncletopia | London | 2 | All Maps","name_short":"lon-2","host":"lon-1.uk.uncletopia.com","port":27025,"enabled":true,"region":"eu","cc":"gb","latitude":51.509865,"longitude":-0.118092,"reserved":0,"last_update":"0001-01-01T00:00:00Z","name_a2s":"Uncletopia | London | 2 | All Maps","protocol":17,"map":"koth_viaduct","folder":"tf","game":"Team Fortress","app_id":440,"player_count":0,"max_players":24,"Bots":0,"server_type":"Dedicated","server_os":"Linux","password":true,"vac":true,"version":"7932396","steam_id":85568392924470941,"keywords":["cp","nocrits","nodmgspread","uncletopia"],"game_id":440,"stv_port":27026,"stv_name":"Uncletopia | London | 2 | All Maps | STV","players":null},{"server_id":320,"name":"Uncletopia | London | 3 | All Maps","name_short":"lon-3","host":"lon-1.uk.uncletopia.com","port":27035,"enabled":true,"region":"eu","cc":"gb","latitude":51.509865,"longitude":-0.118092,"reserved":0,"last_update":"0001-01-01T00:00:00Z","name_a2s":"Uncletopia | London | 3 | All Maps","protocol":17,"map":"koth_lakeside_final","folder":"tf","game":"Team Fortress","app_id":440,"player_count":0,"max_players":24,"Bots":0,"server_type":"Dedicated","server_os":"Linux","password":true,"vac":true,"version":"7932396","steam_id":85568392924510192,"keywords":["cp","nocrits","nodmgspread","uncletopia"],"game_id":440,"stv_port":27036,"stv_name":"Uncletopia | London | 3 | All Maps | STV","players":null},{"server_id":321,"name":"Uncletopia | London | 4 | All Maps","name_short":"lon-4","host":"lon-1.uk.uncletopia.com","port":27045,"enabled":true,"region":"eu","cc":"gb","latitude":51.509865,"longitude":-0.118092,"reserved":0,"last_update":"0001-01-01T00:00:00Z","name_a2s":"Uncletopia | London | 4 | All Maps","protocol":17,"map":"koth_viaduct","folder":"tf","game":"Team Fortress","app_id":440,"player_count":0,"max_players":24,"Bots":0,"server_type":"Dedicated","server_os":"Linux","password":true,"vac":true,"version":"7932396","steam_id":85568392924510193,"keywords":["cp","nocrits","nodmgspread","uncletopia"],"game_id":440,"stv_port":27046,"stv_name":"Uncletopia | London | 4 | All Maps | STV","players":null},{"server_id":21,"name":"Uncletopia | London | 5 | All Maps","name_short":"lon-5","host":"lon-1.uk.uncletopia.com","port":27055,"enabled":true,"region":"eu","cc":"gb","latitude":51.509865,"longitude":-0.118092,"reserved":0,"last_update":"0001-01-01T00:00:00Z","name_a2s":"Uncletopia | London | 5 | All Maps","protocol":17,"map":"koth_lakeside_final","folder":"tf","game":"Team Fortress","app_id":440,"player_count":0,"max_players":24,"Bots":0,"server_type":"Dedicated","server_os":"Linux","password":true,"vac":true,"version":"7932396","steam_id":85568392924742829,"keywords":["cp","nocrits","nodmgspread","uncletopia"],"game_id":440,"stv_port":27056,"stv_name":"Uncletopia | London | 5 | All Maps | STV","players":null},{"server_id":22,"name":"Uncletopia | London | 6 | All Maps","name_short":"lon-6","host":"lon-1.uk.uncletopia.com","port":27065,"enabled":true,"region":"eu","cc":"gb","latitude":51.509865,"longitude":-0.118092,"reserved":0,"last_update":"0001-01-01T00:00:00Z","name_a2s":"Uncletopia | London | 6 | All Maps","protocol":17,"map":"koth_highpass","folder":"tf","game":"Team Fortress","app_id":440,"player_count":0,"max_players":24,"Bots":0,"server_type":"Dedicated","server_os":"Linux","password":true,"vac":true,"version":"7932396","steam_id":85568392924742830,"keywords":["cp","nocrits","nodmgspread","uncletopia"],"game_id":440,"stv_port":27066,"stv_name":"Uncletopia | London | 6 | All Maps | STV","players":null},{"server_id":40,"name":"Uncletopia | London | 7 | No Payload","name_short":"lon-7","host":"lon-1.uk.uncletopia.com","port":27075,"enabled":true,"region":"eu","cc":"gb","latitude":51.509865,"longitude":-0.118092,"reserved":0,"last_update":"0001-01-01T00:00:00Z","name_a2s":"Uncletopia | London | 7 | No Payload","protocol":17,"map":"koth_highpass","folder":"tf","game":"Team Fortress","app_id":440,"player_count":0,"max_players":24,"Bots":0,"server_type":"Dedicated","server_os":"Linux","password":true,"vac":true,"version":"7932396","steam_id":85568392924964314,"keywords":["cp","nocrits","nodmgspread","uncletopia"],"game_id":440,"stv_port":27076,"stv_name":"Uncletopia | London | 7 | No Payload | STV","players":null},{"server_id":41,"name":"Uncletopia | London | 8 | Community","name_short":"lon-8","host":"lon-1.uk.uncletopia.com","port":27085,"enabled":true,"region":"eu","cc":"gb","latitude":51.509865,"longitude":-0.118092,"reserved":0,"last_update":"0001-01-01T00:00:00Z","name_a2s":"Uncletopia | London | 8 | Community","protocol":17,"map":"workshop/pl_eruption_b9a.ugc2807898013","folder":"tf","game":"Team Fortress","app_id":440,"player_count":0,"max_players":24,"Bots":0,"server_type":"Dedicated","server_os":"Linux","password":true,"vac":true,"version":"7932396","steam_id":85568392924964315,"keywords":["nocrits","nodmgspread","payload","uncletopia"],"game_id":440,"stv_port":27086,"stv_name":"Uncletopia | London | 8 | Community | STV","players":null},{"server_id":300,"name":"Uncletopia | Montréal | 1 | All Maps","name_short":"mtl-1","host":"mtl-1.ca.uncletopia.com","port":27015,"enabled":true,"region":"us-east","cc":"ca","latitude":45.50889,"longitude":-73.56167,"reserved":0,"last_update":"0001-01-01T00:00:00Z","name_a2s":"Uncletopia | Montréal | 1 | All Maps","protocol":17,"map":"pl_barnblitz","folder":"tf","game":"Team Fortress","app_id":440,"player_count":0,"max_players":24,"Bots":0,"server_type":"Dedicated","server_os":"Linux","password":true,"vac":true,"version":"7932396","steam_id":85568392924500087,"keywords":["nocrits","nodmgspread","payload","uncletopia"],"game_id":440,"stv_port":27016,"stv_name":"Uncletopia | Montréal | 1 | All Maps | STV","players":null},{"server_id":301,"name":"Uncletopia | Montréal | 2 | All Maps","name_short":"mtl-2","host":"mtl-1.ca.uncletopia.com","port":27025,"enabled":true,"region":"us-east","cc":"ca","latitude":45.50889,"longitude":-73.56167,"reserved":0,"last_update":"0001-01-01T00:00:00Z","name_a2s":"Uncletopia | Montréal | 2 | All Maps","protocol":17,"map":"cp_mountainlab","folder":"tf","game":"Team Fortress","app_id":440,"player_count":0,"max_players":24,"Bots":0,"server_type":"Dedicated","server_os":"Linux","password":true,"vac":true,"version":"7932396","steam_id":85568392924500088,"keywords":["cp","nocrits","nodmgspread","uncletopia"],"game_id":440,"stv_port":27026,"stv_name":"Uncletopia | Montréal | 2 | All Maps | STV","players":null},{"server_id":302,"name":"Uncletopia | Montréal | 3 | All Maps","name_short":"mtl-3","host":"mtl-1.ca.uncletopia.com","port":27035,"enabled":true,"region":"us-east","cc":"ca","latitude":45.50889,"longitude":-73.56167,"reserved":0,"last_update":"0001-01-01T00:00:00Z","name_a2s":"Uncletopia | Montréal | 3 | All Maps","protocol":17,"map":"pl_badwater","folder":"tf","game":"Team Fortress","app_id":440,"player_count":0,"max_players":24,"Bots":0,"server_type":"Dedicated","server_os":"Linux","password":true,"vac":true,"version":"7932396","steam_id":85568392924500089,"keywords":["nocrits","nodmgspread","payload","uncletopia"],"game_id":440,"stv_port":27036,"stv_name":"Uncletopia | Montréal | 3 | All Maps | STV","players":null},{"server_id":303,"name":"Uncletopia | Montréal | 4 | No Payload","name_short":"mtl-4","host":"mtl-1.ca.uncletopia.com","port":27045,"enabled":true,"region":"us-east","cc":"ca","latitude":45.50889,"longitude":-73.56167,"reserved":0,"last_update":"0001-01-01T00:00:00Z","name_a2s":"Uncletopia | Montréal | 4 | No Payload","protocol":17,"map":"koth_harvest_final","folder":"tf","game":"Team Fortress","app_id":440,"player_count":0,"max_players":24,"Bots":0,"server_type":"Dedicated","server_os":"Linux","password":true,"vac":true,"version":"7932396","steam_id":85568392924500090,"keywords":["cp","nocrits","nodmgspread","uncletopia"],"game_id":440,"stv_port":27046,"stv_name":"Uncletopia | Montréal | 4 | No Payload | STV","players":null},{"server_id":13,"name":"Uncletopia | New York City | 1 | All Maps","name_short":"nyc-1","host":"nyc-1.us.uncletopia.com","port":27015,"enabled":true,"region":"us-east","cc":"us","latitude":40.73061,"longitude":-73.93524,"reserved":0,"last_update":"0001-01-01T00:00:00Z","name_a2s":"Uncletopia | New York City | 1 | All Maps","protocol":17,"map":"koth_suijin","folder":"tf","game":"Team Fortress","app_id":440,"player_count":3,"max_players":24,"Bots":0,"server_type":"Dedicated","server_os":"Linux","password":true,"vac":true,"version":"7932396","steam_id":85568392924469993,"keywords":["cp","nocrits","nodmgspread","uncletopia"],"game_id":440,"stv_port":27016,"stv_name":"Uncletopia | New York City | 1 | All Maps | STV","players":[{"user_id":402,"name":"SomethingUnusual","steam_id":76561198217824760,"connected_time":279000000000,"state":"active","ping":124},{"user_id":403,"name":"King STAZE","steam_id":76561198190731506,"connected_time":227000000000,"state":"active","ping":117},{"user_id":404,"name":"kursed","steam_id":76561198992371495,"connected_time":28000000000,"state":"active","ping":35}]},{"server_id":14,"name":"Uncletopia | New York City | 2 | All Maps","name_short":"nyc-2","host":"nyc-1.us.uncletopia.com","port":27025,"enabled":true,"region":"us-east","cc":"us","latitude":40.73061,"longitude":-73.93524,"reserved":0,"last_update":"0001-01-01T00:00:00Z","name_a2s":"Uncletopia | New York City | 2 | All Maps","protocol":17,"map":"pl_badwater","folder":"tf","game":"Team Fortress","app_id":440,"player_count":24,"max_players":24,"Bots":0,"server_type":"Dedicated","server_os":"Linux","password":true,"vac":true,"version":"7932396","steam_id":85568392924469994,"keywords":["nocrits","nodmgspread","payload","uncletopia"],"game_id":440,"stv_port":27026,"stv_name":"Uncletopia | New York City | 2 | All Maps | STV","players":[{"user_id":273,"name":"Raccoon.Of.Waffle.House","steam_id":76561199018770554,"connected_time":7523000000000,"state":"active","ping":88},{"user_id":352,"name":"the wallace and gromit perc","steam_id":76561198413125750,"connected_time":1447000000000,"state":"active","ping":47},{"user_id":311,"name":"DJPEANUTBUTTER","steam_id":76561198043862737,"connected_time":4788000000000,"state":"active","ping":41},{"user_id":344,"name":"marcie","steam_id":76561198170642407,"connected_time":1716000000000,"state":"active","ping":60},{"user_id":326,"name":"mastercoms","steam_id":76561198046110893,"connected_time":4148000000000,"state":"active","ping":59},{"user_id":349,"name":"Mr. Chi City","steam_id":76561198131467867,"connected_time":1533000000000,"state":"active","ping":102},{"user_id":341,"name":"just call me joe","steam_id":76561198043911582,"connected_time":2562000000000,"state":"active","ping":47},{"user_id":268,"name":"SHADY SWEATER SALESMAN","steam_id":76561198014616865,"connected_time":7714000000000,"state":"active","ping":51},{"user_id":350,"name":"CrazyCow","steam_id":76561198097431272,"connected_time":1510000000000,"state":"active","ping":116},{"user_id":366,"name":"lizardman","steam_id":76561199029030831,"connected_time":287000000000,"state":"active","ping":66},{"user_id":345,"name":"StraySheep","steam_id":76561198256003811,"connected_time":1558000000000,"state":"active","ping":56},{"user_id":364,"name":"GROOVYROOM","steam_id":76561199153684166,"connected_time":360000000000,"state":"active","ping":77},{"user_id":312,"name":"Moonkey","steam_id":76561199013741389,"connected_time":4739000000000,"state":"active","ping":43},{"user_id":362,"name":"bog","steam_id":76561198086008437,"connected_time":403000000000,"state":"active","ping":93},{"user_id":332,"name":"SadVeggie","steam_id":76561198163430099,"connected_time":3660000000000,"state":"active","ping":109},{"user_id":354,"name":"Hambone","steam_id":76561198078812324,"connected_time":1430000000000,"state":"active","ping":61},{"user_id":357,"name":"roo the observer","steam_id":76561198120684348,"connected_time":1348000000000,"state":"active","ping":114},{"user_id":356,"name":"CardPenguin","steam_id":76561198153669555,"connected_time":1368000000000,"state":"active","ping":63},{"user_id":363,"name":"Ruby Gillman","steam_id":76561198366299848,"connected_time":394000000000,"state":"active","ping":62},{"user_id":339,"name":"Punkin","steam_id":76561198334301755,"connected_time":2631000000000,"state":"active","ping":56},{"user_id":282,"name":"The Pan Man From Slavic Land","steam_id":76561198401875841,"connected_time":7159000000000,"state":"active","ping":63},{"user_id":365,"name":"sad boi","steam_id":76561198395577807,"connected_time":359000000000,"state":"active","ping":45},{"user_id":355,"name":"Par1234","steam_id":76561198317503389,"connected_time":1419000000000,"state":"active","ping":82},{"user_id":338,"name":"♥ kiss me! ♥","steam_id":76561198014557455,"connected_time":2762000000000,"state":"active","ping":76}]},{"server_id":15,"name":"Uncletopia | New York City | 3 | Stopwatch Beta","name_short":"nyc-3","host":"nyc-1.us.uncletopia.com","port":27035,"enabled":true,"region":"us-east","cc":"us","latitude":40.73061,"longitude":-73.93524,"reserved":0,"last_update":"0001-01-01T00:00:00Z","name_a2s":"Uncletopia | New York City | 3 | Stopwatch Beta","protocol":17,"map":"workshop/pl_barnblitz_pro7.ugc582280235","folder":"tf","game":"Team Fortress","app_id":440,"player_count":0,"max_players":24,"Bots":0,"server_type":"Dedicated","server_os":"Linux","password":true,"vac":true,"version":"7932396","steam_id":85568392924742820,"keywords":["nocrits","nodmgspread","payload","uncletopia"],"game_id":440,"stv_port":27036,"stv_name":"Uncletopia | New York City | 3 | Stopwatch Beta | STV","players":null},{"server_id":16,"name":"Uncletopia | New York City | 4 | Community","name_short":"nyc-4","host":"nyc-1.us.uncletopia.com","port":27045,"enabled":true,"region":"us-east","cc":"us","latitude":40.73061,"longitude":-73.93524,"reserved":0,"last_update":"0001-01-01T00:00:00Z","name_a2s":"Uncletopia | New York City | 4 | Community","protocol":17,"map":"workshop/koth_ramjam_rc1.ugc459778887","folder":"tf","game":"Team Fortress","app_id":440,"player_count":0,"max_players":24,"Bots":0,"server_type":"Dedicated","server_os":"Linux","password":true,"vac":true,"version":"7932396","steam_id":85568392924742821,"keywords":["cp","nocrits","nodmgspread","uncletopia"],"game_id":440,"stv_port":27046,"stv_name":"Uncletopia | New York City | 4 | Community | STV","players":null},{"server_id":142,"name":"Uncletopia | São Paulo | 1 | All Maps","name_short":"sao-1","host":"sao-1.br.uncletopia.com","port":27015,"enabled":true,"region":"sa","cc":"br","latitude":-23.533773,"longitude":-46.62529,"reserved":0,"last_update":"0001-01-01T00:00:00Z","name_a2s":"Uncletopia | São Paulo | 1 | All Maps","protocol":17,"map":"koth_highpass","folder":"tf","game":"Team Fortress","app_id":440,"player_count":0,"max_players":24,"Bots":0,"server_type":"Dedicated","server_os":"Linux","password":true,"vac":true,"version":"7932396","steam_id":85568392924469996,"keywords":["cp","nocrits","nodmgspread","uncletopia"],"game_id":440,"stv_port":27016,"stv_name":"Uncletopia | São Paulo | 1 | All Maps | STV","players":null},{"server_id":143,"name":"Uncletopia | São Paulo | 2 | All Maps","name_short":"sao-2","host":"sao-2.br.uncletopia.com","port":27015,"enabled":true,"region":"sa","cc":"br","latitude":-23.533773,"longitude":-46.62529,"reserved":0,"last_update":"0001-01-01T00:00:00Z","name_a2s":"Uncletopia | São Paulo | 2 | All Maps","protocol":17,"map":"koth_cascade","folder":"tf","game":"Team Fortress","app_id":440,"player_count":0,"max_players":24,"Bots":0,"server_type":"Dedicated","server_os":"Linux","password":true,"vac":true,"version":"7932396","steam_id":85568392924485349,"keywords":["cp","nocrits","nodmgspread","uncletopia"],"game_id":440,"stv_port":27016,"stv_name":"Uncletopia | São Paulo | 2 | All Maps | STV","players":null},{"server_id":7,"name":"Uncletopia | Seattle | 1 | All Maps","name_short":"sea-1","host":"sea-1.us.uncletopia.com","port":27015,"enabled":true,"region":"us-west","cc":"us","latitude":47.608013,"longitude":-122.33517,"reserved":0,"last_update":"0001-01-01T00:00:00Z","name_a2s":"Uncletopia | Seattle | 1 | All Maps","protocol":17,"map":"cp_gorge","folder":"tf","game":"Team Fortress","app_id":440,"player_count":25,"max_players":24,"Bots":0,"server_type":"Dedicated","server_os":"Linux","password":true,"vac":true,"version":"7932396","steam_id":85568392924469997,"keywords":["cp","nocrits","nodmgspread","uncletopia"],"game_id":440,"stv_port":27016,"stv_name":"Uncletopia | Seattle | 1 | All Maps | STV","players":[{"user_id":526,"name":"goldhed","steam_id":76561198051751133,"connected_time":2466000000000,"state":"active","ping":60},{"user_id":554,"name":"Chol","steam_id":76561198122054259,"connected_time":112000000000,"state":"active","ping":121},{"user_id":493,"name":"bbbbb","steam_id":76561198095480838,"connected_time":5776000000000,"state":"active","ping":52},{"user_id":543,"name":"NEBULA","steam_id":76561198086878595,"connected_time":725000000000,"state":"active","ping":75},{"user_id":531,"name":"MyMonkeyBaby","steam_id":76561198046896670,"connected_time":1708000000000,"state":"active","ping":57},{"user_id":538,"name":"Sniff","steam_id":76561198010270922,"connected_time":958000000000,"state":"active","ping":44},{"user_id":499,"name":"Mignyanne :3","steam_id":76561198048754056,"connected_time":5271000000000,"state":"active","ping":67},{"user_id":533,"name":"An Old Lady","steam_id":76561198047480318,"connected_time":1677000000000,"state":"active","ping":80},{"user_id":402,"name":"Lord Hater","steam_id":76561199158148782,"connected_time":15103000000000,"state":"active","ping":53},{"user_id":555,"name":"oil","steam_id":76561198099980149,"connected_time":99000000000,"state":"active","ping":83},{"user_id":523,"name":"shane","steam_id":76561198060491451,"connected_time":2737000000000,"state":"active","ping":83},{"user_id":549,"name":"OmniMoto","steam_id":76561198091298557,"connected_time":343000000000,"state":"active","ping":85},{"user_id":488,"name":"lusty","steam_id":76561198138478947,"connected_time":6127000000000,"state":"active","ping":44},{"user_id":537,"name":"Crabby","steam_id":76561198040023173,"connected_time":1423000000000,"state":"active","ping":55},{"user_id":527,"name":"lavender","steam_id":76561199069518286,"connected_time":2023000000000,"state":"active","ping":70},{"user_id":503,"name":"lasky","steam_id":76561198017030029,"connected_time":4662000000000,"state":"active","ping":78},{"user_id":550,"name":"Taylor Swift","steam_id":76561198078130694,"connected_time":340000000000,"state":"active","ping":81},{"user_id":439,"name":"Ayayayayayahuasca","steam_id":76561199002906056,"connected_time":11490000000000,"state":"active","ping":53},{"user_id":552,"name":"Wavelengths of gender or someth","steam_id":76561197997621320,"connected_time":221000000000,"state":"active","ping":113},{"user_id":553,"name":"toyota 7 race car","steam_id":76561198421913648,"connected_time":219000000000,"state":"active","ping":54},{"user_id":539,"name":"Breadman","steam_id":76561198097979919,"connected_time":950000000000,"state":"active","ping":82},{"user_id":556,"name":"jorts","steam_id":76561199041179985,"connected_time":49000000000,"state":"active","ping":47},{"user_id":492,"name":"rat gets the cheese","steam_id":76561198031234032,"connected_time":5833000000000,"state":"active","ping":102},{"user_id":535,"name":"lil boogie","steam_id":76561198064059721,"connected_time":1653000000000,"state":"active","ping":49},{"user_id":541,"name":"[TrC] Dackstrus","steam_id":76561197973518509,"connected_time":864000000000,"state":"active","ping":60}]},{"server_id":119,"name":"Uncletopia | Seattle | 2 | All Maps","name_short":"sea-2","host":"sea-1.us.uncletopia.com","port":27025,"enabled":true,"region":"us-west","cc":"us","latitude":47.608013,"longitude":-122.33517,"reserved":0,"last_update":"0001-01-01T00:00:00Z","name_a2s":"Uncletopia | Seattle | 2 | All Maps","protocol":17,"map":"pl_frontier_final","folder":"tf","game":"Team Fortress","app_id":440,"player_count":24,"max_players":24,"Bots":0,"server_type":"Dedicated","server_os":"Linux","password":true,"vac":true,"version":"7932396","steam_id":85568392924469998,"keywords":["nocrits","nodmgspread","payload","uncletopia"],"game_id":440,"stv_port":27026,"stv_name":"Uncletopia | Seattle | 2 | All Maps | STV","players":[{"user_id":381,"name":"dinocoder","steam_id":76561198311038263,"connected_time":2589000000000,"state":"active","ping":59},{"user_id":396,"name":"Thexx ❤","steam_id":76561198113823050,"connected_time":1579000000000,"state":"active","ping":47},{"user_id":392,"name":"Mr. Boombox","steam_id":76561198070609120,"connected_time":1617000000000,"state":"active","ping":131},{"user_id":339,"name":"brhm","steam_id":76561198199604767,"connected_time":5798000000000,"state":"active","ping":54},{"user_id":412,"name":"Chicanery","steam_id":76561198977589038,"connected_time":67000000000,"state":"active","ping":113},{"user_id":401,"name":"Scuttle","steam_id":76561198276310307,"connected_time":880000000000,"state":"active","ping":78},{"user_id":376,"name":"PokemzX","steam_id":76561198303574256,"connected_time":2813000000000,"state":"active","ping":42},{"user_id":407,"name":"selling rice","steam_id":76561198063357023,"connected_time":442000000000,"state":"active","ping":62},{"user_id":295,"name":"CockDick69","steam_id":76561198051882744,"connected_time":8623000000000,"state":"active","ping":74},{"user_id":404,"name":"TFSpirit_","steam_id":76561198879448638,"connected_time":650000000000,"state":"active","ping":135},{"user_id":408,"name":"Zixzs","steam_id":76561198055504126,"connected_time":441000000000,"state":"active","ping":105},{"user_id":389,"name":"Owl Of Delos","steam_id":76561198437116566,"connected_time":2029000000000,"state":"active","ping":62},{"user_id":387,"name":"Artyom","steam_id":76561198152149679,"connected_time":2128000000000,"state":"active","ping":40},{"user_id":402,"name":"Mikey Decoy","steam_id":76561198070496601,"connected_time":869000000000,"state":"active","ping":58},{"user_id":410,"name":"Grandpa 1MinecraftEmpire","steam_id":76561198069046338,"connected_time":257000000000,"state":"active","ping":104},{"user_id":385,"name":"7fi","steam_id":76561198296406748,"connected_time":2419000000000,"state":"active","ping":60},{"user_id":394,"name":"Duckyawesome","steam_id":76561198148648069,"connected_time":1598000000000,"state":"active","ping":64},{"user_id":409,"name":"Gruncle PUXXY's Ginger-Bred Men","steam_id":76561197995465137,"connected_time":408000000000,"state":"active","ping":91},{"user_id":403,"name":"Mr. Freeze","steam_id":76561198850843774,"connected_time":827000000000,"state":"active","ping":72},{"user_id":290,"name":"ZOOMERGROOMER69","steam_id":76561198027102212,"connected_time":9162000000000,"state":"active","ping":66},{"user_id":411,"name":"Excrement","steam_id":76561198167740127,"connected_time":218000000000,"state":"active","ping":88},{"user_id":406,"name":"PainInTheRuss","steam_id":76561197977960543,"connected_time":639000000000,"state":"active","ping":63},{"user_id":413,"name":"Ira","steam_id":76561198855586261,"connected_time":60000000000,"state":"active","ping":83},{"user_id":343,"name":"General Fisticuffs","steam_id":76561198255721392,"connected_time":5781000000000,"state":"active","ping":117}]},{"server_id":406,"name":"Uncletopia | Seattle | 3 | Stopwatch Beta","name_short":"sea-3","host":"sea-1.us.uncletopia.com","port":27035,"enabled":true,"region":"us-west","cc":"us","latitude":47.608013,"longitude":-122.33517,"reserved":0,"last_update":"0001-01-01T00:00:00Z","name_a2s":"Uncletopia | Seattle | 3 | Stopwatch Beta","protocol":17,"map":"workshop/koth_bagel_rc6.ugc2514036946","folder":"tf","game":"Team Fortress","app_id":440,"player_count":0,"max_players":24,"Bots":0,"server_type":"Dedicated","server_os":"Linux","password":true,"vac":true,"version":"7932396","steam_id":85568392924515217,"keywords":["cp","nocrits","nodmgspread","uncletopia"],"game_id":440,"stv_port":27036,"stv_name":"Uncletopia | Seattle | 3 | Stopwatch Beta | STV","players":null},{"server_id":17,"name":"Uncletopia | San Francisco | 1 | All Maps","name_short":"sfo-1","host":"sfo-1.us.uncletopia.com","port":27015,"enabled":true,"region":"us-west","cc":"us","latitude":37.77397,"longitude":-122.4313,"reserved":0,"last_update":"0001-01-01T00:00:00Z","name_a2s":"Uncletopia | San Francisco | 1 | All Maps","protocol":17,"map":"pl_frontier_final","folder":"tf","game":"Team Fortress","app_id":440,"player_count":24,"max_players":24,"Bots":0,"server_type":"Dedicated","server_os":"Linux","password":true,"vac":true,"version":"7932396","steam_id":85568392924469999,"keywords":["nocrits","nodmgspread","payload","uncletopia"],"game_id":440,"stv_port":27016,"stv_name":"Uncletopia | San Francisco | 1 | All Maps | STV","players":[{"user_id":359,"name":"knatspray","steam_id":76561198832507482,"connected_time":136000000000,"state":"active","ping":72},{"user_id":311,"name":"chanoc","steam_id":76561198026734746,"connected_time":2458000000000,"state":"active","ping":48},{"user_id":347,"name":"GimliLOTR","steam_id":76561198163746000,"connected_time":1199000000000,"state":"active","ping":126},{"user_id":345,"name":"NotAWeeb","steam_id":76561198165530739,"connected_time":1318000000000,"state":"active","ping":45},{"user_id":358,"name":"Zebulon","steam_id":76561198025719753,"connected_time":143000000000,"state":"active","ping":54},{"user_id":356,"name":"orangesuit1","steam_id":76561199020443017,"connected_time":167000000000,"state":"active","ping":71},{"user_id":340,"name":"UltShuip","steam_id":76561198074339262,"connected_time":1737000000000,"state":"active","ping":58},{"user_id":352,"name":"joethefool","steam_id":76561199015436319,"connected_time":934000000000,"state":"active","ping":118},{"user_id":350,"name":"Kingclinton1","steam_id":76561198052956772,"connected_time":1028000000000,"state":"active","ping":127},{"user_id":344,"name":"The Horselords and Animal Gods","steam_id":76561197975094050,"connected_time":1424000000000,"state":"active","ping":67},{"user_id":327,"name":"The milkman (milks you)","steam_id":76561199155456102,"connected_time":2089000000000,"state":"active","ping":70},{"user_id":353,"name":"ElectronX","steam_id":76561198116034988,"connected_time":927000000000,"state":"active","ping":60},{"user_id":360,"name":"..flop","steam_id":76561197989058876,"connected_time":112000000000,"state":"active","ping":69},{"user_id":361,"name":"sora","steam_id":76561198094256973,"connected_time":109000000000,"state":"active","ping":49},{"user_id":338,"name":"Junko","steam_id":76561198146089003,"connected_time":1933000000000,"state":"active","ping":105},{"user_id":362,"name":"One Horned Bitch Destroyer","steam_id":76561198045810191,"connected_time":109000000000,"state":"active","ping":83},{"user_id":349,"name":"Maid 'n' China","steam_id":76561198423392976,"connected_time":1159000000000,"state":"active","ping":47},{"user_id":299,"name":"Taco+Taco=Burrito","steam_id":76561198063128663,"connected_time":3892000000000,"state":"active","ping":52},{"user_id":315,"name":"Please_insert_id","steam_id":76561198058140301,"connected_time":2210000000000,"state":"active","ping":135},{"user_id":355,"name":"danielarmvt","steam_id":76561198799723201,"connected_time":715000000000,"state":"active","ping":108},{"user_id":334,"name":"Pudsla","steam_id":76561198258974036,"connected_time":2027000000000,"state":"active","ping":47},{"user_id":363,"name":"craftylongsword","steam_id":76561198340102940,"connected_time":108000000000,"state":"active","ping":83},{"user_id":364,"name":"Not Slavoj Žižek","steam_id":76561198004619616,"connected_time":71000000000,"state":"active","ping":67},{"user_id":333,"name":"Reisen Udongein Inaba","steam_id":76561198051082314,"connected_time":2045000000000,"state":"active","ping":62}]},{"server_id":18,"name":"Uncletopia | San Francisco | 2 | All Maps","name_short":"sfo-2","host":"sfo-1.us.uncletopia.com","port":27025,"enabled":true,"region":"us-west","cc":"us","latitude":37.77397,"longitude":-122.4313,"reserved":0,"last_update":"0001-01-01T00:00:00Z","name_a2s":"Uncletopia | San Francisco | 2 | All Maps","protocol":17,"map":"cp_sunshine","folder":"tf","game":"Team Fortress","app_id":440,"player_count":24,"max_players":24,"Bots":0,"server_type":"Dedicated","server_os":"Linux","password":true,"vac":true,"version":"7932396","steam_id":85568392924470000,"keywords":["cp","nocrits","nodmgspread","uncletopia"],"game_id":440,"stv_port":27026,"stv_name":"Uncletopia | San Francisco | 2 | All Maps | STV","players":[{"user_id":15,"name":"a cat plushie","steam_id":76561198080046542,"connected_time":12675000000000,"state":"active","ping":60},{"user_id":56,"name":"-_-","steam_id":76561198048754646,"connected_time":10753000000000,"state":"active","ping":54},{"user_id":48,"name":"curious inclinations","steam_id":76561198042913843,"connected_time":11188000000000,"state":"active","ping":116},{"user_id":107,"name":"Rygan Sharpside","steam_id":76561198069514400,"connected_time":6631000000000,"state":"active","ping":117},{"user_id":119,"name":"Shinnooooo","steam_id":76561198152128596,"connected_time":5493000000000,"state":"active","ping":57},{"user_id":112,"name":"azureglxy","steam_id":76561198861388315,"connected_time":5854000000000,"state":"active","ping":45},{"user_id":147,"name":"Power Jake","steam_id":76561198051510260,"connected_time":1315000000000,"state":"active","ping":60},{"user_id":53,"name":"naturia","steam_id":76561198092317849,"connected_time":10857000000000,"state":"active","ping":55},{"user_id":141,"name":"✿ Flores","steam_id":76561198106938500,"connected_time":1834000000000,"state":"active","ping":61},{"user_id":103,"name":"PigPig","steam_id":76561198068190834,"connected_time":7284000000000,"state":"active","ping":71},{"user_id":93,"name":"sams","steam_id":76561199093161260,"connected_time":7506000000000,"state":"active","ping":56},{"user_id":146,"name":"Konnor","steam_id":76561199136300254,"connected_time":1429000000000,"state":"active","ping":47},{"user_id":132,"name":"Ian","steam_id":76561198159334435,"connected_time":3099000000000,"state":"active","ping":169},{"user_id":142,"name":".3wu","steam_id":76561198816127465,"connected_time":1647000000000,"state":"active","ping":100},{"user_id":143,"name":"Scud","steam_id":76561198079364693,"connected_time":1505000000000,"state":"active","ping":149},{"user_id":125,"name":"Stan_The_Stick_Man","steam_id":76561198158340112,"connected_time":5147000000000,"state":"active","ping":68},{"user_id":97,"name":"puke","steam_id":76561197999279693,"connected_time":7410000000000,"state":"active","ping":75},{"user_id":144,"name":"azlondon","steam_id":76561197995819002,"connected_time":1500000000000,"state":"active","ping":77},{"user_id":55,"name":"Zion Chavez","steam_id":76561198178536999,"connected_time":10817000000000,"state":"active","ping":59},{"user_id":98,"name":"MULTI CAR PILEUP","steam_id":76561198051421643,"connected_time":7406000000000,"state":"active","ping":76},{"user_id":131,"name":"Leaderofthe00fkins","steam_id":76561198281999872,"connected_time":3769000000000,"state":"active","ping":60},{"user_id":99,"name":"Juevos","steam_id":76561198066142119,"connected_time":7373000000000,"state":"active","ping":62},{"user_id":100,"name":"Ortadragon","steam_id":76561198023058412,"connected_time":7370000000000,"state":"active","ping":48},{"user_id":137,"name":"Love Waffle","steam_id":76561197990077189,"connected_time":2849000000000,"state":"active","ping":84}]},{"server_id":19,"name":"Uncletopia | San Francisco | 3 | Stopwatch Beta","name_short":"sfo-3","host":"sfo-1.us.uncletopia.com","port":27035,"enabled":true,"region":"us-west","cc":"us","latitude":37.77397,"longitude":-122.4313,"reserved":0,"last_update":"0001-01-01T00:00:00Z","name_a2s":"Uncletopia | San Francisco | 3 | Stopwatch Beta","protocol":17,"map":"workshop/pl_vigil_rc9.ugc1266210012","folder":"tf","game":"Team Fortress","app_id":440,"player_count":1,"max_players":24,"Bots":0,"server_type":"Dedicated","server_os":"Linux","password":true,"vac":true,"version":"7932396","steam_id":85568392924742824,"keywords":["nocrits","nodmgspread","payload","uncletopia"],"game_id":440,"stv_port":27036,"stv_name":"Uncletopia | San Francisco | 3 | Stopwatch Beta | STV","players":[{"user_id":12,"name":"AtomSQRRL","steam_id":76561199151951364,"connected_time":3000000000,"state":"spawning","ping":47}]},{"server_id":20,"name":"Uncletopia | San Francisco | 4 | Community","name_short":"sfo-4","host":"sfo-1.us.uncletopia.com","port":27045,"enabled":true,"region":"us-west","cc":"us","latitude":37.77397,"longitude":-122.4313,"reserved":0,"last_update":"0001-01-01T00:00:00Z","name_a2s":"Uncletopia | San Francisco | 4 | Community","protocol":17,"map":"workshop/koth_ashville_final.ugc2130459942","folder":"tf","game":"Team Fortress","app_id":440,"player_count":0,"max_players":24,"Bots":0,"server_type":"Dedicated","server_os":"Linux","password":true,"vac":true,"version":"7932396","steam_id":85568392924742826,"keywords":["cp","nocrits","nodmgspread","uncletopia"],"game_id":440,"stv_port":27046,"stv_name":"Uncletopia | San Francisco | 4 | Community | STV","players":null},{"server_id":141,"name":"Uncletopia | Sydney | 1 | All Maps","name_short":"syd-1","host":"syd-1.au.uncletopia.com","port":27015,"enabled":true,"region":"au","cc":"au","latitude":-33.865143,"longitude":151.2099,"reserved":0,"last_update":"0001-01-01T00:00:00Z","name_a2s":"Uncletopia | Sydney | 1 | All Maps","protocol":17,"map":"pl_goldrush","folder":"tf","game":"Team Fortress","app_id":440,"player_count":19,"max_players":24,"Bots":0,"server_type":"Dedicated","server_os":"Linux","password":true,"vac":true,"version":"7932396","steam_id":85568392924470001,"keywords":["nocrits","nodmgspread","payload","uncletopia"],"game_id":440,"stv_port":27016,"stv_name":"Uncletopia | Sydney | 1 | All Maps | STV","players":[{"user_id":92,"name":"uven","steam_id":76561198080981482,"connected_time":1336000000000,"state":"active","ping":31},{"user_id":37,"name":"ravioli","steam_id":76561198001765827,"connected_time":6926000000000,"state":"active","ping":55},{"user_id":113,"name":"perturb (feed/seed)","steam_id":76561198085124297,"connected_time":138000000000,"state":"active","ping":59},{"user_id":114,"name":"no more fucks to give","steam_id":76561199129974320,"connected_time":98000000000,"state":"active","ping":308},{"user_id":60,"name":"Warren","steam_id":76561198120350917,"connected_time":4709000000000,"state":"active","ping":41},{"user_id":41,"name":"Omniv","steam_id":76561198064526566,"connected_time":5812000000000,"state":"active","ping":43},{"user_id":100,"name":"Lobarté","steam_id":76561198090116136,"connected_time":865000000000,"state":"active","ping":62},{"user_id":102,"name":"Benskii","steam_id":76561198070130470,"connected_time":823000000000,"state":"active","ping":67},{"user_id":111,"name":"Das Ist Scheisse","steam_id":76561198886094239,"connected_time":316000000000,"state":"active","ping":53},{"user_id":77,"name":"Phobia²","steam_id":76561198038833524,"connected_time":3454000000000,"state":"active","ping":55},{"user_id":108,"name":"WEEABOO69420","steam_id":76561198114276713,"connected_time":476000000000,"state":"active","ping":103},{"user_id":82,"name":"Pompadouraus","steam_id":76561198327530525,"connected_time":2727000000000,"state":"active","ping":75},{"user_id":54,"name":"DARLING","steam_id":76561198057146794,"connected_time":5111000000000,"state":"active","ping":96},{"user_id":64,"name":"Doctor Estonia","steam_id":76561198057365089,"connected_time":4565000000000,"state":"active","ping":79},{"user_id":89,"name":"Jacob","steam_id":76561198059341907,"connected_time":2066000000000,"state":"active","ping":42},{"user_id":83,"name":"gS shupah","steam_id":76561198136792635,"connected_time":2647000000000,"state":"active","ping":30},{"user_id":67,"name":"Maxy","steam_id":76561198063462160,"connected_time":4411000000000,"state":"active","ping":30},{"user_id":80,"name":"Jodelkönig Franzl Lang","steam_id":76561198007667830,"connected_time":3234000000000,"state":"active","ping":57},{"user_id":70,"name":"Branko","steam_id":76561199262196710,"connected_time":4138000000000,"state":"active","ping":40}]},{"server_id":123,"name":"Uncletopia | Sydney | 2 | All Maps","name_short":"syd-2","host":"syd-1.au.uncletopia.com","port":27025,"enabled":true,"region":"au","cc":"au","latitude":-33.865143,"longitude":151.2099,"reserved":0,"last_update":"0001-01-01T00:00:00Z","name_a2s":"Uncletopia | Sydney | 2 | All Maps","protocol":17,"map":"cp_dustbowl","folder":"tf","game":"Team Fortress","app_id":440,"player_count":0,"max_players":24,"Bots":0,"server_type":"Dedicated","server_os":"Linux","password":true,"vac":true,"version":"7932396","steam_id":85568392924470002,"keywords":["cp","nocrits","nodmgspread","uncletopia"],"game_id":440,"stv_port":27026,"stv_name":"Uncletopia | Sydney | 2 | All Maps | STV","players":null},{"server_id":395,"name":"Uncletopia | Sydney | 3 | All Maps","name_short":"syd-3","host":"syd-1.au.uncletopia.com","port":27035,"enabled":true,"region":"au","cc":"au","latitude":-33.865143,"longitude":151.2099,"reserved":0,"last_update":"0001-01-01T00:00:00Z","name_a2s":"Uncletopia | Sydney | 3 | All Maps","protocol":17,"map":"cp_mountainlab","folder":"tf","game":"Team Fortress","app_id":440,"player_count":0,"max_players":24,"Bots":0,"server_type":"Dedicated","server_os":"Linux","password":true,"vac":true,"version":"7932396","steam_id":85568392925194467,"keywords":["cp","nocrits","nodmgspread","uncletopia"],"game_id":440,"stv_port":27036,"stv_name":"Uncletopia | Sydney | 3 | All Maps | STV","players":null},{"server_id":396,"name":"Uncletopia | Sydney | 4 | All Maps","name_short":"syd-4","host":"syd-1.au.uncletopia.com","port":27045,"enabled":true,"region":"au","cc":"au","latitude":-33.865143,"longitude":151.2099,"reserved":0,"last_update":"0001-01-01T00:00:00Z","name_a2s":"Uncletopia | Sydney | 4 | All Maps","protocol":17,"map":"koth_viaduct","folder":"tf","game":"Team Fortress","app_id":440,"player_count":0,"max_players":24,"Bots":0,"server_type":"Dedicated","server_os":"Linux","password":true,"vac":true,"version":"7932396","steam_id":85568392925397958,"keywords":["cp","nocrits","nodmgspread","uncletopia"],"game_id":440,"stv_port":27046,"stv_name":"Uncletopia | Sydney | 4 | All Maps | STV","players":null},{"server_id":58,"name":"Uncletopia | Sydney | 5 | Stopwatch Beta","name_short":"syd-5","host":"syd-1.au.uncletopia.com","port":27055,"enabled":true,"region":"au","cc":"au","latitude":-33.865143,"longitude":151.2099,"reserved":0,"last_update":"0001-01-01T00:00:00Z","name_a2s":"Uncletopia | Sydney | 5 | Stopwatch Beta","protocol":17,"map":"workshop/pl_vigil_rc9.ugc1266210012","folder":"tf","game":"Team Fortress","app_id":440,"player_count":0,"max_players":24,"Bots":0,"server_type":"Dedicated","server_os":"Linux","password":true,"vac":true,"version":"7932396","steam_id":85568392925397959,"keywords":["nocrits","nodmgspread","payload","uncletopia"],"game_id":440,"stv_port":27056,"stv_name":"Uncletopia | Sydney | 5 | Stopwatch Beta | STV","players":null},{"server_id":59,"name":"Uncletopia | Sydney | 6 | Community","name_short":"syd-6","host":"syd-1.au.uncletopia.com","port":27065,"enabled":true,"region":"au","cc":"au","latitude":-33.865143,"longitude":151.2099,"reserved":0,"last_update":"0001-01-01T00:00:00Z","name_a2s":"Uncletopia | Sydney | 6 | Community","protocol":17,"map":"cp_altitude","folder":"tf","game":"Team Fortress","app_id":440,"player_count":0,"max_players":24,"Bots":0,"server_type":"Dedicated","server_os":"Linux","password":true,"vac":true,"version":"7932396","steam_id":85568392925397960,"keywords":["cp","nocrits","nodmgspread","uncletopia"],"game_id":440,"stv_port":27066,"stv_name":"Uncletopia | Sydney | 6 | Community | STV","players":null},{"server_id":49,"name":"Uncletopia | Warsaw | 1 | All Maps","name_short":"waw-1","host":"waw-1.pl.uncletopia.com","port":27015,"enabled":true,"region":"eu","cc":"pl","latitude":52.2297,"longitude":21.017532,"reserved":0,"last_update":"0001-01-01T00:00:00Z","name_a2s":"","protocol":0,"map":"","folder":"","game":"","app_id":0,"player_count":0,"max_players":0,"Bots":0,"server_type":"","server_os":"","password":false,"vac":false,"version":"","steam_id":0,"keywords":null,"game_id":0,"stv_port":0,"stv_name":"","players":null},{"server_id":50,"name":"Uncletopia | Warsaw | 2 | All Maps","name_short":"waw-2","host":"waw-1.pl.uncletopia.com","port":27025,"enabled":true,"region":"eu","cc":"pl","latitude":52.2297,"longitude":21.017532,"reserved":0,"last_update":"0001-01-01T00:00:00Z","name_a2s":"Uncletopia | Warsaw | 2 | All Maps","protocol":17,"map":"pl_frontier_final","folder":"tf","game":"Team Fortress","app_id":440,"player_count":0,"max_players":24,"Bots":0,"server_type":"Dedicated","server_os":"Linux","password":true,"vac":true,"version":"7932396","steam_id":85568392925397851,"keywords":["nocrits","nodmgspread","payload","uncletopia"],"game_id":440,"stv_port":27026,"stv_name":"Uncletopia | Warsaw | 2 | All Maps | STV","players":null},{"server_id":51,"name":"Uncletopia | Warsaw | 3 | All Maps","name_short":"waw-3","host":"waw-1.pl.uncletopia.com","port":27035,"enabled":true,"region":"eu","cc":"pl","latitude":52.2297,"longitude":21.017532,"reserved":0,"last_update":"0001-01-01T00:00:00Z","name_a2s":"Uncletopia | Warsaw | 3 | All Maps","protocol":17,"map":"koth_lakeside_final","folder":"tf","game":"Team Fortress","app_id":440,"player_count":0,"max_players":24,"Bots":0,"server_type":"Dedicated","server_os":"Linux","password":true,"vac":true,"version":"7932396","steam_id":85568392925397852,"keywords":["cp","nocrits","nodmgspread","uncletopia"],"game_id":440,"stv_port":27036,"stv_name":"Uncletopia | Warsaw | 3 | All Maps | STV","players":null},{"server_id":52,"name":"Uncletopia | Warsaw | 4 | All Maps","name_short":"waw-4","host":"waw-1.pl.uncletopia.com","port":27045,"enabled":true,"region":"eu","cc":"pl","latitude":52.2297,"longitude":21.017532,"reserved":0,"last_update":"0001-01-01T00:00:00Z","name_a2s":"Uncletopia | Warsaw | 4 | All Maps","protocol":17,"map":"koth_lakeside_final","folder":"tf","game":"Team Fortress","app_id":440,"player_count":0,"max_players":24,"Bots":0,"server_type":"Dedicated","server_os":"Linux","password":true,"vac":true,"version":"7932396","steam_id":85568392925397853,"keywords":["cp","nocrits","nodmgspread","uncletopia"],"game_id":440,"stv_port":27046,"stv_name":"Uncletopia | Warsaw | 4 | All Maps | STV","players":null},{"server_id":53,"name":"Uncletopia | Warsaw | 5 | Stopwatch Beta","name_short":"waw-5","host":"waw-1.pl.uncletopia.com","port":27055,"enabled":true,"region":"eu","cc":"pl","latitude":52.2297,"longitude":21.017532,"reserved":0,"last_update":"0001-01-01T00:00:00Z","name_a2s":"Uncletopia | Warsaw | 5 | Stopwatch Beta","protocol":17,"map":"koth_cascade","folder":"tf","game":"Team Fortress","app_id":440,"player_count":0,"max_players":24,"Bots":0,"server_type":"Dedicated","server_os":"Linux","password":true,"vac":true,"version":"7932396","steam_id":85568392925397854,"keywords":["cp","nocrits","nodmgspread","uncletopia"],"game_id":440,"stv_port":27056,"stv_name":"Uncletopia | Warsaw | 5 | Stopwatch Beta | STV","players":null},{"server_id":54,"name":"Uncletopia | Warsaw | 6 | Community","name_short":"waw-6","host":"waw-1.pl.uncletopia.com","port":27065,"enabled":true,"region":"eu","cc":"pl","latitude":52.2297,"longitude":21.017532,"reserved":0,"last_update":"0001-01-01T00:00:00Z","name_a2s":"Uncletopia | Warsaw | 6 | Community","protocol":17,"map":"workshop/cp_propaganda_b18.ugc1603743849","folder":"tf","game":"Team Fortress","app_id":440,"player_count":0,"max_players":24,"Bots":0,"server_type":"Dedicated","server_os":"Linux","password":true,"vac":true,"version":"7932396","steam_id":85568392925397856,"keywords":["cp","nocrits","nodmgspread","uncletopia"],"game_id":440,"stv_port":27066,"stv_name":"Uncletopia | Warsaw | 6 | Community | STV","players":null}]}