{"status":true,"message":"","result":[{"server_id":9,"name":"Uncletopia | Atlanta | 1 | All Maps","name_short":"atl-1","host":"atl-1.us.uncletopia.com","port":27015,"enabled":true,"region":"us-east","cc":"us","latitude":33.753746,"longitude":-84.38633,"reserved":0,"last_update":"0001-01-01T00:00:00Z","name_a2s":"Uncletopia | Atlanta | 1 | All Maps","protocol":17,"map":"koth_lakeside_final","folder":"tf","game":"Team Fortress","app_id":440,"player_count":24,"max_players":24,"Bots":0,"server_type":"Dedicated","server_os":"Linux","password":true,"vac":true,"version":"7757534","steam_id":85568392924469982,"keywords":["cp","nocrits","nodmgspread","uncletopia"],"game_id":440,"stv_port":27016,"stv_name":"Uncletopia | Atlanta | 1 | All Maps | STV","players":[{"user_id":333,"name":"Wungsten","steam_id":76561198047983571,"connected_time":66000000000,"state":"active","ping":53},{"user_id":288,"name":"Ashes!","steam_id":76561197998475441,"connected_time":3858000000000,"state":"active","ping":75},{"user_id":245,"name":"Deeply","steam_id":76561199000786530,"connected_time":5657000000000,"state":"active","ping":88},{"user_id":321,"name":"Superbearhero","steam_id":76561198252350708,"connected_time":1360000000000,"state":"active","ping":56},{"user_id":334,"name":"lfty","steam_id":76561198283841707,"connected_time":61000000000,"state":"active","ping":62},{"user_id":291,"name":"Dededoo","steam_id":76561198279033471,"connected_time":3491000000000,"state":"active","ping":86},{"user_id":335,"name":"lil hog","steam_id":76561199230929836,"connected_time":58000000000,"state":"active","ping":83},{"user_id":327,"name":"the doo doo man","steam_id":76561198057076267,"connected_time":541000000000,"state":"active","ping":69},{"user_id":273,"name":"im with femboy","steam_id":76561198103496593,"connected_time":4538000000000,"state":"active","ping":46},{"user_id":274,"name":"im with stupid","steam_id":76561198406252824,"connected_time":4527000000000,"state":"active","ping":106},{"user_id":328,"name":"vv","steam_id":76561198134813102,"connected_time":442000000000,"state":"active","ping":75},{"user_id":289,"name":"basil","steam_id":76561198075758026,"connected_time":3537000000000,"state":"active","ping":72},{"user_id":329,"name":"Coffee with a Stranger","steam_id":76561198307422313,"connected_time":284000000000,"state":"active","ping":61},{"user_id":326,"name":"Naffty","steam_id":76561198119734981,"connected_time":624000000000,"state":"active","ping":55},{"user_id":317,"name":"AlexLovesYou","steam_id":76561199163263543,"connected_time":1675000000000,"state":"active","ping":67},{"user_id":307,"name":"frotting","steam_id":76561198249206656,"connected_time":2417000000000,"state":"active","ping":83},{"user_id":336,"name":"stapler","steam_id":76561198145380652,"connected_time":57000000000,"state":"active","ping":70},{"user_id":323,"name":"Doctor Ichor","steam_id":76561198123815761,"connected_time":1269000000000,"state":"active","ping":90},{"user_id":298,"name":"BackwardsEagle","steam_id":76561199013712612,"connected_time":2786000000000,"state":"active","ping":82},{"user_id":255,"name":"indi","steam_id":76561198045917538,"connected_time":5466000000000,"state":"active","ping":65},{"user_id":235,"name":"AmC","steam_id":76561198109731140,"connected_time":6800000000000,"state":"active","ping":131},{"user_id":322,"name":"ATL1 | Crystron","steam_id":76561198880437428,"connected_time":1359000000000,"state":"active","ping":75},{"user_id":332,"name":"KooKooKachue","steam_id":76561198391195262,"connected_time":146000000000,"state":"active","ping":78},{"user_id":302,"name":"small business HATER","steam_id":76561199020587077,"connected_time":2575000000000,"state":"active","ping":66}]},{"server_id":104,"name":"Uncletopia | Atlanta | 2 | All Maps","name_short":"atl-2","host":"atl-1.us.uncletopia.com","port":27025,"enabled":true,"region":"us-east","cc":"us","latitude":33.753746,"longitude":-84.38633,"reserved":0,"last_update":"0001-01-01T00:00:00Z","name_a2s":"Uncletopia | Atlanta | 2 | All Maps","protocol":17,"map":"koth_badlands","folder":"tf","game":"Team Fortress","app_id":440,"player_count":0,"max_players":24,"Bots":0,"server_type":"Dedicated","server_os":"Linux","password":true,"vac":true,"version":"7757534","steam_id":85568392924469983,"keywords":["cp","nocrits","nodmgspread","uncletopia"],"game_id":440,"stv_port":27026,"stv_name":"Uncletopia | Atlanta | 2 | All Maps | STV","players":null},{"server_id":400,"name":"Uncletopia | Atlanta | 3 | Community","name_short":"atl-3","host":"atl-1.us.uncletopia.com","port":27035,"enabled":true,"region":"us-east","cc":"us","latitude":33.753746,"longitude":-84.38633,"reserved":0,"last_update":"0001-01-01T00:00:00Z","name_a2s":"Uncletopia | Atlanta | 3 | Community","protocol":17,"map":"workshop/koth_synthetic_rc6a.ugc1549817316","folder":"tf","game":"Team Fortress","app_id":440,"player_count":0,"max_players":24,"Bots":0,"server_type":"Dedicated","server_os":"Linux","password":true,"vac":true,"version":"7757534","steam_id":85568392924515187,"keywords":["cp","nocrits","nodmgspread","uncletopia"],"game_id":440,"stv_port":27036,"stv_name":"Uncletopia | Atlanta | 3 | Community | STV","players":null},{"server_id":401,"name":"Uncletopia | Atlanta | 4 | No Payload","name_short":"atl-4","host":"atl-1.us.uncletopia.com","port":27045,"enabled":true,"region":"us-east","cc":"us","latitude":33.753746,"longitude":-84.38633,"reserved":0,"last_update":"0001-01-01T00:00:00Z","name_a2s":"","protocol":0,"map":"","folder":"","game":"","app_id":0,"player_count":0,"max_players":0,"Bots":0,"server_type":"","server_os":"","password":false,"vac":false,"version":"","steam_id":0,"keywords":null,"game_id":0,"stv_port":0,"stv_name":"","players":null},{"server_id":2,"name":"Uncletopia | Chicago | 1 | All Maps","name_short":"chi-1","host":"chi-1.us.uncletopia.com","port":27015,"enabled":true,"region":"us-central","cc":"us","latitude":41.881832,"longitude":-87.62318,"reserved":0,"last_update":"0001-01-01T00:00:00Z","name_a2s":"Uncletopia | Chicago | 1 | All Maps","protocol":17,"map":"pl_snowycoast","folder":"tf","game":"Team Fortress","app_id":440,"player_count":24,"max_players":24,"Bots":0,"server_type":"Dedicated","server_os":"Linux","password":true,"vac":true,"version":"7757534","steam_id":85568392924469984,"keywords":["nocrits","nodmgspread","payload","uncletopia"],"game_id":440,"stv_port":27016,"stv_name":"Uncletopia | Chicago | 1 | All Maps | STV","players":[{"user_id":237,"name":"RiverEgg","steam_id":76561198888913405,"connected_time":620000000000,"state":"active","ping":53},{"user_id":214,"name":"fng","steam_id":76561197986015240,"connected_time":2103000000000,"state":"active","ping":110},{"user_id":233,"name":"owen","steam_id":76561198121517871,"connected_time":724000000000,"state":"active","ping":73},{"user_id":227,"name":"Lunacy","steam_id":76561199386273760,"connected_time":943000000000,"state":"active","ping":110},{"user_id":187,"name":"Piss Champion","steam_id":76561198059362878,"connected_time":4632000000000,"state":"active","ping":45},{"user_id":220,"name":"Glass Joe","steam_id":76561198317365741,"connected_time":1403000000000,"state":"active","ping":62},{"user_id":222,"name":"hud_saytext_time 0","steam_id":76561198010327228,"connected_time":1340000000000,"state":"active","ping":163},{"user_id":215,"name":"tone","steam_id":76561198006505587,"connected_time":1991000000000,"state":"active","ping":81},{"user_id":228,"name":"Evolution","steam_id":76561198144767370,"connected_time":942000000000,"state":"active","ping":46},{"user_id":229,"name":"Dr.BendyBones","steam_id":76561198048846641,"connected_time":926000000000,"state":"active","ping":64},{"user_id":211,"name":"Sock #NEWTF2Hunt","steam_id":76561198069090237,"connected_time":2161000000000,"state":"active","ping":79},{"user_id":209,"name":"who blahajin they blast","steam_id":76561198413930183,"connected_time":2334000000000,"state":"active","ping":59},{"user_id":240,"name":"destroylonely","steam_id":76561198349941380,"connected_time":236000000000,"state":"active","ping":43},{"user_id":224,"name":"Violet42","steam_id":76561198072927887,"connected_time":1180000000000,"state":"active","ping":64},{"user_id":208,"name":"footoftheday","steam_id":76561198052712449,"connected_time":2418000000000,"state":"active","ping":68},{"user_id":234,"name":"Z4LTte","steam_id":76561198283258068,"connected_time":715000000000,"state":"active","ping":60},{"user_id":29,"name":"177013","steam_id":76561198072303290,"connected_time":17172000000000,"state":"active","ping":64},{"user_id":242,"name":"man of the hour","steam_id":76561198264601809,"connected_time":59000000000,"state":"active","ping":72},{"user_id":196,"name":"harmless_nerd","steam_id":76561199470510373,"connected_time":3211000000000,"state":"active","ping":143},{"user_id":231,"name":"King Baldski","steam_id":76561198359568400,"connected_time":916000000000,"state":"active","ping":137},{"user_id":236,"name":"Taischill01","steam_id":76561199123414825,"connected_time":690000000000,"state":"active","ping":158},{"user_id":239,"name":"Craig Isonychia","steam_id":76561198272013678,"connected_time":318000000000,"state":"active","ping":70},{"user_id":198,"name":"DonutDinner54","steam_id":76561199010542612,"connected_time":3168000000000,"state":"active","ping":97},{"user_id":199,"name":"Training Arc","steam_id":76561198038832034,"connected_time":3106000000000,"state":"active","ping":103}]},{"server_id":106,"name":"Uncletopia | Chicago | 2 | All Maps","name_short":"chi-2","host":"chi-1.us.uncletopia.com","port":27025,"enabled":true,"region":"us-central","cc":"us","latitude":41.881832,"longitude":-87.62318,"reserved":0,"last_update":"0001-01-01T00:00:00Z","name_a2s":"Uncletopia | Chicago | 2 | All Maps","protocol":17,"map":"cp_dustbowl","folder":"tf","game":"Team Fortress","app_id":440,"player_count":24,"max_players":24,"Bots":0,"server_type":"Dedicated","server_os":"Linux","password":true,"vac":true,"version":"7757534","steam_id":85568392924469985,"keywords":["cp","nocrits","nodmgspread","uncletopia"],"game_id":440,"stv_port":27026,"stv_name":"Uncletopia | Chicago | 2 | All Maps | STV","players":[{"user_id":246,"name":"Melad","steam_id":76561198018849258,"connected_time":431000000000,"state":"active","ping":56},{"user_id":210,"name":"Viper_Ray","steam_id":76561199068788737,"connected_time":3239000000000,"state":"active","ping":91},{"user_id":151,"name":"Kritzburgh","steam_id":76561198149466938,"connected_time":8720000000000,"state":"active","ping":62},{"user_id":191,"name":"N0SNitro","steam_id":76561198026157327,"connected_time":4448000000000,"state":"active","ping":66},{"user_id":232,"name":"conscripted monk","steam_id":76561199029246232,"connected_time":1702000000000,"state":"active","ping":64},{"user_id":226,"name":"Temujin","steam_id":76561198030936583,"connected_time":1741000000000,"state":"active","ping":46},{"user_id":233,"name":"Sorbis The Grungler","steam_id":76561198057138795,"connected_time":1679000000000,"state":"active","ping":136},{"user_id":243,"name":"FortressGamer #SaveTF2","steam_id":76561198144049265,"connected_time":1147000000000,"state":"active","ping":86},{"user_id":216,"name":"Neon Inhaler","steam_id":76561198024881072,"connected_time":3048000000000,"state":"active","ping":70},{"user_id":229,"name":"BurnN8or101","steam_id":76561198132668224,"connected_time":1727000000000,"state":"active","ping":53},{"user_id":235,"name":"John16Mark","steam_id":76561198119445407,"connected_time":1616000000000,"state":"active","ping":89},{"user_id":242,"name":"Howard Hamlin","steam_id":76561198881039861,"connected_time":1176000000000,"state":"active","ping":49},{"user_id":222,"name":"Earthless","steam_id":76561199244039465,"connected_time":2662000000000,"state":"active","ping":58},{"user_id":240,"name":"Renecup","steam_id":76561199021666883,"connected_time":1544000000000,"state":"active","ping":62},{"user_id":230,"name":"RyInc","steam_id":76561198874261643,"connected_time":1726000000000,"state":"active","ping":45},{"user_id":211,"name":"Uwu Micster","steam_id":76561198843890616,"connected_time":3211000000000,"state":"active","ping":85},{"user_id":248,"name":"The unsung hero","steam_id":76561199198863237,"connected_time":292000000000,"state":"active","ping":83},{"user_id":227,"name":"Legit_Jaxer","steam_id":76561198172234053,"connected_time":1740000000000,"state":"active","ping":107},{"user_id":221,"name":"Micheal","steam_id":76561198242238956,"connected_time":2752000000000,"state":"active","ping":82},{"user_id":98,"name":"Ajax","steam_id":76561197962240140,"connected_time":13557000000000,"state":"active","ping":69},{"user_id":237,"name":"Certified BigMan","steam_id":76561198095544632,"connected_time":1605000000000,"state":"active","ping":60},{"user_id":212,"name":"Yeonwoo","steam_id":76561199082985721,"connected_time":3185000000000,"state":"active","ping":64},{"user_id":241,"name":"The Domb Loid","steam_id":76561198295791203,"connected_time":1389000000000,"state":"active","ping":53},{"user_id":239,"name":"Dr.Ludwig","steam_id":76561199221271922,"connected_time":1590000000000,"state":"active","ping":185}]},{"server_id":402,"name":"Uncletopia | Chicago | 3 | All Maps","name_short":"chi-3","host":"chi-1.us.uncletopia.com","port":27035,"enabled":true,"region":"us-central","cc":"us","latitude":41.881832,"longitude":-87.62318,"reserved":0,"last_update":"0001-01-01T00:00:00Z","name_a2s":"Uncletopia | Chicago | 3 | All Maps","protocol":17,"map":"cp_mountainlab","folder":"tf","game":"Team Fortress","app_id":440,"player_count":1,"max_players":24,"Bots":0,"server_type":"Dedicated","server_os":"Linux","password":true,"vac":true,"version":"7757534","steam_id":85568392924515191,"keywords":["cp","nocrits","nodmgspread","uncletopia"],"game_id":440,"stv_port":27036,"stv_name":"Uncletopia | Chicago | 3 | All Maps | STV","players":[{"user_id":8,"name":"TEZOS","steam_id":76561197972656632,"connected_time":357000000000,"state":"active","ping":44}]},{"server_id":403,"name":"Uncletopia | Chicago | 4 | All Maps","name_short":"chi-4","host":"chi-1.us.uncletopia.com","port":27045,"enabled":true,"region":"us-central","cc":"us","latitude":41.881832,"longitude":-87.62318,"reserved":0,"last_update":"0001-01-01T00:00:00Z","name_a2s":"Uncletopia | Chicago | 4 | All Maps","protocol":17,"map":"pl_barnblitz","folder":"tf","game":"Team Fortress","app_id":440,"player_count":24,"max_players":24,"Bots":0,"server_type":"Dedicated","server_os":"Linux","password":true,"vac":true,"version":"7757534","steam_id":85568392924515193,"keywords":["nocrits","nodmgspread","payload","uncletopia"],"game_id":440,"stv_port":27046,"stv_name":"Uncletopia | Chicago | 4 | All Maps | STV","players":[{"user_id":82,"name":"Jordyn","steam_id":76561198196220635,"connected_time":1751000000000,"state":"active","ping":48},{"user_id":78,"name":"Ring A Ding","steam_id":76561199205871164,"connected_time":2609000000000,"state":"active","ping":86},{"user_id":91,"name":"lambmyth","steam_id":76561199215261209,"connected_time":566000000000,"state":"active","ping":120},{"user_id":93,"name":"Glar","steam_id":76561198341907150,"connected_time":534000000000,"state":"active","ping":74},{"user_id":77,"name":"Loggybears","steam_id":76561198366828434,"connected_time":2697000000000,"state":"active","ping":97},{"user_id":86,"name":"Gay Porn Stuntman","steam_id":76561198844362758,"connected_time":1287000000000,"state":"active","ping":63},{"user_id":87,"name":"Cousin Corn on the Cob","steam_id":76561198049837377,"connected_time":950000000000,"state":"active","ping":52},{"user_id":79,"name":"Acehay14","steam_id":76561198052373291,"connected_time":2582000000000,"state":"active","ping":57},{"user_id":88,"name":"pipis","steam_id":76561198140971525,"connected_time":586000000000,"state":"active","ping":62},{"user_id":47,"name":"Zandzz","steam_id":76561198083918902,"connected_time":5062000000000,"state":"active","ping":57},{"user_id":96,"name":"pottymouth7434 :o3","steam_id":76561199121632136,"connected_time":362000000000,"state":"active","ping":52},{"user_id":76,"name":"Ojen","steam_id":76561197998414482,"connected_time":2769000000000,"state":"active","ping":73},{"user_id":94,"name":"...","steam_id":76561198312298321,"connected_time":521000000000,"state":"active","ping":62},{"user_id":99,"name":"Sha-Woompa","steam_id":76561199068063459,"connected_time":47000000000,"state":"active","ping":66},{"user_id":80,"name":"023e20902o0239ee02390o239e","steam_id":76561198175741741,"connected_time":2526000000000,"state":"active","ping":71},{"user_id":74,"name":"JOE_SPECWARRIOR","steam_id":76561198008564250,"connected_time":2949000000000,"state":"active","ping":105},{"user_id":57,"name":"Blud walked 0 miles üò≠üò≠\ufffd\ufffd\ufffd","steam_id":76561199285074344,"connected_time":4341000000000,"state":"active","ping":62},{"user_id":75,"name":"Recursive Gamer","steam_id":76561198042102952,"connected_time":2946000000000,"state":"active","ping":63},{"user_id":100,"name":"Xraverz","steam_id":76561198008891628,"connected_time":30000000000,"state":"active","ping":75},{"user_id":58,"name":"Rornir","steam_id":76561198081829615,"connected_time":4340000000000,"state":"active","ping":40},{"user_id":89,"name":"dyllie1","steam_id":76561198075324940,"connected_time":585000000000,"state":"active","ping":75},{"user_id":35,"name":"Deltaco","steam_id":76561198094572694,"connected_time":5990000000000,"state":"active","ping":116},{"user_id":37,"name":"Heroofchaos","steam_id":76561199106660090,"connected_time":5964000000000,"state":"active","ping":139},{"user_id":60,"name":"caljay","steam_id":76561198059257854,"connected_time":4320000000000,"state":"active","ping":56}]},{"server_id":36,"name":"Uncletopia | Chicago | 5 | All Maps","name_short":"chi-5","host":"chi-2.us.uncletopia.com","port":27015,"enabled":true,"region":"us-central","cc":"us","latitude":41.881832,"longitude":-87.62318,"reserved":0,"last_update":"0001-01-01T00:00:00Z","name_a2s":"Uncletopia | Chicago | 5 | All Maps","protocol":17,"map":"koth_cascade","folder":"tf","game":"Team Fortress","app_id":440,"player_count":0,"max_players":24,"Bots":0,"server_type":"Dedicated","server_os":"Linux","password":true,"vac":true,"version":"7757534","steam_id":85568392924866362,"keywords":["cp","nocrits","nodmgspread","uncletopia"],"game_id":440,"stv_port":27016,"stv_name":"Uncletopia | Chicago | 5 | All Maps | STV","players":null},{"server_id":37,"name":"Uncletopia | Chicago | 6 | All Maps","name_short":"chi-6","host":"chi-2.us.uncletopia.com","port":27025,"enabled":true,"region":"us-central","cc":"us","latitude":41.881832,"longitude":-87.62318,"reserved":0,"last_update":"0001-01-01T00:00:00Z","name_a2s":"Uncletopia | Chicago | 6 | All Maps","protocol":17,"map":"cp_dustbowl","folder":"tf","game":"Team Fortress","app_id":440,"player_count":0,"max_players":24,"Bots":0,"server_type":"Dedicated","server_os":"Linux","password":true,"vac":true,"version":"7757534","steam_id":85568392924866363,"keywords":["cp","nocrits","nodmgspread","uncletopia"],"game_id":440,"stv_port":27026,"stv_name":"Uncletopia | Chicago | 6 | All Maps | STV","players":null},{"server_id":38,"name":"Uncletopia | Chicago | 7 | Stopwatch Beta","name_short":"chi-7","host":"chi-2.us.uncletopia.com","port":27035,"enabled":true,"region":"us-central","cc":"us","latitude":41.881832,"longitude":-87.62318,"reserved":0,"last_update":"0001-01-01T00:00:00Z","name_a2s":"Uncletopia | Chicago | 7 | Stopwatch Beta","protocol":17,"map":"pl_barnblitz","folder":"tf","game":"Team Fortress","app_id":440,"player_count":0,"max_players":24,"Bots":0,"server_type":"Dedicated","server_os":"Linux","password":true,"vac":true,"version":"7757534","steam_id":85568392924866364,"keywords":["nocrits","nodmgspread","payload","uncletopia"],"game_id":440,"stv_port":27036,"stv_name":"Uncletopia | Chicago | 7 | Stopwatch Beta | STV","players":null},{"server_id":39,"name":"Uncletopia | Chicago | 8 | Community","name_short":"chi-8","host":"chi-2.us.uncletopia.com","port":27045,"enabled":true,"region":"us-central","cc":"us","latitude":41.881832,"longitude":-87.62318,"reserved":0,"last_update":"0001-01-01T00:00:00Z","name_a2s":"Uncletopia | Chicago | 8 | Community","protocol":17,"map":"koth_cascade","folder":"tf","game":"Team Fortress","app_id":440,"player_count":1,"max_players":24,"Bots":0,"server_type":"Dedicated","server_os":"Linux","password":true,"vac":true,"version":"7757534","steam_id":85568392924866365,"keywords":["cp","nocrits","nodmgspread","uncletopia"],"game_id":440,"stv_port":27046,"stv_name":"Uncletopia | Chicago | 8 | Community | STV","players":[{"user_id":4,"name":"[DEEP] Danmar33","steam_id":76561198056453091,"connected_time":0,"state":"spawning","ping":13}]},{"server_id":8,"name":"Uncletopia | Dallas | 1 | All Maps","name_short":"dal-1","host":"dal-1.us.uncletopia.com","port":27015,"enabled":true,"region":"us-central","cc":"us","latitude":32.779167,"longitude":-96.80889,"reserved":0,"last_update":"0001-01-01T00:00:00Z","name_a2s":"Uncletopia | Dallas | 1 | All Maps","protocol":17,"map":"ctf_2fort","folder":"tf","game":"Team Fortress","app_id":440,"player_count":24,"max_players":24,"Bots":0,"server_type":"Dedicated","server_os":"Linux","password":true,"vac":true,"version":"7757534","steam_id":85568392924469986,"keywords":["ctf","nocrits","nodmgspread","uncletopia"],"game_id":440,"stv_port":27016,"stv_name":"Uncletopia | Dallas | 1 | All Maps | STV","players":[{"user_id":131,"name":"carol in HR","steam_id":76561198071775268,"connected_time":4000000000,"state":"spawning","ping":134},{"user_id":122,"name":"SuperEvilPasta","steam_id":76561198078258907,"connected_time":1179000000000,"state":"active","ping":65},{"user_id":128,"name":"Ping","steam_id":76561199206514106,"connected_time":165000000000,"state":"active","ping":71},{"user_id":104,"name":"DoubleTee","steam_id":76561198018980347,"connected_time":2324000000000,"state":"active","ping":106},{"user_id":94,"name":"PageBoiSkull","steam_id":76561198237353578,"connected_time":2785000000000,"state":"active","ping":98},{"user_id":103,"name":"Crows!","steam_id":76561198150086324,"connected_time":2462000000000,"state":"active","ping":60},{"user_id":67,"name":"double tap 2.0","steam_id":76561198062146253,"connected_time":3893000000000,"state":"active","ping":97},{"user_id":113,"name":".jpegged","steam_id":76561198120078454,"connected_time":1592000000000,"state":"active","ping":72},{"user_id":89,"name":"‚ô•Npenplz‚ô•","steam_id":76561197999605423,"connected_time":2840000000000,"state":"active","ping":89},{"user_id":126,"name":"momb","steam_id":76561198142234038,"connected_time":658000000000,"state":"active","ping":83},{"user_id":121,"name":"SoundSmith (real)","steam_id":76561198936412406,"connected_time":1231000000000,"state":"active","ping":72},{"user_id":73,"name":"Garfield","steam_id":76561198037803087,"connected_time":3414000000000,"state":"active","ping":67},{"user_id":108,"name":"I FUCKING LOVE 2FORT","steam_id":76561198190323610,"connected_time":1916000000000,"state":"active","ping":111},{"user_id":123,"name":"Blitz3k","steam_id":76561198055758741,"connected_time":1079000000000,"state":"active","ping":85},{"user_id":130,"name":"∆ê’å—¥∆≥","steam_id":76561198099470277,"connected_time":23000000000,"state":"spawning","ping":73},{"user_id":111,"name":"Bigge cheese the 3rd","steam_id":76561198860975325,"connected_time":1733000000000,"state":"active","ping":85},{"user_id":45,"name":"VixianUwU „ÉÉ ‚ù§","steam_id":76561198948815060,"connected_time":4879000000000,"state":"active","ping":71},{"user_id":129,"name":"Zenabie","steam_id":76561198088372680,"connected_time":93000000000,"state":"active","ping":106},{"user_id":118,"name":"Oreodog300","steam_id":76561198137626866,"connected_time":1439000000000,"state":"active","ping":79},{"user_id":110,"name":"Arrluk","steam_id":76561198396679452,"connected_time":1779000000000,"state":"active","ping":96},{"user_id":120,"name":"Meh but good","steam_id":76561199005772246,"connected_time":1263000000000,"state":"active","ping":65},{"user_id":127,"name":"Tyler\u0026Fingers","steam_id":76561198085154485,"connected_time":369000000000,"state":"active","ping":88},{"user_id":116,"name":"gamerlegend47","steam_id":76561198122776598,"connected_time":1525000000000,"state":"active","ping":69},{"user_id":117,"name":"ChozoChorizo","steam_id":76561198272609196,"connected_time":1511000000000,"state":"active","ping":58}]},{"server_id":108,"name":"Uncletopia | Dallas | 2 | All Maps","name_short":"dal-2","host":"dal-1.us.uncletopia.com","port":27025,"enabled":true,"region":"us-central","cc":"us","latitude":32.779167,"longitude":-96.80889,"reserved":0,"last_update":"0001-01-01T00:00:00Z","name_a2s":"Uncletopia | Dallas | 2 | All Maps","protocol":17,"map":"pl_badwater","folder":"tf","game":"Team Fortress","app_id":440,"player_count":5,"max_players":24,"Bots":0,"server_type":"Dedicated","server_os":"Linux","password":true,"vac":true,"version":"7757534","steam_id":85568392924469988,"keywords":["nocrits","nodmgspread","payload","uncletopia"],"game_id":440,"stv_port":27026,"stv_name":"Uncletopia | Dallas | 2 | All Maps | STV","players":[{"user_id":21,"name":"Sup m8","steam_id":76561198081659121,"connected_time":903000000000,"state":"active","ping":29},{"user_id":22,"name":"Pinder","steam_id":76561198176708643,"connected_time":389000000000,"state":"active","ping":64},{"user_id":23,"name":"PoIlyGon","steam_id":76561198367414695,"connected_time":236000000000,"state":"active","ping":90},{"user_id":24,"name":"[anti furr] drug dog","steam_id":76561198383523839,"connected_time":188000000000,"state":"active","ping":155},{"user_id":25,"name":"Praxis","steam_id":76561197960794303,"connected_time":121000000000,"state":"active","ping":130}]},{"server_id":5,"name":"Uncletopia | Frankfurt | 1 | All Maps","name_short":"frk-1","host":"frk-1.de.uncletopia.com","port":27015,"enabled":true,"region":"eu","cc":"de","latitude":50.110924,"longitude":8.682127,"reserved":0,"last_update":"0001-01-01T00:00:00Z","name_a2s":"Uncletopia | Frankfurt | 1 | All Maps","protocol":17,"map":"pl_frontier_final","folder":"tf","game":"Team Fortress","app_id":440,"player_count":24,"max_players":24,"Bots":0,"server_type":"Dedicated","server_os":"Linux","password":true,"vac":true,"version":"7757534","steam_id":85568392924469989,"keywords":["nocrits","nodmgspread","payload","uncletopia"],"game_id":440,"stv_port":27016,"stv_name":"Uncletopia | Frankfurt | 1 | All Maps | STV","players":[{"user_id":217,"name":"EEEEEH","steam_id":76561198126717413,"connected_time":2244000000000,"state":"active","ping":79},{"user_id":251,"name":"Charged","steam_id":76561199127215130,"connected_time":689000000000,"state":"active","ping":82},{"user_id":188,"name":"tm","steam_id":76561198256619964,"connected_time":3953000000000,"state":"active","ping":76},{"user_id":254,"name":"sasibak123@gmail.com","steam_id":76561198981533174,"connected_time":493000000000,"state":"active","ping":75},{"user_id":257,"name":"Diggity","steam_id":76561198297157085,"connected_time":185000000000,"state":"active","ping":59},{"user_id":242,"name":"C.I.","steam_id":76561197972438196,"connected_time":1297000000000,"state":"active","ping":67},{"user_id":187,"name":"Naginacz","steam_id":76561199099232534,"connected_time":4503000000000,"state":"active","ping":55},{"user_id":223,"name":"Adrenaline","steam_id":76561197970852048,"connected_time":2082000000000,"state":"active","ping":70},{"user_id":220,"name":"Mr. Riina","steam_id":76561198038748489,"connected_time":2123000000000,"state":"active","ping":73},{"user_id":182,"name":"stock piano music","steam_id":76561198163244605,"connected_time":4614000000000,"state":"active","ping":73},{"user_id":234,"name":"Dr.Sees [F2P]","steam_id":76561199219233587,"connected_time":1915000000000,"state":"active","ping":75},{"user_id":239,"name":"bob0rutin","steam_id":76561198010760312,"connected_time":1728000000000,"state":"active","ping":75},{"user_id":236,"name":"etc","steam_id":76561197998394797,"connected_time":1823000000000,"state":"active","ping":57},{"user_id":244,"name":"–¥–∂–µ–≥–µ–º–∏ —Ö—ç–ø–∫–∏–Ω–≥—Å","steam_id":76561198131531394,"connected_time":1268000000000,"state":"active","ping":96},{"user_id":232,"name":"Ultra_swimmer","steam_id":76561198049382217,"connected_time":1986000000000,"state":"active","ping":61},{"user_id":248,"name":"Chambersite","steam_id":76561198197022399,"connected_time":1008000000000,"state":"active","ping":56},{"user_id":255,"name":"bigwish | bmod.tf","steam_id":76561197997859723,"connected_time":440000000000,"state":"active","ping":76},{"user_id":252,"name":"zwbl","steam_id":76561198360811196,"connected_time":615000000000,"state":"active","ping":79},{"user_id":176,"name":"Miss.Sparklez","steam_id":76561198101745576,"connected_time":4878000000000,"state":"active","ping":64},{"user_id":233,"name":"Bob Sacamano","steam_id":76561198085610701,"connected_time":1981000000000,"state":"active","ping":112},{"user_id":250,"name":"Sus Fring","steam_id":76561198821542489,"connected_time":866000000000,"state":"active","ping":94},{"user_id":186,"name":"Soyboy","steam_id":76561198053885716,"connected_time":4583000000000,"state":"active","ping":92},{"user_id":125,"name":"clouds","steam_id":76561198111134021,"connected_time":7838000000000,"state":"active","ping":73},{"user_id":256,"name":"schweppestr","steam_id":76561198037485644,"connected_time":269000000000,"state":"active","ping":55}]},{"server_id":110,"name":"Uncletopia | Frankfurt | 2 | All Maps","name_short":"frk-2","host":"frk-1.de.uncletopia.com","port":27025,"enabled":true,"region":"eu","cc":"de","latitude":50.110924,"longitude":8.682127,"reserved":0,"last_update":"0001-01-01T00:00:00Z","name_a2s":"Uncletopia | Frankfurt | 2 | All Maps","protocol":17,"map":"koth_lakeside_final","folder":"tf","game":"Team Fortress","app_id":440,"player_count":0,"max_players":24,"Bots":0,"server_type":"Dedicated","server_os":"Linux","password":true,"vac":true,"version":"7757534","steam_id":85568392924469990,"keywords":["cp","nocrits","nodmgspread","uncletopia"],"game_id":440,"stv_port":27026,"stv_name":"Uncletopia | Frankfurt | 2 | All Maps | STV","players":null},{"server_id":308,"name":"Uncletopia | Frankfurt | 3 | All Maps","name_short":"frk-3","host":"frk-1.de.uncletopia.com","port":27035,"enabled":true,"region":"eu","cc":"de","latitude":50.110924,"longitude":8.682127,"reserved":0,"last_update":"0001-01-01T00:00:00Z","name_a2s":"Uncletopia | Frankfurt | 3 | All Maps","protocol":17,"map":"pl_snowycoast","folder":"tf","game":"Team Fortress","app_id":440,"player_count":24,"max_players":24,"Bots":0,"server_type":"Dedicated","server_os":"Linux","password":true,"vac":true,"version":"7757534","steam_id":85568392924504274,"keywords":["nocrits","nodmgspread","payload","uncletopia"],"game_id":440,"stv_port":27036,"stv_name":"Uncletopia | Frankfurt | 3 | All Maps | STV","players":[{"user_id":326,"name":"Gorogaz","steam_id":76561198207157679,"connected_time":10788000000000,"state":"active","ping":66},{"user_id":450,"name":"GZimmer","steam_id":76561198088794767,"connected_time":1899000000000,"state":"active","ping":45},{"user_id":460,"name":"t.tv/pkblizzard","steam_id":76561198039836567,"connected_time":921000000000,"state":"active","ping":53},{"user_id":476,"name":"wioslo","steam_id":76561198376326060,"connected_time":0,"state":"connecting","ping":0},{"user_id":467,"name":"The 4th Doctor","steam_id":76561198191516706,"connected_time":568000000000,"state":"active","ping":68},{"user_id":432,"name":"shinji crank that soulja boy","steam_id":76561198099696876,"connected_time":3296000000000,"state":"active","ping":60},{"user_id":468,"name":"(1) XCheatLmaoX123","steam_id":76561199041640689,"connected_time":499000000000,"state":"active","ping":100},{"user_id":412,"name":"ASAP","steam_id":76561198322078500,"connected_time":4361000000000,"state":"active","ping":89},{"user_id":414,"name":"Wardruna96","steam_id":76561199057083828,"connected_time":3837000000000,"state":"active","ping":75},{"user_id":464,"name":"generic alias","steam_id":76561198271607226,"connected_time":722000000000,"state":"active","ping":86},{"user_id":472,"name":"SourcePan","steam_id":76561199070294504,"connected_time":178000000000,"state":"active","ping":87},{"user_id":475,"name":"askulap","steam_id":76561197992018795,"connected_time":22000000000,"state":"active","ping":143},{"user_id":456,"name":"mkwii","steam_id":76561198062507768,"connected_time":1522000000000,"state":"active","ping":49},{"user_id":416,"name":"Matael","steam_id":76561198452200894,"connected_time":3794000000000,"state":"active","ping":69},{"user_id":429,"name":"night.s","steam_id":76561198326287823,"connected_time":3358000000000,"state":"active","ping":66},{"user_id":366,"name":"Solymr ibn Wali Barad","steam_id":76561198044008976,"connected_time":7780000000000,"state":"active","ping":73},{"user_id":457,"name":"Doriian","steam_id":76561198071438810,"connected_time":1279000000000,"state":"active","ping":75},{"user_id":473,"name":"anders McFlanders","steam_id":76561198022811995,"connected_time":148000000000,"state":"active","ping":57},{"user_id":461,"name":"speedy_vespa","steam_id":76561199092013231,"connected_time":912000000000,"state":"active","ping":80},{"user_id":455,"name":"Oxer","steam_id":76561198055942412,"connected_time":1581000000000,"state":"active","ping":74},{"user_id":449,"name":"KGiorgios_Bully","steam_id":76561198825392728,"connected_time":1989000000000,"state":"active","ping":100},{"user_id":435,"name":"Mr_Pulse_","steam_id":76561198095001602,"connected_time":3096000000000,"state":"active","ping":154},{"user_id":471,"name":"Toops","steam_id":76561199060049863,"connected_time":331000000000,"state":"active","ping":104},{"user_id":445,"name":"truebosnianking","steam_id":76561199440060597,"connected_time":2446000000000,"state":"active","ping":79}]},{"server_id":309,"name":"Uncletopia | Frankfurt | 4 | All Maps","name_short":"frk-4","host":"frk-1.de.uncletopia.com","port":27045,"enabled":true,"region":"eu","cc":"de","latitude":50.110924,"longitude":8.682127,"reserved":0,"last_update":"0001-01-01T00:00:00Z","name_a2s":"Uncletopia | Frankfurt | 4 | All Maps","protocol":17,"map":"koth_viaduct","folder":"tf","game":"Team Fortress","app_id":440,"player_count":0,"max_players":24,"Bots":0,"server_type":"Dedicated","server_os":"Linux","password":true,"vac":true,"version":"7757534","steam_id":85568392924504275,"keywords":["cp","nocrits","nodmgspread","uncletopia"],"game_id":440,"stv_port":27046,"stv_name":"Uncletopia | Frankfurt | 4 | All Maps | STV","players":null},{"server_id":310,"name":"Uncletopia | Frankfurt | 5 | All Maps","name_short":"frk-5","host":"frk-1.de.uncletopia.com","port":27055,"enabled":true,"region":"eu","cc":"de","latitude":50.110924,"longitude":8.682127,"reserved":0,"last_update":"0001-01-01T00:00:00Z","name_a2s":"Uncletopia | Frankfurt | 5 | All Maps","protocol":17,"map":"pl_borneo","folder":"tf","game":"Team Fortress","app_id":440,"player_count":15,"max_players":24,"Bots":0,"server_type":"Dedicated","server_os":"Linux","password":true,"vac":true,"version":"7757534","steam_id":85568392924504277,"keywords":["nocrits","nodmgspread","payload","uncletopia"],"game_id":440,"stv_port":27056,"stv_name":"Uncletopia | Frankfurt | 5 | All Maps | STV","players":[{"user_id":362,"name":"Glenn Quagmire","steam_id":76561199348527880,"connected_time":82000000000,"state":"active","ping":75},{"user_id":363,"name":"Barbatruc","steam_id":76561198119019916,"connected_time":45000000000,"state":"active","ping":71},{"user_id":343,"name":"El Bondin","steam_id":76561198820792434,"connected_time":1389000000000,"state":"active","ping":189},{"user_id":339,"name":"Wujek Cacek","steam_id":76561198010267943,"connected_time":1524000000000,"state":"active","ping":67},{"user_id":361,"name":"Ampiong99","steam_id":76561199245197481,"connected_time":266000000000,"state":"active","ping":65},{"user_id":334,"name":"JaneDoe","steam_id":76561198067081506,"connected_time":2321000000000,"state":"active","ping":84},{"user_id":344,"name":"Gryphus","steam_id":76561198041457191,"connected_time":1367000000000,"state":"active","ping":50},{"user_id":229,"name":"I... binkson??????","steam_id":76561198057403817,"connected_time":8439000000000,"state":"active","ping":72},{"user_id":330,"name":"Zurgling Goraan","steam_id":76561198098415374,"connected_time":2598000000000,"state":"active","ping":102},{"user_id":355,"name":"CNTRL","steam_id":76561199125803827,"connected_time":957000000000,"state":"active","ping":68},{"user_id":358,"name":"Pipper","steam_id":76561197970326616,"connected_time":524000000000,"state":"active","ping":47},{"user_id":349,"name":"rand()","steam_id":76561198034812781,"connected_time":1311000000000,"state":"active","ping":54},{"user_id":350,"name":"Kratzkopf","steam_id":76561198034776726,"connected_time":1308000000000,"state":"active","ping":55},{"user_id":357,"name":"Viisaus","steam_id":76561198316533099,"connected_time":799000000000,"state":"active","ping":56},{"user_id":305,"name":"Mental","steam_id":76561198057117092,"connected_time":5207000000000,"state":"active","ping":52}]},{"server_id":311,"name":"Uncletopia | Frankfurt | 6 | All Maps","name_short":"frk-6","host":"frk-1.de.uncletopia.com","port":27065,"enabled":true,"region":"eu","cc":"de","latitude":50.110924,"longitude":8.682127,"reserved":0,"last_update":"0001-01-01T00:00:00Z","name_a2s":"Uncletopia | Frankfurt | 6 | All Maps","protocol":17,"map":"pl_pier","folder":"tf","game":"Team Fortress","app_id":440,"player_count":24,"max_players":24,"Bots":0,"server_type":"Dedicated","server_os":"Linux","password":true,"vac":true,"version":"7757534","steam_id":85568392924504278,"keywords":["nocrits","nodmgspread","payload","uncletopia"],"game_id":440,"stv_port":27066,"stv_name":"Uncletopia | Frankfurt | 6 | All Maps | STV","players":[{"user_id":544,"name":"Radio_Active!","steam_id":76561199217286835,"connected_time":541000000000,"state":"active","ping":99},{"user_id":503,"name":"Heavy (Team Fortress 2)","steam_id":76561198060698967,"connected_time":3205000000000,"state":"active","ping":56},{"user_id":546,"name":"VibeCheck","steam_id":76561198425961218,"connected_time":381000000000,"state":"active","ping":112},{"user_id":548,"name":"Michael","steam_id":76561198003146906,"connected_time":314000000000,"state":"active","ping":59},{"user_id":522,"name":"0xDEADBEEF","steam_id":76561199075416111,"connected_time":1972000000000,"state":"active","ping":92},{"user_id":551,"name":"John Noob","steam_id":76561197999170026,"connected_time":171000000000,"state":"active","ping":139},{"user_id":477,"name":"Mr.B","steam_id":76561199204478925,"connected_time":5197000000000,"state":"active","ping":117},{"user_id":539,"name":"Morbidly A Beast","steam_id":76561198251578274,"connected_time":885000000000,"state":"active","ping":94},{"user_id":518,"name":"Kleiner Engel","steam_id":76561198009922500,"connected_time":2243000000000,"state":"active","ping":54},{"user_id":476,"name":":)","steam_id":76561198039964082,"connected_time":5417000000000,"state":"active","ping":61},{"user_id":553,"name":"Hey, I¬¥m Andy!","steam_id":76561198060337777,"connected_time":129000000000,"state":"active","ping":71},{"user_id":434,"name":"walluu","steam_id":76561198121830870,"connected_time":8046000000000,"state":"active","ping":75},{"user_id":545,"name":"ùî±ùî¥ùî≤ùîßùî∞ùî±ùîû\ufffd\ufffd\ufffd","steam_id":76561198155944450,"connected_time":421000000000,"state":"active","ping":113},{"user_id":520,"name":"plazma","steam_id":76561198886594048,"connected_time":2148000000000,"state":"active","ping":96},{"user_id":515,"name":"Soerlssoelss√∂en","steam_id":76561197993060585,"connected_time":2339000000000,"state":"active","ping":73},{"user_id":550,"name":"Old Beavis","steam_id":76561198065951617,"connected_time":191000000000,"state":"active","ping":67},{"user_id":483,"name":"somehow danced","steam_id":76561198128250460,"connected_time":4362000000000,"state":"active","ping":107},{"user_id":534,"name":"SODA!!!!!!!","steam_id":76561198107362485,"connected_time":1209000000000,"state":"active","ping":97},{"user_id":516,"name":"Husk","steam_id":76561198271808519,"connected_time":2318000000000,"state":"active","ping":55},{"user_id":540,"name":"Ooze","steam_id":76561198039642637,"connected_time":876000000000,"state":"active","ping":73},{"user_id":547,"name":"Toofy","steam_id":76561197989727907,"connected_time":372000000000,"state":"active","ping":50},{"user_id":543,"name":"kotamine","steam_id":76561198068907991,"connected_time":730000000000,"state":"active","ping":74},{"user_id":405,"name":"XPullaHiiri","steam_id":76561198031652375,"connected_time":9977000000000,"state":"active","ping":91},{"user_id":529,"name":"1 Week Spy","steam_id":76561198970762992,"connected_time":1513000000000,"state":"active","ping":77}]},{"server_id":23,"name":"Uncletopia | Frankfurt | 7 | Stopwatch Beta","name_short":"frk-7","host":"frk-1.de.uncletopia.com","port":27075,"enabled":true,"region":"eu","cc":"de","latitude":50.110924,"longitude":8.682127,"reserved":0,"last_update":"0001-01-01T00:00:00Z","name_a2s":"Uncletopia | Frankfurt | 7 | Stopwatch Beta","protocol":17,"map":"workshop/koth_clearcut_b15.ugc2107050255","folder":"tf","game":"Team Fortress","app_id":440,"player_count":0,"max_players":24,"Bots":0,"server_type":"Dedicated","server_os":"Linux","password":true,"vac":true,"version":"7757534","steam_id":85568392924742827,"keywords":["cp","nocrits","nodmgspread","uncletopia"],"game_id":440,"stv_port":27076,"stv_name":"Uncletopia | Frankfurt | 7 | Stopwatch Beta | STV","players":null},{"server_id":24,"name":"Uncletopia | Frankfurt | 8 | Community","name_short":"frk-8","host":"frk-1.de.uncletopia.com","port":27085,"enabled":true,"region":"eu","cc":"de","latitude":50.110924,"longitude":8.682127,"reserved":0,"last_update":"0001-01-01T00:00:00Z","name_a2s":"Uncletopia | Frankfurt | 8 | Community","protocol":17,"map":"workshop/koth_product_final.ugc454272353","folder":"tf","game":"Team Fortress","app_id":440,"player_count":24,"max_players":24,"Bots":0,"server_type":"Dedicated","server_os":"Linux","password":true,"vac":true,"version":"7757534","steam_id":85568392924742828,"keywords":["cp","nocrits","nodmgspread","uncletopia"],"game_id":440,"stv_port":27086,"stv_name":"Uncletopia | Frankfurt | 8 | Community | STV","players":[{"user_id":9,"name":"Z0r1t","steam_id":76561199120241220,"connected_time":5953000000000,"state":"active","ping":82},{"user_id":55,"name":"Palettenbrett","steam_id":76561198124162943,"connected_time":347000000000,"state":"active","ping":66},{"user_id":57,"name":"BGoNz","steam_id":76561197970390201,"connected_time":153000000000,"state":"active","ping":57},{"user_id":24,"name":"TSx* {Demon-Angel}","steam_id":76561198151486463,"connected_time":2061000000000,"state":"active","ping":75},{"user_id":25,"name":"TSx* Bargal","steam_id":76561198040266872,"connected_time":2040000000000,"state":"active","ping":74},{"user_id":26,"name":"OKUYA5U","steam_id":76561198815127418,"connected_time":1942000000000,"state":"active","ping":84},{"user_id":58,"name":"CringeIsaac","steam_id":76561199082217398,"connected_time":120000000000,"state":"active","ping":90},{"user_id":59,"name":"rG rG rG rG rG","steam_id":76561198125010818,"connected_time":78000000000,"state":"active","ping":93},{"user_id":28,"name":"TSx* EmperoT","steam_id":76561198018656942,"connected_time":1696000000000,"state":"active","ping":75},{"user_id":34,"name":"smk","steam_id":76561198068027379,"connected_time":1188000000000,"state":"active","ping":88},{"user_id":54,"name":"Tekky","steam_id":76561197990987315,"connected_time":393000000000,"state":"active","ping":49},{"user_id":43,"name":"TheEmeraldStar","steam_id":76561198072942529,"connected_time":858000000000,"state":"active","ping":75},{"user_id":60,"name":"Krefa12","steam_id":76561198268375393,"connected_time":70000000000,"state":"active","ping":103},{"user_id":45,"name":"Chillipapricka","steam_id":76561198886660112,"connected_time":793000000000,"state":"active","ping":68},{"user_id":36,"name":"schmick h_stt 0","steam_id":76561198039537958,"connected_time":1169000000000,"state":"active","ping":58},{"user_id":37,"name":"dropkickas","steam_id":76561198105121641,"connected_time":1160000000000,"state":"active","ping":61},{"user_id":42,"name":"Toaster The Whaler","steam_id":76561198018826007,"connected_time":935000000000,"state":"active","ping":45},{"user_id":40,"name":"SPONGE","steam_id":76561198040933472,"connected_time":1037000000000,"state":"active","ping":61},{"user_id":53,"name":"Radegast the Brown","steam_id":76561198075489505,"connected_time":502000000000,"state":"active","ping":61},{"user_id":51,"name":"Tomfool","steam_id":76561197993256481,"connected_time":562000000000,"state":"active","ping":75},{"user_id":48,"name":"Egtu","steam_id":76561198013757235,"connected_time":686000000000,"state":"active","ping":61},{"user_id":62,"name":"John Washington","steam_id":76561198094583636,"connected_time":30000000000,"state":"active","ping":61},{"user_id":56,"name":"Kneh","steam_id":76561198121744739,"connected_time":306000000000,"state":"active","ping":64},{"user_id":61,"name":"Great recession of 2008","steam_id":76561198881151562,"connected_time":69000000000,"state":"active","ping":90}]},{"server_id":202,"name":"Uncletopia | Hong Kong | 1 | All Maps","name_short":"hgk-1","host":"hgk-1.hk.uncletopia.com","port":27015,"enabled":true,"region":"asia","cc":"hk","latitude":22.302711,"longitude":114.177216,"reserved":0,"last_update":"0001-01-01T00:00:00Z","name_a2s":"Uncletopia | Hong Kong | 1 | All Maps","protocol":17,"map":"ctf_2fort","folder":"tf","game":"Team Fortress","app_id":440,"player_count":0,"max_players":24,"Bots":0,"server_type":"Dedicated","server_os":"Linux","password":true,"vac":true,"version":"7757534","steam_id":85568392924494504,"keywords":["ctf","nocrits","nodmgspread","uncletopia"],"game_id":440,"stv_port":27016,"stv_name":"Uncletopia | Hong Kong | 1 | All Maps | STV","players":null},{"server_id":1,"name":"Uncletopia | Los Angeles | 1 | All Maps","name_short":"lax-1","host":"lax-1.us.uncletopia.com","port":27015,"enabled":true,"region":"us-west","cc":"us","latitude":33.94279,"longitude":-118.41004,"reserved":0,"last_update":"0001-01-01T00:00:00Z","name_a2s":"Uncletopia | Los Angeles | 1 | All Maps","protocol":17,"map":"koth_lakeside_final","folder":"tf","game":"Team Fortress","app_id":440,"player_count":1,"max_players":24,"Bots":0,"server_type":"Dedicated","server_os":"Linux","password":true,"vac":true,"version":"7757534","steam_id":85568392924469991,"keywords":["cp","nocrits","nodmgspread","uncletopia"],"game_id":440,"stv_port":27016,"stv_name":"Uncletopia | Los Angeles | 1 | All Maps | STV","players":[{"user_id":6,"name":"ChubbinsMothYT","steam_id":76561198999215730,"connected_time":833000000000,"state":"active","ping":119}]},{"server_id":112,"name":"Uncletopia | Los Angeles | 2 | All Maps","name_short":"lax-2","host":"lax-1.us.uncletopia.com","port":27025,"enabled":true,"region":"us-west","cc":"us","latitude":33.94279,"longitude":-118.41004,"reserved":0,"last_update":"0001-01-01T00:00:00Z","name_a2s":"Uncletopia | Los Angeles | 2 | All Maps","protocol":17,"map":"pl_frontier_final","folder":"tf","game":"Team Fortress","app_id":440,"player_count":0,"max_players":24,"Bots":0,"server_type":"Dedicated","server_os":"Linux","password":true,"vac":true,"version":"7757534","steam_id":85568392924469992,"keywords":["nocrits","nodmgspread","payload","uncletopia"],"game_id":440,"stv_port":27026,"stv_name":"Uncletopia | Los Angeles | 2 | All Maps | STV","players":null},{"server_id":324,"name":"Uncletopia | Los Angeles | 3 | All Maps","name_short":"lax-3","host":"lax-1.us.uncletopia.com","port":27035,"enabled":true,"region":"us-west","cc":"us","latitude":33.94279,"longitude":-118.41004,"reserved":0,"last_update":"0001-01-01T00:00:00Z","name_a2s":"Uncletopia | Los Angeles | 3 | All Maps","protocol":17,"map":"pl_borneo","folder":"tf","game":"Team Fortress","app_id":440,"player_count":0,"max_players":24,"Bots":0,"server_type":"Dedicated","server_os":"Linux","password":true,"vac":true,"version":"7757534","steam_id":85568392924510198,"keywords":["nocrits","nodmgspread","payload","uncletopia"],"game_id":440,"stv_port":27036,"stv_name":"Uncletopia | Los Angeles | 3 | All Maps | STV","players":null},{"server_id":25,"name":"Uncletopia | Los Angeles | 4 | Stopwatch Beta","name_short":"lax-4","host":"lax-1.us.uncletopia.com","port":27045,"enabled":true,"region":"us-west","cc":"us","latitude":33.94279,"longitude":-118.41004,"reserved":0,"last_update":"0001-01-01T00:00:00Z","name_a2s":"Uncletopia | Los Angeles | 4 | Stopwatch Beta","protocol":17,"map":"pl_swiftwater_final1","folder":"tf","game":"Team Fortress","app_id":440,"player_count":0,"max_players":24,"Bots":0,"server_type":"Dedicated","server_os":"Linux","password":true,"vac":true,"version":"7757534","steam_id":85568392924510199,"keywords":["nocrits","nodmgspread","payload","uncletopia"],"game_id":440,"stv_port":27046,"stv_name":"Uncletopia | Los Angeles | 4 | Stopwatch Beta | STV","players":null},{"server_id":11,"name":"Uncletopia | London | 1 | All Maps","name_short":"lon-1","host":"lon-1.uk.uncletopia.com","port":27015,"enabled":true,"region":"eu","cc":"gb","latitude":51.509865,"longitude":-0.118092,"reserved":0,"last_update":"0001-01-01T00:00:00Z","name_a2s":"Uncletopia | London | 1 | All Maps","protocol":17,"map":"cp_dustbowl","folder":"tf","game":"Team Fortress","app_id":440,"player_count":24,"max_players":24,"Bots":0,"server_type":"Dedicated","server_os":"Linux","password":true,"vac":true,"version":"7757534","steam_id":85568392924367362,"keywords":["cp","nocrits","nodmgspread","uncletopia"],"game_id":440,"stv_port":27016,"stv_name":"Uncletopia | London | 1 | All Maps | STV","players":[{"user_id":629,"name":"RIFT","steam_id":76561198991622379,"connected_time":532000000000,"state":"active","ping":43},{"user_id":578,"name":"Dovakin","steam_id":76561198103265377,"connected_time":4422000000000,"state":"active","ping":129},{"user_id":546,"name":"Anonymous47007","steam_id":76561199005211417,"connected_time":6586000000000,"state":"active","ping":88},{"user_id":616,"name":"elio","steam_id":76561198142662131,"connected_time":1688000000000,"state":"active","ping":67},{"user_id":625,"name":"rock","steam_id":76561198093488870,"connected_time":735000000000,"state":"active","ping":58},{"user_id":626,"name":"SnowShot","steam_id":76561198004766638,"connected_time":723000000000,"state":"active","ping":74},{"user_id":612,"name":"Some Guy","steam_id":76561198137335527,"connected_time":1831000000000,"state":"active","ping":54},{"user_id":619,"name":"Vorge","steam_id":76561198411852459,"connected_time":1182000000000,"state":"active","ping":134},{"user_id":635,"name":"Generic text","steam_id":76561198291962185,"connected_time":248000000000,"state":"active","ping":86},{"user_id":613,"name":"help","steam_id":76561199056338917,"connected_time":1822000000000,"state":"active","ping":162},{"user_id":598,"name":"jimmy bob","steam_id":76561198319583692,"connected_time":2511000000000,"state":"active","ping":59},{"user_id":594,"name":"aaaaaavon","steam_id":76561198063093802,"connected_time":3437000000000,"state":"active","ping":52},{"user_id":628,"name":"Mr. Mundy","steam_id":76561198132008918,"connected_time":644000000000,"state":"active","ping":89},{"user_id":610,"name":"Fwebbie","steam_id":76561199006875621,"connected_time":2016000000000,"state":"active","ping":74},{"user_id":595,"name":"Sandshee","steam_id":76561198088574666,"connected_time":3329000000000,"state":"active","ping":36},{"user_id":583,"name":"kojitori","steam_id":76561198838072150,"connected_time":3853000000000,"state":"active","ping":46},{"user_id":630,"name":"Nugget","steam_id":76561198338916407,"connected_time":526000000000,"state":"active","ping":83},{"user_id":589,"name":"Lavir","steam_id":76561198008619442,"connected_time":3579000000000,"state":"active","ping":115},{"user_id":631,"name":"jimbob","steam_id":76561198089322416,"connected_time":493000000000,"state":"active","ping":101},{"user_id":620,"name":"R0mulone","steam_id":76561198352513792,"connected_time":1174000000000,"state":"active","ping":61},{"user_id":634,"name":"TheBeardedM1G","steam_id":76561198040208946,"connected_time":296000000000,"state":"active","ping":45},{"user_id":618,"name":"Jampine","steam_id":76561198040419080,"connected_time":1194000000000,"state":"active","ping":63},{"user_id":633,"name":"‚ô• Hurt Me Plenty ‚ô• | P.U.R.","steam_id":76561198965998351,"connected_time":435000000000,"state":"active","ping":99},{"user_id":615,"name":"Eldritch Curio.üëÅ","steam_id":76561198044669027,"connected_time":1751000000000,"state":"active","ping":132}]},{"server_id":114,"name":"Uncletopia | London | 2 | All Maps","name_short":"lon-2","host":"lon-1.uk.uncletopia.com","port":27025,"enabled":true,"region":"eu","cc":"gb","latitude":51.509865,"longitude":-0.118092,"reserved":0,"last_update":"0001-01-01T00:00:00Z","name_a2s":"Uncletopia | London | 2 | All Maps","protocol":17,"map":"pl_swiftwater_final1","folder":"tf","game":"Team Fortress","app_id":440,"player_count":17,"max_players":24,"Bots":0,"server_type":"Dedicated","server_os":"Linux","password":true,"vac":true,"version":"7757534","steam_id":85568392924470941,"keywords":["nocrits","nodmgspread","payload","uncletopia"],"game_id":440,"stv_port":27026,"stv_name":"Uncletopia | London | 2 | All Maps | STV","players":[{"user_id":263,"name":":\u003ezem","steam_id":76561198864329072,"connected_time":1979000000000,"state":"active","ping":87},{"user_id":287,"name":"Bombilla","steam_id":76561198084281798,"connected_time":31000000000,"state":"active","ping":69},{"user_id":282,"name":"senbar","steam_id":76561198010234725,"connected_time":102000000000,"state":"active","ping":119},{"user_id":271,"name":"„Éñ„É≠„Éº„Éã„É£","steam_id":76561198037810091,"connected_time":917000000000,"state":"active","ping":114},{"user_id":268,"name":"Captain Samo","steam_id":76561198047224482,"connected_time":1074000000000,"state":"active","ping":67},{"user_id":280,"name":"howabe","steam_id":76561197996486818,"connected_time":137000000000,"state":"active","ping":62},{"user_id":249,"name":"engineer drip","steam_id":76561198991032570,"connected_time":3380000000000,"state":"active","ping":82},{"user_id":219,"name":"B@yka","steam_id":76561198986736592,"connected_time":4645000000000,"state":"active","ping":63},{"user_id":278,"name":"Tegnerud","steam_id":76561198214185612,"connected_time":534000000000,"state":"active","ping":75},{"user_id":283,"name":"Modge","steam_id":76561198034119979,"connected_time":93000000000,"state":"active","ping":54},{"user_id":284,"name":"Pszemo \u003c3","steam_id":76561198020851452,"connected_time":82000000000,"state":"active","ping":122},{"user_id":285,"name":"Mr Toxic","steam_id":76561198040057167,"connected_time":64000000000,"state":"active","ping":166},{"user_id":259,"name":"—Ç—É–∫–∫—É –∏—Ä–º–∞","steam_id":76561197998715016,"connected_time":2245000000000,"state":"active","ping":74},{"user_id":257,"name":"Gnarville","steam_id":76561198006373329,"connected_time":2267000000000,"state":"active","ping":49},{"user_id":221,"name":"·†å ·†å ·†å·†å ·†å ·†å ·†å","steam_id":76561198312906114,"connected_time":4611000000000,"state":"active","ping":58},{"user_id":224,"name":"Karl Heinrich Marx","steam_id":76561197987837486,"connected_time":4364000000000,"state":"active","ping":65},{"user_id":204,"name":"twitch.tv/vision515","steam_id":76561198065293729,"connected_time":6279000000000,"state":"active","ping":162}]},{"server_id":320,"name":"Uncletopia | London | 3 | All Maps","name_short":"lon-3","host":"lon-1.uk.uncletopia.com","port":27035,"enabled":true,"region":"eu","cc":"gb","latitude":51.509865,"longitude":-0.118092,"reserved":0,"last_update":"0001-01-01T00:00:00Z","name_a2s":"Uncletopia | London | 3 | All Maps","protocol":17,"map":"pl_badwater","folder":"tf","game":"Team Fortress","app_id":440,"player_count":24,"max_players":24,"Bots":0,"server_type":"Dedicated","server_os":"Linux","password":true,"vac":true,"version":"7757534","steam_id":85568392924510192,"keywords":["nocrits","nodmgspread","payload","uncletopia"],"game_id":440,"stv_port":27036,"stv_name":"Uncletopia | London | 3 | All Maps | STV","players":[{"user_id":195,"name":"Pats","steam_id":76561198418538887,"connected_time":1622000000000,"state":"active","ping":99},{"user_id":183,"name":"‚ô• Cirno ‚ô•","steam_id":76561198834982738,"connected_time":2035000000000,"state":"active","ping":73},{"user_id":221,"name":"brandoncg04","steam_id":76561199189398427,"connected_time":259000000000,"state":"active","ping":156},{"user_id":213,"name":"Ixsus\u003c3","steam_id":76561198094756869,"connected_time":729000000000,"state":"active","ping":67},{"user_id":177,"name":"Bird On Your Window","steam_id":76561198081933130,"connected_time":2218000000000,"state":"active","ping":60},{"user_id":207,"name":"the boil","steam_id":76561199236080782,"connected_time":1151000000000,"state":"active","ping":111},{"user_id":211,"name":"mitical uknown","steam_id":76561198844852761,"connected_time":884000000000,"state":"active","ping":69},{"user_id":209,"name":"rabbitface26","steam_id":76561198327540113,"connected_time":1040000000000,"state":"active","ping":41},{"user_id":222,"name":"\u003cSwedshka\u003e","steam_id":76561198143363096,"connected_time":241000000000,"state":"active","ping":89},{"user_id":186,"name":"Jaxonus, Lizard Supremacist","steam_id":76561198043845690,"connected_time":2015000000000,"state":"active","ping":80},{"user_id":210,"name":"Dr.Nefario","steam_id":76561198874586020,"connected_time":938000000000,"state":"active","ping":79},{"user_id":218,"name":"Digio","steam_id":76561199065101964,"connected_time":363000000000,"state":"active","ping":97},{"user_id":193,"name":"kim-il-sung","steam_id":76561199142566560,"connected_time":1668000000000,"state":"active","ping":28},{"user_id":212,"name":"Ledze Shuns Dope","steam_id":76561198049945010,"connected_time":863000000000,"state":"active","ping":50},{"user_id":223,"name":"ohio.lottery.contestant4004","steam_id":76561198051852765,"connected_time":232000000000,"state":"active","ping":75},{"user_id":215,"name":"Pacanaz","steam_id":76561198011514552,"connected_time":694000000000,"state":"active","ping":84},{"user_id":216,"name":"king251311","steam_id":76561199063310889,"connected_time":473000000000,"state":"active","ping":85},{"user_id":224,"name":"ran is running","steam_id":76561199443185667,"connected_time":228000000000,"state":"active","ping":134},{"user_id":194,"name":"Random Cap","steam_id":76561198129271321,"connected_time":1632000000000,"state":"active","ping":61},{"user_id":225,"name":"Kodutah","steam_id":76561198203405574,"connected_time":125000000000,"state":"active","ping":84},{"user_id":226,"name":"GoatLord1","steam_id":76561198157964544,"connected_time":113000000000,"state":"active","ping":49},{"user_id":220,"name":"Clovis","steam_id":76561198076881381,"connected_time":301000000000,"state":"active","ping":83},{"user_id":227,"name":"a Regurar Barroon","steam_id":76561198834913692,"connected_time":99000000000,"state":"active","ping":75},{"user_id":178,"name":"Poptart From Mars","steam_id":76561197979930960,"connected_time":2155000000000,"state":"active","ping":170}]},{"server_id":321,"name":"Uncletopia | London | 4 | All Maps","name_short":"lon-4","host":"lon-1.uk.uncletopia.com","port":27045,"enabled":true,"region":"eu","cc":"gb","latitude":51.509865,"longitude":-0.118092,"reserved":0,"last_update":"0001-01-01T00:00:00Z","name_a2s":"Uncletopia | London | 4 | All Maps","protocol":17,"map":"cp_mercenarypark","folder":"tf","game":"Team Fortress","app_id":440,"player_count":24,"max_players":24,"Bots":0,"server_type":"Dedicated","server_os":"Linux","password":true,"vac":true,"version":"7757534","steam_id":85568392924510193,"keywords":["cp","nocrits","nodmgspread","uncletopia"],"game_id":440,"stv_port":27046,"stv_name":"Uncletopia | London | 4 | All Maps | STV","players":[{"user_id":454,"name":"Druid5333","steam_id":76561198348066287,"connected_time":1578000000000,"state":"active","ping":67},{"user_id":464,"name":"He could be any one of us","steam_id":76561198320506848,"connected_time":713000000000,"state":"active","ping":45},{"user_id":401,"name":"nutlube","steam_id":76561198128831131,"connected_time":5270000000000,"state":"active","ping":56},{"user_id":466,"name":"Bits\u0026Peices","steam_id":76561199225453607,"connected_time":653000000000,"state":"active","ping":104},{"user_id":439,"name":"dar","steam_id":76561198371657696,"connected_time":2691000000000,"state":"active","ping":64},{"user_id":353,"name":"Topme","steam_id":76561198091734693,"connected_time":8917000000000,"state":"active","ping":60},{"user_id":448,"name":"Ember (she/her) gaymer","steam_id":76561199403820517,"connected_time":1922000000000,"state":"active","ping":58},{"user_id":459,"name":"Sandvich","steam_id":76561199079493666,"connected_time":1067000000000,"state":"active","ping":104},{"user_id":347,"name":"whimsy.","steam_id":76561198878171763,"connected_time":9511000000000,"state":"active","ping":51},{"user_id":473,"name":"Retrogue","steam_id":76561198131776972,"connected_time":88000000000,"state":"active","ping":43},{"user_id":428,"name":"Raingnome @SaveTF2","steam_id":76561198007394958,"connected_time":3764000000000,"state":"active","ping":52},{"user_id":462,"name":"ElectricSheep","steam_id":76561198140708410,"connected_time":928000000000,"state":"active","ping":54},{"user_id":440,"name":"frosty","steam_id":76561198094560834,"connected_time":2577000000000,"state":"active","ping":49},{"user_id":374,"name":"elsuedi","steam_id":76561198074722832,"connected_time":6844000000000,"state":"active","ping":60},{"user_id":467,"name":"ur moms favorite bull","steam_id":76561198119603513,"connected_time":580000000000,"state":"active","ping":133},{"user_id":463,"name":"20Doomguy02","steam_id":76561199019725313,"connected_time":758000000000,"state":"active","ping":91},{"user_id":474,"name":"midlpsyzl47","steam_id":76561199475972637,"connected_time":80000000000,"state":"active","ping":64},{"user_id":475,"name":"milk","steam_id":76561198080168182,"connected_time":6000000000,"state":"spawning","ping":88},{"user_id":368,"name":"wasto-/-‚Ñ¢","steam_id":76561198102888038,"connected_time":7188000000000,"state":"active","ping":58},{"user_id":469,"name":"Slim3rs","steam_id":76561199088010585,"connected_time":524000000000,"state":"active","ping":187},{"user_id":424,"name":"Davey","steam_id":76561198256879107,"connected_time":4111000000000,"state":"active","ping":77},{"user_id":476,"name":"Vintage Nyan Cat","steam_id":76561198010719998,"connected_time":6000000000,"state":"spawning","ping":47},{"user_id":471,"name":"t.tv/FamilyGuyFunnyMoments277","steam_id":76561198416047580,"connected_time":421000000000,"state":"active","ping":132},{"user_id":458,"name":"Relix18144","steam_id":76561199202454318,"connected_time":1102000000000,"state":"active","ping":81}]},{"server_id":21,"name":"Uncletopia | London | 5 | All Maps","name_short":"lon-5","host":"lon-1.uk.uncletopia.com","port":27055,"enabled":true,"region":"eu","cc":"gb","latitude":51.509865,"longitude":-0.118092,"reserved":0,"last_update":"0001-01-01T00:00:00Z","name_a2s":"Uncletopia | London | 5 | All Maps","protocol":17,"map":"koth_cascade","folder":"tf","game":"Team Fortress","app_id":440,"player_count":0,"max_players":24,"Bots":0,"server_type":"Dedicated","server_os":"Linux","password":true,"vac":true,"version":"7757534","steam_id":85568392924742829,"keywords":["cp","nocrits","nodmgspread","uncletopia"],"game_id":440,"stv_port":27056,"stv_name":"Uncletopia | London | 5 | All Maps | STV","players":null},{"server_id":22,"name":"Uncletopia | London | 6 | All Maps","name_short":"lon-6","host":"lon-1.uk.uncletopia.com","port":27065,"enabled":true,"region":"eu","cc":"gb","latitude":51.509865,"longitude":-0.118092,"reserved":0,"last_update":"0001-01-01T00:00:00Z","name_a2s":"Uncletopia | London | 6 | All Maps","protocol":17,"map":"cp_snakewater_final1","folder":"tf","game":"Team Fortress","app_id":440,"player_count":24,"max_players":24,"Bots":0,"server_type":"Dedicated","server_os":"Linux","password":true,"vac":true,"version":"7757534","steam_id":85568392924742830,"keywords":["cp","nocrits","nodmgspread","uncletopia"],"game_id":440,"stv_port":27066,"stv_name":"Uncletopia | London | 6 | All Maps | STV","players":[{"user_id":8,"name":"One Shiny Boi‚Ñ¢","steam_id":76561198199193627,"connected_time":2694000000000,"state":"active","ping":61},{"user_id":10,"name":"Battery Acid Drinker","steam_id":76561198871136698,"connected_time":2359000000000,"state":"active","ping":41},{"user_id":11,"name":"The Coom Assassin","steam_id":76561198437070985,"connected_time":2308000000000,"state":"active","ping":45},{"user_id":13,"name":"comfy and cozy","steam_id":76561198860068961,"connected_time":1964000000000,"state":"active","ping":114},{"user_id":14,"name":"It's a me Malario","steam_id":76561198176546013,"connected_time":1963000000000,"state":"active","ping":49},{"user_id":21,"name":"Naiten","steam_id":76561198051894514,"connected_time":1191000000000,"state":"active","ping":80},{"user_id":20,"name":"Nummi","steam_id":76561198980901935,"connected_time":1227000000000,"state":"active","ping":75},{"user_id":18,"name":"Soloman","steam_id":76561199212054667,"connected_time":1498000000000,"state":"active","ping":46},{"user_id":19,"name":"shaheen45","steam_id":76561198334819486,"connected_time":1471000000000,"state":"active","ping":141},{"user_id":39,"name":"jackiepot","steam_id":76561199332555917,"connected_time":49000000000,"state":"active","ping":197},{"user_id":23,"name":"Jakk","steam_id":76561198041537908,"connected_time":1019000000000,"state":"active","ping":65},{"user_id":24,"name":"Dispenser","steam_id":76561198130195469,"connected_time":903000000000,"state":"active","ping":88},{"user_id":25,"name":"akakez","steam_id":76561198095432821,"connected_time":788000000000,"state":"active","ping":110},{"user_id":28,"name":"Perci","steam_id":76561198097789669,"connected_time":403000000000,"state":"active","ping":70},{"user_id":27,"name":"Nintails","steam_id":76561198075157560,"connected_time":610000000000,"state":"active","ping":45},{"user_id":29,"name":"Real","steam_id":76561198322220924,"connected_time":298000000000,"state":"active","ping":70},{"user_id":30,"name":"serioussam1968","steam_id":76561198293922542,"connected_time":298000000000,"state":"active","ping":66},{"user_id":31,"name":"Limeg210","steam_id":76561198152671630,"connected_time":260000000000,"state":"active","ping":98},{"user_id":32,"name":"Butt Fangs Fetish","steam_id":76561198038130063,"connected_time":257000000000,"state":"active","ping":74},{"user_id":33,"name":"Havelyn","steam_id":76561198036159862,"connected_time":230000000000,"state":"active","ping":141},{"user_id":34,"name":"Jesus Enjoyer","steam_id":76561198840259819,"connected_time":215000000000,"state":"active","ping":60},{"user_id":35,"name":"Mirson","steam_id":76561198216819539,"connected_time":189000000000,"state":"active","ping":68},{"user_id":37,"name":"Vegemate","steam_id":76561199088297770,"connected_time":118000000000,"state":"active","ping":164},{"user_id":38,"name":"\"Big\" Jack Horner","steam_id":76561199000922074,"connected_time":110000000000,"state":"active","ping":88}]},{"server_id":40,"name":"Uncletopia | London | 7 | No Payload","name_short":"lon-7","host":"lon-1.uk.uncletopia.com","port":27075,"enabled":true,"region":"eu","cc":"gb","latitude":51.509865,"longitude":-0.118092,"reserved":0,"last_update":"0001-01-01T00:00:00Z","name_a2s":"Uncletopia | London | 7 | No Payload","protocol":17,"map":"cp_snakewater_final1","folder":"tf","game":"Team Fortress","app_id":440,"player_count":0,"max_players":24,"Bots":0,"server_type":"Dedicated","server_os":"Linux","password":true,"vac":true,"version":"7757534","steam_id":85568392924964314,"keywords":["cp","nocrits","nodmgspread","uncletopia"],"game_id":440,"stv_port":27076,"stv_name":"Uncletopia | London | 7 | No Payload | STV","players":null},{"server_id":41,"name":"Uncletopia | London | 8 | Community","name_short":"lon-8","host":"lon-1.uk.uncletopia.com","port":27085,"enabled":true,"region":"eu","cc":"gb","latitude":51.509865,"longitude":-0.118092,"reserved":0,"last_update":"0001-01-01T00:00:00Z","name_a2s":"Uncletopia | London | 8 | Community","protocol":17,"map":"workshop/pl_badwater_pro_v12.ugc2142942074","folder":"tf","game":"Team Fortress","app_id":440,"player_count":17,"max_players":24,"Bots":0,"server_type":"Dedicated","server_os":"Linux","password":true,"vac":true,"version":"7757534","steam_id":85568392924964315,"keywords":["nocrits","nodmgspread","payload","uncletopia"],"game_id":440,"stv_port":27086,"stv_name":"Uncletopia | London | 8 | Community | STV","players":[{"user_id":135,"name":"slot3main","steam_id":76561198062688142,"connected_time":2023000000000,"state":"active","ping":56},{"user_id":169,"name":"Majintak","steam_id":76561197967274007,"connected_time":197000000000,"state":"active","ping":174},{"user_id":151,"name":"Pyrolander","steam_id":76561198050785450,"connected_time":1164000000000,"state":"active","ping":52},{"user_id":166,"name":"Laax","steam_id":76561198938409558,"connected_time":304000000000,"state":"active","ping":90},{"user_id":137,"name":"bibib17","steam_id":76561198143319217,"connected_time":1874000000000,"state":"active","ping":89},{"user_id":139,"name":"RT_ratatuj","steam_id":76561199149578671,"connected_time":1738000000000,"state":"active","ping":112},{"user_id":101,"name":"Belgorodec","steam_id":76561199383879505,"connected_time":3834000000000,"state":"active","ping":101},{"user_id":167,"name":"Spetse","steam_id":76561197990649972,"connected_time":250000000000,"state":"active","ping":89},{"user_id":97,"name":"lolgast210(NL)","steam_id":76561198118817234,"connected_time":3902000000000,"state":"active","ping":60},{"user_id":162,"name":"gnome_Chompski","steam_id":76561198962543984,"connected_time":535000000000,"state":"active","ping":181},{"user_id":168,"name":"CarbonPan","steam_id":76561198072169983,"connected_time":204000000000,"state":"active","ping":103},{"user_id":161,"name":"Lavo","steam_id":76561199075056060,"connected_time":604000000000,"state":"active","ping":167},{"user_id":163,"name":"OOF","steam_id":76561198263698995,"connected_time":512000000000,"state":"active","ping":83},{"user_id":164,"name":"Tiki Man","steam_id":76561199274840987,"connected_time":495000000000,"state":"active","ping":99},{"user_id":157,"name":"Egor Pomidor","steam_id":76561199175688390,"connected_time":1003000000000,"state":"active","ping":84},{"user_id":154,"name":"Th3Celestial","steam_id":76561198353312252,"connected_time":1104000000000,"state":"active","ping":51},{"user_id":156,"name":"powej","steam_id":76561198056381418,"connected_time":1083000000000,"state":"active","ping":30}]},{"server_id":300,"name":"Uncletopia | Montr√©al | 1 | All Maps","name_short":"mtl-1","host":"mtl-1.ca.uncletopia.com","port":27015,"enabled":true,"region":"us-east","cc":"ca","latitude":45.50889,"longitude":-73.56167,"reserved":0,"last_update":"0001-01-01T00:00:00Z","name_a2s":"Uncletopia | Montr√©al | 1 | All Maps","protocol":17,"map":"pl_upward","folder":"tf","game":"Team Fortress","app_id":440,"player_count":5,"max_players":24,"Bots":0,"server_type":"Dedicated","server_os":"Linux","password":true,"vac":true,"version":"7757534","steam_id":85568392924500087,"keywords":["nocrits","nodmgspread","payload","uncletopia"],"game_id":440,"stv_port":27016,"stv_name":"Uncletopia | Montr√©al | 1 | All Maps | STV","players":[{"user_id":4,"name":"uhhhh","steam_id":76561199211193548,"connected_time":1137000000000,"state":"active","ping":45},{"user_id":5,"name":"Okayeg","steam_id":76561198255705632,"connected_time":1102000000000,"state":"active","ping":45},{"user_id":7,"name":"jorjor wells","steam_id":76561199073429082,"connected_time":313000000000,"state":"active","ping":59},{"user_id":8,"name":"Error 4 Oh Four","steam_id":76561198121637567,"connected_time":222000000000,"state":"active","ping":79},{"user_id":9,"name":"Whys there a level 3 there?","steam_id":76561198309696109,"connected_time":213000000000,"state":"active","ping":94}]},{"server_id":301,"name":"Uncletopia | Montr√©al | 2 | All Maps","name_short":"mtl-2","host":"mtl-1.ca.uncletopia.com","port":27025,"enabled":true,"region":"us-east","cc":"ca","latitude":45.50889,"longitude":-73.56167,"reserved":0,"last_update":"0001-01-01T00:00:00Z","name_a2s":"Uncletopia | Montr√©al | 2 | All Maps","protocol":17,"map":"pl_snowycoast","folder":"tf","game":"Team Fortress","app_id":440,"player_count":0,"max_players":24,"Bots":0,"server_type":"Dedicated","server_os":"Linux","password":true,"vac":true,"version":"7757534","steam_id":85568392924500088,"keywords":["nocrits","nodmgspread","payload","uncletopia"],"game_id":440,"stv_port":27026,"stv_name":"Uncletopia | Montr√©al | 2 | All Maps | STV","players":null},{"server_id":302,"name":"Uncletopia | Montr√©al | 3 | All Maps","name_short":"mtl-3","host":"mtl-1.ca.uncletopia.com","port":27035,"enabled":true,"region":"us-east","cc":"ca","latitude":45.50889,"longitude":-73.56167,"reserved":0,"last_update":"0001-01-01T00:00:00Z","name_a2s":"Uncletopia | Montr√©al | 3 | All Maps","protocol":17,"map":"pl_swiftwater_final1","folder":"tf","game":"Team Fortress","app_id":440,"player_count":0,"max_players":24,"Bots":0,"server_type":"Dedicated","server_os":"Linux","password":true,"vac":true,"version":"7757534","steam_id":85568392924500089,"keywords":["nocrits","nodmgspread","payload","uncletopia"],"game_id":440,"stv_port":27036,"stv_name":"Uncletopia | Montr√©al | 3 | All Maps | STV","players":null},{"server_id":303,"name":"Uncletopia | Montr√©al | 4 | No Payload","name_short":"mtl-4","host":"mtl-1.ca.uncletopia.com","port":27045,"enabled":true,"region":"us-east","cc":"ca","latitude":45.50889,"longitude":-73.56167,"reserved":0,"last_update":"0001-01-01T00:00:00Z","name_a2s":"Uncletopia | Montr√©al | 4 | No Payload","protocol":17,"map":"pl_pier","folder":"tf","game":"Team Fortress","app_id":440,"player_count":0,"max_players":24,"Bots":0,"server_type":"Dedicated","server_os":"Linux","password":true,"vac":true,"version":"7757534","steam_id":85568392924500090,"keywords":["nocrits","nodmgspread","payload","uncletopia"],"game_id":440,"stv_port":27046,"stv_name":"Uncletopia | Montr√©al | 4 | No Payload | STV","players":null},{"server_id":13,"name":"Uncletopia | New York City | 1 | All Maps","name_short":"nyc-1","host":"nyc-1.us.uncletopia.com","port":27015,"enabled":true,"region":"us-east","cc":"us","latitude":40.73061,"longitude":-73.93524,"reserved":0,"last_update":"0001-01-01T00:00:00Z","name_a2s":"Uncletopia | New York City | 1 | All Maps","protocol":17,"map":"pl_pier","folder":"tf","game":"Team Fortress","app_id":440,"player_count":24,"max_players":24,"Bots":0,"server_type":"Dedicated","server_os":"Linux","password":true,"vac":true,"version":"7757534","steam_id":85568392924469993,"keywords":["nocrits","nodmgspread","payload","uncletopia"],"game_id":440,"stv_port":27016,"stv_name":"Uncletopia | New York City | 1 | All Maps | STV","players":[{"user_id":27,"name":"Mochi","steam_id":76561199151314140,"connected_time":7803000000000,"state":"active","ping":39},{"user_id":91,"name":"JustLooking","steam_id":76561198207877387,"connected_time":1803000000000,"state":"active","ping":41},{"user_id":111,"name":"Sickmind33","steam_id":76561198036248611,"connected_time":805000000000,"state":"active","ping":79},{"user_id":117,"name":"Charlie","steam_id":76561199098209171,"connected_time":455000000000,"state":"active","ping":75},{"user_id":105,"name":"Ciela","steam_id":76561198799403828,"connected_time":1483000000000,"state":"active","ping":62},{"user_id":89,"name":"Errrmmett","steam_id":76561198041314051,"connected_time":2021000000000,"state":"active","ping":60},{"user_id":64,"name":"Cool_Dude_909","steam_id":76561198313870988,"connected_time":4920000000000,"state":"active","ping":46},{"user_id":98,"name":"Indigolake","steam_id":76561198202215807,"connected_time":1700000000000,"state":"active","ping":69},{"user_id":96,"name":"BasicPeaches","steam_id":76561198190890150,"connected_time":1742000000000,"state":"active","ping":61},{"user_id":37,"name":"ok","steam_id":76561198445140249,"connected_time":6372000000000,"state":"active","ping":65},{"user_id":67,"name":"urnotpeter","steam_id":76561198109904696,"connected_time":4349000000000,"state":"active","ping":52},{"user_id":118,"name":"r0zemary (she/her)","steam_id":76561198128494897,"connected_time":441000000000,"state":"active","ping":78},{"user_id":85,"name":"Tri","steam_id":76561199056586386,"connected_time":3032000000000,"state":"active","ping":64},{"user_id":84,"name":"laddie","steam_id":76561198063029230,"connected_time":3192000000000,"state":"active","ping":56},{"user_id":102,"name":"TATARA","steam_id":76561199098759517,"connected_time":1570000000000,"state":"active","ping":117},{"user_id":116,"name":"21 Percent Milk","steam_id":76561198118529039,"connected_time":488000000000,"state":"active","ping":51},{"user_id":119,"name":"2 shitties meta slave","steam_id":76561198181026127,"connected_time":421000000000,"state":"active","ping":67},{"user_id":77,"name":"TF2 players are retarded","steam_id":76561198039763676,"connected_time":3906000000000,"state":"active","ping":70},{"user_id":115,"name":"cheers2x","steam_id":76561198366299848,"connected_time":570000000000,"state":"active","ping":65},{"user_id":86,"name":"Clark Rizzwold","steam_id":76561199124375673,"connected_time":2426000000000,"state":"active","ping":148},{"user_id":112,"name":"chuck","steam_id":76561198102300433,"connected_time":802000000000,"state":"active","ping":74},{"user_id":106,"name":":3 Ozbulu","steam_id":76561198067176829,"connected_time":1446000000000,"state":"active","ping":119},{"user_id":113,"name":"mau","steam_id":76561198354473513,"connected_time":794000000000,"state":"active","ping":73},{"user_id":103,"name":"Orc_estrion","steam_id":76561198210943347,"connected_time":1551000000000,"state":"active","ping":75}]},{"server_id":14,"name":"Uncletopia | New York City | 2 | All Maps","name_short":"nyc-2","host":"nyc-1.us.uncletopia.com","port":27025,"enabled":true,"region":"us-east","cc":"us","latitude":40.73061,"longitude":-73.93524,"reserved":0,"last_update":"0001-01-01T00:00:00Z","name_a2s":"Uncletopia | New York City | 2 | All Maps","protocol":17,"map":"pl_barnblitz","folder":"tf","game":"Team Fortress","app_id":440,"player_count":24,"max_players":24,"Bots":0,"server_type":"Dedicated","server_os":"Linux","password":true,"vac":true,"version":"7757534","steam_id":85568392924469994,"keywords":["nocrits","nodmgspread","payload","uncletopia"],"game_id":440,"stv_port":27026,"stv_name":"Uncletopia | New York City | 2 | All Maps | STV","players":[{"user_id":125,"name":"BryBryxd","steam_id":76561198012937115,"connected_time":2985000000000,"state":"active","ping":45},{"user_id":144,"name":"Niamh","steam_id":76561198244253680,"connected_time":2403000000000,"state":"active","ping":64},{"user_id":155,"name":"Zero","steam_id":76561199383267408,"connected_time":1793000000000,"state":"active","ping":75},{"user_id":159,"name":"Ezzbrez","steam_id":76561198009809450,"connected_time":1493000000000,"state":"active","ping":69},{"user_id":158,"name":"marksman75u","steam_id":76561198106267574,"connected_time":1611000000000,"state":"active","ping":84},{"user_id":161,"name":"a narwhal","steam_id":76561198014527353,"connected_time":1310000000000,"state":"active","ping":61},{"user_id":166,"name":"TI-83 Plus","steam_id":76561198316134443,"connected_time":974000000000,"state":"active","ping":76},{"user_id":169,"name":"gorila","steam_id":76561198272618816,"connected_time":317000000000,"state":"active","ping":48},{"user_id":162,"name":"jema","steam_id":76561198276513608,"connected_time":1270000000000,"state":"active","ping":161},{"user_id":117,"name":"carrion goat she/it","steam_id":76561198262064871,"connected_time":3856000000000,"state":"active","ping":33},{"user_id":139,"name":"A_Malebolgia","steam_id":76561198097722818,"connected_time":2558000000000,"state":"active","ping":80},{"user_id":129,"name":"shake","steam_id":76561199064204750,"connected_time":2925000000000,"state":"active","ping":68},{"user_id":164,"name":"thomasdee725!!!!","steam_id":76561199189526173,"connected_time":1021000000000,"state":"active","ping":70},{"user_id":172,"name":"Captain Slow","steam_id":76561198116957161,"connected_time":223000000000,"state":"active","ping":43},{"user_id":137,"name":"catboy phroliax","steam_id":76561198207075529,"connected_time":2578000000000,"state":"active","ping":79},{"user_id":96,"name":"cass","steam_id":76561198074502046,"connected_time":4740000000000,"state":"active","ping":80},{"user_id":171,"name":"kametro4","steam_id":76561198835430429,"connected_time":248000000000,"state":"active","ping":76},{"user_id":138,"name":"Wahooka","steam_id":76561197962240925,"connected_time":2572000000000,"state":"active","ping":58},{"user_id":101,"name":"One week at Frederick's","steam_id":76561198264752535,"connected_time":4655000000000,"state":"active","ping":64},{"user_id":102,"name":"Kraul","steam_id":76561198043682060,"connected_time":4639000000000,"state":"active","ping":104},{"user_id":132,"name":"The Mayo Man","steam_id":76561197995377425,"connected_time":2821000000000,"state":"active","ping":73},{"user_id":118,"name":"Arin The Wolf","steam_id":76561198356310973,"connected_time":3839000000000,"state":"active","ping":111},{"user_id":131,"name":"creamy","steam_id":76561198157435832,"connected_time":2870000000000,"state":"active","ping":77},{"user_id":147,"name":"phll","steam_id":76561198110430494,"connected_time":2231000000000,"state":"active","ping":54}]},{"server_id":15,"name":"Uncletopia | New York City | 3 | Stopwatch Beta","name_short":"nyc-3","host":"nyc-1.us.uncletopia.com","port":27035,"enabled":true,"region":"us-east","cc":"us","latitude":40.73061,"longitude":-73.93524,"reserved":0,"last_update":"0001-01-01T00:00:00Z","name_a2s":"Uncletopia | New York City | 3 | Stopwatch Beta","protocol":17,"map":"pl_upward","folder":"tf","game":"Team Fortress","app_id":440,"player_count":0,"max_players":24,"Bots":0,"server_type":"Dedicated","server_os":"Linux","password":true,"vac":true,"version":"7757534","steam_id":85568392924742820,"keywords":["nocrits","nodmgspread","payload","uncletopia"],"game_id":440,"stv_port":27036,"stv_name":"Uncletopia | New York City | 3 | Stopwatch Beta | STV","players":null},{"server_id":16,"name":"Uncletopia | New York City | 4 | Community","name_short":"nyc-4","host":"nyc-1.us.uncletopia.com","port":27045,"enabled":true,"region":"us-east","cc":"us","latitude":40.73061,"longitude":-73.93524,"reserved":0,"last_update":"0001-01-01T00:00:00Z","name_a2s":"Uncletopia | New York City | 4 | Community","protocol":17,"map":"workshop/cp_reckoner_rc6.ugc674719999","folder":"tf","game":"Team Fortress","app_id":440,"player_count":0,"max_players":24,"Bots":0,"server_type":"Dedicated","server_os":"Linux","password":true,"vac":true,"version":"7757534","steam_id":85568392924742821,"keywords":["cp","nocrits","nodmgspread","uncletopia"],"game_id":440,"stv_port":27046,"stv_name":"Uncletopia | New York City | 4 | Community | STV","players":null},{"server_id":142,"name":"Uncletopia | S√£o Paulo | 1 | All Maps","name_short":"sao-1","host":"sao-1.br.uncletopia.com","port":27015,"enabled":true,"region":"sa","cc":"br","latitude":-23.533773,"longitude":-46.62529,"reserved":0,"last_update":"0001-01-01T00:00:00Z","name_a2s":"Uncletopia | S√£o Paulo | 1 | All Maps","protocol":17,"map":"pl_borneo","folder":"tf","game":"Team Fortress","app_id":440,"player_count":0,"max_players":24,"Bots":0,"server_type":"Dedicated","server_os":"Linux","password":true,"vac":true,"version":"7757534","steam_id":85568392924469996,"keywords":["nocrits","nodmgspread","payload","uncletopia"],"game_id":440,"stv_port":27016,"stv_name":"Uncletopia | S√£o Paulo | 1 | All Maps | STV","players":null},{"server_id":143,"name":"Uncletopia | S√£o Paulo | 2 | All Maps","name_short":"sao-2","host":"sao-2.br.uncletopia.com","port":27015,"enabled":true,"region":"sa","cc":"br","latitude":-23.533773,"longitude":-46.62529,"reserved":0,"last_update":"0001-01-01T00:00:00Z","name_a2s":"Uncletopia | S√£o Paulo | 2 | All Maps","protocol":17,"map":"koth_cascade","folder":"tf","game":"Team Fortress","app_id":440,"player_count":0,"max_players":24,"Bots":0,"server_type":"Dedicated","server_os":"Linux","password":true,"vac":true,"version":"7757534","steam_id":85568392924485349,"keywords":["cp","nocrits","nodmgspread","uncletopia"],"game_id":440,"stv_port":27016,"stv_name":"Uncletopia | S√£o Paulo | 2 | All Maps | STV","players":null},{"server_id":7,"name":"Uncletopia | Seattle | 1 | All Maps","name_short":"sea-1","host":"sea-1.us.uncletopia.com","port":27015,"enabled":true,"region":"us-west","cc":"us","latitude":47.608013,"longitude":-122.33517,"reserved":0,"last_update":"0001-01-01T00:00:00Z","name_a2s":"Uncletopia | Seattle | 1 | All Maps","protocol":17,"map":"pl_pier","folder":"tf","game":"Team Fortress","app_id":440,"player_count":24,"max_players":24,"Bots":0,"server_type":"Dedicated","server_os":"Linux","password":true,"vac":true,"version":"7757534","steam_id":85568392924469997,"keywords":["nocrits","nodmgspread","payload","uncletopia"],"game_id":440,"stv_port":27016,"stv_name":"Uncletopia | Seattle | 1 | All Maps | STV","players":[{"user_id":266,"name":"Anon","steam_id":76561198109740776,"connected_time":58000000000,"state":"active","ping":100},{"user_id":221,"name":"purple‚Ñ¢ | they/she","steam_id":76561198057459725,"connected_time":3404000000000,"state":"active","ping":57},{"user_id":251,"name":"‡∏∏","steam_id":76561198212421513,"connected_time":780000000000,"state":"active","ping":75},{"user_id":106,"name":"Soozy420","steam_id":76561198809074422,"connected_time":11362000000000,"state":"active","ping":75},{"user_id":263,"name":"DualiTea","steam_id":76561198081733870,"connected_time":276000000000,"state":"active","ping":91},{"user_id":264,"name":"Rudolpho","steam_id":76561197971586420,"connected_time":263000000000,"state":"active","ping":111},{"user_id":248,"name":"heheheha","steam_id":76561198975706117,"connected_time":1233000000000,"state":"active","ping":73},{"user_id":241,"name":"Achy_Blitz","steam_id":76561198090433209,"connected_time":1572000000000,"state":"active","ping":152},{"user_id":265,"name":"noellehound","steam_id":76561198108844158,"connected_time":255000000000,"state":"active","ping":89},{"user_id":225,"name":"Mediarch","steam_id":76561198050765729,"connected_time":3328000000000,"state":"active","ping":49},{"user_id":209,"name":"mobe","steam_id":76561198121633820,"connected_time":4554000000000,"state":"active","ping":75},{"user_id":249,"name":"zzZZz","steam_id":76561198095480838,"connected_time":1090000000000,"state":"active","ping":45},{"user_id":252,"name":"SibilantSerpent","steam_id":76561198154488754,"connected_time":762000000000,"state":"active","ping":57},{"user_id":253,"name":"bobbyreinman2009","steam_id":76561198804763186,"connected_time":707000000000,"state":"active","ping":119},{"user_id":254,"name":"nnobi","steam_id":76561198878729277,"connected_time":661000000000,"state":"active","ping":134},{"user_id":212,"name":"lili spacedust ezili","steam_id":76561199391478575,"connected_time":4228000000000,"state":"active","ping":73},{"user_id":246,"name":"dust | she/it","steam_id":76561198045218909,"connected_time":1341000000000,"state":"active","ping":44},{"user_id":236,"name":"Level 99 Mudcrab","steam_id":76561198077452771,"connected_time":1902000000000,"state":"active","ping":60},{"user_id":49,"name":"Neo Kojiro","steam_id":76561198000967076,"connected_time":16723000000000,"state":"active","ping":126},{"user_id":255,"name":"Jamie(^_^)","steam_id":76561198835286379,"connected_time":591000000000,"state":"active","ping":130},{"user_id":260,"name":"JayJayMed320 (She/Her)","steam_id":76561198286568264,"connected_time":414000000000,"state":"active","ping":58},{"user_id":257,"name":"Pinky","steam_id":76561198084685841,"connected_time":544000000000,"state":"active","ping":56},{"user_id":258,"name":"Chancethefapper69","steam_id":76561198173086317,"connected_time":534000000000,"state":"active","ping":135},{"user_id":243,"name":"Y2K","steam_id":76561199191855486,"connected_time":1554000000000,"state":"active","ping":52}]},{"server_id":119,"name":"Uncletopia | Seattle | 2 | All Maps","name_short":"sea-2","host":"sea-1.us.uncletopia.com","port":27025,"enabled":true,"region":"us-west","cc":"us","latitude":47.608013,"longitude":-122.33517,"reserved":0,"last_update":"0001-01-01T00:00:00Z","name_a2s":"Uncletopia | Seattle | 2 | All Maps","protocol":17,"map":"pl_snowycoast","folder":"tf","game":"Team Fortress","app_id":440,"player_count":0,"max_players":24,"Bots":0,"server_type":"Dedicated","server_os":"Linux","password":true,"vac":true,"version":"7757534","steam_id":85568392924469998,"keywords":["nocrits","nodmgspread","payload","uncletopia"],"game_id":440,"stv_port":27026,"stv_name":"Uncletopia | Seattle | 2 | All Maps | STV","players":null},{"server_id":406,"name":"Uncletopia | Seattle | 3 | Stopwatch Beta","name_short":"sea-3","host":"sea-1.us.uncletopia.com","port":27035,"enabled":true,"region":"us-west","cc":"us","latitude":47.608013,"longitude":-122.33517,"reserved":0,"last_update":"0001-01-01T00:00:00Z","name_a2s":"Uncletopia | Seattle | 3 | Stopwatch Beta","protocol":17,"map":"cp_dustbowl","folder":"tf","game":"Team Fortress","app_id":440,"player_count":0,"max_players":24,"Bots":0,"server_type":"Dedicated","server_os":"Linux","password":true,"vac":true,"version":"7757534","steam_id":85568392924515217,"keywords":["cp","nocrits","nodmgspread","uncletopia"],"game_id":440,"stv_port":27036,"stv_name":"Uncletopia | Seattle | 3 | Stopwatch Beta | STV","players":null},{"server_id":17,"name":"Uncletopia | San Francisco | 1 | All Maps","name_short":"sfo-1","host":"sfo-1.us.uncletopia.com","port":27015,"enabled":true,"region":"us-west","cc":"us","latitude":37.77397,"longitude":-122.4313,"reserved":0,"last_update":"0001-01-01T00:00:00Z","name_a2s":"Uncletopia | San Francisco | 1 | All Maps","protocol":17,"map":"cp_dustbowl","folder":"tf","game":"Team Fortress","app_id":440,"player_count":20,"max_players":24,"Bots":0,"server_type":"Dedicated","server_os":"Linux","password":true,"vac":true,"version":"7757534","steam_id":85568392924469999,"keywords":["cp","nocrits","nodmgspread","uncletopia"],"game_id":440,"stv_port":27016,"stv_name":"Uncletopia | San Francisco | 1 | All Maps | STV","players":[{"user_id":111,"name":"Wendall555","steam_id":76561198985637603,"connected_time":37000000000,"state":"active","ping":50},{"user_id":73,"name":"yesu","steam_id":76561199411502345,"connected_time":2046000000000,"state":"active","ping":63},{"user_id":84,"name":"ToonBoi","steam_id":76561199107879515,"connected_time":1142000000000,"state":"active","ping":110},{"user_id":90,"name":"gl1tchr","steam_id":76561198302661983,"connected_time":949000000000,"state":"active","ping":117},{"user_id":91,"name":"TrustyNumberTwo","steam_id":76561199158481147,"connected_time":946000000000,"state":"active","ping":57},{"user_id":103,"name":"heimdall","steam_id":76561198069380992,"connected_time":603000000000,"state":"active","ping":98},{"user_id":112,"name":"Dergi","steam_id":76561198040843250,"connected_time":34000000000,"state":"active","ping":206},{"user_id":94,"name":"K2f","steam_id":76561198049600563,"connected_time":883000000000,"state":"active","ping":47},{"user_id":81,"name":"Vensita","steam_id":76561198372434928,"connected_time":1562000000000,"state":"active","ping":78},{"user_id":110,"name":"Ferry gary","steam_id":76561198184698262,"connected_time":325000000000,"state":"active","ping":61},{"user_id":68,"name":"old birb man","steam_id":76561199410269097,"connected_time":2376000000000,"state":"active","ping":93},{"user_id":106,"name":"weenie hut jr","steam_id":76561198206922028,"connected_time":469000000000,"state":"active","ping":51},{"user_id":95,"name":"amaricantanker#574","steam_id":76561198343584037,"connected_time":875000000000,"state":"active","ping":59},{"user_id":97,"name":"justcallmesam56","steam_id":76561198309676005,"connected_time":832000000000,"state":"active","ping":116},{"user_id":46,"name":"RapidXenophage","steam_id":76561198175149973,"connected_time":3820000000000,"state":"active","ping":75},{"user_id":82,"name":"Buswolley","steam_id":76561197995205571,"connected_time":1548000000000,"state":"active","ping":49},{"user_id":99,"name":"ShredMaan","steam_id":76561198429982138,"connected_time":759000000000,"state":"active","ping":52},{"user_id":107,"name":"bad bitch lover","steam_id":76561199065645094,"connected_time":466000000000,"state":"active","ping":83},{"user_id":109,"name":"Bony","steam_id":76561199001748822,"connected_time":442000000000,"state":"active","ping":51},{"user_id":101,"name":"Mengle","steam_id":76561198001953684,"connected_time":739000000000,"state":"active","ping":108}]},{"server_id":18,"name":"Uncletopia | San Francisco | 2 | All Maps","name_short":"sfo-2","host":"sfo-1.us.uncletopia.com","port":27025,"enabled":true,"region":"us-west","cc":"us","latitude":37.77397,"longitude":-122.4313,"reserved":0,"last_update":"0001-01-01T00:00:00Z","name_a2s":"Uncletopia | San Francisco | 2 | All Maps","protocol":17,"map":"pl_barnblitz","folder":"tf","game":"Team Fortress","app_id":440,"player_count":4,"max_players":24,"Bots":0,"server_type":"Dedicated","server_os":"Linux","password":true,"vac":true,"version":"7757534","steam_id":85568392924470000,"keywords":["nocrits","nodmgspread","payload","uncletopia"],"game_id":440,"stv_port":27026,"stv_name":"Uncletopia | San Francisco | 2 | All Maps | STV","players":[{"user_id":18,"name":"Oktayey","steam_id":76561198143213426,"connected_time":130000000000,"state":"active","ping":44},{"user_id":16,"name":"mini-sentry","steam_id":76561199088135362,"connected_time":940000000000,"state":"active","ping":62},{"user_id":11,"name":"Professorstino","steam_id":76561199117907277,"connected_time":1342000000000,"state":"active","ping":123},{"user_id":13,"name":"NiceWorkBoyo","steam_id":76561198447398787,"connected_time":1329000000000,"state":"active","ping":130}]},{"server_id":19,"name":"Uncletopia | San Francisco | 3 | Stopwatch Beta","name_short":"sfo-3","host":"sfo-1.us.uncletopia.com","port":27035,"enabled":true,"region":"us-west","cc":"us","latitude":37.77397,"longitude":-122.4313,"reserved":0,"last_update":"0001-01-01T00:00:00Z","name_a2s":"Uncletopia | San Francisco | 3 | Stopwatch Beta","protocol":17,"map":"koth_lakeside_final","folder":"tf","game":"Team Fortress","app_id":440,"player_count":0,"max_players":24,"Bots":0,"server_type":"Dedicated","server_os":"Linux","password":true,"vac":true,"version":"7757534","steam_id":85568392924742824,"keywords":["cp","nocrits","nodmgspread","uncletopia"],"game_id":440,"stv_port":27036,"stv_name":"Uncletopia | San Francisco | 3 | Stopwatch Beta | STV","players":null},{"server_id":20,"name":"Uncletopia | San Francisco | 4 | Community","name_short":"sfo-4","host":"sfo-1.us.uncletopia.com","port":27045,"enabled":true,"region":"us-west","cc":"us","latitude":37.77397,"longitude":-122.4313,"reserved":0,"last_update":"0001-01-01T00:00:00Z","name_a2s":"Uncletopia | San Francisco | 4 | Community","protocol":17,"map":"cp_altitude","folder":"tf","game":"Team Fortress","app_id":440,"player_count":0,"max_players":24,"Bots":0,"server_type":"Dedicated","server_os":"Linux","password":true,"vac":true,"version":"7757534","steam_id":85568392924742826,"keywords":["cp","nocrits","nodmgspread","uncletopia"],"game_id":440,"stv_port":27046,"stv_name":"Uncletopia | San Francisco | 4 | Community | STV","players":null},{"server_id":141,"name":"Uncletopia | Sydney | 1 | All Maps","name_short":"syd-1","host":"syd-1.au.uncletopia.com","port":27015,"enabled":true,"region":"au","cc":"au","latitude":-33.865143,"longitude":151.2099,"reserved":0,"last_update":"0001-01-01T00:00:00Z","name_a2s":"Uncletopia | Sydney | 1 | All Maps","protocol":17,"map":"koth_viaduct","folder":"tf","game":"Team Fortress","app_id":440,"player_count":0,"max_players":24,"Bots":0,"server_type":"Dedicated","server_os":"Linux","password":true,"vac":true,"version":"7757534","steam_id":85568392924470001,"keywords":["cp","nocrits","nodmgspread","uncletopia"],"game_id":440,"stv_port":27016,"stv_name":"Uncletopia | Sydney | 1 | All Maps | STV","players":null},{"server_id":123,"name":"Uncletopia | Sydney | 2 | All Maps","name_short":"syd-2","host":"syd-1.au.uncletopia.com","port":27025,"enabled":true,"region":"au","cc":"au","latitude":-33.865143,"longitude":151.2099,"reserved":0,"last_update":"0001-01-01T00:00:00Z","name_a2s":"Uncletopia | Sydney | 2 | All Maps","protocol":17,"map":"cp_process_final","folder":"tf","game":"Team Fortress","app_id":440,"player_count":0,"max_players":24,"Bots":0,"server_type":"Dedicated","server_os":"Linux","password":true,"vac":true,"version":"7757534","steam_id":85568392924470002,"keywords":["cp","nocrits","nodmgspread","uncletopia"],"game_id":440,"stv_port":27026,"stv_name":"Uncletopia | Sydney | 2 | All Maps | STV","players":null},{"server_id":395,"name":"Uncletopia | Sydney | 3 | All Maps","name_short":"syd-3","host":"syd-1.au.uncletopia.com","port":27035,"enabled":true,"region":"au","cc":"au","latitude":-33.865143,"longitude":151.2099,"reserved":0,"last_update":"0001-01-01T00:00:00Z","name_a2s":"Uncletopia | Sydney | 3 | All Maps","protocol":17,"map":"pl_swiftwater_final1","folder":"tf","game":"Team Fortress","app_id":440,"player_count":0,"max_players":24,"Bots":0,"server_type":"Dedicated","server_os":"Linux","password":true,"vac":true,"version":"7757534","steam_id":85568392925194467,"keywords":["nocrits","nodmgspread","payload","uncletopia"],"game_id":440,"stv_port":27036,"stv_name":"Uncletopia | Sydney | 3 | All Maps | STV","players":null},{"server_id":396,"name":"Uncletopia | Sydney | 4 | All Maps","name_short":"syd-4","host":"syd-1.au.uncletopia.com","port":27045,"enabled":true,"region":"au","cc":"au","latitude":-33.865143,"longitude":151.2099,"reserved":0,"last_update":"0001-01-01T00:00:00Z","name_a2s":"Uncletopia | Sydney | 4 | All Maps","protocol":17,"map":"koth_highpass","folder":"tf","game":"Team Fortress","app_id":440,"player_count":1,"max_players":24,"Bots":0,"server_type":"Dedicated","server_os":"Linux","password":true,"vac":true,"version":"7757534","steam_id":85568392925397958,"keywords":["cp","nocrits","nodmgspread","uncletopia"],"game_id":440,"stv_port":27046,"stv_name":"Uncletopia | Sydney | 4 | All Maps | STV","players":[{"user_id":3,"name":"the person \u003e:)","steam_id":76561198992372174,"connected_time":564000000000,"state":"active","ping":232}]},{"server_id":58,"name":"Uncletopia | Sydney | 5 | Stopwatch Beta","name_short":"syd-5","host":"syd-1.au.uncletopia.com","port":27055,"enabled":true,"region":"au","cc":"au","latitude":-33.865143,"longitude":151.2099,"reserved":0,"last_update":"0001-01-01T00:00:00Z","name_a2s":"Uncletopia | Sydney | 5 | Stopwatch Beta","protocol":17,"map":"koth_cascade","folder":"tf","game":"Team Fortress","app_id":440,"player_count":0,"max_players":24,"Bots":0,"server_type":"Dedicated","server_os":"Linux","password":true,"vac":true,"version":"7757534","steam_id":85568392925397959,"keywords":["cp","nocrits","nodmgspread","uncletopia"],"game_id":440,"stv_port":27056,"stv_name":"Uncletopia | Sydney | 5 | Stopwatch Beta | STV","players":null},{"server_id":59,"name":"Uncletopia | Sydney | 6 | Community","name_short":"syd-6","host":"syd-1.au.uncletopia.com","port":27065,"enabled":true,"region":"au","cc":"au","latitude":-33.865143,"longitude":151.2099,"reserved":0,"last_update":"0001-01-01T00:00:00Z","name_a2s":"Uncletopia | Sydney | 6 | Community","protocol":17,"map":"cp_snakewater_final1","folder":"tf","game":"Team Fortress","app_id":440,"player_count":0,"max_players":24,"Bots":0,"server_type":"Dedicated","server_os":"Linux","password":true,"vac":true,"version":"7757534","steam_id":85568392925397960,"keywords":["cp","nocrits","nodmgspread","uncletopia"],"game_id":440,"stv_port":27066,"stv_name":"Uncletopia | Sydney | 6 | Community | STV","players":null},{"server_id":49,"name":"Uncletopia | Warsaw | 1 | All Maps","name_short":"waw-1","host":"waw-1.pl.uncletopia.com","port":27015,"enabled":true,"region":"eu","cc":"pl","latitude":52.2297,"longitude":21.017532,"reserved":0,"last_update":"0001-01-01T00:00:00Z","name_a2s":"","protocol":0,"map":"","folder":"","game":"","app_id":0,"player_count":0,"max_players":0,"Bots":0,"server_type":"","server_os":"","password":false,"vac":false,"version":"","steam_id":0,"keywords":null,"game_id":0,"stv_port":0,"stv_name":"","players":null},{"server_id":50,"name":"Uncletopia | Warsaw | 2 | All Maps","name_short":"waw-2","host":"waw-1.pl.uncletopia.com","port":27025,"enabled":true,"region":"eu","cc":"pl","latitude":52.2297,"longitude":21.017532,"reserved":0,"last_update":"0001-01-01T00:00:00Z","name_a2s":"Uncletopia | Warsaw | 2 | All Maps","protocol":17,"map":"koth_viaduct","folder":"tf","game":"Team Fortress","app_id":440,"player_count":0,"max_players":24,"Bots":0,"server_type":"Dedicated","server_os":"Linux","password":true,"vac":true,"version":"7757534","steam_id":85568392925397851,"keywords":["cp","nocrits","nodmgspread","uncletopia"],"game_id":440,"stv_port":27026,"stv_name":"Uncletopia | Warsaw | 2 | All Maps | STV","players":null},{"server_id":51,"name":"Uncletopia | Warsaw | 3 | All Maps","name_short":"waw-3","host":"waw-1.pl.uncletopia.com","port":27035,"enabled":true,"region":"eu","cc":"pl","latitude":52.2297,"longitude":21.017532,"reserved":0,"last_update":"0001-01-01T00:00:00Z","name_a2s":"Uncletopia | Warsaw | 3 | All Maps","protocol":17,"map":"pl_pier","folder":"tf","game":"Team Fortress","app_id":440,"player_count":0,"max_players":24,"Bots":0,"server_type":"Dedicated","server_os":"Linux","password":true,"vac":true,"version":"7757534","steam_id":85568392925397852,"keywords":["nocrits","nodmgspread","payload","uncletopia"],"game_id":440,"stv_port":27036,"stv_name":"Uncletopia | Warsaw | 3 | All Maps | STV","players":null},{"server_id":52,"name":"Uncletopia | Warsaw | 4 | All Maps","name_short":"waw-4","host":"waw-1.pl.uncletopia.com","port":27045,"enabled":true,"region":"eu","cc":"pl","latitude":52.2297,"longitude":21.017532,"reserved":0,"last_update":"0001-01-01T00:00:00Z","name_a2s":"Uncletopia | Warsaw | 4 | All Maps","protocol":17,"map":"koth_lakeside_final","folder":"tf","game":"Team Fortress","app_id":440,"player_count":0,"max_players":24,"Bots":0,"server_type":"Dedicated","server_os":"Linux","password":true,"vac":true,"version":"7757534","steam_id":85568392925397853,"keywords":["cp","nocrits","nodmgspread","uncletopia"],"game_id":440,"stv_port":27046,"stv_name":"Uncletopia | Warsaw | 4 | All Maps | STV","players":null},{"server_id":53,"name":"Uncletopia | Warsaw | 5 | Stopwatch Beta","name_short":"waw-5","host":"waw-1.pl.uncletopia.com","port":27055,"enabled":true,"region":"eu","cc":"pl","latitude":52.2297,"longitude":21.017532,"reserved":0,"last_update":"0001-01-01T00:00:00Z","name_a2s":"Uncletopia | Warsaw | 5 | Stopwatch Beta","protocol":17,"map":"pl_borneo","folder":"tf","game":"Team Fortress","app_id":440,"player_count":0,"max_players":24,"Bots":0,"server_type":"Dedicated","server_os":"Linux","password":true,"vac":true,"version":"7757534","steam_id":85568392925397854,"keywords":["nocrits","nodmgspread","payload","uncletopia"],"game_id":440,"stv_port":27056,"stv_name":"Uncletopia | Warsaw | 5 | Stopwatch Beta | STV","players":null},{"server_id":54,"name":"Uncletopia | Warsaw | 6 | Community","name_short":"waw-6","host":"waw-1.pl.uncletopia.com","port":27065,"enabled":true,"region":"eu","cc":"pl","latitude":52.2297,"longitude":21.017532,"reserved":0,"last_update":"0001-01-01T00:00:00Z","name_a2s":"Uncletopia | Warsaw | 6 | Community","protocol":17,"map":"workshop/cp_indulge.ugc528106646","folder":"tf","game":"Team Fortress","app_id":440,"player_count":0,"max_players":24,"Bots":0,"server_type":"Dedicated","server_os":"Linux","password":true,"vac":true,"version":"7757534","steam_id":85568392925397856,"keywords":["cp","nocrits","nodmgspread","uncletopia"],"game_id":440,"stv_port":27066,"stv_name":"Uncletopia | Warsaw | 6 | Community | STV","players":null}]}