{"status":true,"message":"","result":[{"server_id":9,"name":"Uncletopia | Atlanta | 1 | All Maps","name_short":"atl-1","host":"atl-1.us.uncletopia.com","port":27015,"enabled":true,"region":"us-east","cc":"us","latitude":33.753746,"longitude":-84.38633,"reserved":0,"last_update":"0001-01-01T00:00:00Z","name_a2s":"Uncletopia | Atlanta | 1 | All Maps","protocol":17,"map":"pl_badwater","folder":"tf","game":"Team Fortress","app_id":440,"player_count":23,"max_players":24,"Bots":0,"server_type":"Dedicated","server_os":"Linux","password":true,"vac":true,"version":"7961495","steam_id":85568392924469982,"keywords":["nocrits","nodmgspread","payload","uncletopia"],"game_id":440,"stv_port":27016,"stv_name":"Uncletopia | Atlanta | 1 | All Maps | STV","players":null},{"server_id":104,"name":"Uncletopia | Atlanta | 2 | All Maps","name_short":"atl-2","host":"atl-1.us.uncletopia.com","port":27025,"enabled":true,"region":"us-east","cc":"us","latitude":33.753746,"longitude":-84.38633,"reserved":0,"last_update":"0001-01-01T00:00:00Z","name_a2s":"Uncletopia | Atlanta | 2 | All Maps","protocol":17,"map":"koth_nucleus","folder":"tf","game":"Team Fortress","app_id":440,"player_count":20,"max_players":24,"Bots":0,"server_type":"Dedicated","server_os":"Linux","password":true,"vac":true,"version":"7961495","steam_id":85568392924469983,"keywords":["cp","nocrits","nodmgspread","uncletopia"],"game_id":440,"stv_port":27026,"stv_name":"Uncletopia | Atlanta | 2 | All Maps | STV","players":null},{"server_id":400,"name":"Uncletopia | Atlanta | 3 | All Maps","name_short":"atl-3","host":"atl-1.us.uncletopia.com","port":27035,"enabled":true,"region":"us-east","cc":"us","latitude":33.753746,"longitude":-84.38633,"reserved":0,"last_update":"0001-01-01T00:00:00Z","name_a2s":"Uncletopia | Atlanta | 3 | All Maps","protocol":17,"map":"pl_snowycoast","folder":"tf","game":"Team Fortress","app_id":440,"player_count":24,"max_players":24,"Bots":0,"server_type":"Dedicated","server_os":"Linux","password":true,"vac":true,"version":"7961495","steam_id":85568392924515187,"keywords":["nocrits","nodmgspread","payload","uncletopia"],"game_id":440,"stv_port":27036,"stv_name":"Uncletopia | Atlanta | 3 | All Maps | STV","players":null},{"server_id":401,"name":"Uncletopia | Atlanta | 4 | Community","name_short":"atl-4","host":"atl-1.us.uncletopia.com","port":27045,"enabled":true,"region":"us-east","cc":"us","latitude":33.753746,"longitude":-84.38633,"reserved":0,"last_update":"0001-01-01T00:00:00Z","name_a2s":"Uncletopia | Atlanta | 4 | Community","protocol":17,"map":"koth_trenchfoot_b1a","folder":"tf","game":"Team Fortress","app_id":440,"player_count":0,"max_players":24,"Bots":0,"server_type":"Dedicated","server_os":"Linux","password":true,"vac":true,"version":"7961495","steam_id":85568392924515188,"keywords":["cp","nocrits","nodmgspread","uncletopia"],"game_id":440,"stv_port":27046,"stv_name":"Uncletopia | Atlanta | 4 | Community | STV","players":null},{"server_id":2,"name":"Uncletopia | Chicago | 1 | All Maps","name_short":"chi-1","host":"chi-1.us.uncletopia.com","port":27015,"enabled":true,"region":"us-central","cc":"us","latitude":41.881832,"longitude":-87.62318,"reserved":0,"last_update":"0001-01-01T00:00:00Z","name_a2s":"Uncletopia | Chicago | 1 | All Maps","protocol":17,"map":"pl_upward","folder":"tf","game":"Team Fortress","app_id":440,"player_count":24,"max_players":24,"Bots":0,"server_type":"Dedicated","server_os":"Linux","password":true,"vac":true,"version":"7961495","steam_id":85568392924469984,"keywords":["nocrits","nodmgspread","payload","uncletopia"],"game_id":440,"stv_port":27016,"stv_name":"Uncletopia | Chicago | 1 | All Maps | STV","players":[{"user_id":382,"name":"Flaco","steam_id":76561198356923745,"connected_time":2054000000000,"state":"active","ping":85},{"user_id":405,"name":"Rneak","steam_id":76561199102075970,"connected_time":671000000000,"state":"active","ping":79},{"user_id":393,"name":"Craig Isonychia","steam_id":76561198272013678,"connected_time":1426000000000,"state":"active","ping":70},{"user_id":415,"name":"derz","steam_id":76561198010742216,"connected_time":47000000000,"state":"active","ping":73},{"user_id":378,"name":"Notsocreative","steam_id":76561198236372202,"connected_time":2152000000000,"state":"active","ping":70},{"user_id":421,"name":"not a video game enjoyer","steam_id":76561199122208446,"connected_time":14000000000,"state":"spawning","ping":98},{"user_id":416,"name":"Joseph Bidomeus","steam_id":76561198389177376,"connected_time":45000000000,"state":"spawning","ping":33},{"user_id":411,"name":"ATL69 | weewa","steam_id":76561198064876090,"connected_time":75000000000,"state":"active","ping":67},{"user_id":400,"name":"Crazalicious","steam_id":76561198125679260,"connected_time":873000000000,"state":"active","ping":58},{"user_id":417,"name":"TheZan","steam_id":76561199103556115,"connected_time":42000000000,"state":"active","ping":102},{"user_id":380,"name":"Potet","steam_id":76561198167547789,"connected_time":2076000000000,"state":"active","ping":54},{"user_id":402,"name":"Giorno Giovanna","steam_id":76561198044106874,"connected_time":813000000000,"state":"active","ping":90},{"user_id":391,"name":"harley","steam_id":76561198799384110,"connected_time":1515000000000,"state":"active","ping":87},{"user_id":414,"name":"Crazed Scout","steam_id":76561199225051768,"connected_time":59000000000,"state":"active","ping":54},{"user_id":396,"name":"Accursed Bear (she/her)","steam_id":76561198182999386,"connected_time":1191000000000,"state":"active","ping":57},{"user_id":412,"name":"Captain Bug","steam_id":76561198137763878,"connected_time":68000000000,"state":"active","ping":81},{"user_id":384,"name":"cowboy","steam_id":76561199079124758,"connected_time":2040000000000,"state":"active","ping":64},{"user_id":413,"name":"Sanic_Bum","steam_id":76561198094179822,"connected_time":65000000000,"state":"active","ping":51},{"user_id":389,"name":"Tyco","steam_id":76561197978414167,"connected_time":1603000000000,"state":"active","ping":73},{"user_id":374,"name":"Mank","steam_id":76561198189421005,"connected_time":2327000000000,"state":"active","ping":45},{"user_id":418,"name":"THE LAW","steam_id":76561198085700801,"connected_time":33000000000,"state":"active","ping":62},{"user_id":420,"name":"❤ Ashley ❤","steam_id":76561198056428303,"connected_time":18000000000,"state":"active","ping":105},{"user_id":422,"name":"whalemart","steam_id":76561198203395648,"connected_time":0,"state":"spawning","ping":0},{"user_id":407,"name":"reymundo","steam_id":76561197989412830,"connected_time":645000000000,"state":"active","ping":114}]},{"server_id":106,"name":"Uncletopia | Chicago | 2 | All Maps","name_short":"chi-2","host":"chi-1.us.uncletopia.com","port":27025,"enabled":true,"region":"us-central","cc":"us","latitude":41.881832,"longitude":-87.62318,"reserved":0,"last_update":"0001-01-01T00:00:00Z","name_a2s":"Uncletopia | Chicago | 2 | All Maps","protocol":17,"map":"cp_snakewater_final1","folder":"tf","game":"Team Fortress","app_id":440,"player_count":24,"max_players":24,"Bots":0,"server_type":"Dedicated","server_os":"Linux","password":true,"vac":true,"version":"7961495","steam_id":85568392924469985,"keywords":["cp","nocrits","nodmgspread","uncletopia"],"game_id":440,"stv_port":27026,"stv_name":"Uncletopia | Chicago | 2 | All Maps | STV","players":[{"user_id":536,"name":"Nerf Clean Hit","steam_id":76561198257691881,"connected_time":838000000000,"state":"active","ping":87},{"user_id":537,"name":"Whale = Fish","steam_id":76561198007792525,"connected_time":838000000000,"state":"active","ping":127},{"user_id":531,"name":"venomew2","steam_id":76561198327081077,"connected_time":1075000000000,"state":"active","ping":84},{"user_id":546,"name":"gg personally","steam_id":76561199011185438,"connected_time":633000000000,"state":"active","ping":45},{"user_id":533,"name":"1-800-GHOST-DANCE","steam_id":76561198835430429,"connected_time":943000000000,"state":"active","ping":83},{"user_id":527,"name":"Hugs","steam_id":76561198214584133,"connected_time":1861000000000,"state":"active","ping":114},{"user_id":532,"name":"Nelson TF2EASY.COM","steam_id":76561198850327678,"connected_time":945000000000,"state":"active","ping":96},{"user_id":556,"name":"Nite","steam_id":76561199014777092,"connected_time":258000000000,"state":"active","ping":59},{"user_id":547,"name":"esog","steam_id":76561198250069226,"connected_time":628000000000,"state":"active","ping":71},{"user_id":515,"name":"Chucklin","steam_id":76561198010823579,"connected_time":2660000000000,"state":"active","ping":86},{"user_id":542,"name":"sammy","steam_id":76561199001307670,"connected_time":706000000000,"state":"active","ping":100},{"user_id":548,"name":"Mehman","steam_id":76561199020244051,"connected_time":616000000000,"state":"active","ping":99},{"user_id":544,"name":"Tideflat","steam_id":76561198179850851,"connected_time":673000000000,"state":"active","ping":103},{"user_id":545,"name":"Shalom","steam_id":76561198410005222,"connected_time":670000000000,"state":"active","ping":56},{"user_id":470,"name":"Netter","steam_id":76561198086309544,"connected_time":5686000000000,"state":"active","ping":91},{"user_id":507,"name":"..!","steam_id":76561198882483441,"connected_time":3380000000000,"state":"active","ping":78},{"user_id":554,"name":"ShortenedName","steam_id":76561198079337360,"connected_time":423000000000,"state":"active","ping":70},{"user_id":549,"name":"Quark","steam_id":76561198328155605,"connected_time":593000000000,"state":"active","ping":57},{"user_id":529,"name":"RyInc","steam_id":76561198874261643,"connected_time":1679000000000,"state":"active","ping":44},{"user_id":553,"name":"Galaxy_42","steam_id":76561198845514831,"connected_time":520000000000,"state":"active","ping":71},{"user_id":526,"name":"Dabbot","steam_id":76561199417800581,"connected_time":2520000000000,"state":"active","ping":66},{"user_id":496,"name":"Smiles","steam_id":76561198107197973,"connected_time":3864000000000,"state":"active","ping":56},{"user_id":552,"name":"Ja","steam_id":76561198396340174,"connected_time":579000000000,"state":"active","ping":71}]},{"server_id":402,"name":"Uncletopia | Chicago | 3 | All Maps","name_short":"chi-3","host":"chi-1.us.uncletopia.com","port":27035,"enabled":true,"region":"us-central","cc":"us","latitude":41.881832,"longitude":-87.62318,"reserved":0,"last_update":"0001-01-01T00:00:00Z","name_a2s":"Uncletopia | Chicago | 3 | All Maps","protocol":17,"map":"pl_snowycoast","folder":"tf","game":"Team Fortress","app_id":440,"player_count":24,"max_players":24,"Bots":0,"server_type":"Dedicated","server_os":"Linux","password":true,"vac":true,"version":"7961495","steam_id":85568392924515191,"keywords":["nocrits","nodmgspread","payload","uncletopia"],"game_id":440,"stv_port":27036,"stv_name":"Uncletopia | Chicago | 3 | All Maps | STV","players":[{"user_id":42,"name":"theduckgoesmoo","steam_id":76561198232695752,"connected_time":776000000000,"state":"active","ping":69},{"user_id":43,"name":"Cherry Juice","steam_id":76561198366570108,"connected_time":772000000000,"state":"active","ping":60},{"user_id":44,"name":"GameBearAdvanced","steam_id":76561198128561998,"connected_time":768000000000,"state":"active","ping":63},{"user_id":45,"name":"Orange Juice","steam_id":76561198287860804,"connected_time":768000000000,"state":"active","ping":66},{"user_id":46,"name":"Chuck Tucker the Truck Fucker","steam_id":76561198267520577,"connected_time":764000000000,"state":"active","ping":91},{"user_id":47,"name":"XuMuK","steam_id":76561198102102340,"connected_time":762000000000,"state":"active","ping":166},{"user_id":48,"name":"bat","steam_id":76561198846009923,"connected_time":758000000000,"state":"active","ping":84},{"user_id":49,"name":"Armoured Bear","steam_id":76561198081552558,"connected_time":758000000000,"state":"active","ping":175},{"user_id":50,"name":"luster105","steam_id":76561198277487103,"connected_time":727000000000,"state":"active","ping":113},{"user_id":51,"name":"ZeroX","steam_id":76561198980510227,"connected_time":721000000000,"state":"active","ping":65},{"user_id":52,"name":"megalootbags","steam_id":76561198846823332,"connected_time":716000000000,"state":"active","ping":72},{"user_id":53,"name":"Spy TF2","steam_id":76561198824209727,"connected_time":700000000000,"state":"active","ping":182},{"user_id":54,"name":"Psychosis","steam_id":76561198078659070,"connected_time":689000000000,"state":"active","ping":75},{"user_id":62,"name":"Crimson","steam_id":76561198129326627,"connected_time":585000000000,"state":"active","ping":88},{"user_id":57,"name":"Polar","steam_id":76561198271964253,"connected_time":656000000000,"state":"active","ping":77},{"user_id":58,"name":"DaGaminBurrito844","steam_id":76561199015200316,"connected_time":647000000000,"state":"active","ping":65},{"user_id":70,"name":"galaxygelar","steam_id":76561199287148089,"connected_time":306000000000,"state":"active","ping":100},{"user_id":61,"name":"Space Duster","steam_id":76561198196490638,"connected_time":613000000000,"state":"active","ping":154},{"user_id":63,"name":"ameritech","steam_id":76561198064769089,"connected_time":562000000000,"state":"active","ping":46},{"user_id":69,"name":"DonoC","steam_id":76561198274473338,"connected_time":426000000000,"state":"active","ping":74},{"user_id":65,"name":"Venk","steam_id":76561198251131422,"connected_time":497000000000,"state":"active","ping":71},{"user_id":66,"name":"iluvtopoo","steam_id":76561198843522498,"connected_time":473000000000,"state":"active","ping":154},{"user_id":71,"name":"literally tyler durden","steam_id":76561199014628655,"connected_time":228000000000,"state":"active","ping":76},{"user_id":68,"name":"noahjwarner09","steam_id":76561199444479988,"connected_time":462000000000,"state":"active","ping":65}]},{"server_id":403,"name":"Uncletopia | Chicago | 4 | All Maps","name_short":"chi-4","host":"chi-1.us.uncletopia.com","port":27045,"enabled":true,"region":"us-central","cc":"us","latitude":41.881832,"longitude":-87.62318,"reserved":0,"last_update":"0001-01-01T00:00:00Z","name_a2s":"Uncletopia | Chicago | 4 | All Maps","protocol":17,"map":"cp_sunshine","folder":"tf","game":"Team Fortress","app_id":440,"player_count":0,"max_players":24,"Bots":0,"server_type":"Dedicated","server_os":"Linux","password":true,"vac":true,"version":"7961495","steam_id":85568392924515193,"keywords":["cp","nocrits","nodmgspread","uncletopia"],"game_id":440,"stv_port":27046,"stv_name":"Uncletopia | Chicago | 4 | All Maps | STV","players":null},{"server_id":36,"name":"Uncletopia | Chicago | 5 | All Maps","name_short":"chi-5","host":"chi-2.us.uncletopia.com","port":27015,"enabled":true,"region":"us-central","cc":"us","latitude":41.881832,"longitude":-87.62318,"reserved":0,"last_update":"0001-01-01T00:00:00Z","name_a2s":"Uncletopia | Chicago | 5 | All Maps","protocol":17,"map":"pl_borneo","folder":"tf","game":"Team Fortress","app_id":440,"player_count":24,"max_players":24,"Bots":0,"server_type":"Dedicated","server_os":"Linux","password":true,"vac":true,"version":"7961495","steam_id":85568392924866362,"keywords":["nocrits","nodmgspread","payload","uncletopia"],"game_id":440,"stv_port":27016,"stv_name":"Uncletopia | Chicago | 5 | All Maps | STV","players":[{"user_id":288,"name":"Mr.Bones","steam_id":76561198205170595,"connected_time":884000000000,"state":"active","ping":93},{"user_id":292,"name":"carrot cake","steam_id":76561198055174915,"connected_time":483000000000,"state":"active","ping":69},{"user_id":291,"name":"n00dl3s","steam_id":76561197964492868,"connected_time":657000000000,"state":"active","ping":78},{"user_id":255,"name":"None of that $9.99 bullshit","steam_id":76561198116169903,"connected_time":2848000000000,"state":"active","ping":49},{"user_id":256,"name":"Cinnabar","steam_id":76561198964903969,"connected_time":2808000000000,"state":"active","ping":67},{"user_id":257,"name":"evilclownattack","steam_id":76561198001627114,"connected_time":2715000000000,"state":"active","ping":143},{"user_id":293,"name":"creeeeeee","steam_id":76561198392539722,"connected_time":475000000000,"state":"active","ping":86},{"user_id":264,"name":"CyberZayne","steam_id":76561198002351356,"connected_time":2272000000000,"state":"active","ping":118},{"user_id":235,"name":"CoffeeZombee","steam_id":76561198172708053,"connected_time":4114000000000,"state":"active","ping":90},{"user_id":299,"name":"Minnie","steam_id":76561198091052019,"connected_time":154000000000,"state":"active","ping":293},{"user_id":224,"name":"Snazzy Salamander","steam_id":76561198144534560,"connected_time":5025000000000,"state":"active","ping":47},{"user_id":294,"name":"TristanXD6","steam_id":76561198060466010,"connected_time":450000000000,"state":"active","ping":105},{"user_id":287,"name":"GalacticHero2068","steam_id":76561199063612661,"connected_time":984000000000,"state":"active","ping":86},{"user_id":267,"name":"corned beef","steam_id":76561199366782761,"connected_time":2236000000000,"state":"active","ping":171},{"user_id":290,"name":"aiden","steam_id":76561198449527009,"connected_time":841000000000,"state":"active","ping":104},{"user_id":189,"name":"An Erect Penis :)","steam_id":76561198086477485,"connected_time":7359000000000,"state":"active","ping":50},{"user_id":229,"name":"Drew P. Sack","steam_id":76561198036201738,"connected_time":4648000000000,"state":"active","ping":55},{"user_id":282,"name":"CrazyKermitRubes","steam_id":76561198009065204,"connected_time":1676000000000,"state":"active","ping":81},{"user_id":281,"name":"wisteria brown","steam_id":76561198040939246,"connected_time":1751000000000,"state":"active","ping":47},{"user_id":250,"name":"Onyxmanticore","steam_id":76561198827481986,"connected_time":2941000000000,"state":"active","ping":90},{"user_id":270,"name":"anonion","steam_id":76561198056477584,"connected_time":2136000000000,"state":"active","ping":90},{"user_id":273,"name":"Tupac Shakur","steam_id":76561198247651486,"connected_time":2099000000000,"state":"active","ping":60},{"user_id":295,"name":"Maxmind24","steam_id":76561198859888778,"connected_time":438000000000,"state":"active","ping":141},{"user_id":296,"name":"★RIVI★","steam_id":76561198086635699,"connected_time":434000000000,"state":"active","ping":64}]},{"server_id":37,"name":"Uncletopia | Chicago | 6 | All Maps","name_short":"chi-6","host":"chi-2.us.uncletopia.com","port":27025,"enabled":true,"region":"us-central","cc":"us","latitude":41.881832,"longitude":-87.62318,"reserved":0,"last_update":"0001-01-01T00:00:00Z","name_a2s":"Uncletopia | Chicago | 6 | All Maps","protocol":17,"map":"koth_harvest_final","folder":"tf","game":"Team Fortress","app_id":440,"player_count":24,"max_players":24,"Bots":0,"server_type":"Dedicated","server_os":"Linux","password":true,"vac":true,"version":"7961495","steam_id":85568392924866363,"keywords":["cp","nocrits","nodmgspread","uncletopia"],"game_id":440,"stv_port":27026,"stv_name":"Uncletopia | Chicago | 6 | All Maps | STV","players":[{"user_id":397,"name":"alolan duntski","steam_id":76561198038826744,"connected_time":1187000000000,"state":"active","ping":49},{"user_id":366,"name":"Rec","steam_id":76561198022813906,"connected_time":2619000000000,"state":"active","ping":56},{"user_id":413,"name":"hippiejoe","steam_id":76561198861502756,"connected_time":555000000000,"state":"active","ping":90},{"user_id":395,"name":"TheDude","steam_id":76561198314764519,"connected_time":1234000000000,"state":"active","ping":107},{"user_id":412,"name":"shadow6","steam_id":76561197979807910,"connected_time":628000000000,"state":"active","ping":109},{"user_id":414,"name":"Kirby.exe","steam_id":76561198242714582,"connected_time":519000000000,"state":"active","ping":64},{"user_id":364,"name":"Apple Zoo","steam_id":76561198013732450,"connected_time":2743000000000,"state":"active","ping":56},{"user_id":411,"name":"Kristoff","steam_id":76561198039598874,"connected_time":674000000000,"state":"active","ping":61},{"user_id":380,"name":"Lucon","steam_id":76561198067147724,"connected_time":1961000000000,"state":"active","ping":57},{"user_id":415,"name":"leangreen","steam_id":76561198798241241,"connected_time":472000000000,"state":"active","ping":87},{"user_id":416,"name":"büddeh","steam_id":76561198070735936,"connected_time":451000000000,"state":"active","ping":55},{"user_id":365,"name":"jolo","steam_id":76561198042831480,"connected_time":2675000000000,"state":"active","ping":72},{"user_id":389,"name":"󠁳 ⁧Argo","steam_id":76561198353725622,"connected_time":1484000000000,"state":"active","ping":80},{"user_id":417,"name":"sketch","steam_id":76561198800087810,"connected_time":450000000000,"state":"active","ping":68},{"user_id":390,"name":"Chestnnut","steam_id":76561198077782729,"connected_time":1366000000000,"state":"active","ping":79},{"user_id":392,"name":"Kazmirl","steam_id":76561198116008410,"connected_time":1336000000000,"state":"active","ping":105},{"user_id":418,"name":"Yeetachu","steam_id":76561199477430076,"connected_time":443000000000,"state":"active","ping":53},{"user_id":420,"name":"shogn","steam_id":76561198443397199,"connected_time":420000000000,"state":"active","ping":109},{"user_id":424,"name":"Dr Oshawott","steam_id":76561198042021629,"connected_time":206000000000,"state":"active","ping":64},{"user_id":422,"name":"Exhiet","steam_id":76561198218111020,"connected_time":275000000000,"state":"active","ping":70},{"user_id":391,"name":"ulti_fd","steam_id":76561198050926014,"connected_time":1343000000000,"state":"active","ping":70},{"user_id":425,"name":"TG_16","steam_id":76561199109196768,"connected_time":77000000000,"state":"active","ping":57},{"user_id":405,"name":"dewey.","steam_id":76561198138325039,"connected_time":1017000000000,"state":"active","ping":104},{"user_id":354,"name":"Jak(i)","steam_id":76561198076823144,"connected_time":3450000000000,"state":"active","ping":65}]},{"server_id":38,"name":"Uncletopia | Chicago | 7 | Stopwatch Beta","name_short":"chi-7","host":"chi-2.us.uncletopia.com","port":27035,"enabled":true,"region":"us-central","cc":"us","latitude":41.881832,"longitude":-87.62318,"reserved":0,"last_update":"0001-01-01T00:00:00Z","name_a2s":"Uncletopia | Chicago | 7 | Stopwatch Beta","protocol":17,"map":"pl_badwater","folder":"tf","game":"Team Fortress","app_id":440,"player_count":0,"max_players":24,"Bots":0,"server_type":"Dedicated","server_os":"Linux","password":true,"vac":true,"version":"7961495","steam_id":85568392924866364,"keywords":["nocrits","nodmgspread","payload","uncletopia"],"game_id":440,"stv_port":27036,"stv_name":"Uncletopia | Chicago | 7 | Stopwatch Beta | STV","players":null},{"server_id":39,"name":"Uncletopia | Chicago | 8 | Community","name_short":"chi-8","host":"chi-2.us.uncletopia.com","port":27045,"enabled":true,"region":"us-central","cc":"us","latitude":41.881832,"longitude":-87.62318,"reserved":0,"last_update":"0001-01-01T00:00:00Z","name_a2s":"Uncletopia | Chicago | 8 | Community","protocol":17,"map":"workshop/cp_snowbase_b18.ugc2081770490","folder":"tf","game":"Team Fortress","app_id":440,"player_count":11,"max_players":24,"Bots":0,"server_type":"Dedicated","server_os":"Linux","password":true,"vac":true,"version":"7961495","steam_id":85568392924866365,"keywords":["cp","nocrits","nodmgspread","uncletopia"],"game_id":440,"stv_port":27046,"stv_name":"Uncletopia | Chicago | 8 | Community | STV","players":[{"user_id":336,"name":"LILGI4THAW","steam_id":76561198403803842,"connected_time":24000000000,"state":"spawning","ping":456},{"user_id":308,"name":"sambrozee","steam_id":76561199160733886,"connected_time":2167000000000,"state":"active","ping":82},{"user_id":310,"name":"JAKe","steam_id":76561199237533332,"connected_time":2007000000000,"state":"active","ping":69},{"user_id":335,"name":"Tungstentoad","steam_id":76561198364160221,"connected_time":638000000000,"state":"active","ping":74},{"user_id":330,"name":"Dedlands","steam_id":76561198117419723,"connected_time":977000000000,"state":"active","ping":67},{"user_id":314,"name":"real","steam_id":76561199030879048,"connected_time":1781000000000,"state":"active","ping":56},{"user_id":320,"name":"Zhenaj","steam_id":76561199209016136,"connected_time":1398000000000,"state":"active","ping":60},{"user_id":333,"name":"Aatrox, Destroyer of Worlds","steam_id":76561198205849176,"connected_time":902000000000,"state":"active","ping":46},{"user_id":334,"name":"Dive(z)","steam_id":76561198140843225,"connected_time":731000000000,"state":"active","ping":104},{"user_id":327,"name":"Vegemate","steam_id":76561199088297770,"connected_time":1132000000000,"state":"active","ping":74},{"user_id":239,"name":"Neophyte","steam_id":76561198027183394,"connected_time":8326000000000,"state":"active","ping":89}]},{"server_id":8,"name":"Uncletopia | Dallas | 1 | All Maps","name_short":"dal-1","host":"dal-1.us.uncletopia.com","port":27015,"enabled":true,"region":"us-central","cc":"us","latitude":32.779167,"longitude":-96.80889,"reserved":0,"last_update":"0001-01-01T00:00:00Z","name_a2s":"Uncletopia | Dallas | 1 | All Maps","protocol":17,"map":"koth_suijin","folder":"tf","game":"Team Fortress","app_id":440,"player_count":24,"max_players":24,"Bots":0,"server_type":"Dedicated","server_os":"Linux","password":true,"vac":true,"version":"7961495","steam_id":85568392924469986,"keywords":["cp","nocrits","nodmgspread","uncletopia"],"game_id":440,"stv_port":27016,"stv_name":"Uncletopia | Dallas | 1 | All Maps | STV","players":[{"user_id":456,"name":"ungr8t","steam_id":76561198063521721,"connected_time":572000000000,"state":"active","ping":47},{"user_id":384,"name":"king of eblock","steam_id":76561198800324957,"connected_time":5550000000000,"state":"active","ping":49},{"user_id":460,"name":"Captain Buggy","steam_id":76561198024444448,"connected_time":437000000000,"state":"active","ping":98},{"user_id":426,"name":"Gelliterate","steam_id":76561198107233070,"connected_time":3134000000000,"state":"active","ping":49},{"user_id":408,"name":"Rob","steam_id":76561199187786660,"connected_time":4693000000000,"state":"active","ping":52},{"user_id":457,"name":"⇌ Strϟker ⇋","steam_id":76561199389089862,"connected_time":510000000000,"state":"active","ping":164},{"user_id":458,"name":"Moon Sugar Dealer","steam_id":76561198095634877,"connected_time":491000000000,"state":"active","ping":112},{"user_id":444,"name":"TrustworthyStranger","steam_id":76561198154105678,"connected_time":1441000000000,"state":"active","ping":69},{"user_id":463,"name":"Nemir","steam_id":76561198063123150,"connected_time":365000000000,"state":"active","ping":43},{"user_id":453,"name":"Boomer Gaming","steam_id":76561198037803087,"connected_time":953000000000,"state":"active","ping":66},{"user_id":422,"name":"VaL-ASROC","steam_id":76561198886493635,"connected_time":3326000000000,"state":"active","ping":72},{"user_id":427,"name":"dudes5972","steam_id":76561199179432114,"connected_time":3114000000000,"state":"active","ping":89},{"user_id":425,"name":"Gamerfan64","steam_id":76561198801410962,"connected_time":3192000000000,"state":"active","ping":40},{"user_id":393,"name":"Faerun_F","steam_id":76561198443906094,"connected_time":5390000000000,"state":"active","ping":70},{"user_id":442,"name":"JtsRes","steam_id":76561197994809241,"connected_time":1562000000000,"state":"active","ping":60},{"user_id":415,"name":"m1 garand gaming","steam_id":76561199026721822,"connected_time":4054000000000,"state":"active","ping":92},{"user_id":414,"name":"FanaticSalt","steam_id":76561199380123059,"connected_time":4269000000000,"state":"active","ping":46},{"user_id":461,"name":"GROOVYROOM","steam_id":76561199153684166,"connected_time":425000000000,"state":"active","ping":71},{"user_id":462,"name":"Cappy","steam_id":76561197990593889,"connected_time":408000000000,"state":"active","ping":63},{"user_id":447,"name":"Boone","steam_id":76561198398931575,"connected_time":1394000000000,"state":"active","ping":86},{"user_id":452,"name":"Foxyz","steam_id":76561198040642992,"connected_time":1190000000000,"state":"active","ping":166},{"user_id":449,"name":"SSBlue","steam_id":76561198126300243,"connected_time":1357000000000,"state":"active","ping":81},{"user_id":450,"name":"jordanddean2016","steam_id":76561198323772677,"connected_time":1236000000000,"state":"active","ping":116},{"user_id":420,"name":"Alexgo","steam_id":76561198044430542,"connected_time":3344000000000,"state":"active","ping":122}]},{"server_id":108,"name":"Uncletopia | Dallas | 2 | All Maps","name_short":"dal-2","host":"dal-1.us.uncletopia.com","port":27025,"enabled":true,"region":"us-central","cc":"us","latitude":32.779167,"longitude":-96.80889,"reserved":0,"last_update":"0001-01-01T00:00:00Z","name_a2s":"Uncletopia | Dallas | 2 | All Maps","protocol":17,"map":"pl_badwater","folder":"tf","game":"Team Fortress","app_id":440,"player_count":24,"max_players":24,"Bots":0,"server_type":"Dedicated","server_os":"Linux","password":true,"vac":true,"version":"7961495","steam_id":85568392924469988,"keywords":["nocrits","nodmgspread","payload","uncletopia"],"game_id":440,"stv_port":27026,"stv_name":"Uncletopia | Dallas | 2 | All Maps | STV","players":[{"user_id":145,"name":"oph","steam_id":76561198130182991,"connected_time":126000000000,"state":"active","ping":87},{"user_id":143,"name":"NOM","steam_id":76561199059006203,"connected_time":371000000000,"state":"active","ping":73},{"user_id":121,"name":"Nice \u003e:]","steam_id":76561198297163650,"connected_time":1015000000000,"state":"active","ping":45},{"user_id":140,"name":"Bamboo","steam_id":76561198043139553,"connected_time":430000000000,"state":"active","ping":89},{"user_id":139,"name":"Sup m8","steam_id":76561198081659121,"connected_time":467000000000,"state":"active","ping":43},{"user_id":48,"name":"angry loser","steam_id":76561198128363064,"connected_time":6707000000000,"state":"active","ping":82},{"user_id":109,"name":"Von Neumann","steam_id":76561199395843187,"connected_time":1729000000000,"state":"active","ping":96},{"user_id":123,"name":"Midnight-AG","steam_id":76561198115714484,"connected_time":965000000000,"state":"active","ping":161},{"user_id":144,"name":"webaline :3","steam_id":76561199052450127,"connected_time":275000000000,"state":"active","ping":74},{"user_id":146,"name":"ravenmooseman","steam_id":76561198828854464,"connected_time":87000000000,"state":"active","ping":64},{"user_id":124,"name":"P373R.","steam_id":76561198216652716,"connected_time":920000000000,"state":"active","ping":117},{"user_id":42,"name":"souVern","steam_id":76561198046940771,"connected_time":6921000000000,"state":"active","ping":77},{"user_id":138,"name":"Babbaj","steam_id":76561199195970760,"connected_time":483000000000,"state":"active","ping":163},{"user_id":116,"name":"Grunika","steam_id":76561198298523865,"connected_time":1301000000000,"state":"active","ping":70},{"user_id":125,"name":"Prisma(They/She)","steam_id":76561198964742720,"connected_time":902000000000,"state":"active","ping":76},{"user_id":126,"name":"Dapeep","steam_id":76561198065508243,"connected_time":862000000000,"state":"active","ping":30},{"user_id":67,"name":"Rubus Beer","steam_id":76561198065041957,"connected_time":5774000000000,"state":"active","ping":86},{"user_id":59,"name":"motherfucker 2.0","steam_id":76561198141189209,"connected_time":6072000000000,"state":"active","ping":44},{"user_id":127,"name":"Bocchers From Bocchi The Rock","steam_id":76561198986388085,"connected_time":856000000000,"state":"active","ping":105},{"user_id":130,"name":"Aero","steam_id":76561199159006123,"connected_time":819000000000,"state":"active","ping":72},{"user_id":141,"name":"Rubby","steam_id":76561198967446392,"connected_time":420000000000,"state":"active","ping":95},{"user_id":137,"name":"Aspc","steam_id":76561198360941002,"connected_time":605000000000,"state":"active","ping":81},{"user_id":136,"name":"Mephistopheles","steam_id":76561198253731826,"connected_time":626000000000,"state":"active","ping":96},{"user_id":147,"name":"leumas","steam_id":76561198240408540,"connected_time":85000000000,"state":"active","ping":73}]},{"server_id":404,"name":"Uncletopia | Dallas | 3 | All Maps","name_short":"dal-3","host":"dal-1.us.uncletopia.com","port":27035,"enabled":true,"region":"us-central","cc":"us","latitude":32.779167,"longitude":-96.80889,"reserved":0,"last_update":"0001-01-01T00:00:00Z","name_a2s":"Uncletopia | Dallas | 3 | All Maps","protocol":17,"map":"pl_frontier_final","folder":"tf","game":"Team Fortress","app_id":440,"player_count":0,"max_players":24,"Bots":0,"server_type":"Dedicated","server_os":"Linux","password":true,"vac":true,"version":"7961495","steam_id":85568392924515219,"keywords":["nocrits","nodmgspread","payload","uncletopia"],"game_id":440,"stv_port":27036,"stv_name":"Uncletopia | Dallas | 3 | All Maps | STV","players":null},{"server_id":405,"name":"Uncletopia | Dallas | 4 | Community","name_short":"dal-4","host":"dal-1.us.uncletopia.com","port":27045,"enabled":true,"region":"us-central","cc":"us","latitude":32.779167,"longitude":-96.80889,"reserved":0,"last_update":"0001-01-01T00:00:00Z","name_a2s":"Uncletopia | Dallas | 4 | Community","protocol":17,"map":"workshop/pl_badwater_pro_v12.ugc2142942074","folder":"tf","game":"Team Fortress","app_id":440,"player_count":0,"max_players":24,"Bots":0,"server_type":"Dedicated","server_os":"Linux","password":true,"vac":true,"version":"7961495","steam_id":85568392924515220,"keywords":["nocrits","nodmgspread","payload","uncletopia"],"game_id":440,"stv_port":27046,"stv_name":"Uncletopia | Dallas | 4 | Community | STV","players":null},{"server_id":5,"name":"Uncletopia | Frankfurt | 1 | All Maps","name_short":"frk-1","host":"frk-1.de.uncletopia.com","port":27015,"enabled":true,"region":"eu","cc":"de","latitude":50.110924,"longitude":8.682127,"reserved":0,"last_update":"0001-01-01T00:00:00Z","name_a2s":"Uncletopia | Frankfurt | 1 | All Maps","protocol":17,"map":"pl_pier","folder":"tf","game":"Team Fortress","app_id":440,"player_count":24,"max_players":24,"Bots":0,"server_type":"Dedicated","server_os":"Linux","password":true,"vac":true,"version":"7961495","steam_id":85568392924469989,"keywords":["nocrits","nodmgspread","payload","uncletopia"],"game_id":440,"stv_port":27016,"stv_name":"Uncletopia | Frankfurt | 1 | All Maps | STV","players":[{"user_id":560,"name":"Janfors","steam_id":76561198874152503,"connected_time":389000000000,"state":"active","ping":84},{"user_id":545,"name":"Kaktus_kak","steam_id":76561198250938524,"connected_time":2057000000000,"state":"active","ping":56},{"user_id":541,"name":"Nimson","steam_id":76561199113209358,"connected_time":2220000000000,"state":"active","ping":88},{"user_id":559,"name":"KrevTiz","steam_id":76561199043366861,"connected_time":435000000000,"state":"active","ping":87},{"user_id":492,"name":"Sheen (Khang)","steam_id":76561198371062974,"connected_time":6018000000000,"state":"active","ping":87},{"user_id":364,"name":"Engie's best friend","steam_id":76561197961707932,"connected_time":16215000000000,"state":"active","ping":51},{"user_id":532,"name":"avanaR","steam_id":76561198132062124,"connected_time":3122000000000,"state":"active","ping":61},{"user_id":542,"name":"Cream","steam_id":76561198204266952,"connected_time":2096000000000,"state":"active","ping":115},{"user_id":561,"name":"SCIENCE","steam_id":76561198154679958,"connected_time":377000000000,"state":"active","ping":65},{"user_id":512,"name":"Francium Swallower","steam_id":76561199480414924,"connected_time":3766000000000,"state":"active","ping":71},{"user_id":547,"name":"IxTrex","steam_id":76561198069231001,"connected_time":1620000000000,"state":"active","ping":44},{"user_id":498,"name":"mlemdic","steam_id":76561198090001673,"connected_time":5334000000000,"state":"active","ping":126},{"user_id":556,"name":"Antondi","steam_id":76561198123140065,"connected_time":543000000000,"state":"active","ping":49},{"user_id":534,"name":"Finn","steam_id":76561198179960193,"connected_time":3024000000000,"state":"active","ping":55},{"user_id":554,"name":"StingyLettuce","steam_id":76561199010337406,"connected_time":822000000000,"state":"active","ping":112},{"user_id":476,"name":"vMatyn","steam_id":76561198438929275,"connected_time":7425000000000,"state":"active","ping":65},{"user_id":558,"name":"Lukas","steam_id":76561198009118452,"connected_time":498000000000,"state":"active","ping":60},{"user_id":562,"name":"Rubikskubbakall29","steam_id":76561198861495164,"connected_time":375000000000,"state":"active","ping":95},{"user_id":538,"name":"kana","steam_id":76561198002343512,"connected_time":2647000000000,"state":"active","ping":104},{"user_id":543,"name":"Rollermine ♥","steam_id":76561199370148924,"connected_time":2087000000000,"state":"active","ping":55},{"user_id":535,"name":"sarii ☆","steam_id":76561199155102111,"connected_time":3012000000000,"state":"active","ping":82},{"user_id":546,"name":"Saxo","steam_id":76561198129866691,"connected_time":1947000000000,"state":"active","ping":88},{"user_id":536,"name":"milkywai","steam_id":76561198316861438,"connected_time":2988000000000,"state":"active","ping":106},{"user_id":537,"name":"pharmacist","steam_id":76561198274424248,"connected_time":2948000000000,"state":"active","ping":92}]},{"server_id":110,"name":"Uncletopia | Frankfurt | 2 | All Maps","name_short":"frk-2","host":"frk-1.de.uncletopia.com","port":27025,"enabled":true,"region":"eu","cc":"de","latitude":50.110924,"longitude":8.682127,"reserved":0,"last_update":"0001-01-01T00:00:00Z","name_a2s":"Uncletopia | Frankfurt | 2 | All Maps","protocol":17,"map":"cp_process_final","folder":"tf","game":"Team Fortress","app_id":440,"player_count":24,"max_players":24,"Bots":0,"server_type":"Dedicated","server_os":"Linux","password":true,"vac":true,"version":"7961495","steam_id":85568392924469990,"keywords":["cp","nocrits","nodmgspread","uncletopia"],"game_id":440,"stv_port":27026,"stv_name":"Uncletopia | Frankfurt | 2 | All Maps | STV","players":[{"user_id":477,"name":"footballween","steam_id":76561198796143531,"connected_time":48000000000,"state":"active","ping":53},{"user_id":470,"name":"_420_StopItDudeCmon","steam_id":76561197997146481,"connected_time":851000000000,"state":"active","ping":89},{"user_id":451,"name":"agent youppii","steam_id":76561198055264447,"connected_time":1914000000000,"state":"active","ping":70},{"user_id":462,"name":"AreSeven","steam_id":76561199025383486,"connected_time":1225000000000,"state":"active","ping":67},{"user_id":388,"name":"Varsk","steam_id":76561198061398890,"connected_time":7757000000000,"state":"active","ping":47},{"user_id":471,"name":"MILK cheyk","steam_id":76561198035380064,"connected_time":758000000000,"state":"active","ping":58},{"user_id":437,"name":"Shousaky","steam_id":76561197982180582,"connected_time":2724000000000,"state":"active","ping":59},{"user_id":435,"name":"balanced diet","steam_id":76561198240320806,"connected_time":2823000000000,"state":"active","ping":67},{"user_id":430,"name":"bee","steam_id":76561199013145014,"connected_time":3207000000000,"state":"active","ping":61},{"user_id":473,"name":"Smuggs","steam_id":76561197999456003,"connected_time":655000000000,"state":"active","ping":58},{"user_id":474,"name":"Aven","steam_id":76561198974343597,"connected_time":279000000000,"state":"active","ping":87},{"user_id":463,"name":"Adushka","steam_id":76561198053095808,"connected_time":1180000000000,"state":"active","ping":73},{"user_id":419,"name":"Lorenzo Lovers","steam_id":76561198073973581,"connected_time":4489000000000,"state":"active","ping":79},{"user_id":253,"name":"Just Navlis","steam_id":76561198090479609,"connected_time":17537000000000,"state":"active","ping":46},{"user_id":475,"name":"TidB","steam_id":76561198055342304,"connected_time":279000000000,"state":"active","ping":53},{"user_id":476,"name":"zeen","steam_id":76561198141020179,"connected_time":231000000000,"state":"active","ping":71},{"user_id":467,"name":"mitical uknown","steam_id":76561198844852761,"connected_time":1162000000000,"state":"active","ping":68},{"user_id":387,"name":"xavier","steam_id":76561198076494034,"connected_time":8021000000000,"state":"active","ping":59},{"user_id":413,"name":"Jon","steam_id":76561198148858397,"connected_time":4770000000000,"state":"active","ping":67},{"user_id":443,"name":"Wilderhammer","steam_id":76561198132133702,"connected_time":2381000000000,"state":"active","ping":44},{"user_id":369,"name":"hananamanna","steam_id":76561198006570285,"connected_time":9442000000000,"state":"active","ping":115},{"user_id":220,"name":"hyvakii705","steam_id":76561198086630552,"connected_time":20012000000000,"state":"active","ping":90},{"user_id":390,"name":"Vershal Smershal","steam_id":76561198116223995,"connected_time":7746000000000,"state":"active","ping":61},{"user_id":468,"name":"Random","steam_id":76561199079951047,"connected_time":1135000000000,"state":"active","ping":86}]},{"server_id":308,"name":"Uncletopia | Frankfurt | 3 | All Maps","name_short":"frk-3","host":"frk-1.de.uncletopia.com","port":27035,"enabled":true,"region":"eu","cc":"de","latitude":50.110924,"longitude":8.682127,"reserved":0,"last_update":"0001-01-01T00:00:00Z","name_a2s":"Uncletopia | Frankfurt | 3 | All Maps","protocol":17,"map":"pl_barnblitz","folder":"tf","game":"Team Fortress","app_id":440,"player_count":17,"max_players":24,"Bots":0,"server_type":"Dedicated","server_os":"Linux","password":true,"vac":true,"version":"7961495","steam_id":85568392924504274,"keywords":["nocrits","nodmgspread","payload","uncletopia"],"game_id":440,"stv_port":27036,"stv_name":"Uncletopia | Frankfurt | 3 | All Maps | STV","players":[{"user_id":489,"name":"N3lly","steam_id":76561198815271970,"connected_time":957000000000,"state":"active","ping":65},{"user_id":498,"name":"Genesis","steam_id":76561198999652040,"connected_time":124000000000,"state":"active","ping":31},{"user_id":484,"name":"Brian","steam_id":76561198077756206,"connected_time":1137000000000,"state":"active","ping":45},{"user_id":451,"name":"mohemmedmokhter2005","steam_id":76561199197650506,"connected_time":3388000000000,"state":"active","ping":102},{"user_id":431,"name":"yuck","steam_id":76561197987249568,"connected_time":4586000000000,"state":"active","ping":90},{"user_id":464,"name":"that fat croc from donkey kong","steam_id":76561198159172495,"connected_time":2752000000000,"state":"active","ping":84},{"user_id":418,"name":"badrobot","steam_id":76561198322878356,"connected_time":5434000000000,"state":"active","ping":95},{"user_id":499,"name":"MK-Ultra Violence","steam_id":76561198081328238,"connected_time":111000000000,"state":"active","ping":75},{"user_id":485,"name":"socks","steam_id":76561198028520603,"connected_time":1115000000000,"state":"active","ping":65},{"user_id":497,"name":"󠁳⁧⁧ Kruthal","steam_id":76561198245726582,"connected_time":138000000000,"state":"active","ping":74},{"user_id":471,"name":"당신은 보노보입니다","steam_id":76561198017114970,"connected_time":1840000000000,"state":"active","ping":47},{"user_id":496,"name":"highest noon","steam_id":76561199103959197,"connected_time":272000000000,"state":"active","ping":91},{"user_id":492,"name":"Scottish Resistance","steam_id":76561198071360214,"connected_time":824000000000,"state":"active","ping":50},{"user_id":420,"name":"Dandroid7","steam_id":76561198947673092,"connected_time":5070000000000,"state":"active","ping":59},{"user_id":477,"name":"Jiipeeze","steam_id":76561198316154333,"connected_time":1475000000000,"state":"active","ping":82},{"user_id":479,"name":"Alpha","steam_id":76561198133229149,"connected_time":1436000000000,"state":"active","ping":94},{"user_id":441,"name":"mr.resetti","steam_id":76561198974520642,"connected_time":4042000000000,"state":"active","ping":60}]},{"server_id":309,"name":"Uncletopia | Frankfurt | 4 | All Maps","name_short":"frk-4","host":"frk-1.de.uncletopia.com","port":27045,"enabled":true,"region":"eu","cc":"de","latitude":50.110924,"longitude":8.682127,"reserved":0,"last_update":"0001-01-01T00:00:00Z","name_a2s":"Uncletopia | Frankfurt | 4 | All Maps","protocol":17,"map":"pl_barnblitz","folder":"tf","game":"Team Fortress","app_id":440,"player_count":23,"max_players":24,"Bots":0,"server_type":"Dedicated","server_os":"Linux","password":true,"vac":true,"version":"7961495","steam_id":85568392924504275,"keywords":["nocrits","nodmgspread","payload","uncletopia"],"game_id":440,"stv_port":27046,"stv_name":"Uncletopia | Frankfurt | 4 | All Maps | STV","players":[{"user_id":528,"name":"Chicago23","steam_id":76561199121770765,"connected_time":1166000000000,"state":"active","ping":74},{"user_id":484,"name":"Mata_FM","steam_id":76561198044824504,"connected_time":4301000000000,"state":"active","ping":60},{"user_id":529,"name":"Walle","steam_id":76561197995148937,"connected_time":1117000000000,"state":"active","ping":67},{"user_id":495,"name":"Sand","steam_id":76561198103761268,"connected_time":3121000000000,"state":"active","ping":50},{"user_id":509,"name":"chrząszcz","steam_id":76561198358887237,"connected_time":2830000000000,"state":"active","ping":56},{"user_id":524,"name":"Bastard'Nick","steam_id":76561198044044651,"connected_time":1525000000000,"state":"active","ping":66},{"user_id":540,"name":"Rodgedan","steam_id":76561198226236524,"connected_time":124000000000,"state":"active","ping":147},{"user_id":498,"name":"spinning on uncletopia","steam_id":76561199233979726,"connected_time":2995000000000,"state":"active","ping":78},{"user_id":521,"name":"clean carp","steam_id":76561198127053294,"connected_time":2138000000000,"state":"active","ping":70},{"user_id":538,"name":"chonkster","steam_id":76561198316059681,"connected_time":342000000000,"state":"active","ping":47},{"user_id":531,"name":"esskeetit","steam_id":76561198195021867,"connected_time":1009000000000,"state":"active","ping":85},{"user_id":532,"name":"誰かが見ている","steam_id":76561198834913692,"connected_time":960000000000,"state":"active","ping":66},{"user_id":514,"name":"Fran","steam_id":76561199070516960,"connected_time":2715000000000,"state":"active","ping":63},{"user_id":533,"name":"Fredde5","steam_id":76561198102482063,"connected_time":909000000000,"state":"active","ping":67},{"user_id":506,"name":"Carl Gustav Jung","steam_id":76561198284558039,"connected_time":2909000000000,"state":"active","ping":106},{"user_id":508,"name":"Tea","steam_id":76561198799243030,"connected_time":2845000000000,"state":"active","ping":83},{"user_id":534,"name":"elite77","steam_id":76561199444615013,"connected_time":900000000000,"state":"active","ping":72},{"user_id":535,"name":"mob","steam_id":76561198099696876,"connected_time":862000000000,"state":"active","ping":67},{"user_id":519,"name":"Dokuro","steam_id":76561198005413903,"connected_time":2278000000000,"state":"active","ping":68},{"user_id":536,"name":"Ice","steam_id":76561198302193808,"connected_time":845000000000,"state":"active","ping":66},{"user_id":489,"name":"Condemned B3 Expert","steam_id":76561198248411522,"connected_time":4075000000000,"state":"active","ping":71},{"user_id":492,"name":"Zerfesh","steam_id":76561198117534358,"connected_time":3603000000000,"state":"active","ping":89},{"user_id":537,"name":"armadillo","steam_id":76561198324656652,"connected_time":837000000000,"state":"active","ping":64}]},{"server_id":310,"name":"Uncletopia | Frankfurt | 5 | All Maps","name_short":"frk-5","host":"frk-1.de.uncletopia.com","port":27055,"enabled":true,"region":"eu","cc":"de","latitude":50.110924,"longitude":8.682127,"reserved":0,"last_update":"0001-01-01T00:00:00Z","name_a2s":"Uncletopia | Frankfurt | 5 | All Maps","protocol":17,"map":"cp_process_final","folder":"tf","game":"Team Fortress","app_id":440,"player_count":21,"max_players":24,"Bots":0,"server_type":"Dedicated","server_os":"Linux","password":true,"vac":true,"version":"7961495","steam_id":85568392924504277,"keywords":["cp","nocrits","nodmgspread","uncletopia"],"game_id":440,"stv_port":27056,"stv_name":"Uncletopia | Frankfurt | 5 | All Maps | STV","players":[{"user_id":470,"name":"giclure :;","steam_id":76561197986362828,"connected_time":3348000000000,"state":"active","ping":57},{"user_id":505,"name":"gothmoth","steam_id":76561198386910896,"connected_time":491000000000,"state":"active","ping":91},{"user_id":487,"name":"Быдла вой","steam_id":76561198041371314,"connected_time":2053000000000,"state":"active","ping":122},{"user_id":499,"name":"Sakuya Izayoi","steam_id":76561198030593616,"connected_time":694000000000,"state":"active","ping":59},{"user_id":501,"name":"Gibby","steam_id":76561198048213112,"connected_time":647000000000,"state":"active","ping":50},{"user_id":509,"name":"Veenex","steam_id":76561198376674633,"connected_time":253000000000,"state":"active","ping":89},{"user_id":425,"name":"n-ski","steam_id":76561198020550849,"connected_time":7716000000000,"state":"active","ping":77},{"user_id":466,"name":"Lemon","steam_id":76561198093765664,"connected_time":3912000000000,"state":"active","ping":71},{"user_id":421,"name":"Ixsus\u003c3","steam_id":76561198094756869,"connected_time":7899000000000,"state":"active","ping":56},{"user_id":507,"name":"ERBLIN011","steam_id":76561198302006065,"connected_time":427000000000,"state":"active","ping":93},{"user_id":488,"name":"[V.G.T.41] Seva the Gnome","steam_id":76561198951268072,"connected_time":2047000000000,"state":"active","ping":89},{"user_id":502,"name":"my mom","steam_id":76561199225201569,"connected_time":624000000000,"state":"active","ping":143},{"user_id":456,"name":"ozz-man","steam_id":76561198084676522,"connected_time":5111000000000,"state":"active","ping":100},{"user_id":468,"name":"topiesie","steam_id":76561198338099207,"connected_time":3413000000000,"state":"active","ping":143},{"user_id":435,"name":"Alibi","steam_id":76561198061845595,"connected_time":6134000000000,"state":"active","ping":60},{"user_id":483,"name":"dotdotdot","steam_id":76561198057628751,"connected_time":2273000000000,"state":"active","ping":64},{"user_id":510,"name":"Kewlan","steam_id":76561198042775020,"connected_time":186000000000,"state":"active","ping":74},{"user_id":496,"name":"CallMeJacob","steam_id":76561199110033123,"connected_time":957000000000,"state":"active","ping":75},{"user_id":490,"name":"ddec45","steam_id":76561198153175196,"connected_time":1906000000000,"state":"active","ping":78},{"user_id":492,"name":"Hito","steam_id":76561198439543536,"connected_time":1639000000000,"state":"active","ping":173},{"user_id":474,"name":"Aynas Slayerow","steam_id":76561198122300668,"connected_time":3284000000000,"state":"active","ping":99}]},{"server_id":311,"name":"Uncletopia | Frankfurt | 6 | All Maps","name_short":"frk-6","host":"frk-1.de.uncletopia.com","port":27065,"enabled":true,"region":"eu","cc":"de","latitude":50.110924,"longitude":8.682127,"reserved":0,"last_update":"0001-01-01T00:00:00Z","name_a2s":"Uncletopia | Frankfurt | 6 | All Maps","protocol":17,"map":"cp_sunshine","folder":"tf","game":"Team Fortress","app_id":440,"player_count":23,"max_players":24,"Bots":0,"server_type":"Dedicated","server_os":"Linux","password":true,"vac":true,"version":"7961495","steam_id":85568392924504278,"keywords":["cp","nocrits","nodmgspread","uncletopia"],"game_id":440,"stv_port":27066,"stv_name":"Uncletopia | Frankfurt | 6 | All Maps | STV","players":[{"user_id":160,"name":"Michael Jesus","steam_id":76561198060895626,"connected_time":113000000000,"state":"active","ping":69},{"user_id":152,"name":"Easter Ben","steam_id":76561198043678695,"connected_time":521000000000,"state":"active","ping":72},{"user_id":129,"name":"Sabour","steam_id":76561197963965445,"connected_time":1880000000000,"state":"active","ping":54},{"user_id":153,"name":"Niko","steam_id":76561198436817109,"connected_time":511000000000,"state":"active","ping":60},{"user_id":148,"name":"Kit","steam_id":76561198355571811,"connected_time":1231000000000,"state":"active","ping":163},{"user_id":149,"name":"hisham","steam_id":76561198414437290,"connected_time":954000000000,"state":"active","ping":106},{"user_id":127,"name":"Krios","steam_id":76561199198145670,"connected_time":1936000000000,"state":"active","ping":55},{"user_id":154,"name":"Misohorni","steam_id":76561198057911334,"connected_time":426000000000,"state":"active","ping":45},{"user_id":157,"name":"Comorito","steam_id":76561198183143669,"connected_time":224000000000,"state":"active","ping":70},{"user_id":131,"name":"the eye DROP.SKIN","steam_id":76561198973555649,"connected_time":1759000000000,"state":"active","ping":89},{"user_id":156,"name":"I have covid :(","steam_id":76561198091736413,"connected_time":346000000000,"state":"active","ping":55},{"user_id":158,"name":"Maxwell","steam_id":76561198088925893,"connected_time":187000000000,"state":"active","ping":83},{"user_id":159,"name":"Marlling","steam_id":76561198082118823,"connected_time":182000000000,"state":"active","ping":110},{"user_id":161,"name":"Garth Marenghi","steam_id":76561198009830164,"connected_time":77000000000,"state":"active","ping":61},{"user_id":162,"name":"zak","steam_id":76561197998895428,"connected_time":38000000000,"state":"active","ping":47},{"user_id":146,"name":"tralalaOuiOui","steam_id":76561197963471507,"connected_time":1254000000000,"state":"active","ping":54},{"user_id":163,"name":"NightOmega","steam_id":76561198323608522,"connected_time":29000000000,"state":"spawning","ping":72},{"user_id":133,"name":"iiiiiii","steam_id":76561199082156030,"connected_time":1662000000000,"state":"active","ping":68},{"user_id":80,"name":"Firiak","steam_id":76561198050216930,"connected_time":4502000000000,"state":"active","ping":58},{"user_id":164,"name":"Aarquus","steam_id":76561198006689878,"connected_time":23000000000,"state":"active","ping":73},{"user_id":134,"name":"i have no ass but i must shit","steam_id":76561198326382938,"connected_time":1655000000000,"state":"active","ping":71},{"user_id":165,"name":"God's Drunkest Driver","steam_id":76561198044588979,"connected_time":6000000000,"state":"spawning","ping":71},{"user_id":120,"name":"KierUK |","steam_id":76561198119447994,"connected_time":3010000000000,"state":"active","ping":61}]},{"server_id":23,"name":"Uncletopia | Frankfurt | 7 | Stopwatch Beta","name_short":"frk-7","host":"frk-1.de.uncletopia.com","port":27075,"enabled":true,"region":"eu","cc":"de","latitude":50.110924,"longitude":8.682127,"reserved":0,"last_update":"0001-01-01T00:00:00Z","name_a2s":"Uncletopia | Frankfurt | 7 | Stopwatch Beta","protocol":17,"map":"workshop/koth_ashville_final.ugc2130459942","folder":"tf","game":"Team Fortress","app_id":440,"player_count":0,"max_players":24,"Bots":0,"server_type":"Dedicated","server_os":"Linux","password":true,"vac":true,"version":"7961495","steam_id":85568392924742827,"keywords":["cp","nocrits","nodmgspread","uncletopia"],"game_id":440,"stv_port":27076,"stv_name":"Uncletopia | Frankfurt | 7 | Stopwatch Beta | STV","players":null},{"server_id":24,"name":"Uncletopia | Frankfurt | 8 | Community","name_short":"frk-8","host":"frk-1.de.uncletopia.com","port":27085,"enabled":true,"region":"eu","cc":"de","latitude":50.110924,"longitude":8.682127,"reserved":0,"last_update":"0001-01-01T00:00:00Z","name_a2s":"Uncletopia | Frankfurt | 8 | Community","protocol":17,"map":"workshop/koth_synthetic_rc6a.ugc1549817316","folder":"tf","game":"Team Fortress","app_id":440,"player_count":0,"max_players":24,"Bots":0,"server_type":"Dedicated","server_os":"Linux","password":true,"vac":true,"version":"7961495","steam_id":85568392924742828,"keywords":["cp","nocrits","nodmgspread","uncletopia"],"game_id":440,"stv_port":27086,"stv_name":"Uncletopia | Frankfurt | 8 | Community | STV","players":null},{"server_id":202,"name":"Uncletopia | Hong Kong | 1 | All Maps","name_short":"hgk-1","host":"hgk-1.hk.uncletopia.com","port":27015,"enabled":true,"region":"asia","cc":"hk","latitude":22.302711,"longitude":114.177216,"reserved":0,"last_update":"0001-01-01T00:00:00Z","name_a2s":"Uncletopia | Hong Kong | 1 | All Maps","protocol":17,"map":"pl_badwater","folder":"tf","game":"Team Fortress","app_id":440,"player_count":0,"max_players":24,"Bots":0,"server_type":"Dedicated","server_os":"Linux","password":true,"vac":true,"version":"7961495","steam_id":85568392924494504,"keywords":["nocrits","nodmgspread","payload","uncletopia"],"game_id":440,"stv_port":27016,"stv_name":"Uncletopia | Hong Kong | 1 | All Maps | STV","players":null},{"server_id":1,"name":"Uncletopia | Los Angeles | 1 | All Maps","name_short":"lax-1","host":"lax-1.us.uncletopia.com","port":27015,"enabled":true,"region":"us-west","cc":"us","latitude":33.94279,"longitude":-118.41004,"reserved":0,"last_update":"0001-01-01T00:00:00Z","name_a2s":"Uncletopia | Los Angeles | 1 | All Maps","protocol":17,"map":"pl_badwater","folder":"tf","game":"Team Fortress","app_id":440,"player_count":21,"max_players":24,"Bots":0,"server_type":"Dedicated","server_os":"Linux","password":true,"vac":true,"version":"7961495","steam_id":85568392924469991,"keywords":["nocrits","nodmgspread","payload","uncletopia"],"game_id":440,"stv_port":27016,"stv_name":"Uncletopia | Los Angeles | 1 | All Maps | STV","players":[{"user_id":234,"name":"DrewFat","steam_id":76561198067629753,"connected_time":1792000000000,"state":"active","ping":59},{"user_id":224,"name":"YouAreReadingThis","steam_id":76561198367831600,"connected_time":2525000000000,"state":"active","ping":60},{"user_id":243,"name":"Space360","steam_id":76561198106743284,"connected_time":398000000000,"state":"active","ping":76},{"user_id":203,"name":"Schnitz","steam_id":76561198265484253,"connected_time":4350000000000,"state":"active","ping":54},{"user_id":241,"name":"FI LO","steam_id":76561198976530881,"connected_time":578000000000,"state":"active","ping":30},{"user_id":244,"name":"TheMtnDewback","steam_id":76561199468606424,"connected_time":371000000000,"state":"active","ping":48},{"user_id":248,"name":"KnockOutClock","steam_id":76561199436877307,"connected_time":228000000000,"state":"active","ping":49},{"user_id":206,"name":"shakoiwa","steam_id":76561199059441773,"connected_time":4265000000000,"state":"active","ping":57},{"user_id":245,"name":"Super3D","steam_id":76561199297779078,"connected_time":363000000000,"state":"active","ping":60},{"user_id":232,"name":"SanitysEdge","steam_id":76561198130732813,"connected_time":1989000000000,"state":"active","ping":44},{"user_id":246,"name":"GLXy","steam_id":76561198207551544,"connected_time":309000000000,"state":"active","ping":70},{"user_id":236,"name":"ATOMIC SPEED","steam_id":76561199407580843,"connected_time":1286000000000,"state":"active","ping":63},{"user_id":237,"name":"DaBeatGoOff2?","steam_id":76561198106507400,"connected_time":1276000000000,"state":"active","ping":59},{"user_id":199,"name":"Sozuki","steam_id":76561198961150367,"connected_time":4546000000000,"state":"active","ping":51},{"user_id":235,"name":"Keamy","steam_id":76561199471434875,"connected_time":1482000000000,"state":"active","ping":65},{"user_id":231,"name":"Shark Sandwich","steam_id":76561198025007938,"connected_time":2049000000000,"state":"active","ping":85},{"user_id":249,"name":"samvaluez","steam_id":76561199213743808,"connected_time":179000000000,"state":"active","ping":61},{"user_id":179,"name":"weed.fucker.2000","steam_id":76561198338739253,"connected_time":5852000000000,"state":"active","ping":50},{"user_id":240,"name":"☭Borris☭","steam_id":76561198011136886,"connected_time":898000000000,"state":"active","ping":67},{"user_id":247,"name":"bobbymcbobington","steam_id":76561199089411172,"connected_time":273000000000,"state":"active","ping":149},{"user_id":202,"name":"Yoozer","steam_id":76561198420257694,"connected_time":4360000000000,"state":"active","ping":48}]},{"server_id":112,"name":"Uncletopia | Los Angeles | 2 | All Maps","name_short":"lax-2","host":"lax-1.us.uncletopia.com","port":27025,"enabled":true,"region":"us-west","cc":"us","latitude":33.94279,"longitude":-118.41004,"reserved":0,"last_update":"0001-01-01T00:00:00Z","name_a2s":"Uncletopia | Los Angeles | 2 | All Maps","protocol":17,"map":"pl_swiftwater_final1","folder":"tf","game":"Team Fortress","app_id":440,"player_count":0,"max_players":24,"Bots":0,"server_type":"Dedicated","server_os":"Linux","password":true,"vac":true,"version":"7961495","steam_id":85568392924469992,"keywords":["nocrits","nodmgspread","payload","uncletopia"],"game_id":440,"stv_port":27026,"stv_name":"Uncletopia | Los Angeles | 2 | All Maps | STV","players":null},{"server_id":324,"name":"Uncletopia | Los Angeles | 3 | All Maps","name_short":"lax-3","host":"lax-1.us.uncletopia.com","port":27035,"enabled":true,"region":"us-west","cc":"us","latitude":33.94279,"longitude":-118.41004,"reserved":0,"last_update":"0001-01-01T00:00:00Z","name_a2s":"Uncletopia | Los Angeles | 3 | All Maps","protocol":17,"map":"pl_borneo","folder":"tf","game":"Team Fortress","app_id":440,"player_count":24,"max_players":24,"Bots":0,"server_type":"Dedicated","server_os":"Linux","password":true,"vac":true,"version":"7961495","steam_id":85568392924510198,"keywords":["nocrits","nodmgspread","payload","uncletopia"],"game_id":440,"stv_port":27036,"stv_name":"Uncletopia | Los Angeles | 3 | All Maps | STV","players":[{"user_id":419,"name":"sauce","steam_id":76561198155481540,"connected_time":712000000000,"state":"active","ping":49},{"user_id":4,"name":"Biden Blast","steam_id":76561198366729030,"connected_time":30141000000000,"state":"active","ping":48},{"user_id":422,"name":"Praphu","steam_id":76561198799298570,"connected_time":535000000000,"state":"active","ping":98},{"user_id":421,"name":"Epifiny","steam_id":76561198027958086,"connected_time":557000000000,"state":"active","ping":113},{"user_id":381,"name":"Local Skeleton Pirate Captain","steam_id":76561199387783793,"connected_time":3899000000000,"state":"active","ping":106},{"user_id":415,"name":"Crustacean Daddy","steam_id":76561198993807061,"connected_time":1654000000000,"state":"active","ping":51},{"user_id":413,"name":"cup","steam_id":76561198121245586,"connected_time":1819000000000,"state":"active","ping":89},{"user_id":408,"name":"Context","steam_id":76561197972634187,"connected_time":2022000000000,"state":"active","ping":46},{"user_id":418,"name":"domestic terrorist","steam_id":76561198950273742,"connected_time":1424000000000,"state":"active","ping":51},{"user_id":399,"name":"la creatura","steam_id":76561198161368766,"connected_time":2375000000000,"state":"active","ping":68},{"user_id":431,"name":"tomandjerry085","steam_id":76561198800789071,"connected_time":95000000000,"state":"active","ping":61},{"user_id":420,"name":"Silvermace","steam_id":76561198090696843,"connected_time":709000000000,"state":"active","ping":44},{"user_id":428,"name":"Jonestown","steam_id":76561198200983726,"connected_time":246000000000,"state":"active","ping":75},{"user_id":430,"name":"choi","steam_id":76561198053669887,"connected_time":133000000000,"state":"active","ping":59},{"user_id":414,"name":"triph","steam_id":76561198067196509,"connected_time":1716000000000,"state":"active","ping":38},{"user_id":406,"name":"Weakforanimebitches","steam_id":76561198217663016,"connected_time":2115000000000,"state":"active","ping":48},{"user_id":404,"name":"4 life","steam_id":76561198175961598,"connected_time":2236000000000,"state":"active","ping":60},{"user_id":423,"name":"Dr. Zoidberg","steam_id":76561198174593497,"connected_time":529000000000,"state":"active","ping":84},{"user_id":407,"name":"DRI","steam_id":76561198157076858,"connected_time":2114000000000,"state":"active","ping":72},{"user_id":427,"name":"Alberto2104","steam_id":76561198094968873,"connected_time":265000000000,"state":"active","ping":56},{"user_id":351,"name":"GH578","steam_id":76561199493262585,"connected_time":5670000000000,"state":"active","ping":76},{"user_id":409,"name":"Ockulus","steam_id":76561199069638460,"connected_time":2020000000000,"state":"active","ping":37},{"user_id":432,"name":"Tom","steam_id":76561198139202942,"connected_time":50000000000,"state":"active","ping":132},{"user_id":426,"name":"smiley","steam_id":76561199152462800,"connected_time":376000000000,"state":"active","ping":98}]},{"server_id":25,"name":"Uncletopia | Los Angeles | 4 | Stopwatch Beta","name_short":"lax-4","host":"lax-1.us.uncletopia.com","port":27045,"enabled":true,"region":"us-west","cc":"us","latitude":33.94279,"longitude":-118.41004,"reserved":0,"last_update":"0001-01-01T00:00:00Z","name_a2s":"Uncletopia | Los Angeles | 4 | Stopwatch Beta","protocol":17,"map":"pl_upward","folder":"tf","game":"Team Fortress","app_id":440,"player_count":0,"max_players":24,"Bots":0,"server_type":"Dedicated","server_os":"Linux","password":true,"vac":true,"version":"7961495","steam_id":85568392924510199,"keywords":["nocrits","nodmgspread","payload","uncletopia"],"game_id":440,"stv_port":27046,"stv_name":"Uncletopia | Los Angeles | 4 | Stopwatch Beta | STV","players":null},{"server_id":11,"name":"Uncletopia | London | 1 | All Maps","name_short":"lon-1","host":"lon-1.uk.uncletopia.com","port":27015,"enabled":true,"region":"eu","cc":"gb","latitude":51.509865,"longitude":-0.118092,"reserved":0,"last_update":"0001-01-01T00:00:00Z","name_a2s":"Uncletopia | London | 1 | All Maps","protocol":17,"map":"pl_badwater","folder":"tf","game":"Team Fortress","app_id":440,"player_count":24,"max_players":24,"Bots":0,"server_type":"Dedicated","server_os":"Linux","password":true,"vac":true,"version":"7961495","steam_id":85568392924367362,"keywords":["nocrits","nodmgspread","payload","uncletopia"],"game_id":440,"stv_port":27016,"stv_name":"Uncletopia | London | 1 | All Maps | STV","players":[{"user_id":564,"name":"exRage","steam_id":76561198449953655,"connected_time":703000000000,"state":"active","ping":61},{"user_id":558,"name":"❤ Sparx ❤","steam_id":76561198095009261,"connected_time":1181000000000,"state":"active","ping":55},{"user_id":532,"name":"krayy (she/her)","steam_id":76561198035037830,"connected_time":2730000000000,"state":"active","ping":45},{"user_id":554,"name":"KermSlinger","steam_id":76561198854027069,"connected_time":1397000000000,"state":"active","ping":69},{"user_id":561,"name":"shadow wizard money gang","steam_id":76561199062586342,"connected_time":1037000000000,"state":"active","ping":63},{"user_id":563,"name":"dec","steam_id":76561198009660168,"connected_time":727000000000,"state":"active","ping":55},{"user_id":540,"name":"Marcus","steam_id":76561198205027963,"connected_time":2550000000000,"state":"active","ping":62},{"user_id":556,"name":"yup that extream78711","steam_id":76561198106049954,"connected_time":1336000000000,"state":"active","ping":151},{"user_id":523,"name":"Kachigga","steam_id":76561198273112995,"connected_time":3872000000000,"state":"active","ping":56},{"user_id":285,"name":"Snake-chan","steam_id":76561199044755854,"connected_time":22462000000000,"state":"active","ping":76},{"user_id":557,"name":"one spliff sesh","steam_id":76561198101292843,"connected_time":1285000000000,"state":"active","ping":52},{"user_id":565,"name":"Nessieling","steam_id":76561198083556891,"connected_time":343000000000,"state":"active","ping":140},{"user_id":569,"name":"sora","steam_id":76561198096547662,"connected_time":114000000000,"state":"active","ping":52},{"user_id":515,"name":"here widdle wabbit… come here","steam_id":76561198190583242,"connected_time":4415000000000,"state":"active","ping":84},{"user_id":548,"name":"Lyra","steam_id":76561198043601838,"connected_time":1922000000000,"state":"active","ping":61},{"user_id":539,"name":"skull measuring enjoyer","steam_id":76561197963706968,"connected_time":2559000000000,"state":"active","ping":69},{"user_id":555,"name":"Vivian From Paper Mario","steam_id":76561198077624205,"connected_time":1373000000000,"state":"active","ping":66},{"user_id":543,"name":"Kahvi","steam_id":76561198723244199,"connected_time":2446000000000,"state":"active","ping":76},{"user_id":566,"name":"Mr. Pinkie","steam_id":76561198002258053,"connected_time":339000000000,"state":"active","ping":68},{"user_id":559,"name":"elephantofdoom","steam_id":76561198062436835,"connected_time":1160000000000,"state":"active","ping":119},{"user_id":546,"name":"Kphi(i)","steam_id":76561198970587061,"connected_time":2171000000000,"state":"active","ping":58},{"user_id":454,"name":"fence_","steam_id":76561198150386379,"connected_time":9430000000000,"state":"active","ping":49},{"user_id":525,"name":"Beh","steam_id":76561198251208926,"connected_time":3854000000000,"state":"active","ping":54},{"user_id":568,"name":"Sprinkle my Pringle","steam_id":76561198112535604,"connected_time":303000000000,"state":"active","ping":67}]},{"server_id":114,"name":"Uncletopia | London | 2 | All Maps","name_short":"lon-2","host":"lon-1.uk.uncletopia.com","port":27025,"enabled":true,"region":"eu","cc":"gb","latitude":51.509865,"longitude":-0.118092,"reserved":0,"last_update":"0001-01-01T00:00:00Z","name_a2s":"Uncletopia | London | 2 | All Maps","protocol":17,"map":"cp_dustbowl","folder":"tf","game":"Team Fortress","app_id":440,"player_count":24,"max_players":24,"Bots":0,"server_type":"Dedicated","server_os":"Linux","password":true,"vac":true,"version":"7961495","steam_id":85568392924470941,"keywords":["cp","nocrits","nodmgspread","uncletopia"],"game_id":440,"stv_port":27026,"stv_name":"Uncletopia | London | 2 | All Maps | STV","players":[{"user_id":634,"name":"ʲᶠᵍ ♛","steam_id":76561199062437546,"connected_time":2741000000000,"state":"active","ping":56},{"user_id":626,"name":"ne0n","steam_id":76561198032101031,"connected_time":3254000000000,"state":"active","ping":109},{"user_id":668,"name":"fuck me dead","steam_id":76561198030155915,"connected_time":456000000000,"state":"active","ping":66},{"user_id":659,"name":"MondoDong","steam_id":76561197991400109,"connected_time":1087000000000,"state":"active","ping":124},{"user_id":660,"name":"hopperthebox","steam_id":76561198053418437,"connected_time":942000000000,"state":"active","ping":90},{"user_id":490,"name":"MaeMae","steam_id":76561198252524452,"connected_time":10294000000000,"state":"active","ping":47},{"user_id":643,"name":"Aimy","steam_id":76561198798548854,"connected_time":2520000000000,"state":"active","ping":45},{"user_id":666,"name":"LimaAlphaNovemberGolfEchoRomeo","steam_id":76561198087377610,"connected_time":743000000000,"state":"active","ping":80},{"user_id":661,"name":"laser","steam_id":76561198036030697,"connected_time":869000000000,"state":"active","ping":71},{"user_id":671,"name":"Abbiz","steam_id":76561197996978025,"connected_time":176000000000,"state":"active","ping":61},{"user_id":628,"name":"Tekky☻","steam_id":76561197990987315,"connected_time":2998000000000,"state":"active","ping":44},{"user_id":635,"name":"Bartツ","steam_id":76561198164718893,"connected_time":2737000000000,"state":"active","ping":41},{"user_id":662,"name":"ThatTFguy","steam_id":76561198056794321,"connected_time":840000000000,"state":"active","ping":56},{"user_id":672,"name":"Koo","steam_id":76561199435201488,"connected_time":134000000000,"state":"active","ping":99},{"user_id":658,"name":"someone","steam_id":76561199471582243,"connected_time":1180000000000,"state":"active","ping":89},{"user_id":667,"name":"SeaKane","steam_id":76561198165453318,"connected_time":584000000000,"state":"active","ping":59},{"user_id":637,"name":"Tengen","steam_id":76561199356990346,"connected_time":2632000000000,"state":"active","ping":102},{"user_id":642,"name":"mister squibward","steam_id":76561198718760200,"connected_time":2581000000000,"state":"active","ping":53},{"user_id":673,"name":"lofimonkeyjazz","steam_id":76561198117059662,"connected_time":111000000000,"state":"active","ping":74},{"user_id":674,"name":"Klonky","steam_id":76561199068329886,"connected_time":96000000000,"state":"active","ping":82},{"user_id":664,"name":"Welder","steam_id":76561198355300561,"connected_time":803000000000,"state":"active","ping":72},{"user_id":648,"name":"Free Hugs","steam_id":76561198138654157,"connected_time":2346000000000,"state":"active","ping":85},{"user_id":646,"name":"Jrazz","steam_id":76561199075670262,"connected_time":2400000000000,"state":"active","ping":137},{"user_id":665,"name":"DigyB","steam_id":76561198014442345,"connected_time":799000000000,"state":"active","ping":53}]},{"server_id":320,"name":"Uncletopia | London | 3 | All Maps","name_short":"lon-3","host":"lon-1.uk.uncletopia.com","port":27035,"enabled":true,"region":"eu","cc":"gb","latitude":51.509865,"longitude":-0.118092,"reserved":0,"last_update":"0001-01-01T00:00:00Z","name_a2s":"Uncletopia | London | 3 | All Maps","protocol":17,"map":"cp_gravelpit","folder":"tf","game":"Team Fortress","app_id":440,"player_count":23,"max_players":24,"Bots":0,"server_type":"Dedicated","server_os":"Linux","password":true,"vac":true,"version":"7961495","steam_id":85568392924510192,"keywords":["cp","nocrits","nodmgspread","uncletopia"],"game_id":440,"stv_port":27036,"stv_name":"Uncletopia | London | 3 | All Maps | STV","players":[{"user_id":257,"name":"No, Why?","steam_id":76561198888755969,"connected_time":1254000000000,"state":"active","ping":91},{"user_id":259,"name":"uheggwhite","steam_id":76561199199795741,"connected_time":753000000000,"state":"active","ping":164},{"user_id":270,"name":"Cheshireycat","steam_id":76561198067204908,"connected_time":165000000000,"state":"active","ping":60},{"user_id":262,"name":"NeoTheOwl","steam_id":76561198146962506,"connected_time":441000000000,"state":"active","ping":64},{"user_id":258,"name":"pezza","steam_id":76561197995173247,"connected_time":1183000000000,"state":"active","ping":65},{"user_id":263,"name":"nug","steam_id":76561198055396568,"connected_time":318000000000,"state":"active","ping":62},{"user_id":264,"name":"Robotomatique","steam_id":76561198354793952,"connected_time":290000000000,"state":"active","ping":49},{"user_id":118,"name":"tjeeena gubbbnnn","steam_id":76561199163884827,"connected_time":11355000000000,"state":"active","ping":98},{"user_id":239,"name":"shaheen45","steam_id":76561198334819486,"connected_time":2356000000000,"state":"active","ping":130},{"user_id":236,"name":"Soloman","steam_id":76561199212054667,"connected_time":3620000000000,"state":"active","ping":49},{"user_id":246,"name":"Voxiit","steam_id":76561198060319116,"connected_time":2288000000000,"state":"active","ping":63},{"user_id":120,"name":"Baiterz","steam_id":76561198030815786,"connected_time":11270000000000,"state":"active","ping":75},{"user_id":267,"name":"ByggeSimon","steam_id":76561198134789176,"connected_time":194000000000,"state":"active","ping":72},{"user_id":247,"name":"Beetle God","steam_id":76561198119353053,"connected_time":2269000000000,"state":"active","ping":85},{"user_id":268,"name":"quesadilla","steam_id":76561198162873354,"connected_time":171000000000,"state":"active","ping":102},{"user_id":251,"name":"ZePequenio","steam_id":76561197968506094,"connected_time":1985000000000,"state":"active","ping":86},{"user_id":221,"name":"Nathan","steam_id":76561198394485387,"connected_time":4636000000000,"state":"active","ping":66},{"user_id":269,"name":"pizzaboob","steam_id":76561198097507847,"connected_time":169000000000,"state":"active","ping":88},{"user_id":250,"name":"Galex","steam_id":76561198045637579,"connected_time":2106000000000,"state":"active","ping":62},{"user_id":271,"name":"My penis is small","steam_id":76561198370981724,"connected_time":130000000000,"state":"active","ping":55},{"user_id":167,"name":"BackDoorExit","steam_id":76561199136645382,"connected_time":7604000000000,"state":"active","ping":59},{"user_id":235,"name":"aimer","steam_id":76561198324357479,"connected_time":3711000000000,"state":"active","ping":86},{"user_id":249,"name":"Cosmic Gamer","steam_id":76561198027357981,"connected_time":2251000000000,"state":"active","ping":100}]},{"server_id":321,"name":"Uncletopia | London | 4 | All Maps","name_short":"lon-4","host":"lon-1.uk.uncletopia.com","port":27045,"enabled":true,"region":"eu","cc":"gb","latitude":51.509865,"longitude":-0.118092,"reserved":0,"last_update":"0001-01-01T00:00:00Z","name_a2s":"Uncletopia | London | 4 | All Maps","protocol":17,"map":"pl_pier","folder":"tf","game":"Team Fortress","app_id":440,"player_count":24,"max_players":24,"Bots":0,"server_type":"Dedicated","server_os":"Linux","password":true,"vac":true,"version":"7961495","steam_id":85568392924510193,"keywords":["nocrits","nodmgspread","payload","uncletopia"],"game_id":440,"stv_port":27046,"stv_name":"Uncletopia | London | 4 | All Maps | STV","players":[{"user_id":514,"name":"Soerlssoelssöen","steam_id":76561197993060585,"connected_time":1330000000000,"state":"active","ping":77},{"user_id":520,"name":"Blurry","steam_id":76561198115918417,"connected_time":546000000000,"state":"active","ping":68},{"user_id":519,"name":"Houlles","steam_id":76561198095277383,"connected_time":1211000000000,"state":"active","ping":45},{"user_id":312,"name":"Kiogeki","steam_id":76561197996707843,"connected_time":16514000000000,"state":"active","ping":36},{"user_id":498,"name":"msh","steam_id":76561198367669395,"connected_time":2710000000000,"state":"active","ping":43},{"user_id":530,"name":"roLab","steam_id":76561198002416756,"connected_time":250000000000,"state":"active","ping":98},{"user_id":522,"name":"smoking hash till the ashes","steam_id":76561198273358760,"connected_time":493000000000,"state":"active","ping":64},{"user_id":532,"name":"Nawias","steam_id":76561198058770748,"connected_time":181000000000,"state":"active","ping":80},{"user_id":483,"name":"revolver ocelot","steam_id":76561198866358613,"connected_time":4015000000000,"state":"active","ping":168},{"user_id":359,"name":"apetor rip","steam_id":76561198140517762,"connected_time":13249000000000,"state":"active","ping":80},{"user_id":524,"name":"The Power","steam_id":76561198060566884,"connected_time":479000000000,"state":"active","ping":42},{"user_id":526,"name":"joni","steam_id":76561197997323419,"connected_time":466000000000,"state":"active","ping":80},{"user_id":531,"name":"The Lady","steam_id":76561198029895809,"connected_time":223000000000,"state":"active","ping":86},{"user_id":528,"name":"Rokzabg","steam_id":76561198849583041,"connected_time":375000000000,"state":"active","ping":78},{"user_id":506,"name":"lorislk989","steam_id":76561199224251630,"connected_time":2070000000000,"state":"active","ping":69},{"user_id":529,"name":"Jeerven","steam_id":76561198259189841,"connected_time":338000000000,"state":"active","ping":70},{"user_id":361,"name":"finbar","steam_id":76561198056812396,"connected_time":12912000000000,"state":"active","ping":76},{"user_id":521,"name":"LSKi","steam_id":76561198215470228,"connected_time":545000000000,"state":"active","ping":65},{"user_id":490,"name":"I am speed","steam_id":76561199141290973,"connected_time":3651000000000,"state":"active","ping":92},{"user_id":501,"name":"Flashback","steam_id":76561197973978552,"connected_time":2155000000000,"state":"active","ping":54},{"user_id":513,"name":"Average Medic Enjoyer","steam_id":76561198048867302,"connected_time":1607000000000,"state":"active","ping":63},{"user_id":505,"name":"ArturMc","steam_id":76561198015262214,"connected_time":2114000000000,"state":"active","ping":77},{"user_id":460,"name":"dumb idiot moron","steam_id":76561198053929269,"connected_time":6806000000000,"state":"active","ping":92},{"user_id":509,"name":"TomNoSocks","steam_id":76561198114071046,"connected_time":1963000000000,"state":"active","ping":58}]},{"server_id":21,"name":"Uncletopia | London | 5 | All Maps","name_short":"lon-5","host":"lon-1.uk.uncletopia.com","port":27055,"enabled":true,"region":"eu","cc":"gb","latitude":51.509865,"longitude":-0.118092,"reserved":0,"last_update":"0001-01-01T00:00:00Z","name_a2s":"Uncletopia | London | 5 | All Maps","protocol":17,"map":"pl_barnblitz","folder":"tf","game":"Team Fortress","app_id":440,"player_count":24,"max_players":24,"Bots":0,"server_type":"Dedicated","server_os":"Linux","password":true,"vac":true,"version":"7961495","steam_id":85568392924742829,"keywords":["nocrits","nodmgspread","payload","uncletopia"],"game_id":440,"stv_port":27056,"stv_name":"Uncletopia | London | 5 | All Maps | STV","players":[{"user_id":532,"name":"DelaNo","steam_id":76561199125086655,"connected_time":485000000000,"state":"active","ping":44},{"user_id":529,"name":"Maxinator80","steam_id":76561198064728122,"connected_time":1145000000000,"state":"active","ping":68},{"user_id":538,"name":"Eric Catman","steam_id":76561198802117294,"connected_time":91000000000,"state":"active","ping":76},{"user_id":530,"name":"norm_pokord","steam_id":76561198305771994,"connected_time":1051000000000,"state":"active","ping":84},{"user_id":513,"name":"Spooked","steam_id":76561198138287615,"connected_time":2190000000000,"state":"active","ping":57},{"user_id":508,"name":"Simon","steam_id":76561199122086348,"connected_time":2317000000000,"state":"active","ping":111},{"user_id":527,"name":"guildyfan2001","steam_id":76561198038827937,"connected_time":1738000000000,"state":"active","ping":49},{"user_id":486,"name":"basher","steam_id":76561198008795422,"connected_time":3426000000000,"state":"active","ping":61},{"user_id":533,"name":"Sammi The Hylir","steam_id":76561198129848053,"connected_time":441000000000,"state":"active","ping":72},{"user_id":496,"name":"prophits","steam_id":76561198011854314,"connected_time":2781000000000,"state":"active","ping":60},{"user_id":498,"name":"rada❤","steam_id":76561198062362168,"connected_time":2750000000000,"state":"active","ping":69},{"user_id":534,"name":"Qwerty","steam_id":76561198023525894,"connected_time":325000000000,"state":"active","ping":89},{"user_id":539,"name":"SlonkyDonky","steam_id":76561198425787528,"connected_time":54000000000,"state":"active","ping":81},{"user_id":535,"name":"Swift_Baguette","steam_id":76561199230477090,"connected_time":311000000000,"state":"active","ping":52},{"user_id":510,"name":"Paper","steam_id":76561199037749675,"connected_time":2312000000000,"state":"active","ping":26},{"user_id":512,"name":"Cryan Branston","steam_id":76561197996486756,"connected_time":2233000000000,"state":"active","ping":61},{"user_id":528,"name":"Tort","steam_id":76561198329646769,"connected_time":1716000000000,"state":"active","ping":55},{"user_id":540,"name":"Dr. Kaytastrophee, PhD","steam_id":76561198012418739,"connected_time":41000000000,"state":"active","ping":138},{"user_id":515,"name":"Ja Yeti","steam_id":76561199203212796,"connected_time":2170000000000,"state":"active","ping":115},{"user_id":516,"name":"Din Javel","steam_id":76561198043018352,"connected_time":2163000000000,"state":"active","ping":117},{"user_id":517,"name":"euklides","steam_id":76561199121869254,"connected_time":2145000000000,"state":"active","ping":90},{"user_id":519,"name":"pełus","steam_id":76561198959207421,"connected_time":2130000000000,"state":"active","ping":93},{"user_id":531,"name":"Green","steam_id":76561198183580019,"connected_time":982000000000,"state":"active","ping":74},{"user_id":537,"name":"Smalstro","steam_id":76561199227819604,"connected_time":263000000000,"state":"active","ping":165}]},{"server_id":22,"name":"Uncletopia | London | 6 | All Maps","name_short":"lon-6","host":"lon-1.uk.uncletopia.com","port":27065,"enabled":true,"region":"eu","cc":"gb","latitude":51.509865,"longitude":-0.118092,"reserved":0,"last_update":"0001-01-01T00:00:00Z","name_a2s":"Uncletopia | London | 6 | All Maps","protocol":17,"map":"cp_sunshine","folder":"tf","game":"Team Fortress","app_id":440,"player_count":21,"max_players":24,"Bots":0,"server_type":"Dedicated","server_os":"Linux","password":true,"vac":true,"version":"7961495","steam_id":85568392924742830,"keywords":["cp","nocrits","nodmgspread","uncletopia"],"game_id":440,"stv_port":27066,"stv_name":"Uncletopia | London | 6 | All Maps | STV","players":[{"user_id":254,"name":"Dangerous Man","steam_id":76561198986834496,"connected_time":4516000000000,"state":"active","ping":116},{"user_id":309,"name":"COTHuK","steam_id":76561198330633932,"connected_time":1052000000000,"state":"active","ping":84},{"user_id":322,"name":"gmem","steam_id":76561198070006725,"connected_time":796000000000,"state":"active","ping":47},{"user_id":310,"name":"Ozy","steam_id":76561198257359584,"connected_time":1044000000000,"state":"active","ping":79},{"user_id":321,"name":"Kjat","steam_id":76561198839433592,"connected_time":803000000000,"state":"active","ping":60},{"user_id":293,"name":"Cataleptic","steam_id":76561197997966949,"connected_time":1795000000000,"state":"active","ping":56},{"user_id":325,"name":"Spitfire","steam_id":76561197997121260,"connected_time":740000000000,"state":"active","ping":44},{"user_id":324,"name":"ROX","steam_id":76561198272289320,"connected_time":775000000000,"state":"active","ping":100},{"user_id":317,"name":"LEEROY","steam_id":76561198231067560,"connected_time":924000000000,"state":"active","ping":88},{"user_id":298,"name":"Potshott","steam_id":76561198184014158,"connected_time":1688000000000,"state":"active","ping":48},{"user_id":314,"name":"mIKa","steam_id":76561198291714507,"connected_time":968000000000,"state":"active","ping":96},{"user_id":323,"name":"breakfast bandit","steam_id":76561198013502376,"connected_time":782000000000,"state":"active","ping":57},{"user_id":316,"name":"iWaterlyx","steam_id":76561198834321199,"connected_time":941000000000,"state":"active","ping":56},{"user_id":332,"name":"R@DIO","steam_id":76561197995533046,"connected_time":422000000000,"state":"active","ping":84},{"user_id":331,"name":"Alumento","steam_id":76561198043857441,"connected_time":535000000000,"state":"active","ping":54},{"user_id":327,"name":"Drebin","steam_id":76561198027196777,"connected_time":660000000000,"state":"active","ping":37},{"user_id":328,"name":"Sagzy","steam_id":76561198121010932,"connected_time":612000000000,"state":"active","ping":45},{"user_id":300,"name":"Batch Number 443714","steam_id":76561197977497969,"connected_time":1655000000000,"state":"active","ping":53},{"user_id":329,"name":"Vika","steam_id":76561198014532457,"connected_time":590000000000,"state":"active","ping":81},{"user_id":319,"name":"Zurtrun","steam_id":76561198044905628,"connected_time":871000000000,"state":"active","ping":100},{"user_id":330,"name":"Bromoneto","steam_id":76561198876695014,"connected_time":573000000000,"state":"active","ping":83}]},{"server_id":40,"name":"Uncletopia | London | 7 | No Payload","name_short":"lon-7","host":"lon-1.uk.uncletopia.com","port":27075,"enabled":true,"region":"eu","cc":"gb","latitude":51.509865,"longitude":-0.118092,"reserved":0,"last_update":"0001-01-01T00:00:00Z","name_a2s":"Uncletopia | London | 7 | No Payload","protocol":17,"map":"koth_harvest_final","folder":"tf","game":"Team Fortress","app_id":440,"player_count":0,"max_players":24,"Bots":0,"server_type":"Dedicated","server_os":"Linux","password":true,"vac":true,"version":"7961495","steam_id":85568392924964314,"keywords":["cp","nocrits","nodmgspread","uncletopia"],"game_id":440,"stv_port":27076,"stv_name":"Uncletopia | London | 7 | No Payload | STV","players":null},{"server_id":41,"name":"Uncletopia | London | 8 | Community","name_short":"lon-8","host":"lon-1.uk.uncletopia.com","port":27085,"enabled":true,"region":"eu","cc":"gb","latitude":51.509865,"longitude":-0.118092,"reserved":0,"last_update":"0001-01-01T00:00:00Z","name_a2s":"Uncletopia | London | 8 | Community","protocol":17,"map":"workshop/pl_barnblitz_pro7.ugc582280235","folder":"tf","game":"Team Fortress","app_id":440,"player_count":3,"max_players":24,"Bots":0,"server_type":"Dedicated","server_os":"Linux","password":true,"vac":true,"version":"7961495","steam_id":85568392924964315,"keywords":["nocrits","nodmgspread","payload","uncletopia"],"game_id":440,"stv_port":27086,"stv_name":"Uncletopia | London | 8 | Community | STV","players":[{"user_id":15,"name":"ух Александр","steam_id":76561198995476261,"connected_time":2162000000000,"state":"active","ping":100},{"user_id":16,"name":"ух Никитка","steam_id":76561199227727933,"connected_time":2159000000000,"state":"active","ping":104},{"user_id":21,"name":"Ух Тимурка","steam_id":76561198203003862,"connected_time":179000000000,"state":"active","ping":105}]},{"server_id":300,"name":"Uncletopia | Montréal | 1 | All Maps","name_short":"mtl-1","host":"mtl-1.ca.uncletopia.com","port":27015,"enabled":true,"region":"us-east","cc":"ca","latitude":45.50889,"longitude":-73.56167,"reserved":0,"last_update":"0001-01-01T00:00:00Z","name_a2s":"","protocol":0,"map":"","folder":"","game":"","app_id":0,"player_count":8,"max_players":0,"Bots":0,"server_type":"","server_os":"","password":false,"vac":false,"version":"","steam_id":0,"keywords":null,"game_id":0,"stv_port":0,"stv_name":"","players":[{"user_id":158,"name":"BluCoffee","steam_id":76561198214995967,"connected_time":47000000000,"state":"active","ping":41},{"user_id":153,"name":"Danmar33","steam_id":76561198056453091,"connected_time":925000000000,"state":"active","ping":74},{"user_id":151,"name":"Roz257","steam_id":76561198842844532,"connected_time":1250000000000,"state":"active","ping":51},{"user_id":144,"name":"Only One Jhakobi","steam_id":76561197993641141,"connected_time":1622000000000,"state":"active","ping":60},{"user_id":154,"name":"The","steam_id":76561198359311605,"connected_time":548000000000,"state":"active","ping":143},{"user_id":122,"name":"oof aim small brain","steam_id":76561198079925551,"connected_time":2875000000000,"state":"active","ping":60},{"user_id":147,"name":"Nic0","steam_id":76561198305690218,"connected_time":1496000000000,"state":"active","ping":42},{"user_id":106,"name":"Hindmost","steam_id":76561199081837220,"connected_time":4293000000000,"state":"active","ping":108}]},{"server_id":301,"name":"Uncletopia | Montréal | 2 | All Maps","name_short":"mtl-2","host":"mtl-1.ca.uncletopia.com","port":27025,"enabled":true,"region":"us-east","cc":"ca","latitude":45.50889,"longitude":-73.56167,"reserved":0,"last_update":"0001-01-01T00:00:00Z","name_a2s":"","protocol":0,"map":"","folder":"","game":"","app_id":0,"player_count":2,"max_players":0,"Bots":0,"server_type":"","server_os":"","password":false,"vac":false,"version":"","steam_id":0,"keywords":null,"game_id":0,"stv_port":0,"stv_name":"","players":[{"user_id":19,"name":"BoyKisser","steam_id":76561199200969139,"connected_time":1378000000000,"state":"active","ping":124},{"user_id":20,"name":"MagicCraftMaster","steam_id":76561198179156615,"connected_time":1282000000000,"state":"active","ping":79}]},{"server_id":302,"name":"Uncletopia | Montréal | 3 | All Maps","name_short":"mtl-3","host":"mtl-1.ca.uncletopia.com","port":27035,"enabled":true,"region":"us-east","cc":"ca","latitude":45.50889,"longitude":-73.56167,"reserved":0,"last_update":"0001-01-01T00:00:00Z","name_a2s":"","protocol":0,"map":"","folder":"","game":"","app_id":0,"player_count":0,"max_players":0,"Bots":0,"server_type":"","server_os":"","password":false,"vac":false,"version":"","steam_id":0,"keywords":null,"game_id":0,"stv_port":0,"stv_name":"","players":null},{"server_id":303,"name":"Uncletopia | Montréal | 4 | No Payload","name_short":"mtl-4","host":"mtl-1.ca.uncletopia.com","port":27045,"enabled":true,"region":"us-east","cc":"ca","latitude":45.50889,"longitude":-73.56167,"reserved":0,"last_update":"0001-01-01T00:00:00Z","name_a2s":"","protocol":0,"map":"","folder":"","game":"","app_id":0,"player_count":0,"max_players":0,"Bots":0,"server_type":"","server_os":"","password":false,"vac":false,"version":"","steam_id":0,"keywords":null,"game_id":0,"stv_port":0,"stv_name":"","players":null},{"server_id":13,"name":"Uncletopia | New York City | 1 | All Maps","name_short":"nyc-1","host":"nyc-1.us.uncletopia.com","port":27015,"enabled":true,"region":"us-east","cc":"us","latitude":40.73061,"longitude":-73.93524,"reserved":0,"last_update":"0001-01-01T00:00:00Z","name_a2s":"Uncletopia | New York City | 1 | All Maps","protocol":17,"map":"pl_barnblitz","folder":"tf","game":"Team Fortress","app_id":440,"player_count":24,"max_players":24,"Bots":0,"server_type":"Dedicated","server_os":"Linux","password":true,"vac":true,"version":"7961495","steam_id":85568392924469993,"keywords":["nocrits","nodmgspread","payload","uncletopia"],"game_id":440,"stv_port":27016,"stv_name":"Uncletopia | New York City | 1 | All Maps | STV","players":[{"user_id":359,"name":"MontellWilliams","steam_id":76561198172143015,"connected_time":903000000000,"state":"active","ping":50},{"user_id":362,"name":"Griffin","steam_id":76561198159339442,"connected_time":781000000000,"state":"active","ping":66},{"user_id":332,"name":"cyberas","steam_id":76561198257092290,"connected_time":2230000000000,"state":"active","ping":66},{"user_id":295,"name":"The Sinister Potion","steam_id":76561198131280715,"connected_time":4917000000000,"state":"active","ping":56},{"user_id":350,"name":"Masterchief","steam_id":76561198935642457,"connected_time":1244000000000,"state":"active","ping":75},{"user_id":342,"name":"IndianBacca","steam_id":76561199130311873,"connected_time":1428000000000,"state":"active","ping":84},{"user_id":366,"name":"fi_ji","steam_id":76561198126087725,"connected_time":355000000000,"state":"active","ping":60},{"user_id":365,"name":"Plieop","steam_id":76561198199493917,"connected_time":504000000000,"state":"active","ping":44},{"user_id":368,"name":"Plaque","steam_id":76561198070380404,"connected_time":151000000000,"state":"active","ping":45},{"user_id":356,"name":"Holdmymilk","steam_id":76561198047391409,"connected_time":1111000000000,"state":"active","ping":61},{"user_id":363,"name":"Sicko Mode (Chris Pratt Cover)","steam_id":76561198315786174,"connected_time":724000000000,"state":"active","ping":70},{"user_id":275,"name":"Broadway Rose","steam_id":76561198046083342,"connected_time":5915000000000,"state":"active","ping":44},{"user_id":364,"name":"Drapph","steam_id":76561199384213314,"connected_time":696000000000,"state":"active","ping":82},{"user_id":304,"name":"dcqwerty","steam_id":76561198964101426,"connected_time":3987000000000,"state":"active","ping":41},{"user_id":326,"name":"MILKY","steam_id":76561198073114061,"connected_time":2520000000000,"state":"active","ping":81},{"user_id":330,"name":"judesro","steam_id":76561198352244888,"connected_time":2406000000000,"state":"active","ping":69},{"user_id":340,"name":"NYC APPA YIP YIP","steam_id":76561198112929942,"connected_time":1514000000000,"state":"active","ping":57},{"user_id":360,"name":"Fiend","steam_id":76561198190106735,"connected_time":879000000000,"state":"active","ping":59},{"user_id":318,"name":"BeerPowder","steam_id":76561198058129400,"connected_time":2918000000000,"state":"active","ping":52},{"user_id":355,"name":"SeaBass","steam_id":76561198278914206,"connected_time":1145000000000,"state":"active","ping":84},{"user_id":361,"name":"Stuff550","steam_id":76561198823316498,"connected_time":865000000000,"state":"active","ping":87},{"user_id":354,"name":"Tankless Water Heater","steam_id":76561198014574925,"connected_time":1177000000000,"state":"active","ping":76},{"user_id":346,"name":"Professor_Nut","steam_id":76561198272996830,"connected_time":1368000000000,"state":"active","ping":130},{"user_id":367,"name":"chimi","steam_id":76561198064111533,"connected_time":232000000000,"state":"active","ping":38}]},{"server_id":14,"name":"Uncletopia | New York City | 2 | All Maps","name_short":"nyc-2","host":"nyc-1.us.uncletopia.com","port":27025,"enabled":true,"region":"us-east","cc":"us","latitude":40.73061,"longitude":-73.93524,"reserved":0,"last_update":"0001-01-01T00:00:00Z","name_a2s":"Uncletopia | New York City | 2 | All Maps","protocol":17,"map":"pl_snowycoast","folder":"tf","game":"Team Fortress","app_id":440,"player_count":24,"max_players":24,"Bots":0,"server_type":"Dedicated","server_os":"Linux","password":true,"vac":true,"version":"7961495","steam_id":85568392924469994,"keywords":["nocrits","nodmgspread","payload","uncletopia"],"game_id":440,"stv_port":27026,"stv_name":"Uncletopia | New York City | 2 | All Maps | STV","players":[{"user_id":217,"name":"DeepDive","steam_id":76561198140542184,"connected_time":2608000000000,"state":"active","ping":44},{"user_id":238,"name":"3hunna56k.n3t","steam_id":76561198404564240,"connected_time":388000000000,"state":"active","ping":46},{"user_id":99,"name":"My Form Empties","steam_id":76561197993777553,"connected_time":10021000000000,"state":"active","ping":120},{"user_id":223,"name":"FliturbiousRex","steam_id":76561199217583334,"connected_time":1850000000000,"state":"active","ping":63},{"user_id":234,"name":"x","steam_id":76561198013735714,"connected_time":1229000000000,"state":"active","ping":68},{"user_id":181,"name":"PyroEagle","steam_id":76561198296434231,"connected_time":4307000000000,"state":"active","ping":86},{"user_id":200,"name":"vapid","steam_id":76561198077643349,"connected_time":3120000000000,"state":"active","ping":54},{"user_id":231,"name":"Slimy","steam_id":76561199486144618,"connected_time":1286000000000,"state":"active","ping":167},{"user_id":239,"name":"(\u003e'.')\u003e","steam_id":76561198049825875,"connected_time":326000000000,"state":"active","ping":80},{"user_id":221,"name":"gmaay","steam_id":76561199104911185,"connected_time":2208000000000,"state":"active","ping":55},{"user_id":204,"name":"Extro","steam_id":76561198178908694,"connected_time":3011000000000,"state":"active","ping":72},{"user_id":186,"name":"Virtual Zorua","steam_id":76561198196180302,"connected_time":4082000000000,"state":"active","ping":96},{"user_id":237,"name":"Charlie","steam_id":76561199098209171,"connected_time":655000000000,"state":"active","ping":79},{"user_id":98,"name":"Schizophrenic Hallucination","steam_id":76561199489855499,"connected_time":10023000000000,"state":"active","ping":120},{"user_id":218,"name":"Zimil","steam_id":76561199187045818,"connected_time":2512000000000,"state":"active","ping":95},{"user_id":177,"name":"TheSnowGhost","steam_id":76561198271967286,"connected_time":4934000000000,"state":"active","ping":61},{"user_id":187,"name":"mountainkug","steam_id":76561199491802535,"connected_time":4068000000000,"state":"active","ping":65},{"user_id":236,"name":"Scooter O'Boyl","steam_id":76561197971687069,"connected_time":1023000000000,"state":"active","ping":57},{"user_id":227,"name":"Jm7437","steam_id":76561198150754161,"connected_time":1361000000000,"state":"active","ping":54},{"user_id":213,"name":"bony","steam_id":76561198241893988,"connected_time":2828000000000,"state":"active","ping":53},{"user_id":211,"name":"wolfgrey139","steam_id":76561199206554751,"connected_time":2862000000000,"state":"active","ping":55},{"user_id":214,"name":"Broadsword #LGM","steam_id":76561198011160411,"connected_time":2783000000000,"state":"active","ping":80},{"user_id":220,"name":"femtofarad™","steam_id":76561198308583053,"connected_time":2290000000000,"state":"active","ping":60},{"user_id":226,"name":"g00bur","steam_id":76561197993622520,"connected_time":1429000000000,"state":"active","ping":55}]},{"server_id":15,"name":"Uncletopia | New York City | 3 | Stopwatch Beta","name_short":"nyc-3","host":"nyc-1.us.uncletopia.com","port":27035,"enabled":true,"region":"us-east","cc":"us","latitude":40.73061,"longitude":-73.93524,"reserved":0,"last_update":"0001-01-01T00:00:00Z","name_a2s":"Uncletopia | New York City | 3 | Stopwatch Beta","protocol":17,"map":"cp_sunshine","folder":"tf","game":"Team Fortress","app_id":440,"player_count":0,"max_players":24,"Bots":0,"server_type":"Dedicated","server_os":"Linux","password":true,"vac":true,"version":"7961495","steam_id":85568392924742820,"keywords":["cp","nocrits","nodmgspread","uncletopia"],"game_id":440,"stv_port":27036,"stv_name":"Uncletopia | New York City | 3 | Stopwatch Beta | STV","players":null},{"server_id":16,"name":"Uncletopia | New York City | 4 | Community","name_short":"nyc-4","host":"nyc-1.us.uncletopia.com","port":27045,"enabled":true,"region":"us-east","cc":"us","latitude":40.73061,"longitude":-73.93524,"reserved":0,"last_update":"0001-01-01T00:00:00Z","name_a2s":"Uncletopia | New York City | 4 | Community","protocol":17,"map":"workshop/koth_kemptown_rc1.ugc767410655","folder":"tf","game":"Team Fortress","app_id":440,"player_count":25,"max_players":24,"Bots":0,"server_type":"Dedicated","server_os":"Linux","password":true,"vac":true,"version":"7961495","steam_id":85568392924742821,"keywords":["cp","nocrits","nodmgspread","uncletopia"],"game_id":440,"stv_port":27046,"stv_name":"Uncletopia | New York City | 4 | Community | STV","players":[{"user_id":120,"name":"Madlag","steam_id":76561199481854201,"connected_time":970000000000,"state":"active","ping":55},{"user_id":132,"name":"Sonic The Scientologist","steam_id":76561198089945709,"connected_time":312000000000,"state":"active","ping":58},{"user_id":142,"name":"Lemonade :3","steam_id":76561199109806211,"connected_time":0,"state":"spawning","ping":68},{"user_id":122,"name":"menk3","steam_id":76561198120888597,"connected_time":867000000000,"state":"active","ping":55},{"user_id":96,"name":"Donald","steam_id":76561198263909702,"connected_time":1874000000000,"state":"active","ping":57},{"user_id":140,"name":"PyroBurger","steam_id":76561198847213969,"connected_time":33000000000,"state":"active","ping":79},{"user_id":97,"name":"Crogun","steam_id":76561198056163737,"connected_time":1824000000000,"state":"active","ping":52},{"user_id":128,"name":"Kinda_Clownish","steam_id":76561198309111836,"connected_time":637000000000,"state":"active","ping":115},{"user_id":79,"name":"Bobby Liberty","steam_id":76561199082643794,"connected_time":2455000000000,"state":"active","ping":48},{"user_id":124,"name":"rupert","steam_id":76561198361825837,"connected_time":848000000000,"state":"active","ping":99},{"user_id":99,"name":"Minefield Mike","steam_id":76561198111042556,"connected_time":1775000000000,"state":"active","ping":57},{"user_id":130,"name":"fantasy flan","steam_id":76561198329367181,"connected_time":412000000000,"state":"active","ping":62},{"user_id":125,"name":"narcissist","steam_id":76561198406096320,"connected_time":834000000000,"state":"active","ping":83},{"user_id":106,"name":"SentPie","steam_id":76561198796459932,"connected_time":1435000000000,"state":"active","ping":84},{"user_id":129,"name":"Nordie","steam_id":76561198102297774,"connected_time":523000000000,"state":"active","ping":75},{"user_id":138,"name":"milfred louver","steam_id":76561198882713406,"connected_time":145000000000,"state":"active","ping":172},{"user_id":133,"name":"The Game","steam_id":76561198070605464,"connected_time":307000000000,"state":"active","ping":61},{"user_id":134,"name":"artichoke","steam_id":76561198980994364,"connected_time":302000000000,"state":"active","ping":83},{"user_id":113,"name":"dopamine enjoyer","steam_id":76561199140415814,"connected_time":1166000000000,"state":"active","ping":75},{"user_id":118,"name":"Deardrie","steam_id":76561198065973185,"connected_time":1078000000000,"state":"active","ping":59},{"user_id":115,"name":"TrueMimicryTTV","steam_id":76561198237691466,"connected_time":1125000000000,"state":"active","ping":127},{"user_id":135,"name":"emineminoski8","steam_id":76561199489222769,"connected_time":289000000000,"state":"active","ping":180},{"user_id":136,"name":"Neato_Supremeo","steam_id":76561198087245467,"connected_time":275000000000,"state":"active","ping":55},{"user_id":137,"name":"❤[S'more]❤","steam_id":76561198817361963,"connected_time":232000000000,"state":"active","ping":156},{"user_id":141,"name":"Yellowtt","steam_id":76561198374834340,"connected_time":19000000000,"state":"spawning","ping":149}]},{"server_id":142,"name":"Uncletopia | São Paulo | 1 | All Maps","name_short":"sao-1","host":"sao-1.br.uncletopia.com","port":27015,"enabled":true,"region":"sa","cc":"br","latitude":-23.533773,"longitude":-46.62529,"reserved":0,"last_update":"0001-01-01T00:00:00Z","name_a2s":"Uncletopia | São Paulo | 1 | All Maps","protocol":17,"map":"pl_upward","folder":"tf","game":"Team Fortress","app_id":440,"player_count":21,"max_players":24,"Bots":0,"server_type":"Dedicated","server_os":"Linux","password":true,"vac":true,"version":"7961495","steam_id":85568392924469996,"keywords":["nocrits","nodmgspread","payload","uncletopia"],"game_id":440,"stv_port":27016,"stv_name":"Uncletopia | São Paulo | 1 | All Maps | STV","players":[{"user_id":132,"name":"SMILE :)","steam_id":76561199181311330,"connected_time":98000000000,"state":"active","ping":67},{"user_id":115,"name":"Stranger","steam_id":76561198065572546,"connected_time":1010000000000,"state":"active","ping":64},{"user_id":116,"name":"Tati","steam_id":76561198097756059,"connected_time":978000000000,"state":"active","ping":75},{"user_id":67,"name":"vacaloca25","steam_id":76561198082683352,"connected_time":5804000000000,"state":"active","ping":60},{"user_id":117,"name":"The Enby Trans Rights Deity","steam_id":76561199000786065,"connected_time":885000000000,"state":"active","ping":60},{"user_id":79,"name":"Phalanx","steam_id":76561198043563282,"connected_time":4591000000000,"state":"active","ping":45},{"user_id":81,"name":"Fe^","steam_id":76561198067610246,"connected_time":3806000000000,"state":"active","ping":58},{"user_id":45,"name":"hadinode","steam_id":76561198191475573,"connected_time":9093000000000,"state":"active","ping":50},{"user_id":118,"name":"caeza e tele","steam_id":76561199129317448,"connected_time":777000000000,"state":"active","ping":103},{"user_id":119,"name":"dog gamer","steam_id":76561199306090973,"connected_time":759000000000,"state":"active","ping":63},{"user_id":120,"name":"anaheisenberg","steam_id":76561198304847307,"connected_time":646000000000,"state":"active","ping":60},{"user_id":124,"name":"MUITO SAL!","steam_id":76561198853410481,"connected_time":437000000000,"state":"active","ping":50},{"user_id":134,"name":"matheus whatsapp","steam_id":76561199359501901,"connected_time":21000000000,"state":"spawning","ping":42},{"user_id":26,"name":"Aust","steam_id":76561198067966650,"connected_time":10500000000000,"state":"active","ping":47},{"user_id":129,"name":"AwakenFlame","steam_id":76561198209710303,"connected_time":232000000000,"state":"active","ping":91},{"user_id":131,"name":"bricky","steam_id":76561198968423102,"connected_time":164000000000,"state":"active","ping":102},{"user_id":94,"name":"RODOLFOFM AY #savetf2","steam_id":76561199072956195,"connected_time":2399000000000,"state":"active","ping":61},{"user_id":135,"name":"Marcelo","steam_id":76561199125014335,"connected_time":17000000000,"state":"active","ping":309},{"user_id":42,"name":"YellowEyePatch Guy","steam_id":76561199108111310,"connected_time":9298000000000,"state":"active","ping":59},{"user_id":107,"name":"Adolf_Dripler_1945","steam_id":76561198963738808,"connected_time":1947000000000,"state":"active","ping":35},{"user_id":108,"name":"jr_","steam_id":76561198313937899,"connected_time":1846000000000,"state":"active","ping":50}]},{"server_id":143,"name":"Uncletopia | São Paulo | 2 | Community","name_short":"sao-2","host":"sao-2.br.uncletopia.com","port":27015,"enabled":true,"region":"sa","cc":"br","latitude":-23.533773,"longitude":-46.62529,"reserved":0,"last_update":"0001-01-01T00:00:00Z","name_a2s":"Uncletopia | São Paulo | 2 | Community","protocol":17,"map":"workshop/pl_vigil_rc9.ugc1266210012","folder":"tf","game":"Team Fortress","app_id":440,"player_count":0,"max_players":24,"Bots":0,"server_type":"Dedicated","server_os":"Linux","password":true,"vac":true,"version":"7961495","steam_id":85568392924485349,"keywords":["nocrits","nodmgspread","payload","uncletopia"],"game_id":440,"stv_port":27016,"stv_name":"Uncletopia | São Paulo | 2 | Community | STV","players":null},{"server_id":7,"name":"Uncletopia | Seattle | 1 | All Maps","name_short":"sea-1","host":"sea-1.us.uncletopia.com","port":27015,"enabled":true,"region":"us-west","cc":"us","latitude":47.608013,"longitude":-122.33517,"reserved":0,"last_update":"0001-01-01T00:00:00Z","name_a2s":"Uncletopia | Seattle | 1 | All Maps","protocol":17,"map":"cp_powerhouse","folder":"tf","game":"Team Fortress","app_id":440,"player_count":24,"max_players":24,"Bots":0,"server_type":"Dedicated","server_os":"Linux","password":true,"vac":true,"version":"7961495","steam_id":85568392924469997,"keywords":["cp","nocrits","nodmgspread","uncletopia"],"game_id":440,"stv_port":27016,"stv_name":"Uncletopia | Seattle | 1 | All Maps | STV","players":[{"user_id":297,"name":"Pneumo.","steam_id":76561197987911883,"connected_time":330000000000,"state":"active","ping":72},{"user_id":289,"name":"Tripll-L","steam_id":76561197998077437,"connected_time":791000000000,"state":"active","ping":60},{"user_id":286,"name":"Meso","steam_id":76561199088153190,"connected_time":1340000000000,"state":"active","ping":54},{"user_id":303,"name":"ORANGE","steam_id":76561198000401769,"connected_time":160000000000,"state":"active","ping":45},{"user_id":242,"name":"EatSomeBEES","steam_id":76561198047334307,"connected_time":3462000000000,"state":"active","ping":85},{"user_id":288,"name":"human (real)","steam_id":76561199001855562,"connected_time":806000000000,"state":"active","ping":51},{"user_id":249,"name":"Sailor","steam_id":76561199081983517,"connected_time":3130000000000,"state":"active","ping":100},{"user_id":252,"name":"jayeskae","steam_id":76561198144220801,"connected_time":3019000000000,"state":"active","ping":48},{"user_id":294,"name":"Gyr0sphere","steam_id":76561198183900735,"connected_time":465000000000,"state":"active","ping":92},{"user_id":280,"name":"rune simpa","steam_id":76561198046174848,"connected_time":1600000000000,"state":"active","ping":112},{"user_id":279,"name":"onionman0106","steam_id":76561199067766868,"connected_time":1710000000000,"state":"active","ping":45},{"user_id":238,"name":"Ice cream sandwich","steam_id":76561198172748357,"connected_time":3604000000000,"state":"active","ping":68},{"user_id":239,"name":"juan.png","steam_id":76561199276894516,"connected_time":3602000000000,"state":"active","ping":64},{"user_id":292,"name":"hatsune miku","steam_id":76561199445009981,"connected_time":686000000000,"state":"active","ping":56},{"user_id":295,"name":"Nickel04","steam_id":76561199000214877,"connected_time":457000000000,"state":"active","ping":60},{"user_id":245,"name":"pirte","steam_id":76561198974258097,"connected_time":3311000000000,"state":"active","ping":80},{"user_id":284,"name":"Dip","steam_id":76561198119504730,"connected_time":1498000000000,"state":"active","ping":82},{"user_id":296,"name":"lynks disease no sound","steam_id":76561198043465434,"connected_time":361000000000,"state":"active","ping":71},{"user_id":283,"name":"Tuneski!!!!!!","steam_id":76561199054203198,"connected_time":1541000000000,"state":"active","ping":127},{"user_id":299,"name":"wahoo","steam_id":76561198049258493,"connected_time":239000000000,"state":"active","ping":59},{"user_id":285,"name":"Google","steam_id":76561198857237473,"connected_time":1484000000000,"state":"active","ping":48},{"user_id":307,"name":"Fulani","steam_id":76561198035721716,"connected_time":6000000000,"state":"spawning","ping":66},{"user_id":273,"name":"Smug Pug","steam_id":76561198059423334,"connected_time":2091000000000,"state":"active","ping":99},{"user_id":287,"name":"Antwan","steam_id":76561198246200638,"connected_time":1339000000000,"state":"active","ping":94}]},{"server_id":119,"name":"Uncletopia | Seattle | 2 | All Maps","name_short":"sea-2","host":"sea-1.us.uncletopia.com","port":27025,"enabled":true,"region":"us-west","cc":"us","latitude":47.608013,"longitude":-122.33517,"reserved":0,"last_update":"0001-01-01T00:00:00Z","name_a2s":"Uncletopia | Seattle | 2 | All Maps","protocol":17,"map":"koth_highpass","folder":"tf","game":"Team Fortress","app_id":440,"player_count":2,"max_players":24,"Bots":0,"server_type":"Dedicated","server_os":"Linux","password":true,"vac":true,"version":"7961495","steam_id":85568392924469998,"keywords":["cp","nocrits","nodmgspread","uncletopia"],"game_id":440,"stv_port":27026,"stv_name":"Uncletopia | Seattle | 2 | All Maps | STV","players":[{"user_id":29,"name":"Emerald0753","steam_id":76561199386528270,"connected_time":2549000000000,"state":"active","ping":106},{"user_id":30,"name":"Vagrant","steam_id":76561198242536886,"connected_time":2374000000000,"state":"active","ping":101}]},{"server_id":406,"name":"Uncletopia | Seattle | 3 | Stopwatch Beta","name_short":"sea-3","host":"sea-1.us.uncletopia.com","port":27035,"enabled":true,"region":"us-west","cc":"us","latitude":47.608013,"longitude":-122.33517,"reserved":0,"last_update":"0001-01-01T00:00:00Z","name_a2s":"Uncletopia | Seattle | 3 | Stopwatch Beta","protocol":17,"map":"koth_lakeside_final","folder":"tf","game":"Team Fortress","app_id":440,"player_count":0,"max_players":24,"Bots":0,"server_type":"Dedicated","server_os":"Linux","password":true,"vac":true,"version":"7961495","steam_id":85568392924515217,"keywords":["cp","nocrits","nodmgspread","uncletopia"],"game_id":440,"stv_port":27036,"stv_name":"Uncletopia | Seattle | 3 | Stopwatch Beta | STV","players":null},{"server_id":17,"name":"Uncletopia | San Francisco | 1 | All Maps","name_short":"sfo-1","host":"sfo-1.us.uncletopia.com","port":27015,"enabled":true,"region":"us-west","cc":"us","latitude":37.77397,"longitude":-122.4313,"reserved":0,"last_update":"0001-01-01T00:00:00Z","name_a2s":"Uncletopia | San Francisco | 1 | All Maps","protocol":17,"map":"pl_badwater","folder":"tf","game":"Team Fortress","app_id":440,"player_count":24,"max_players":24,"Bots":0,"server_type":"Dedicated","server_os":"Linux","password":true,"vac":true,"version":"7961495","steam_id":85568392924469999,"keywords":["nocrits","nodmgspread","payload","uncletopia"],"game_id":440,"stv_port":27016,"stv_name":"Uncletopia | San Francisco | 1 | All Maps | STV","players":[{"user_id":177,"name":"crowe","steam_id":76561198142185527,"connected_time":277000000000,"state":"active","ping":64},{"user_id":171,"name":"dolphood","steam_id":76561198070478047,"connected_time":1217000000000,"state":"active","ping":106},{"user_id":176,"name":"Poopiecrap","steam_id":76561198353415107,"connected_time":562000000000,"state":"active","ping":129},{"user_id":138,"name":"TrueGodOfBread","steam_id":76561198127577215,"connected_time":2826000000000,"state":"active","ping":53},{"user_id":175,"name":"nogoodnameshere","steam_id":76561199065926375,"connected_time":712000000000,"state":"active","ping":83},{"user_id":125,"name":"Higuma","steam_id":76561198375229012,"connected_time":4108000000000,"state":"active","ping":58},{"user_id":142,"name":"no vc no c","steam_id":76561197989503095,"connected_time":2697000000000,"state":"active","ping":148},{"user_id":157,"name":"redbrite","steam_id":76561198389370871,"connected_time":2031000000000,"state":"active","ping":60},{"user_id":150,"name":"sillyjack","steam_id":76561198844273999,"connected_time":2411000000000,"state":"active","ping":64},{"user_id":164,"name":"Trousers","steam_id":76561198128158481,"connected_time":1579000000000,"state":"active","ping":57},{"user_id":178,"name":"Five","steam_id":76561198026640473,"connected_time":244000000000,"state":"active","ping":60},{"user_id":160,"name":"Fernando","steam_id":76561198443038047,"connected_time":1858000000000,"state":"active","ping":60},{"user_id":127,"name":"dare","steam_id":76561197960977496,"connected_time":4091000000000,"state":"active","ping":58},{"user_id":128,"name":"AntonioCarlosJobim","steam_id":76561199012731309,"connected_time":4087000000000,"state":"active","ping":104},{"user_id":148,"name":"jxh300","steam_id":76561199196579894,"connected_time":2467000000000,"state":"active","ping":109},{"user_id":118,"name":"TheMagicMrWaffle","steam_id":76561198104357256,"connected_time":4697000000000,"state":"active","ping":55},{"user_id":170,"name":"NyanHorses","steam_id":76561198161584966,"connected_time":1303000000000,"state":"active","ping":79},{"user_id":149,"name":"TYLER","steam_id":76561198841399048,"connected_time":2427000000000,"state":"active","ping":107},{"user_id":179,"name":"Frank Accardi","steam_id":76561198017275707,"connected_time":219000000000,"state":"active","ping":73},{"user_id":151,"name":"Phyyrin","steam_id":76561198154532657,"connected_time":2408000000000,"state":"active","ping":74},{"user_id":166,"name":"nae nae goblin68","steam_id":76561199115259028,"connected_time":1540000000000,"state":"active","ping":83},{"user_id":174,"name":"Rafl","steam_id":76561198055222756,"connected_time":1121000000000,"state":"active","ping":82},{"user_id":156,"name":"Rustys_Revenge","steam_id":76561198269414024,"connected_time":2041000000000,"state":"active","ping":57},{"user_id":158,"name":"mega","steam_id":76561198089520959,"connected_time":2021000000000,"state":"active","ping":106}]},{"server_id":18,"name":"Uncletopia | San Francisco | 2 | All Maps","name_short":"sfo-2","host":"sfo-1.us.uncletopia.com","port":27025,"enabled":true,"region":"us-west","cc":"us","latitude":37.77397,"longitude":-122.4313,"reserved":0,"last_update":"0001-01-01T00:00:00Z","name_a2s":"Uncletopia | San Francisco | 2 | All Maps","protocol":17,"map":"koth_highpass","folder":"tf","game":"Team Fortress","app_id":440,"player_count":0,"max_players":24,"Bots":0,"server_type":"Dedicated","server_os":"Linux","password":true,"vac":true,"version":"7961495","steam_id":85568392924470000,"keywords":["cp","nocrits","nodmgspread","uncletopia"],"game_id":440,"stv_port":27026,"stv_name":"Uncletopia | San Francisco | 2 | All Maps | STV","players":null},{"server_id":19,"name":"Uncletopia | San Francisco | 3 | Stopwatch Beta","name_short":"sfo-3","host":"sfo-1.us.uncletopia.com","port":27035,"enabled":true,"region":"us-west","cc":"us","latitude":37.77397,"longitude":-122.4313,"reserved":0,"last_update":"0001-01-01T00:00:00Z","name_a2s":"Uncletopia | San Francisco | 3 | Stopwatch Beta","protocol":17,"map":"pl_borneo","folder":"tf","game":"Team Fortress","app_id":440,"player_count":0,"max_players":24,"Bots":0,"server_type":"Dedicated","server_os":"Linux","password":true,"vac":true,"version":"7961495","steam_id":85568392924742824,"keywords":["nocrits","nodmgspread","payload","uncletopia"],"game_id":440,"stv_port":27036,"stv_name":"Uncletopia | San Francisco | 3 | Stopwatch Beta | STV","players":null},{"server_id":20,"name":"Uncletopia | San Francisco | 4 | Community","name_short":"sfo-4","host":"sfo-1.us.uncletopia.com","port":27045,"enabled":true,"region":"us-west","cc":"us","latitude":37.77397,"longitude":-122.4313,"reserved":0,"last_update":"0001-01-01T00:00:00Z","name_a2s":"Uncletopia | San Francisco | 4 | Community","protocol":17,"map":"koth_viaduct","folder":"tf","game":"Team Fortress","app_id":440,"player_count":0,"max_players":24,"Bots":0,"server_type":"Dedicated","server_os":"Linux","password":true,"vac":true,"version":"7961495","steam_id":85568392924742826,"keywords":["cp","nocrits","nodmgspread","uncletopia"],"game_id":440,"stv_port":27046,"stv_name":"Uncletopia | San Francisco | 4 | Community | STV","players":null},{"server_id":141,"name":"Uncletopia | Sydney | 1 | All Maps","name_short":"syd-1","host":"syd-1.au.uncletopia.com","port":27015,"enabled":true,"region":"au","cc":"au","latitude":-33.865143,"longitude":151.2099,"reserved":0,"last_update":"0001-01-01T00:00:00Z","name_a2s":"Uncletopia | Sydney | 1 | All Maps","protocol":17,"map":"cp_snakewater_final1","folder":"tf","game":"Team Fortress","app_id":440,"player_count":0,"max_players":24,"Bots":0,"server_type":"Dedicated","server_os":"Linux","password":true,"vac":true,"version":"7961495","steam_id":85568392924470001,"keywords":["cp","nocrits","nodmgspread","uncletopia"],"game_id":440,"stv_port":27016,"stv_name":"Uncletopia | Sydney | 1 | All Maps | STV","players":null},{"server_id":123,"name":"Uncletopia | Sydney | 2 | All Maps","name_short":"syd-2","host":"syd-1.au.uncletopia.com","port":27025,"enabled":true,"region":"au","cc":"au","latitude":-33.865143,"longitude":151.2099,"reserved":0,"last_update":"0001-01-01T00:00:00Z","name_a2s":"Uncletopia | Sydney | 2 | All Maps","protocol":17,"map":"pl_snowycoast","folder":"tf","game":"Team Fortress","app_id":440,"player_count":0,"max_players":24,"Bots":0,"server_type":"Dedicated","server_os":"Linux","password":true,"vac":true,"version":"7961495","steam_id":85568392924470002,"keywords":["nocrits","nodmgspread","payload","uncletopia"],"game_id":440,"stv_port":27026,"stv_name":"Uncletopia | Sydney | 2 | All Maps | STV","players":null},{"server_id":395,"name":"Uncletopia | Sydney | 3 | All Maps","name_short":"syd-3","host":"syd-1.au.uncletopia.com","port":27035,"enabled":true,"region":"au","cc":"au","latitude":-33.865143,"longitude":151.2099,"reserved":0,"last_update":"0001-01-01T00:00:00Z","name_a2s":"Uncletopia | Sydney | 3 | All Maps","protocol":17,"map":"cp_dustbowl","folder":"tf","game":"Team Fortress","app_id":440,"player_count":0,"max_players":24,"Bots":0,"server_type":"Dedicated","server_os":"Linux","password":true,"vac":true,"version":"7961495","steam_id":85568392925194467,"keywords":["cp","nocrits","nodmgspread","uncletopia"],"game_id":440,"stv_port":27036,"stv_name":"Uncletopia | Sydney | 3 | All Maps | STV","players":null},{"server_id":396,"name":"Uncletopia | Sydney | 4 | All Maps","name_short":"syd-4","host":"syd-1.au.uncletopia.com","port":27045,"enabled":true,"region":"au","cc":"au","latitude":-33.865143,"longitude":151.2099,"reserved":0,"last_update":"0001-01-01T00:00:00Z","name_a2s":"Uncletopia | Sydney | 4 | All Maps","protocol":17,"map":"koth_viaduct","folder":"tf","game":"Team Fortress","app_id":440,"player_count":0,"max_players":24,"Bots":0,"server_type":"Dedicated","server_os":"Linux","password":true,"vac":true,"version":"7961495","steam_id":85568392925397958,"keywords":["cp","nocrits","nodmgspread","uncletopia"],"game_id":440,"stv_port":27046,"stv_name":"Uncletopia | Sydney | 4 | All Maps | STV","players":null},{"server_id":58,"name":"Uncletopia | Sydney | 5 | Stopwatch Beta","name_short":"syd-5","host":"syd-1.au.uncletopia.com","port":27055,"enabled":true,"region":"au","cc":"au","latitude":-33.865143,"longitude":151.2099,"reserved":0,"last_update":"0001-01-01T00:00:00Z","name_a2s":"Uncletopia | Sydney | 5 | Stopwatch Beta","protocol":17,"map":"koth_viaduct","folder":"tf","game":"Team Fortress","app_id":440,"player_count":0,"max_players":24,"Bots":0,"server_type":"Dedicated","server_os":"Linux","password":true,"vac":true,"version":"7961495","steam_id":85568392925397959,"keywords":["cp","nocrits","nodmgspread","uncletopia"],"game_id":440,"stv_port":27056,"stv_name":"Uncletopia | Sydney | 5 | Stopwatch Beta | STV","players":null},{"server_id":59,"name":"Uncletopia | Sydney | 6 | Community","name_short":"syd-6","host":"syd-1.au.uncletopia.com","port":27065,"enabled":true,"region":"au","cc":"au","latitude":-33.865143,"longitude":151.2099,"reserved":0,"last_update":"0001-01-01T00:00:00Z","name_a2s":"Uncletopia | Sydney | 6 | Community","protocol":17,"map":"koth_cascade","folder":"tf","game":"Team Fortress","app_id":440,"player_count":0,"max_players":24,"Bots":0,"server_type":"Dedicated","server_os":"Linux","password":true,"vac":true,"version":"7961495","steam_id":85568392925397960,"keywords":["cp","nocrits","nodmgspread","uncletopia"],"game_id":440,"stv_port":27066,"stv_name":"Uncletopia | Sydney | 6 | Community | STV","players":null},{"server_id":49,"name":"Uncletopia | Warsaw | 1 | All Maps","name_short":"waw-1","host":"waw-1.pl.uncletopia.com","port":27015,"enabled":true,"region":"eu","cc":"pl","latitude":52.2297,"longitude":21.017532,"reserved":0,"last_update":"0001-01-01T00:00:00Z","name_a2s":"Uncletopia | Warsaw | 1 | All Maps","protocol":17,"map":"koth_highpass","folder":"tf","game":"Team Fortress","app_id":440,"player_count":0,"max_players":24,"Bots":0,"server_type":"Dedicated","server_os":"Linux","password":true,"vac":true,"version":"7961495","steam_id":85568392925397850,"keywords":["cp","nocrits","nodmgspread","uncletopia"],"game_id":440,"stv_port":27016,"stv_name":"Uncletopia | Warsaw | 1 | All Maps | STV","players":null},{"server_id":50,"name":"Uncletopia | Warsaw | 2 | All Maps","name_short":"waw-2","host":"waw-1.pl.uncletopia.com","port":27025,"enabled":true,"region":"eu","cc":"pl","latitude":52.2297,"longitude":21.017532,"reserved":0,"last_update":"0001-01-01T00:00:00Z","name_a2s":"Uncletopia | Warsaw | 2 | All Maps","protocol":17,"map":"koth_viaduct","folder":"tf","game":"Team Fortress","app_id":440,"player_count":0,"max_players":24,"Bots":0,"server_type":"Dedicated","server_os":"Linux","password":true,"vac":true,"version":"7961495","steam_id":85568392925397851,"keywords":["cp","nocrits","nodmgspread","uncletopia"],"game_id":440,"stv_port":27026,"stv_name":"Uncletopia | Warsaw | 2 | All Maps | STV","players":null},{"server_id":51,"name":"Uncletopia | Warsaw | 3 | All Maps","name_short":"waw-3","host":"waw-1.pl.uncletopia.com","port":27035,"enabled":true,"region":"eu","cc":"pl","latitude":52.2297,"longitude":21.017532,"reserved":0,"last_update":"0001-01-01T00:00:00Z","name_a2s":"Uncletopia | Warsaw | 3 | All Maps","protocol":17,"map":"pl_snowycoast","folder":"tf","game":"Team Fortress","app_id":440,"player_count":0,"max_players":24,"Bots":0,"server_type":"Dedicated","server_os":"Linux","password":true,"vac":true,"version":"7961495","steam_id":85568392925397852,"keywords":["nocrits","nodmgspread","payload","uncletopia"],"game_id":440,"stv_port":27036,"stv_name":"Uncletopia | Warsaw | 3 | All Maps | STV","players":null},{"server_id":52,"name":"Uncletopia | Warsaw | 4 | All Maps","name_short":"waw-4","host":"waw-1.pl.uncletopia.com","port":27045,"enabled":true,"region":"eu","cc":"pl","latitude":52.2297,"longitude":21.017532,"reserved":0,"last_update":"0001-01-01T00:00:00Z","name_a2s":"Uncletopia | Warsaw | 4 | All Maps","protocol":17,"map":"pl_swiftwater_final1","folder":"tf","game":"Team Fortress","app_id":440,"player_count":0,"max_players":24,"Bots":0,"server_type":"Dedicated","server_os":"Linux","password":true,"vac":true,"version":"7961495","steam_id":85568392925397853,"keywords":["nocrits","nodmgspread","payload","uncletopia"],"game_id":440,"stv_port":27046,"stv_name":"Uncletopia | Warsaw | 4 | All Maps | STV","players":null},{"server_id":53,"name":"Uncletopia | Warsaw | 5 | Stopwatch Beta","name_short":"waw-5","host":"waw-1.pl.uncletopia.com","port":27055,"enabled":true,"region":"eu","cc":"pl","latitude":52.2297,"longitude":21.017532,"reserved":0,"last_update":"0001-01-01T00:00:00Z","name_a2s":"Uncletopia | Warsaw | 5 | Stopwatch Beta","protocol":17,"map":"workshop/koth_ramjam_rc1.ugc459778887","folder":"tf","game":"Team Fortress","app_id":440,"player_count":0,"max_players":24,"Bots":0,"server_type":"Dedicated","server_os":"Linux","password":true,"vac":true,"version":"7961495","steam_id":85568392925397854,"keywords":["cp","nocrits","nodmgspread","uncletopia"],"game_id":440,"stv_port":27056,"stv_name":"Uncletopia | Warsaw | 5 | Stopwatch Beta | STV","players":null},{"server_id":54,"name":"Uncletopia | Warsaw | 6 | Community","name_short":"waw-6","host":"waw-1.pl.uncletopia.com","port":27065,"enabled":true,"region":"eu","cc":"pl","latitude":52.2297,"longitude":21.017532,"reserved":0,"last_update":"0001-01-01T00:00:00Z","name_a2s":"Uncletopia | Warsaw | 6 | Community","protocol":17,"map":"workshop/pl_vigil_rc9.ugc1266210012","folder":"tf","game":"Team Fortress","app_id":440,"player_count":0,"max_players":24,"Bots":0,"server_type":"Dedicated","server_os":"Linux","password":true,"vac":true,"version":"7961495","steam_id":85568392925397856,"keywords":["nocrits","nodmgspread","payload","uncletopia"],"game_id":440,"stv_port":27066,"stv_name":"Uncletopia | Warsaw | 6 | Community | STV","players":null}]}