{"status":true,"message":"","result":[{"server_id":2,"name":"Uncletopia | Chicago | 1 | All Maps","name_short":"chi-1","host":"chi-1.us.uncletopia.com","port":27015,"enabled":true,"region":"us-central","cc":"us","latitude":41.881832,"longitude":-87.62318,"reserved":0,"last_update":"0001-01-01T00:00:00Z","name_a2s":"Uncletopia | Chicago | 1 | All Maps","protocol":17,"map":"koth_lakeside_final","folder":"tf","game":"Team Fortress","app_id":440,"player_count":0,"max_players":24,"Bots":0,"server_type":"Dedicated","server_os":"Linux","password":true,"vac":true,"version":"7932396","steam_id":85568392924469984,"keywords":["cp","nocrits","nodmgspread","uncletopia"],"game_id":440,"stv_port":27016,"stv_name":"Uncletopia | Chicago | 1 | All Maps | STV","players":null},{"server_id":106,"name":"Uncletopia | Chicago | 2 | All Maps","name_short":"chi-2","host":"chi-1.us.uncletopia.com","port":27025,"enabled":true,"region":"us-central","cc":"us","latitude":41.881832,"longitude":-87.62318,"reserved":0,"last_update":"0001-01-01T00:00:00Z","name_a2s":"Uncletopia | Chicago | 2 | All Maps","protocol":17,"map":"pl_upward","folder":"tf","game":"Team Fortress","app_id":440,"player_count":22,"max_players":24,"Bots":0,"server_type":"Dedicated","server_os":"Linux","password":true,"vac":true,"version":"7932396","steam_id":85568392924469985,"keywords":["nocrits","nodmgspread","payload","uncletopia"],"game_id":440,"stv_port":27026,"stv_name":"Uncletopia | Chicago | 2 | All Maps | STV","players":[{"user_id":145,"name":"Wigl","steam_id":76561198019324464,"connected_time":319000000000,"state":"spawning","ping":77},{"user_id":115,"name":"Mixomin","steam_id":76561198295061570,"connected_time":2280000000000,"state":"spawning","ping":59},{"user_id":141,"name":"luxin","steam_id":76561198399383047,"connected_time":711000000000,"state":"spawning","ping":64},{"user_id":122,"name":"LVL 4 Dispenser Gaming","steam_id":76561198044244547,"connected_time":1826000000000,"state":"spawning","ping":74},{"user_id":114,"name":"Don Day el Bano","steam_id":76561198392985381,"connected_time":2364000000000,"state":"spawning","ping":142},{"user_id":143,"name":"Season Veteran","steam_id":76561198088619665,"connected_time":490000000000,"state":"spawning","ping":66},{"user_id":90,"name":"newmoney","steam_id":76561198162797626,"connected_time":4483000000000,"state":"spawning","ping":96},{"user_id":128,"name":"Kaluka","steam_id":76561198036861445,"connected_time":1473000000000,"state":"spawning","ping":81},{"user_id":113,"name":"Cruisin'","steam_id":76561199245457119,"connected_time":2522000000000,"state":"spawning","ping":84},{"user_id":129,"name":"Hey! Listen!","steam_id":76561197983101906,"connected_time":1424000000000,"state":"spawning","ping":75},{"user_id":124,"name":"poob","steam_id":76561198321877882,"connected_time":1764000000000,"state":"spawning","ping":77},{"user_id":148,"name":"npc energy","steam_id":76561198035342207,"connected_time":202000000000,"state":"spawning","ping":61},{"user_id":151,"name":"mans got the mouse katool","steam_id":76561198073103529,"connected_time":22000000000,"state":"spawning","ping":92},{"user_id":152,"name":"Meatyard","steam_id":76561198049896089,"connected_time":12000000000,"state":"spawning","ping":83},{"user_id":117,"name":"Zetta","steam_id":76561198045710113,"connected_time":2249000000000,"state":"spawning","ping":83},{"user_id":125,"name":"NutsFromBerserk","steam_id":76561198160137159,"connected_time":1671000000000,"state":"spawning","ping":219},{"user_id":104,"name":"MyTeamIsAzz","steam_id":76561198241921220,"connected_time":3943000000000,"state":"spawning","ping":85},{"user_id":119,"name":"Tots","steam_id":76561198027485007,"connected_time":2229000000000,"state":"spawning","ping":77},{"user_id":149,"name":"McDumDum","steam_id":76561198040738807,"connected_time":196000000000,"state":"spawning","ping":65},{"user_id":153,"name":"dorf","steam_id":76561197998048121,"connected_time":11000000000,"state":"spawning","ping":69},{"user_id":147,"name":"lu","steam_id":76561198080731872,"connected_time":243000000000,"state":"spawning","ping":99},{"user_id":98,"name":"chiswola","steam_id":76561198046920142,"connected_time":4303000000000,"state":"spawning","ping":68}]},{"server_id":402,"name":"Uncletopia | Chicago | 3 | All Maps","name_short":"chi-3","host":"chi-1.us.uncletopia.com","port":27035,"enabled":true,"region":"us-central","cc":"us","latitude":41.881832,"longitude":-87.62318,"reserved":0,"last_update":"0001-01-01T00:00:00Z","name_a2s":"Uncletopia | Chicago | 3 | All Maps","protocol":17,"map":"pl_swiftwater_final1","folder":"tf","game":"Team Fortress","app_id":440,"player_count":0,"max_players":24,"Bots":0,"server_type":"Dedicated","server_os":"Linux","password":true,"vac":true,"version":"7932396","steam_id":85568392924515191,"keywords":["nocrits","nodmgspread","payload","uncletopia"],"game_id":440,"stv_port":27036,"stv_name":"Uncletopia | Chicago | 3 | All Maps | STV","players":null},{"server_id":403,"name":"Uncletopia | Chicago | 4 | All Maps","name_short":"chi-4","host":"chi-1.us.uncletopia.com","port":27045,"enabled":true,"region":"us-central","cc":"us","latitude":41.881832,"longitude":-87.62318,"reserved":0,"last_update":"0001-01-01T00:00:00Z","name_a2s":"Uncletopia | Chicago | 4 | All Maps","protocol":17,"map":"cp_process_final","folder":"tf","game":"Team Fortress","app_id":440,"player_count":0,"max_players":24,"Bots":0,"server_type":"Dedicated","server_os":"Linux","password":true,"vac":true,"version":"7932396","steam_id":85568392924515193,"keywords":["cp","nocrits","nodmgspread","uncletopia"],"game_id":440,"stv_port":27046,"stv_name":"Uncletopia | Chicago | 4 | All Maps | STV","players":null},{"server_id":36,"name":"Uncletopia | Chicago | 5 | All Maps","name_short":"chi-5","host":"chi-2.us.uncletopia.com","port":27015,"enabled":true,"region":"us-central","cc":"us","latitude":41.881832,"longitude":-87.62318,"reserved":0,"last_update":"0001-01-01T00:00:00Z","name_a2s":"Uncletopia | Chicago | 5 | All Maps","protocol":17,"map":"koth_harvest_final","folder":"tf","game":"Team Fortress","app_id":440,"player_count":24,"max_players":24,"Bots":0,"server_type":"Dedicated","server_os":"Linux","password":true,"vac":true,"version":"7932396","steam_id":85568392924866362,"keywords":["cp","nocrits","nodmgspread","uncletopia"],"game_id":440,"stv_port":27016,"stv_name":"Uncletopia | Chicago | 5 | All Maps | STV","players":[{"user_id":99,"name":"Drachma","steam_id":76561198007310514,"connected_time":7144000000000,"state":"active","ping":58},{"user_id":127,"name":"Titus Tyrwitt","steam_id":76561197990779673,"connected_time":6313000000000,"state":"active","ping":71},{"user_id":173,"name":"Cheesi","steam_id":76561199417190840,"connected_time":1760000000000,"state":"active","ping":60},{"user_id":171,"name":"Auto_Correct","steam_id":76561198254988078,"connected_time":2081000000000,"state":"active","ping":75},{"user_id":168,"name":"Smoker Lung","steam_id":76561198077167395,"connected_time":2200000000000,"state":"active","ping":48},{"user_id":193,"name":"Jo","steam_id":76561198060447015,"connected_time":657000000000,"state":"active","ping":74},{"user_id":147,"name":"Sunflower","steam_id":76561198081223793,"connected_time":4276000000000,"state":"active","ping":55},{"user_id":181,"name":"mantra","steam_id":76561198023496266,"connected_time":1547000000000,"state":"active","ping":63},{"user_id":188,"name":"Dr.Longmont","steam_id":76561198035566337,"connected_time":923000000000,"state":"active","ping":77},{"user_id":180,"name":"thatonebyte","steam_id":76561198186091279,"connected_time":1566000000000,"state":"active","ping":132},{"user_id":198,"name":"Ekohtwo","steam_id":76561198067994868,"connected_time":267000000000,"state":"active","ping":61},{"user_id":167,"name":"IrisIsntHere","steam_id":76561198388271181,"connected_time":2277000000000,"state":"active","ping":79},{"user_id":182,"name":"neet","steam_id":76561197968115168,"connected_time":1370000000000,"state":"active","ping":55},{"user_id":195,"name":"cook (not cock)","steam_id":76561198073106278,"connected_time":494000000000,"state":"active","ping":82},{"user_id":189,"name":"Reverie","steam_id":76561198987005784,"connected_time":917000000000,"state":"active","ping":61},{"user_id":199,"name":"Gr8alex #KILLTF2","steam_id":76561198227675960,"connected_time":266000000000,"state":"active","ping":107},{"user_id":197,"name":"Aeris","steam_id":76561198287271028,"connected_time":286000000000,"state":"active","ping":58},{"user_id":200,"name":"Mitsubishi Materials","steam_id":76561198151871198,"connected_time":225000000000,"state":"active","ping":57},{"user_id":151,"name":"HAT-WEARING‚Ñ¢ Maggot Gamer Cat","steam_id":76561197973992705,"connected_time":4133000000000,"state":"active","ping":106},{"user_id":130,"name":"Hope","steam_id":76561199182558088,"connected_time":5851000000000,"state":"active","ping":70},{"user_id":190,"name":"indi","steam_id":76561198045917538,"connected_time":793000000000,"state":"active","ping":52},{"user_id":201,"name":"Supreme Leader Gnomedolf Slonke","steam_id":76561198310594866,"connected_time":160000000000,"state":"active","ping":75},{"user_id":192,"name":"juanjoesc","steam_id":76561198186368430,"connected_time":783000000000,"state":"active","ping":126},{"user_id":159,"name":"Boomer Gaming","steam_id":76561198037803087,"connected_time":3008000000000,"state":"active","ping":68}]},{"server_id":37,"name":"Uncletopia | Chicago | 6 | All Maps","name_short":"chi-6","host":"chi-2.us.uncletopia.com","port":27025,"enabled":true,"region":"us-central","cc":"us","latitude":41.881832,"longitude":-87.62318,"reserved":0,"last_update":"0001-01-01T00:00:00Z","name_a2s":"Uncletopia | Chicago | 6 | All Maps","protocol":17,"map":"koth_viaduct","folder":"tf","game":"Team Fortress","app_id":440,"player_count":0,"max_players":24,"Bots":0,"server_type":"Dedicated","server_os":"Linux","password":true,"vac":true,"version":"7932396","steam_id":85568392924866363,"keywords":["cp","nocrits","nodmgspread","uncletopia"],"game_id":440,"stv_port":27026,"stv_name":"Uncletopia | Chicago | 6 | All Maps | STV","players":null},{"server_id":38,"name":"Uncletopia | Chicago | 7 | Stopwatch Beta","name_short":"chi-7","host":"chi-2.us.uncletopia.com","port":27035,"enabled":true,"region":"us-central","cc":"us","latitude":41.881832,"longitude":-87.62318,"reserved":0,"last_update":"0001-01-01T00:00:00Z","name_a2s":"Uncletopia | Chicago | 7 | Stopwatch Beta","protocol":17,"map":"pl_borneo","folder":"tf","game":"Team Fortress","app_id":440,"player_count":0,"max_players":24,"Bots":0,"server_type":"Dedicated","server_os":"Linux","password":true,"vac":true,"version":"7932396","steam_id":85568392924866364,"keywords":["nocrits","nodmgspread","payload","uncletopia"],"game_id":440,"stv_port":27036,"stv_name":"Uncletopia | Chicago | 7 | Stopwatch Beta | STV","players":null},{"server_id":39,"name":"Uncletopia | Chicago | 8 | Community","name_short":"chi-8","host":"chi-2.us.uncletopia.com","port":27045,"enabled":true,"region":"us-central","cc":"us","latitude":41.881832,"longitude":-87.62318,"reserved":0,"last_update":"0001-01-01T00:00:00Z","name_a2s":"Uncletopia | Chicago | 8 | Community","protocol":17,"map":"koth_viaduct","folder":"tf","game":"Team Fortress","app_id":440,"player_count":0,"max_players":24,"Bots":0,"server_type":"Dedicated","server_os":"Linux","password":true,"vac":true,"version":"7932396","steam_id":85568392924866365,"keywords":["cp","nocrits","nodmgspread","uncletopia"],"game_id":440,"stv_port":27046,"stv_name":"Uncletopia | Chicago | 8 | Community | STV","players":null},{"server_id":8,"name":"Uncletopia | Dallas | 1 | All Maps","name_short":"dal-1","host":"dal-1.us.uncletopia.com","port":27015,"enabled":true,"region":"us-central","cc":"us","latitude":32.779167,"longitude":-96.80889,"reserved":0,"last_update":"0001-01-01T00:00:00Z","name_a2s":"Uncletopia | Dallas | 1 | All Maps","protocol":17,"map":"pl_snowycoast","folder":"tf","game":"Team Fortress","app_id":440,"player_count":3,"max_players":24,"Bots":0,"server_type":"Dedicated","server_os":"Linux","password":true,"vac":true,"version":"7932396","steam_id":85568392924469986,"keywords":["nocrits","nodmgspread","payload","uncletopia"],"game_id":440,"stv_port":27016,"stv_name":"Uncletopia | Dallas | 1 | All Maps | STV","players":[{"user_id":4,"name":"Sahbi","steam_id":76561199196292242,"connected_time":166000000000,"state":"active","ping":61},{"user_id":5,"name":"Mal","steam_id":76561198066074151,"connected_time":94000000000,"state":"active","ping":70},{"user_id":6,"name":"Chase","steam_id":76561199401669149,"connected_time":12000000000,"state":"spawning","ping":299}]},{"server_id":108,"name":"Uncletopia | Dallas | 2 | All Maps","name_short":"dal-2","host":"dal-1.us.uncletopia.com","port":27025,"enabled":true,"region":"us-central","cc":"us","latitude":32.779167,"longitude":-96.80889,"reserved":0,"last_update":"0001-01-01T00:00:00Z","name_a2s":"Uncletopia | Dallas | 2 | All Maps","protocol":17,"map":"cp_snakewater_final1","folder":"tf","game":"Team Fortress","app_id":440,"player_count":0,"max_players":24,"Bots":0,"server_type":"Dedicated","server_os":"Linux","password":true,"vac":true,"version":"7932396","steam_id":85568392924469988,"keywords":["cp","nocrits","nodmgspread","uncletopia"],"game_id":440,"stv_port":27026,"stv_name":"Uncletopia | Dallas | 2 | All Maps | STV","players":null},{"server_id":5,"name":"Uncletopia | Frankfurt | 1 | All Maps","name_short":"frk-1","host":"frk-1.de.uncletopia.com","port":27015,"enabled":true,"region":"eu","cc":"de","latitude":50.110924,"longitude":8.682127,"reserved":0,"last_update":"0001-01-01T00:00:00Z","name_a2s":"Uncletopia | Frankfurt | 1 | All Maps","protocol":17,"map":"pl_snowycoast","folder":"tf","game":"Team Fortress","app_id":440,"player_count":24,"max_players":24,"Bots":0,"server_type":"Dedicated","server_os":"Linux","password":true,"vac":true,"version":"7932396","steam_id":85568392924469989,"keywords":["nocrits","nodmgspread","payload","uncletopia"],"game_id":440,"stv_port":27016,"stv_name":"Uncletopia | Frankfurt | 1 | All Maps | STV","players":[{"user_id":90,"name":"Elsuedi","steam_id":76561198074722832,"connected_time":1262000000000,"state":"active","ping":53},{"user_id":98,"name":"Lartsa","steam_id":76561198275690230,"connected_time":965000000000,"state":"active","ping":106},{"user_id":109,"name":"Bayoyo","steam_id":76561199069591774,"connected_time":24000000000,"state":"spawning","ping":59},{"user_id":69,"name":"XL54M15Y","steam_id":76561198048250715,"connected_time":2540000000000,"state":"active","ping":46},{"user_id":82,"name":"jill valentine","steam_id":76561198075068529,"connected_time":1894000000000,"state":"active","ping":54},{"user_id":100,"name":"Sensei","steam_id":76561198383582429,"connected_time":877000000000,"state":"active","ping":88},{"user_id":106,"name":"justajem101","steam_id":76561199228510573,"connected_time":279000000000,"state":"active","ping":76},{"user_id":110,"name":"Well","steam_id":76561198411337640,"connected_time":23000000000,"state":"spawning","ping":94},{"user_id":91,"name":"curious femboy","steam_id":76561199199388221,"connected_time":1222000000000,"state":"active","ping":72},{"user_id":93,"name":"Osmo","steam_id":76561199286764992,"connected_time":1193000000000,"state":"active","ping":71},{"user_id":108,"name":"Quadraticrat","steam_id":76561199032586760,"connected_time":134000000000,"state":"spawning","ping":66},{"user_id":107,"name":"Trapezoid","steam_id":76561198059369295,"connected_time":272000000000,"state":"active","ping":79},{"user_id":87,"name":"üÉî Katarina","steam_id":76561198065652251,"connected_time":1575000000000,"state":"active","ping":37},{"user_id":94,"name":"Son Goku","steam_id":76561199383437138,"connected_time":1140000000000,"state":"active","ping":131},{"user_id":78,"name":"warpedadept","steam_id":76561198130593469,"connected_time":2204000000000,"state":"active","ping":78},{"user_id":104,"name":"xp","steam_id":76561198059782462,"connected_time":547000000000,"state":"active","ping":51},{"user_id":70,"name":"cinny","steam_id":76561198832112629,"connected_time":2509000000000,"state":"active","ping":75},{"user_id":62,"name":"‚ò≠TheDevilsEye‚ò≠","steam_id":76561198017379398,"connected_time":3189000000000,"state":"active","ping":74},{"user_id":105,"name":"Ehrmantraut","steam_id":76561199042470246,"connected_time":542000000000,"state":"active","ping":51},{"user_id":96,"name":"Ziemniaczki z koperkiem","steam_id":76561198829123464,"connected_time":1109000000000,"state":"active","ping":76},{"user_id":97,"name":"bAdmon","steam_id":76561197961785793,"connected_time":1108000000000,"state":"active","ping":59},{"user_id":49,"name":"Jeff","steam_id":76561198426044127,"connected_time":3887000000000,"state":"active","ping":50},{"user_id":64,"name":"JamesPepega","steam_id":76561198019156154,"connected_time":3132000000000,"state":"active","ping":78},{"user_id":101,"name":"Barry","steam_id":76561198317737261,"connected_time":876000000000,"state":"active","ping":62}]},{"server_id":110,"name":"Uncletopia | Frankfurt | 2 | All Maps","name_short":"frk-2","host":"frk-1.de.uncletopia.com","port":27025,"enabled":true,"region":"eu","cc":"de","latitude":50.110924,"longitude":8.682127,"reserved":0,"last_update":"0001-01-01T00:00:00Z","name_a2s":"Uncletopia | Frankfurt | 2 | All Maps","protocol":17,"map":"cp_mountainlab","folder":"tf","game":"Team Fortress","app_id":440,"player_count":11,"max_players":24,"Bots":0,"server_type":"Dedicated","server_os":"Linux","password":true,"vac":true,"version":"7932396","steam_id":85568392924469990,"keywords":["cp","nocrits","nodmgspread","uncletopia"],"game_id":440,"stv_port":27026,"stv_name":"Uncletopia | Frankfurt | 2 | All Maps | STV","players":[{"user_id":15,"name":"Free crack","steam_id":76561199212653573,"connected_time":696000000000,"state":"active","ping":67},{"user_id":11,"name":"strigoi2","steam_id":76561198351880994,"connected_time":1616000000000,"state":"active","ping":93},{"user_id":12,"name":"crispy Robespierre","steam_id":76561198072881845,"connected_time":865000000000,"state":"active","ping":60},{"user_id":13,"name":"Marky","steam_id":76561199474556920,"connected_time":849000000000,"state":"active","ping":120},{"user_id":14,"name":"Jeffrey Harpen","steam_id":76561199073314677,"connected_time":756000000000,"state":"active","ping":62},{"user_id":16,"name":"Punker","steam_id":76561198255964089,"connected_time":674000000000,"state":"active","ping":104},{"user_id":17,"name":"mushroom","steam_id":76561198817034571,"connected_time":617000000000,"state":"active","ping":88},{"user_id":19,"name":"pinguez","steam_id":76561199003447981,"connected_time":74000000000,"state":"active","ping":263},{"user_id":20,"name":"Gordon","steam_id":76561198303652059,"connected_time":71000000000,"state":"active","ping":70},{"user_id":21,"name":"dancle une","steam_id":76561197968945306,"connected_time":50000000000,"state":"active","ping":73},{"user_id":22,"name":"ujoi0ij05ir0tipj1-tqw","steam_id":76561198847048146,"connected_time":47000000000,"state":"active","ping":74}]},{"server_id":308,"name":"Uncletopia | Frankfurt | 3 | All Maps","name_short":"frk-3","host":"frk-1.de.uncletopia.com","port":27035,"enabled":true,"region":"eu","cc":"de","latitude":50.110924,"longitude":8.682127,"reserved":0,"last_update":"0001-01-01T00:00:00Z","name_a2s":"Uncletopia | Frankfurt | 3 | All Maps","protocol":17,"map":"koth_brazil","folder":"tf","game":"Team Fortress","app_id":440,"player_count":24,"max_players":24,"Bots":0,"server_type":"Dedicated","server_os":"Linux","password":true,"vac":true,"version":"7932396","steam_id":85568392924504274,"keywords":["cp","nocrits","nodmgspread","uncletopia"],"game_id":440,"stv_port":27036,"stv_name":"Uncletopia | Frankfurt | 3 | All Maps | STV","players":[{"user_id":159,"name":"pos","steam_id":76561198026132442,"connected_time":240000000000,"state":"active","ping":89},{"user_id":116,"name":"Dr. sex","steam_id":76561199174677820,"connected_time":2605000000000,"state":"active","ping":121},{"user_id":77,"name":"Spinya","steam_id":76561198086653667,"connected_time":4928000000000,"state":"active","ping":60},{"user_id":135,"name":"Koddy","steam_id":76561198170273235,"connected_time":1569000000000,"state":"active","ping":67},{"user_id":156,"name":"ev1lboyo","steam_id":76561199199499453,"connected_time":477000000000,"state":"active","ping":59},{"user_id":131,"name":"Covetousix","steam_id":76561198293936824,"connected_time":1799000000000,"state":"active","ping":74},{"user_id":147,"name":"Biggest Boss [Knockout]","steam_id":76561198044387120,"connected_time":792000000000,"state":"active","ping":80},{"user_id":132,"name":"Eidolon","steam_id":76561198043919565,"connected_time":1657000000000,"state":"active","ping":79},{"user_id":21,"name":"CuJIA_TPAHCJIuTA","steam_id":76561198149654361,"connected_time":7646000000000,"state":"active","ping":65},{"user_id":88,"name":"Ar|es","steam_id":76561198819160313,"connected_time":4415000000000,"state":"active","ping":82},{"user_id":160,"name":"yush","steam_id":76561198121688934,"connected_time":233000000000,"state":"active","ping":76},{"user_id":128,"name":"Gener√°l Kiwi","steam_id":76561198255946537,"connected_time":2056000000000,"state":"active","ping":41},{"user_id":161,"name":"-rikeOo-","steam_id":76561198303995379,"connected_time":230000000000,"state":"active","ping":69},{"user_id":162,"name":"I-I","steam_id":76561198267969436,"connected_time":205000000000,"state":"active","ping":76},{"user_id":153,"name":"gothmoth","steam_id":76561198386910896,"connected_time":518000000000,"state":"active","ping":58},{"user_id":155,"name":"the tube","steam_id":76561198307739245,"connected_time":509000000000,"state":"active","ping":76},{"user_id":117,"name":"Simelis","steam_id":76561198034976400,"connected_time":2551000000000,"state":"active","ping":84},{"user_id":154,"name":"Shawty Crunkin","steam_id":76561198137567696,"connected_time":517000000000,"state":"active","ping":158},{"user_id":164,"name":"Engi-Nearing","steam_id":76561199221172552,"connected_time":96000000000,"state":"active","ping":57},{"user_id":140,"name":"sam","steam_id":76561198274236638,"connected_time":1366000000000,"state":"active","ping":77},{"user_id":141,"name":"arcticcu","steam_id":76561198002435882,"connected_time":1337000000000,"state":"active","ping":95},{"user_id":163,"name":"le unfunny dog","steam_id":76561198415020571,"connected_time":184000000000,"state":"active","ping":63},{"user_id":120,"name":"TheSiike","steam_id":76561198104872968,"connected_time":2452000000000,"state":"active","ping":66},{"user_id":148,"name":"HentaiEnjoyer","steam_id":76561198148361982,"connected_time":780000000000,"state":"active","ping":55}]},{"server_id":309,"name":"Uncletopia | Frankfurt | 4 | All Maps","name_short":"frk-4","host":"frk-1.de.uncletopia.com","port":27045,"enabled":true,"region":"eu","cc":"de","latitude":50.110924,"longitude":8.682127,"reserved":0,"last_update":"0001-01-01T00:00:00Z","name_a2s":"Uncletopia | Frankfurt | 4 | All Maps","protocol":17,"map":"pl_swiftwater_final1","folder":"tf","game":"Team Fortress","app_id":440,"player_count":24,"max_players":24,"Bots":0,"server_type":"Dedicated","server_os":"Linux","password":true,"vac":true,"version":"7932396","steam_id":85568392924504275,"keywords":["nocrits","nodmgspread","payload","uncletopia"],"game_id":440,"stv_port":27046,"stv_name":"Uncletopia | Frankfurt | 4 | All Maps | STV","players":[{"user_id":294,"name":"[P-roc] Cmm Bert","steam_id":76561198016658674,"connected_time":6162000000000,"state":"active","ping":73},{"user_id":340,"name":"Craftedlavaistrue","steam_id":76561198139036454,"connected_time":2409000000000,"state":"active","ping":62},{"user_id":353,"name":"desnot","steam_id":76561198862581894,"connected_time":644000000000,"state":"active","ping":74},{"user_id":328,"name":"miiq130","steam_id":76561198188010666,"connected_time":2619000000000,"state":"active","ping":75},{"user_id":307,"name":"[P-roc] Lovely","steam_id":76561198074361075,"connected_time":4686000000000,"state":"active","ping":60},{"user_id":354,"name":"A Red Brick","steam_id":76561198317522580,"connected_time":597000000000,"state":"active","ping":81},{"user_id":359,"name":"Max Power","steam_id":76561198019269089,"connected_time":247000000000,"state":"active","ping":52},{"user_id":304,"name":"SuntanPikachu","steam_id":76561198121242476,"connected_time":5332000000000,"state":"active","ping":71},{"user_id":332,"name":"Batman","steam_id":76561199041636597,"connected_time":2552000000000,"state":"active","ping":62},{"user_id":357,"name":"daanvanliempt05","steam_id":76561198355398948,"connected_time":360000000000,"state":"active","ping":46},{"user_id":360,"name":"P00TIS","steam_id":76561199239780769,"connected_time":237000000000,"state":"active","ping":59},{"user_id":339,"name":"The Chaser","steam_id":76561199081216584,"connected_time":2415000000000,"state":"active","ping":136},{"user_id":344,"name":"poopoocum","steam_id":76561198180641206,"connected_time":1733000000000,"state":"active","ping":63},{"user_id":335,"name":"Wxcx","steam_id":76561199052688020,"connected_time":2536000000000,"state":"active","ping":86},{"user_id":336,"name":"The Watcher","steam_id":76561198171466414,"connected_time":2452000000000,"state":"active","ping":151},{"user_id":323,"name":"Marcus","steam_id":76561198205027963,"connected_time":3236000000000,"state":"active","ping":67},{"user_id":237,"name":"Henry Fonda","steam_id":76561199378865926,"connected_time":10431000000000,"state":"active","ping":101},{"user_id":338,"name":"Luigi","steam_id":76561199194954220,"connected_time":2427000000000,"state":"active","ping":70},{"user_id":318,"name":"Halal Goku","steam_id":76561198161822358,"connected_time":4084000000000,"state":"active","ping":59},{"user_id":361,"name":"AnanasGerste","steam_id":76561198133825211,"connected_time":227000000000,"state":"active","ping":48},{"user_id":345,"name":"Bumblebee","steam_id":76561198033551105,"connected_time":1731000000000,"state":"active","ping":65},{"user_id":342,"name":"Remizer","steam_id":76561198799755616,"connected_time":2153000000000,"state":"active","ping":66},{"user_id":302,"name":"Kekster","steam_id":76561198302448192,"connected_time":5690000000000,"state":"active","ping":45},{"user_id":341,"name":"eminpog","steam_id":76561199218899468,"connected_time":2407000000000,"state":"active","ping":76}]},{"server_id":310,"name":"Uncletopia | Frankfurt | 5 | All Maps","name_short":"frk-5","host":"frk-1.de.uncletopia.com","port":27055,"enabled":true,"region":"eu","cc":"de","latitude":50.110924,"longitude":8.682127,"reserved":0,"last_update":"0001-01-01T00:00:00Z","name_a2s":"Uncletopia | Frankfurt | 5 | All Maps","protocol":17,"map":"pl_barnblitz","folder":"tf","game":"Team Fortress","app_id":440,"player_count":24,"max_players":24,"Bots":0,"server_type":"Dedicated","server_os":"Linux","password":true,"vac":true,"version":"7932396","steam_id":85568392924504277,"keywords":["nocrits","nodmgspread","payload","uncletopia"],"game_id":440,"stv_port":27056,"stv_name":"Uncletopia | Frankfurt | 5 | All Maps | STV","players":[{"user_id":99,"name":"Chopperson_","steam_id":76561198873728497,"connected_time":1777000000000,"state":"active","ping":105},{"user_id":106,"name":"‚ôÇ Dungeon Master ‚ôÇ","steam_id":76561198106441033,"connected_time":1046000000000,"state":"active","ping":87},{"user_id":57,"name":"Poggito","steam_id":76561198838001276,"connected_time":3538000000000,"state":"active","ping":52},{"user_id":107,"name":"King Of The Chill","steam_id":76561197971394640,"connected_time":1033000000000,"state":"active","ping":198},{"user_id":119,"name":"-gunripp0r^be / Obelix^","steam_id":76561197999306879,"connected_time":449000000000,"state":"active","ping":67},{"user_id":118,"name":"POZO ÁàÜÁÇ∏ÈäÖ","steam_id":76561198863720301,"connected_time":512000000000,"state":"active","ping":75},{"user_id":109,"name":"hardway","steam_id":76561198272529254,"connected_time":978000000000,"state":"active","ping":65},{"user_id":116,"name":"snoop","steam_id":76561198015669667,"connected_time":562000000000,"state":"active","ping":84},{"user_id":120,"name":"luckyminer98","steam_id":76561198177095691,"connected_time":438000000000,"state":"active","ping":62},{"user_id":97,"name":"Andy","steam_id":76561198136364381,"connected_time":1914000000000,"state":"active","ping":62},{"user_id":89,"name":"Amos Baltimore","steam_id":76561198025152405,"connected_time":2391000000000,"state":"active","ping":153},{"user_id":111,"name":"CH4OS","steam_id":76561199098198274,"connected_time":968000000000,"state":"active","ping":78},{"user_id":114,"name":"KUMI","steam_id":76561198089207719,"connected_time":669000000000,"state":"active","ping":83},{"user_id":95,"name":"POZO chachiply","steam_id":76561198316355509,"connected_time":1979000000000,"state":"active","ping":72},{"user_id":113,"name":"ness player","steam_id":76561198088624259,"connected_time":716000000000,"state":"active","ping":62},{"user_id":63,"name":"q`","steam_id":76561197985597838,"connected_time":3495000000000,"state":"active","ping":77},{"user_id":122,"name":"Circus_Baby(Maksu-ja-Tolliamet)","steam_id":76561198845044956,"connected_time":275000000000,"state":"active","ping":70},{"user_id":102,"name":"cazador","steam_id":76561198123096922,"connected_time":1681000000000,"state":"active","ping":90},{"user_id":104,"name":"Fr1Zer","steam_id":76561198357086270,"connected_time":1256000000000,"state":"active","ping":94},{"user_id":91,"name":"dogot","steam_id":76561198880890519,"connected_time":2065000000000,"state":"active","ping":79},{"user_id":121,"name":"Tywhip","steam_id":76561199207545191,"connected_time":373000000000,"state":"active","ping":62},{"user_id":68,"name":"Zeta","steam_id":76561198101917105,"connected_time":3406000000000,"state":"active","ping":181},{"user_id":71,"name":"q47tx","steam_id":76561199181333933,"connected_time":3269000000000,"state":"active","ping":85},{"user_id":112,"name":"Chambersite","steam_id":76561198197022399,"connected_time":964000000000,"state":"active","ping":63}]},{"server_id":311,"name":"Uncletopia | Frankfurt | 6 | All Maps","name_short":"frk-6","host":"frk-1.de.uncletopia.com","port":27065,"enabled":true,"region":"eu","cc":"de","latitude":50.110924,"longitude":8.682127,"reserved":0,"last_update":"0001-01-01T00:00:00Z","name_a2s":"Uncletopia | Frankfurt | 6 | All Maps","protocol":17,"map":"koth_viaduct","folder":"tf","game":"Team Fortress","app_id":440,"player_count":3,"max_players":24,"Bots":0,"server_type":"Dedicated","server_os":"Linux","password":true,"vac":true,"version":"7932396","steam_id":85568392924504278,"keywords":["cp","nocrits","nodmgspread","uncletopia"],"game_id":440,"stv_port":27066,"stv_name":"Uncletopia | Frankfurt | 6 | All Maps | STV","players":[{"user_id":3,"name":"–•–æ—á–µ—à—å –ø–µ—á–µ–Ω—å–∫—É?","steam_id":76561198347491935,"connected_time":84000000000,"state":"active","ping":85},{"user_id":4,"name":"CMD-–ß–µ–π–Ω–¥–∂–ª–∏–Ω–≥","steam_id":76561198831158429,"connected_time":42000000000,"state":"spawning","ping":103},{"user_id":5,"name":"GANGSTER112","steam_id":76561198797716502,"connected_time":30000000000,"state":"active","ping":81}]},{"server_id":23,"name":"Uncletopia | Frankfurt | 7 | Stopwatch Beta","name_short":"frk-7","host":"frk-1.de.uncletopia.com","port":27075,"enabled":true,"region":"eu","cc":"de","latitude":50.110924,"longitude":8.682127,"reserved":0,"last_update":"0001-01-01T00:00:00Z","name_a2s":"Uncletopia | Frankfurt | 7 | Stopwatch Beta","protocol":17,"map":"pl_snowycoast","folder":"tf","game":"Team Fortress","app_id":440,"player_count":0,"max_players":24,"Bots":0,"server_type":"Dedicated","server_os":"Linux","password":true,"vac":true,"version":"7932396","steam_id":85568392924742827,"keywords":["nocrits","nodmgspread","payload","uncletopia"],"game_id":440,"stv_port":27076,"stv_name":"Uncletopia | Frankfurt | 7 | Stopwatch Beta | STV","players":null},{"server_id":24,"name":"Uncletopia | Frankfurt | 8 | Community","name_short":"frk-8","host":"frk-1.de.uncletopia.com","port":27085,"enabled":true,"region":"eu","cc":"de","latitude":50.110924,"longitude":8.682127,"reserved":0,"last_update":"0001-01-01T00:00:00Z","name_a2s":"Uncletopia | Frankfurt | 8 | Community","protocol":17,"map":"pl_barnblitz","folder":"tf","game":"Team Fortress","app_id":440,"player_count":0,"max_players":24,"Bots":0,"server_type":"Dedicated","server_os":"Linux","password":true,"vac":true,"version":"7932396","steam_id":85568392924742828,"keywords":["nocrits","nodmgspread","payload","uncletopia"],"game_id":440,"stv_port":27086,"stv_name":"Uncletopia | Frankfurt | 8 | Community | STV","players":null},{"server_id":202,"name":"Uncletopia | Hong Kong | 1 | All Maps","name_short":"hgk-1","host":"hgk-1.hk.uncletopia.com","port":27015,"enabled":true,"region":"asia","cc":"hk","latitude":22.302711,"longitude":114.177216,"reserved":0,"last_update":"0001-01-01T00:00:00Z","name_a2s":"Uncletopia | Hong Kong | 1 | All Maps","protocol":17,"map":"pl_upward","folder":"tf","game":"Team Fortress","app_id":440,"player_count":21,"max_players":24,"Bots":0,"server_type":"Dedicated","server_os":"Linux","password":true,"vac":true,"version":"7932396","steam_id":85568392924494504,"keywords":["nocrits","nodmgspread","payload","uncletopia"],"game_id":440,"stv_port":27016,"stv_name":"Uncletopia | Hong Kong | 1 | All Maps | STV","players":[{"user_id":382,"name":"ÊØç„ÅÆËÇâÂõ£Â≠ê@hao123.com","steam_id":76561198069561896,"connected_time":3244000000000,"state":"active","ping":32},{"user_id":390,"name":"p1st0n","steam_id":76561198992723983,"connected_time":2361000000000,"state":"active","ping":95},{"user_id":414,"name":"Ivy","steam_id":76561198400698408,"connected_time":1120000000000,"state":"active","ping":90},{"user_id":422,"name":"I lost my original ***** profil","steam_id":76561199489415274,"connected_time":293000000000,"state":"active","ping":83},{"user_id":419,"name":"Nero","steam_id":76561198127272644,"connected_time":655000000000,"state":"active","ping":100},{"user_id":421,"name":"Pizza_Jammies1345","steam_id":76561199228950246,"connected_time":594000000000,"state":"active","ping":159},{"user_id":413,"name":"Othopeus","steam_id":76561198283534382,"connected_time":1193000000000,"state":"active","ping":102},{"user_id":391,"name":"ÂÖâÂ§¥Âº∫","steam_id":76561198045255591,"connected_time":2302000000000,"state":"active","ping":117},{"user_id":393,"name":"ArcticDolphin","steam_id":76561198203626319,"connected_time":2203000000000,"state":"active","ping":148},{"user_id":424,"name":"wOLFSMITh","steam_id":76561198866391014,"connected_time":149000000000,"state":"active","ping":80},{"user_id":333,"name":"Ïø†ÌÇ§","steam_id":76561197997220367,"connected_time":5033000000000,"state":"active","ping":54},{"user_id":330,"name":"juvenile jimmy","steam_id":76561198055553140,"connected_time":5139000000000,"state":"active","ping":75},{"user_id":397,"name":"Slonk","steam_id":76561198845070475,"connected_time":2092000000000,"state":"active","ping":110},{"user_id":412,"name":"0","steam_id":76561199206075827,"connected_time":1612000000000,"state":"active","ping":79},{"user_id":236,"name":"Stupid B","steam_id":76561198131423270,"connected_time":11141000000000,"state":"active","ping":94},{"user_id":387,"name":"Giorno Giovanna","steam_id":76561198117257758,"connected_time":2722000000000,"state":"active","ping":116},{"user_id":267,"name":"no vc no c","steam_id":76561197989503095,"connected_time":9462000000000,"state":"active","ping":89},{"user_id":384,"name":"Gordon.Freeman","steam_id":76561198337746852,"connected_time":3104000000000,"state":"active","ping":61},{"user_id":372,"name":"Pillboi","steam_id":76561198011172886,"connected_time":4164000000000,"state":"active","ping":42},{"user_id":389,"name":"Dokutah, Husband of W","steam_id":76561199273390091,"connected_time":2674000000000,"state":"active","ping":71},{"user_id":260,"name":"Drutzhfer","steam_id":76561198299948446,"connected_time":9779000000000,"state":"active","ping":109}]},{"server_id":1,"name":"Uncletopia | Los Angeles | 1 | All Maps","name_short":"lax-1","host":"lax-1.us.uncletopia.com","port":27015,"enabled":true,"region":"us-west","cc":"us","latitude":33.94279,"longitude":-118.41004,"reserved":0,"last_update":"0001-01-01T00:00:00Z","name_a2s":"Uncletopia | Los Angeles | 1 | All Maps","protocol":17,"map":"cp_badlands","folder":"tf","game":"Team Fortress","app_id":440,"player_count":0,"max_players":24,"Bots":0,"server_type":"Dedicated","server_os":"Linux","password":true,"vac":true,"version":"7932396","steam_id":85568392924469991,"keywords":["cp","nocrits","nodmgspread","uncletopia"],"game_id":440,"stv_port":27016,"stv_name":"Uncletopia | Los Angeles | 1 | All Maps | STV","players":null},{"server_id":112,"name":"Uncletopia | Los Angeles | 2 | All Maps","name_short":"lax-2","host":"lax-1.us.uncletopia.com","port":27025,"enabled":true,"region":"us-west","cc":"us","latitude":33.94279,"longitude":-118.41004,"reserved":0,"last_update":"0001-01-01T00:00:00Z","name_a2s":"Uncletopia | Los Angeles | 2 | All Maps","protocol":17,"map":"pl_borneo","folder":"tf","game":"Team Fortress","app_id":440,"player_count":0,"max_players":24,"Bots":0,"server_type":"Dedicated","server_os":"Linux","password":true,"vac":true,"version":"7932396","steam_id":85568392924469992,"keywords":["nocrits","nodmgspread","payload","uncletopia"],"game_id":440,"stv_port":27026,"stv_name":"Uncletopia | Los Angeles | 2 | All Maps | STV","players":null},{"server_id":324,"name":"Uncletopia | Los Angeles | 3 | All Maps","name_short":"lax-3","host":"lax-1.us.uncletopia.com","port":27035,"enabled":true,"region":"us-west","cc":"us","latitude":33.94279,"longitude":-118.41004,"reserved":0,"last_update":"0001-01-01T00:00:00Z","name_a2s":"Uncletopia | Los Angeles | 3 | All Maps","protocol":17,"map":"pl_borneo","folder":"tf","game":"Team Fortress","app_id":440,"player_count":0,"max_players":24,"Bots":0,"server_type":"Dedicated","server_os":"Linux","password":true,"vac":true,"version":"7932396","steam_id":85568392924510198,"keywords":["nocrits","nodmgspread","payload","uncletopia"],"game_id":440,"stv_port":27036,"stv_name":"Uncletopia | Los Angeles | 3 | All Maps | STV","players":null},{"server_id":25,"name":"Uncletopia | Los Angeles | 4 | Stopwatch Beta","name_short":"lax-4","host":"lax-1.us.uncletopia.com","port":27045,"enabled":true,"region":"us-west","cc":"us","latitude":33.94279,"longitude":-118.41004,"reserved":0,"last_update":"0001-01-01T00:00:00Z","name_a2s":"Uncletopia | Los Angeles | 4 | Stopwatch Beta","protocol":17,"map":"cp_altitude","folder":"tf","game":"Team Fortress","app_id":440,"player_count":0,"max_players":24,"Bots":0,"server_type":"Dedicated","server_os":"Linux","password":true,"vac":true,"version":"7932396","steam_id":85568392924510199,"keywords":["cp","nocrits","nodmgspread","uncletopia"],"game_id":440,"stv_port":27046,"stv_name":"Uncletopia | Los Angeles | 4 | Stopwatch Beta | STV","players":null},{"server_id":11,"name":"Uncletopia | London | 1 | All Maps","name_short":"lon-1","host":"lon-1.uk.uncletopia.com","port":27015,"enabled":true,"region":"eu","cc":"gb","latitude":51.509865,"longitude":-0.118092,"reserved":0,"last_update":"0001-01-01T00:00:00Z","name_a2s":"Uncletopia | London | 1 | All Maps","protocol":17,"map":"koth_king","folder":"tf","game":"Team Fortress","app_id":440,"player_count":24,"max_players":24,"Bots":0,"server_type":"Dedicated","server_os":"Linux","password":true,"vac":true,"version":"7932396","steam_id":85568392924367362,"keywords":["cp","nocrits","nodmgspread","uncletopia"],"game_id":440,"stv_port":27016,"stv_name":"Uncletopia | London | 1 | All Maps | STV","players":[{"user_id":350,"name":"Thenova","steam_id":76561198079893245,"connected_time":2536000000000,"state":"active","ping":70},{"user_id":367,"name":"SnowShot","steam_id":76561198004766638,"connected_time":1276000000000,"state":"active","ping":73},{"user_id":376,"name":"boneez","steam_id":76561198186800982,"connected_time":722000000000,"state":"active","ping":57},{"user_id":381,"name":"bon plush","steam_id":76561198369523458,"connected_time":444000000000,"state":"active","ping":33},{"user_id":386,"name":"Secretti","steam_id":76561198151480179,"connected_time":150000000000,"state":"active","ping":105},{"user_id":368,"name":"zebulon","steam_id":76561198384683504,"connected_time":1023000000000,"state":"active","ping":57},{"user_id":369,"name":"ossop","steam_id":76561198045271499,"connected_time":1019000000000,"state":"active","ping":74},{"user_id":385,"name":"EQPL aramyis","steam_id":76561199080688428,"connected_time":173000000000,"state":"active","ping":94},{"user_id":383,"name":"pandillero gato","steam_id":76561198314381191,"connected_time":389000000000,"state":"active","ping":101},{"user_id":377,"name":"SlwoF√∏","steam_id":76561198049663931,"connected_time":707000000000,"state":"active","ping":59},{"user_id":375,"name":"vadr","steam_id":76561198334528186,"connected_time":866000000000,"state":"active","ping":45},{"user_id":342,"name":"Sipsu","steam_id":76561198059424107,"connected_time":3120000000000,"state":"active","ping":92},{"user_id":343,"name":"night.s","steam_id":76561198326287823,"connected_time":3087000000000,"state":"active","ping":73},{"user_id":357,"name":"bartwk","steam_id":76561198452299840,"connected_time":1735000000000,"state":"active","ping":74},{"user_id":370,"name":"Dragon","steam_id":76561198163255365,"connected_time":1013000000000,"state":"active","ping":99},{"user_id":380,"name":"breakfast burrito","steam_id":76561198148606969,"connected_time":644000000000,"state":"active","ping":80},{"user_id":337,"name":"peee pee man","steam_id":76561198044979205,"connected_time":3322000000000,"state":"active","ping":123},{"user_id":371,"name":"RammelKaas","steam_id":76561198919426523,"connected_time":1010000000000,"state":"active","ping":73},{"user_id":324,"name":"gamerweed5","steam_id":76561198087651151,"connected_time":4442000000000,"state":"active","ping":44},{"user_id":325,"name":"I HEAL CUTE BOYS","steam_id":76561198970587989,"connected_time":4440000000000,"state":"active","ping":83},{"user_id":387,"name":"Hejko","steam_id":76561198963293449,"connected_time":39000000000,"state":"active","ping":79},{"user_id":360,"name":"Healix","steam_id":76561198130270161,"connected_time":1705000000000,"state":"active","ping":59},{"user_id":382,"name":"After8 (nerfed)","steam_id":76561198090750865,"connected_time":433000000000,"state":"active","ping":65},{"user_id":353,"name":"StarBridge56","steam_id":76561198154221684,"connected_time":2194000000000,"state":"active","ping":45}]},{"server_id":114,"name":"Uncletopia | London | 2 | All Maps","name_short":"lon-2","host":"lon-1.uk.uncletopia.com","port":27025,"enabled":true,"region":"eu","cc":"gb","latitude":51.509865,"longitude":-0.118092,"reserved":0,"last_update":"0001-01-01T00:00:00Z","name_a2s":"Uncletopia | London | 2 | All Maps","protocol":17,"map":"pl_swiftwater_final1","folder":"tf","game":"Team Fortress","app_id":440,"player_count":24,"max_players":24,"Bots":0,"server_type":"Dedicated","server_os":"Linux","password":true,"vac":true,"version":"7932396","steam_id":85568392924470941,"keywords":["nocrits","nodmgspread","payload","uncletopia"],"game_id":440,"stv_port":27026,"stv_name":"Uncletopia | London | 2 | All Maps | STV","players":[{"user_id":234,"name":"Borat","steam_id":76561198122226417,"connected_time":383000000000,"state":"active","ping":34},{"user_id":211,"name":"Seratonin deficient gamer","steam_id":76561198051685232,"connected_time":2171000000000,"state":"active","ping":44},{"user_id":214,"name":"MovingIsOverRated","steam_id":76561198385633292,"connected_time":2110000000000,"state":"active","ping":89},{"user_id":163,"name":"s a i","steam_id":76561197970379754,"connected_time":6514000000000,"state":"active","ping":62},{"user_id":235,"name":"The Nikocado Enjoyer","steam_id":76561198263154374,"connected_time":350000000000,"state":"active","ping":120},{"user_id":238,"name":"silicon based life form","steam_id":76561199127121346,"connected_time":262000000000,"state":"active","ping":68},{"user_id":210,"name":"Lambda","steam_id":76561198313133913,"connected_time":2200000000000,"state":"active","ping":55},{"user_id":242,"name":"Zenssei","steam_id":76561198209895623,"connected_time":76000000000,"state":"active","ping":102},{"user_id":225,"name":"Varsk","steam_id":76561198061398890,"connected_time":1435000000000,"state":"active","ping":38},{"user_id":223,"name":"Wattoz","steam_id":76561198127779511,"connected_time":1545000000000,"state":"active","ping":54},{"user_id":205,"name":"NotGood","steam_id":76561199003026034,"connected_time":2608000000000,"state":"active","ping":86},{"user_id":208,"name":"john fortress","steam_id":76561198013237629,"connected_time":2389000000000,"state":"active","ping":90},{"user_id":220,"name":"KLAMA  ‚ù§","steam_id":76561198351549661,"connected_time":1756000000000,"state":"active","ping":75},{"user_id":168,"name":"Ark-e","steam_id":76561198261870909,"connected_time":5999000000000,"state":"active","ping":33},{"user_id":236,"name":"please do not the cat","steam_id":76561198089003514,"connected_time":300000000000,"state":"active","ping":46},{"user_id":194,"name":"Plep","steam_id":76561198840259819,"connected_time":3297000000000,"state":"active","ping":59},{"user_id":232,"name":"porngames","steam_id":76561198204620491,"connected_time":735000000000,"state":"active","ping":32},{"user_id":209,"name":"axalotly-gaming","steam_id":76561199131971501,"connected_time":2372000000000,"state":"active","ping":98},{"user_id":169,"name":"Flare","steam_id":76561198039098320,"connected_time":5923000000000,"state":"active","ping":49},{"user_id":240,"name":"MemeLord","steam_id":76561198135115524,"connected_time":141000000000,"state":"active","ping":55},{"user_id":241,"name":"flange","steam_id":76561198040182692,"connected_time":137000000000,"state":"active","ping":41},{"user_id":230,"name":"nikkielmao","steam_id":76561198086229832,"connected_time":1047000000000,"state":"active","ping":61},{"user_id":217,"name":"Pineappleman","steam_id":76561199074651648,"connected_time":2040000000000,"state":"active","ping":55},{"user_id":231,"name":"Archer","steam_id":76561198132860299,"connected_time":908000000000,"state":"active","ping":55}]},{"server_id":320,"name":"Uncletopia | London | 3 | All Maps","name_short":"lon-3","host":"lon-1.uk.uncletopia.com","port":27035,"enabled":true,"region":"eu","cc":"gb","latitude":51.509865,"longitude":-0.118092,"reserved":0,"last_update":"0001-01-01T00:00:00Z","name_a2s":"Uncletopia | London | 3 | All Maps","protocol":17,"map":"cp_altitude","folder":"tf","game":"Team Fortress","app_id":440,"player_count":0,"max_players":24,"Bots":0,"server_type":"Dedicated","server_os":"Linux","password":true,"vac":true,"version":"7932396","steam_id":85568392924510192,"keywords":["cp","nocrits","nodmgspread","uncletopia"],"game_id":440,"stv_port":27036,"stv_name":"Uncletopia | London | 3 | All Maps | STV","players":null},{"server_id":321,"name":"Uncletopia | London | 4 | All Maps","name_short":"lon-4","host":"lon-1.uk.uncletopia.com","port":27045,"enabled":true,"region":"eu","cc":"gb","latitude":51.509865,"longitude":-0.118092,"reserved":0,"last_update":"0001-01-01T00:00:00Z","name_a2s":"Uncletopia | London | 4 | All Maps","protocol":17,"map":"cp_mountainlab","folder":"tf","game":"Team Fortress","app_id":440,"player_count":0,"max_players":24,"Bots":0,"server_type":"Dedicated","server_os":"Linux","password":true,"vac":true,"version":"7932396","steam_id":85568392924510193,"keywords":["cp","nocrits","nodmgspread","uncletopia"],"game_id":440,"stv_port":27046,"stv_name":"Uncletopia | London | 4 | All Maps | STV","players":null},{"server_id":21,"name":"Uncletopia | London | 5 | All Maps","name_short":"lon-5","host":"lon-1.uk.uncletopia.com","port":27055,"enabled":true,"region":"eu","cc":"gb","latitude":51.509865,"longitude":-0.118092,"reserved":0,"last_update":"0001-01-01T00:00:00Z","name_a2s":"Uncletopia | London | 5 | All Maps","protocol":17,"map":"pl_borneo","folder":"tf","game":"Team Fortress","app_id":440,"player_count":0,"max_players":24,"Bots":0,"server_type":"Dedicated","server_os":"Linux","password":true,"vac":true,"version":"7932396","steam_id":85568392924742829,"keywords":["nocrits","nodmgspread","payload","uncletopia"],"game_id":440,"stv_port":27056,"stv_name":"Uncletopia | London | 5 | All Maps | STV","players":null},{"server_id":22,"name":"Uncletopia | London | 6 | All Maps","name_short":"lon-6","host":"lon-1.uk.uncletopia.com","port":27065,"enabled":true,"region":"eu","cc":"gb","latitude":51.509865,"longitude":-0.118092,"reserved":0,"last_update":"0001-01-01T00:00:00Z","name_a2s":"Uncletopia | London | 6 | All Maps","protocol":17,"map":"cp_dustbowl","folder":"tf","game":"Team Fortress","app_id":440,"player_count":0,"max_players":24,"Bots":0,"server_type":"Dedicated","server_os":"Linux","password":true,"vac":true,"version":"7932396","steam_id":85568392924742830,"keywords":["cp","nocrits","nodmgspread","uncletopia"],"game_id":440,"stv_port":27066,"stv_name":"Uncletopia | London | 6 | All Maps | STV","players":null},{"server_id":40,"name":"Uncletopia | London | 7 | No Payload","name_short":"lon-7","host":"lon-1.uk.uncletopia.com","port":27075,"enabled":true,"region":"eu","cc":"gb","latitude":51.509865,"longitude":-0.118092,"reserved":0,"last_update":"0001-01-01T00:00:00Z","name_a2s":"Uncletopia | London | 7 | No Payload","protocol":17,"map":"pl_snowycoast","folder":"tf","game":"Team Fortress","app_id":440,"player_count":0,"max_players":24,"Bots":0,"server_type":"Dedicated","server_os":"Linux","password":true,"vac":true,"version":"7932396","steam_id":85568392924964314,"keywords":["nocrits","nodmgspread","payload","uncletopia"],"game_id":440,"stv_port":27076,"stv_name":"Uncletopia | London | 7 | No Payload | STV","players":null},{"server_id":41,"name":"Uncletopia | London | 8 | Community","name_short":"lon-8","host":"lon-1.uk.uncletopia.com","port":27085,"enabled":true,"region":"eu","cc":"gb","latitude":51.509865,"longitude":-0.118092,"reserved":0,"last_update":"0001-01-01T00:00:00Z","name_a2s":"Uncletopia | London | 8 | Community","protocol":17,"map":"workshop/koth_kemptown_rc1.ugc767410655","folder":"tf","game":"Team Fortress","app_id":440,"player_count":0,"max_players":24,"Bots":0,"server_type":"Dedicated","server_os":"Linux","password":true,"vac":true,"version":"7932396","steam_id":85568392924964315,"keywords":["cp","nocrits","nodmgspread","uncletopia"],"game_id":440,"stv_port":27086,"stv_name":"Uncletopia | London | 8 | Community | STV","players":null},{"server_id":300,"name":"Uncletopia | Montr√©al | 1 | All Maps","name_short":"mtl-1","host":"mtl-1.ca.uncletopia.com","port":27015,"enabled":true,"region":"us-east","cc":"ca","latitude":45.50889,"longitude":-73.56167,"reserved":0,"last_update":"0001-01-01T00:00:00Z","name_a2s":"Uncletopia | Montr√©al | 1 | All Maps","protocol":17,"map":"cp_altitude","folder":"tf","game":"Team Fortress","app_id":440,"player_count":0,"max_players":24,"Bots":0,"server_type":"Dedicated","server_os":"Linux","password":true,"vac":true,"version":"7932396","steam_id":85568392924500087,"keywords":["cp","nocrits","nodmgspread","uncletopia"],"game_id":440,"stv_port":27016,"stv_name":"Uncletopia | Montr√©al | 1 | All Maps | STV","players":null},{"server_id":301,"name":"Uncletopia | Montr√©al | 2 | All Maps","name_short":"mtl-2","host":"mtl-1.ca.uncletopia.com","port":27025,"enabled":true,"region":"us-east","cc":"ca","latitude":45.50889,"longitude":-73.56167,"reserved":0,"last_update":"0001-01-01T00:00:00Z","name_a2s":"Uncletopia | Montr√©al | 2 | All Maps","protocol":17,"map":"koth_lakeside_final","folder":"tf","game":"Team Fortress","app_id":440,"player_count":0,"max_players":24,"Bots":0,"server_type":"Dedicated","server_os":"Linux","password":true,"vac":true,"version":"7932396","steam_id":85568392924500088,"keywords":["cp","nocrits","nodmgspread","uncletopia"],"game_id":440,"stv_port":27026,"stv_name":"Uncletopia | Montr√©al | 2 | All Maps | STV","players":null},{"server_id":302,"name":"Uncletopia | Montr√©al | 3 | All Maps","name_short":"mtl-3","host":"mtl-1.ca.uncletopia.com","port":27035,"enabled":true,"region":"us-east","cc":"ca","latitude":45.50889,"longitude":-73.56167,"reserved":0,"last_update":"0001-01-01T00:00:00Z","name_a2s":"Uncletopia | Montr√©al | 3 | All Maps","protocol":17,"map":"cp_process_final","folder":"tf","game":"Team Fortress","app_id":440,"player_count":0,"max_players":24,"Bots":0,"server_type":"Dedicated","server_os":"Linux","password":true,"vac":true,"version":"7932396","steam_id":85568392924500089,"keywords":["cp","nocrits","nodmgspread","uncletopia"],"game_id":440,"stv_port":27036,"stv_name":"Uncletopia | Montr√©al | 3 | All Maps | STV","players":null},{"server_id":303,"name":"Uncletopia | Montr√©al | 4 | No Payload","name_short":"mtl-4","host":"mtl-1.ca.uncletopia.com","port":27045,"enabled":true,"region":"us-east","cc":"ca","latitude":45.50889,"longitude":-73.56167,"reserved":0,"last_update":"0001-01-01T00:00:00Z","name_a2s":"Uncletopia | Montr√©al | 4 | No Payload","protocol":17,"map":"cp_snakewater_final1","folder":"tf","game":"Team Fortress","app_id":440,"player_count":0,"max_players":24,"Bots":0,"server_type":"Dedicated","server_os":"Linux","password":true,"vac":true,"version":"7932396","steam_id":85568392924500090,"keywords":["cp","nocrits","nodmgspread","uncletopia"],"game_id":440,"stv_port":27046,"stv_name":"Uncletopia | Montr√©al | 4 | No Payload | STV","players":null},{"server_id":13,"name":"Uncletopia | New York City | 1 | All Maps","name_short":"nyc-1","host":"nyc-1.us.uncletopia.com","port":27015,"enabled":true,"region":"us-east","cc":"us","latitude":40.73061,"longitude":-73.93524,"reserved":0,"last_update":"0001-01-01T00:00:00Z","name_a2s":"Uncletopia | New York City | 1 | All Maps","protocol":17,"map":"cp_process_final","folder":"tf","game":"Team Fortress","app_id":440,"player_count":0,"max_players":24,"Bots":0,"server_type":"Dedicated","server_os":"Linux","password":true,"vac":true,"version":"7932396","steam_id":85568392924469993,"keywords":["cp","nocrits","nodmgspread","uncletopia"],"game_id":440,"stv_port":27016,"stv_name":"Uncletopia | New York City | 1 | All Maps | STV","players":null},{"server_id":14,"name":"Uncletopia | New York City | 2 | All Maps","name_short":"nyc-2","host":"nyc-1.us.uncletopia.com","port":27025,"enabled":true,"region":"us-east","cc":"us","latitude":40.73061,"longitude":-73.93524,"reserved":0,"last_update":"0001-01-01T00:00:00Z","name_a2s":"Uncletopia | New York City | 2 | All Maps","protocol":17,"map":"koth_lakeside_final","folder":"tf","game":"Team Fortress","app_id":440,"player_count":0,"max_players":24,"Bots":0,"server_type":"Dedicated","server_os":"Linux","password":true,"vac":true,"version":"7932396","steam_id":85568392924469994,"keywords":["cp","nocrits","nodmgspread","uncletopia"],"game_id":440,"stv_port":27026,"stv_name":"Uncletopia | New York City | 2 | All Maps | STV","players":null},{"server_id":15,"name":"Uncletopia | New York City | 3 | Stopwatch Beta","name_short":"nyc-3","host":"nyc-1.us.uncletopia.com","port":27035,"enabled":true,"region":"us-east","cc":"us","latitude":40.73061,"longitude":-73.93524,"reserved":0,"last_update":"0001-01-01T00:00:00Z","name_a2s":"Uncletopia | New York City | 3 | Stopwatch Beta","protocol":17,"map":"koth_lakeside_final","folder":"tf","game":"Team Fortress","app_id":440,"player_count":0,"max_players":24,"Bots":0,"server_type":"Dedicated","server_os":"Linux","password":true,"vac":true,"version":"7932396","steam_id":85568392924742820,"keywords":["cp","nocrits","nodmgspread","uncletopia"],"game_id":440,"stv_port":27036,"stv_name":"Uncletopia | New York City | 3 | Stopwatch Beta | STV","players":null},{"server_id":16,"name":"Uncletopia | New York City | 4 | Community","name_short":"nyc-4","host":"nyc-1.us.uncletopia.com","port":27045,"enabled":true,"region":"us-east","cc":"us","latitude":40.73061,"longitude":-73.93524,"reserved":0,"last_update":"0001-01-01T00:00:00Z","name_a2s":"Uncletopia | New York City | 4 | Community","protocol":17,"map":"workshop/cp_propaganda_b18.ugc1603743849","folder":"tf","game":"Team Fortress","app_id":440,"player_count":8,"max_players":24,"Bots":0,"server_type":"Dedicated","server_os":"Linux","password":true,"vac":true,"version":"7932396","steam_id":85568392924742821,"keywords":["cp","nocrits","nodmgspread","uncletopia"],"game_id":440,"stv_port":27046,"stv_name":"Uncletopia | New York City | 4 | Community | STV","players":[{"user_id":3,"name":"Sparky","steam_id":76561198086845464,"connected_time":4099000000000,"state":"active","ping":64},{"user_id":4,"name":"Kirsk","steam_id":76561198084397649,"connected_time":4054000000000,"state":"active","ping":71},{"user_id":48,"name":"I really enjoy MEN","steam_id":76561198164119602,"connected_time":27000000000,"state":"spawning","ping":212},{"user_id":9,"name":"Casual Goober","steam_id":76561199000599111,"connected_time":3120000000000,"state":"active","ping":70},{"user_id":32,"name":"Tamaguen","steam_id":76561198041478553,"connected_time":1097000000000,"state":"active","ping":60},{"user_id":33,"name":"Nuke Dookie","steam_id":76561198127013243,"connected_time":996000000000,"state":"active","ping":62},{"user_id":34,"name":"El_Jackso","steam_id":76561198126121555,"connected_time":983000000000,"state":"active","ping":63},{"user_id":40,"name":"Mecha","steam_id":76561198014927379,"connected_time":641000000000,"state":"active","ping":63}]},{"server_id":142,"name":"Uncletopia | S√£o Paulo | 1 | All Maps","name_short":"sao-1","host":"sao-1.br.uncletopia.com","port":27015,"enabled":true,"region":"sa","cc":"br","latitude":-23.533773,"longitude":-46.62529,"reserved":0,"last_update":"0001-01-01T00:00:00Z","name_a2s":"Uncletopia | S√£o Paulo | 1 | All Maps","protocol":17,"map":"cp_sunshine","folder":"tf","game":"Team Fortress","app_id":440,"player_count":0,"max_players":24,"Bots":0,"server_type":"Dedicated","server_os":"Linux","password":true,"vac":true,"version":"7932396","steam_id":85568392924469996,"keywords":["cp","nocrits","nodmgspread","uncletopia"],"game_id":440,"stv_port":27016,"stv_name":"Uncletopia | S√£o Paulo | 1 | All Maps | STV","players":null},{"server_id":143,"name":"Uncletopia | S√£o Paulo | 2 | All Maps","name_short":"sao-2","host":"sao-2.br.uncletopia.com","port":27015,"enabled":true,"region":"sa","cc":"br","latitude":-23.533773,"longitude":-46.62529,"reserved":0,"last_update":"0001-01-01T00:00:00Z","name_a2s":"Uncletopia | S√£o Paulo | 2 | All Maps","protocol":17,"map":"pl_swiftwater_final1","folder":"tf","game":"Team Fortress","app_id":440,"player_count":0,"max_players":24,"Bots":0,"server_type":"Dedicated","server_os":"Linux","password":true,"vac":true,"version":"7932396","steam_id":85568392924485349,"keywords":["nocrits","nodmgspread","payload","uncletopia"],"game_id":440,"stv_port":27016,"stv_name":"Uncletopia | S√£o Paulo | 2 | All Maps | STV","players":null},{"server_id":7,"name":"Uncletopia | Seattle | 1 | All Maps","name_short":"sea-1","host":"sea-1.us.uncletopia.com","port":27015,"enabled":true,"region":"us-west","cc":"us","latitude":47.608013,"longitude":-122.33517,"reserved":0,"last_update":"0001-01-01T00:00:00Z","name_a2s":"Uncletopia | Seattle | 1 | All Maps","protocol":17,"map":"pl_upward","folder":"tf","game":"Team Fortress","app_id":440,"player_count":0,"max_players":24,"Bots":0,"server_type":"Dedicated","server_os":"Linux","password":true,"vac":true,"version":"7932396","steam_id":85568392924469997,"keywords":["nocrits","nodmgspread","payload","uncletopia"],"game_id":440,"stv_port":27016,"stv_name":"Uncletopia | Seattle | 1 | All Maps | STV","players":null},{"server_id":119,"name":"Uncletopia | Seattle | 2 | All Maps","name_short":"sea-2","host":"sea-1.us.uncletopia.com","port":27025,"enabled":true,"region":"us-west","cc":"us","latitude":47.608013,"longitude":-122.33517,"reserved":0,"last_update":"0001-01-01T00:00:00Z","name_a2s":"Uncletopia | Seattle | 2 | All Maps","protocol":17,"map":"pl_barnblitz","folder":"tf","game":"Team Fortress","app_id":440,"player_count":24,"max_players":24,"Bots":0,"server_type":"Dedicated","server_os":"Linux","password":true,"vac":true,"version":"7932396","steam_id":85568392924469998,"keywords":["nocrits","nodmgspread","payload","uncletopia"],"game_id":440,"stv_port":27026,"stv_name":"Uncletopia | Seattle | 2 | All Maps | STV","players":[{"user_id":105,"name":"Bowser","steam_id":76561198011097956,"connected_time":1437000000000,"state":"active","ping":62},{"user_id":115,"name":"Capybara Enjoyer","steam_id":76561199147114434,"connected_time":1171000000000,"state":"active","ping":135},{"user_id":124,"name":"Tom","steam_id":76561198070630154,"connected_time":613000000000,"state":"active","ping":73},{"user_id":37,"name":"Crunchy","steam_id":76561198240523882,"connected_time":5180000000000,"state":"active","ping":77},{"user_id":125,"name":"Scoron","steam_id":76561198062099305,"connected_time":605000000000,"state":"active","ping":77},{"user_id":106,"name":"FI LO","steam_id":76561198976530881,"connected_time":1396000000000,"state":"active","ping":74},{"user_id":129,"name":"nobody","steam_id":76561198064237058,"connected_time":187000000000,"state":"active","ping":92},{"user_id":108,"name":"gcc8","steam_id":76561198138769251,"connected_time":1377000000000,"state":"active","ping":71},{"user_id":73,"name":"Dr. Klein","steam_id":76561198153785148,"connected_time":3177000000000,"state":"active","ping":136},{"user_id":116,"name":"Epifiny","steam_id":76561198027958086,"connected_time":864000000000,"state":"active","ping":124},{"user_id":123,"name":"HankTheLazy","steam_id":76561199093836052,"connected_time":634000000000,"state":"active","ping":145},{"user_id":74,"name":"That70sDog","steam_id":76561198119396142,"connected_time":3122000000000,"state":"active","ping":119},{"user_id":109,"name":"Enderlord99","steam_id":76561198158152954,"connected_time":1355000000000,"state":"active","ping":55},{"user_id":121,"name":"Starkiller","steam_id":76561198101643120,"connected_time":675000000000,"state":"active","ping":100},{"user_id":113,"name":"donut","steam_id":76561198076635466,"connected_time":1241000000000,"state":"active","ping":115},{"user_id":114,"name":"flairz","steam_id":76561199212732114,"connected_time":1187000000000,"state":"active","ping":68},{"user_id":118,"name":"Headmouth","steam_id":76561198019789855,"connected_time":844000000000,"state":"active","ping":165},{"user_id":119,"name":"cyclops","steam_id":76561197970370198,"connected_time":795000000000,"state":"active","ping":97},{"user_id":69,"name":"Tyler\u0026Fingers","steam_id":76561198085154485,"connected_time":3502000000000,"state":"active","ping":140},{"user_id":98,"name":"..flop","steam_id":76561197989058876,"connected_time":1823000000000,"state":"active","ping":91},{"user_id":61,"name":"bobletoob","steam_id":76561199184464900,"connected_time":3899000000000,"state":"active","ping":86},{"user_id":126,"name":"Nuts from Berserk","steam_id":76561199474152483,"connected_time":595000000000,"state":"active","ping":122},{"user_id":93,"name":"ReDiculous22","steam_id":76561198038391383,"connected_time":2276000000000,"state":"active","ping":98},{"user_id":128,"name":"‚ù§To Lazy‚ù§","steam_id":76561198164211904,"connected_time":428000000000,"state":"active","ping":93}]},{"server_id":406,"name":"Uncletopia | Seattle | 3 | Stopwatch Beta","name_short":"sea-3","host":"sea-1.us.uncletopia.com","port":27035,"enabled":true,"region":"us-west","cc":"us","latitude":47.608013,"longitude":-122.33517,"reserved":0,"last_update":"0001-01-01T00:00:00Z","name_a2s":"Uncletopia | Seattle | 3 | Stopwatch Beta","protocol":17,"map":"workshop/koth_clearcut_b15.ugc2107050255","folder":"tf","game":"Team Fortress","app_id":440,"player_count":0,"max_players":24,"Bots":0,"server_type":"Dedicated","server_os":"Linux","password":true,"vac":true,"version":"7932396","steam_id":85568392924515217,"keywords":["cp","nocrits","nodmgspread","uncletopia"],"game_id":440,"stv_port":27036,"stv_name":"Uncletopia | Seattle | 3 | Stopwatch Beta | STV","players":null},{"server_id":17,"name":"Uncletopia | San Francisco | 1 | All Maps","name_short":"sfo-1","host":"sfo-1.us.uncletopia.com","port":27015,"enabled":true,"region":"us-west","cc":"us","latitude":37.77397,"longitude":-122.4313,"reserved":0,"last_update":"0001-01-01T00:00:00Z","name_a2s":"Uncletopia | San Francisco | 1 | All Maps","protocol":17,"map":"pl_frontier_final","folder":"tf","game":"Team Fortress","app_id":440,"player_count":0,"max_players":24,"Bots":0,"server_type":"Dedicated","server_os":"Linux","password":true,"vac":true,"version":"7932396","steam_id":85568392924469999,"keywords":["nocrits","nodmgspread","payload","uncletopia"],"game_id":440,"stv_port":27016,"stv_name":"Uncletopia | San Francisco | 1 | All Maps | STV","players":null},{"server_id":18,"name":"Uncletopia | San Francisco | 2 | All Maps","name_short":"sfo-2","host":"sfo-1.us.uncletopia.com","port":27025,"enabled":true,"region":"us-west","cc":"us","latitude":37.77397,"longitude":-122.4313,"reserved":0,"last_update":"0001-01-01T00:00:00Z","name_a2s":"Uncletopia | San Francisco | 2 | All Maps","protocol":17,"map":"cp_snakewater_final1","folder":"tf","game":"Team Fortress","app_id":440,"player_count":0,"max_players":24,"Bots":0,"server_type":"Dedicated","server_os":"Linux","password":true,"vac":true,"version":"7932396","steam_id":85568392924470000,"keywords":["cp","nocrits","nodmgspread","uncletopia"],"game_id":440,"stv_port":27026,"stv_name":"Uncletopia | San Francisco | 2 | All Maps | STV","players":null},{"server_id":19,"name":"Uncletopia | San Francisco | 3 | Stopwatch Beta","name_short":"sfo-3","host":"sfo-1.us.uncletopia.com","port":27035,"enabled":true,"region":"us-west","cc":"us","latitude":37.77397,"longitude":-122.4313,"reserved":0,"last_update":"0001-01-01T00:00:00Z","name_a2s":"Uncletopia | San Francisco | 3 | Stopwatch Beta","protocol":17,"map":"koth_lakeside_final","folder":"tf","game":"Team Fortress","app_id":440,"player_count":0,"max_players":24,"Bots":0,"server_type":"Dedicated","server_os":"Linux","password":true,"vac":true,"version":"7932396","steam_id":85568392924742824,"keywords":["cp","nocrits","nodmgspread","uncletopia"],"game_id":440,"stv_port":27036,"stv_name":"Uncletopia | San Francisco | 3 | Stopwatch Beta | STV","players":null},{"server_id":20,"name":"Uncletopia | San Francisco | 4 | Community","name_short":"sfo-4","host":"sfo-1.us.uncletopia.com","port":27045,"enabled":true,"region":"us-west","cc":"us","latitude":37.77397,"longitude":-122.4313,"reserved":0,"last_update":"0001-01-01T00:00:00Z","name_a2s":"Uncletopia | San Francisco | 4 | Community","protocol":17,"map":"pl_borneo","folder":"tf","game":"Team Fortress","app_id":440,"player_count":0,"max_players":24,"Bots":0,"server_type":"Dedicated","server_os":"Linux","password":true,"vac":true,"version":"7932396","steam_id":85568392924742826,"keywords":["nocrits","nodmgspread","payload","uncletopia"],"game_id":440,"stv_port":27046,"stv_name":"Uncletopia | San Francisco | 4 | Community | STV","players":null},{"server_id":141,"name":"Uncletopia | Sydney | 1 | All Maps","name_short":"syd-1","host":"syd-1.au.uncletopia.com","port":27015,"enabled":true,"region":"au","cc":"au","latitude":-33.865143,"longitude":151.2099,"reserved":0,"last_update":"0001-01-01T00:00:00Z","name_a2s":"Uncletopia | Sydney | 1 | All Maps","protocol":17,"map":"koth_lakeside_final","folder":"tf","game":"Team Fortress","app_id":440,"player_count":0,"max_players":24,"Bots":0,"server_type":"Dedicated","server_os":"Linux","password":true,"vac":true,"version":"7932396","steam_id":85568392924470001,"keywords":["cp","nocrits","nodmgspread","uncletopia"],"game_id":440,"stv_port":27016,"stv_name":"Uncletopia | Sydney | 1 | All Maps | STV","players":null},{"server_id":123,"name":"Uncletopia | Sydney | 2 | All Maps","name_short":"syd-2","host":"syd-1.au.uncletopia.com","port":27025,"enabled":true,"region":"au","cc":"au","latitude":-33.865143,"longitude":151.2099,"reserved":0,"last_update":"0001-01-01T00:00:00Z","name_a2s":"Uncletopia | Sydney | 2 | All Maps","protocol":17,"map":"koth_lakeside_final","folder":"tf","game":"Team Fortress","app_id":440,"player_count":0,"max_players":24,"Bots":0,"server_type":"Dedicated","server_os":"Linux","password":true,"vac":true,"version":"7932396","steam_id":85568392924470002,"keywords":["cp","nocrits","nodmgspread","uncletopia"],"game_id":440,"stv_port":27026,"stv_name":"Uncletopia | Sydney | 2 | All Maps | STV","players":null},{"server_id":395,"name":"Uncletopia | Sydney | 3 | All Maps","name_short":"syd-3","host":"syd-1.au.uncletopia.com","port":27035,"enabled":true,"region":"au","cc":"au","latitude":-33.865143,"longitude":151.2099,"reserved":0,"last_update":"0001-01-01T00:00:00Z","name_a2s":"Uncletopia | Sydney | 3 | All Maps","protocol":17,"map":"pl_barnblitz","folder":"tf","game":"Team Fortress","app_id":440,"player_count":0,"max_players":24,"Bots":0,"server_type":"Dedicated","server_os":"Linux","password":true,"vac":true,"version":"7932396","steam_id":85568392925194467,"keywords":["nocrits","nodmgspread","payload","uncletopia"],"game_id":440,"stv_port":27036,"stv_name":"Uncletopia | Sydney | 3 | All Maps | STV","players":null},{"server_id":396,"name":"Uncletopia | Sydney | 4 | All Maps","name_short":"syd-4","host":"syd-1.au.uncletopia.com","port":27045,"enabled":true,"region":"au","cc":"au","latitude":-33.865143,"longitude":151.2099,"reserved":0,"last_update":"0001-01-01T00:00:00Z","name_a2s":"Uncletopia | Sydney | 4 | All Maps","protocol":17,"map":"pl_frontier_final","folder":"tf","game":"Team Fortress","app_id":440,"player_count":0,"max_players":24,"Bots":0,"server_type":"Dedicated","server_os":"Linux","password":true,"vac":true,"version":"7932396","steam_id":85568392925397958,"keywords":["nocrits","nodmgspread","payload","uncletopia"],"game_id":440,"stv_port":27046,"stv_name":"Uncletopia | Sydney | 4 | All Maps | STV","players":null},{"server_id":58,"name":"Uncletopia | Sydney | 5 | Stopwatch Beta","name_short":"syd-5","host":"syd-1.au.uncletopia.com","port":27055,"enabled":true,"region":"au","cc":"au","latitude":-33.865143,"longitude":151.2099,"reserved":0,"last_update":"0001-01-01T00:00:00Z","name_a2s":"Uncletopia | Sydney | 5 | Stopwatch Beta","protocol":17,"map":"pl_borneo","folder":"tf","game":"Team Fortress","app_id":440,"player_count":0,"max_players":24,"Bots":0,"server_type":"Dedicated","server_os":"Linux","password":true,"vac":true,"version":"7932396","steam_id":85568392925397959,"keywords":["nocrits","nodmgspread","payload","uncletopia"],"game_id":440,"stv_port":27056,"stv_name":"Uncletopia | Sydney | 5 | Stopwatch Beta | STV","players":null},{"server_id":59,"name":"Uncletopia | Sydney | 6 | Community","name_short":"syd-6","host":"syd-1.au.uncletopia.com","port":27065,"enabled":true,"region":"au","cc":"au","latitude":-33.865143,"longitude":151.2099,"reserved":0,"last_update":"0001-01-01T00:00:00Z","name_a2s":"Uncletopia | Sydney | 6 | Community","protocol":17,"map":"pl_badwater","folder":"tf","game":"Team Fortress","app_id":440,"player_count":0,"max_players":24,"Bots":0,"server_type":"Dedicated","server_os":"Linux","password":true,"vac":true,"version":"7932396","steam_id":85568392925397960,"keywords":["nocrits","nodmgspread","payload","uncletopia"],"game_id":440,"stv_port":27066,"stv_name":"Uncletopia | Sydney | 6 | Community | STV","players":null},{"server_id":49,"name":"Uncletopia | Warsaw | 1 | All Maps","name_short":"waw-1","host":"waw-1.pl.uncletopia.com","port":27015,"enabled":true,"region":"eu","cc":"pl","latitude":52.2297,"longitude":21.017532,"reserved":0,"last_update":"0001-01-01T00:00:00Z","name_a2s":"","protocol":0,"map":"","folder":"","game":"","app_id":0,"player_count":0,"max_players":0,"Bots":0,"server_type":"","server_os":"","password":false,"vac":false,"version":"","steam_id":0,"keywords":null,"game_id":0,"stv_port":0,"stv_name":"","players":null},{"server_id":50,"name":"Uncletopia | Warsaw | 2 | All Maps","name_short":"waw-2","host":"waw-1.pl.uncletopia.com","port":27025,"enabled":true,"region":"eu","cc":"pl","latitude":52.2297,"longitude":21.017532,"reserved":0,"last_update":"0001-01-01T00:00:00Z","name_a2s":"Uncletopia | Warsaw | 2 | All Maps","protocol":17,"map":"pl_upward","folder":"tf","game":"Team Fortress","app_id":440,"player_count":0,"max_players":24,"Bots":0,"server_type":"Dedicated","server_os":"Linux","password":true,"vac":true,"version":"7932396","steam_id":85568392925397851,"keywords":["nocrits","nodmgspread","payload","uncletopia"],"game_id":440,"stv_port":27026,"stv_name":"Uncletopia | Warsaw | 2 | All Maps | STV","players":null},{"server_id":51,"name":"Uncletopia | Warsaw | 3 | All Maps","name_short":"waw-3","host":"waw-1.pl.uncletopia.com","port":27035,"enabled":true,"region":"eu","cc":"pl","latitude":52.2297,"longitude":21.017532,"reserved":0,"last_update":"0001-01-01T00:00:00Z","name_a2s":"Uncletopia | Warsaw | 3 | All Maps","protocol":17,"map":"koth_lakeside_final","folder":"tf","game":"Team Fortress","app_id":440,"player_count":0,"max_players":24,"Bots":0,"server_type":"Dedicated","server_os":"Linux","password":true,"vac":true,"version":"7932396","steam_id":85568392925397852,"keywords":["cp","nocrits","nodmgspread","uncletopia"],"game_id":440,"stv_port":27036,"stv_name":"Uncletopia | Warsaw | 3 | All Maps | STV","players":null},{"server_id":52,"name":"Uncletopia | Warsaw | 4 | All Maps","name_short":"waw-4","host":"waw-1.pl.uncletopia.com","port":27045,"enabled":true,"region":"eu","cc":"pl","latitude":52.2297,"longitude":21.017532,"reserved":0,"last_update":"0001-01-01T00:00:00Z","name_a2s":"Uncletopia | Warsaw | 4 | All Maps","protocol":17,"map":"pl_snowycoast","folder":"tf","game":"Team Fortress","app_id":440,"player_count":0,"max_players":24,"Bots":0,"server_type":"Dedicated","server_os":"Linux","password":true,"vac":true,"version":"7932396","steam_id":85568392925397853,"keywords":["nocrits","nodmgspread","payload","uncletopia"],"game_id":440,"stv_port":27046,"stv_name":"Uncletopia | Warsaw | 4 | All Maps | STV","players":null},{"server_id":53,"name":"Uncletopia | Warsaw | 5 | Stopwatch Beta","name_short":"waw-5","host":"waw-1.pl.uncletopia.com","port":27055,"enabled":true,"region":"eu","cc":"pl","latitude":52.2297,"longitude":21.017532,"reserved":0,"last_update":"0001-01-01T00:00:00Z","name_a2s":"Uncletopia | Warsaw | 5 | Stopwatch Beta","protocol":17,"map":"cp_process_final","folder":"tf","game":"Team Fortress","app_id":440,"player_count":2,"max_players":24,"Bots":0,"server_type":"Dedicated","server_os":"Linux","password":true,"vac":true,"version":"7932396","steam_id":85568392925397854,"keywords":["cp","nocrits","nodmgspread","uncletopia"],"game_id":440,"stv_port":27056,"stv_name":"Uncletopia | Warsaw | 5 | Stopwatch Beta | STV","players":[{"user_id":3,"name":"Dinokir45","steam_id":76561198848375627,"connected_time":180000000000,"state":"active","ping":100},{"user_id":4,"name":"–∫—Ç–æ —è?","steam_id":76561198291010106,"connected_time":147000000000,"state":"active","ping":100}]},{"server_id":54,"name":"Uncletopia | Warsaw | 6 | Community","name_short":"waw-6","host":"waw-1.pl.uncletopia.com","port":27065,"enabled":true,"region":"eu","cc":"pl","latitude":52.2297,"longitude":21.017532,"reserved":0,"last_update":"0001-01-01T00:00:00Z","name_a2s":"Uncletopia | Warsaw | 6 | Community","protocol":17,"map":"pl_upward","folder":"tf","game":"Team Fortress","app_id":440,"player_count":0,"max_players":24,"Bots":0,"server_type":"Dedicated","server_os":"Linux","password":true,"vac":true,"version":"7932396","steam_id":85568392925397856,"keywords":["nocrits","nodmgspread","payload","uncletopia"],"game_id":440,"stv_port":27066,"stv_name":"Uncletopia | Warsaw | 6 | Community | STV","players":null}]}