{"status":true,"message":"","result":[{"server_id":9,"name":"Uncletopia | Atlanta | 1 | All Maps","name_short":"atl-1","host":"atl-1.us.uncletopia.com","port":27015,"enabled":true,"region":"us-east","cc":"us","latitude":33.753746,"longitude":-84.38633,"reserved":0,"last_update":"0001-01-01T00:00:00Z","name_a2s":"Uncletopia | Atlanta | 1 | All Maps","protocol":17,"map":"koth_cascade","folder":"tf","game":"Team Fortress","app_id":440,"player_count":24,"max_players":24,"Bots":0,"server_type":"Dedicated","server_os":"Linux","password":true,"vac":true,"version":"7742253","steam_id":85568392924469982,"keywords":["cp","nocrits","nodmgspread","uncletopia"],"game_id":440,"stv_port":27016,"stv_name":"Uncletopia | Atlanta | 1 | All Maps | STV","players":[{"user_id":121,"name":"SL1T","steam_id":76561198069380992,"connected_time":275000000000,"state":"active","ping":67},{"user_id":82,"name":"noelle","steam_id":76561198386344068,"connected_time":2755000000000,"state":"active","ping":71},{"user_id":112,"name":"Giddy","steam_id":76561198103183739,"connected_time":935000000000,"state":"active","ping":69},{"user_id":83,"name":"Ostentatious Aviator","steam_id":76561199069599212,"connected_time":2755000000000,"state":"active","ping":144},{"user_id":117,"name":"Big Black Zack","steam_id":76561198079770247,"connected_time":348000000000,"state":"active","ping":43},{"user_id":97,"name":"Rurigade Towers","steam_id":76561198148598905,"connected_time":1738000000000,"state":"active","ping":94},{"user_id":61,"name":"mega giga payload hater!","steam_id":76561198039727616,"connected_time":4422000000000,"state":"active","ping":49},{"user_id":39,"name":"Ultra-X","steam_id":76561199201770653,"connected_time":6268000000000,"state":"active","ping":79},{"user_id":111,"name":"ShiYor","steam_id":76561199117260032,"connected_time":1032000000000,"state":"active","ping":124},{"user_id":115,"name":"StingraY","steam_id":76561197970502675,"connected_time":653000000000,"state":"active","ping":54},{"user_id":116,"name":"Chypp","steam_id":76561198134090388,"connected_time":520000000000,"state":"active","ping":55},{"user_id":105,"name":"Ghoul of Fool","steam_id":76561197973274983,"connected_time":1476000000000,"state":"active","ping":50},{"user_id":73,"name":"Tyler\u0026Fingers","steam_id":76561198085154485,"connected_time":4112000000000,"state":"active","ping":71},{"user_id":100,"name":"Jellyboi","steam_id":76561197995758438,"connected_time":1508000000000,"state":"active","ping":74},{"user_id":102,"name":"mxgic","steam_id":76561198354656195,"connected_time":1506000000000,"state":"active","ping":112},{"user_id":118,"name":"Cthulwho?","steam_id":76561198165550810,"connected_time":346000000000,"state":"active","ping":88},{"user_id":119,"name":"batheman63","steam_id":76561198881818552,"connected_time":294000000000,"state":"active","ping":76},{"user_id":120,"name":"TrocheDrewno","steam_id":76561198043662503,"connected_time":287000000000,"state":"active","ping":176},{"user_id":93,"name":"sosu","steam_id":76561198012675381,"connected_time":2062000000000,"state":"active","ping":60},{"user_id":122,"name":"ShotgunGuy06","steam_id":76561199071591465,"connected_time":235000000000,"state":"active","ping":82},{"user_id":88,"name":"Deno! 간부","steam_id":76561198041113335,"connected_time":2573000000000,"state":"active","ping":111},{"user_id":96,"name":"BOT Bot","steam_id":76561197995225620,"connected_time":1879000000000,"state":"active","ping":79},{"user_id":37,"name":"SuperJagops","steam_id":76561198034689716,"connected_time":6427000000000,"state":"active","ping":82},{"user_id":109,"name":"Quansen","steam_id":76561198151594550,"connected_time":1354000000000,"state":"active","ping":76}]},{"server_id":400,"name":"Uncletopia | Atlanta | 3 | Stopwatch Beta","name_short":"atl-3","host":"atl-1.us.uncletopia.com","port":27035,"enabled":true,"region":"us-east","cc":"us","latitude":33.753746,"longitude":-84.38633,"reserved":0,"last_update":"0001-01-01T00:00:00Z","name_a2s":"Uncletopia | Atlanta | 3 | Stopwatch Beta","protocol":17,"map":"pl_upward","folder":"tf","game":"Team Fortress","app_id":440,"player_count":1,"max_players":24,"Bots":0,"server_type":"Dedicated","server_os":"Linux","password":true,"vac":true,"version":"7742253","steam_id":85568392924515187,"keywords":["nocrits","nodmgspread","payload","uncletopia"],"game_id":440,"stv_port":27036,"stv_name":"Uncletopia | Atlanta | 3 | Stopwatch Beta | STV","players":[{"user_id":3,"name":"The contagious plague of taco's","steam_id":76561198883736130,"connected_time":28000000000,"state":"active","ping":74}]},{"server_id":401,"name":"Uncletopia | Atlanta | 4 | No Payload","name_short":"atl-4","host":"atl-1.us.uncletopia.com","port":27045,"enabled":true,"region":"us-east","cc":"us","latitude":33.753746,"longitude":-84.38633,"reserved":0,"last_update":"0001-01-01T00:00:00Z","name_a2s":"Uncletopia | Atlanta | 4 | No Payload","protocol":17,"map":"pl_pier","folder":"tf","game":"Team Fortress","app_id":440,"player_count":0,"max_players":24,"Bots":0,"server_type":"Dedicated","server_os":"Linux","password":true,"vac":true,"version":"7723704","steam_id":85568392924515188,"keywords":["nocrits","nodmgspread","payload","uncletopia"],"game_id":440,"stv_port":27046,"stv_name":"Uncletopia | Atlanta | 4 | No Payload | STV","players":null},{"server_id":2,"name":"Uncletopia | Chicago | 1 | All Maps","name_short":"chi-1","host":"chi-1.us.uncletopia.com","port":27015,"enabled":true,"region":"us-central","cc":"us","latitude":41.881832,"longitude":-87.62318,"reserved":0,"last_update":"0001-01-01T00:00:00Z","name_a2s":"Uncletopia | Chicago | 1 | All Maps","protocol":17,"map":"pl_barnblitz","folder":"tf","game":"Team Fortress","app_id":440,"player_count":24,"max_players":24,"Bots":0,"server_type":"Dedicated","server_os":"Linux","password":true,"vac":true,"version":"7742253","steam_id":85568392924469984,"keywords":["nocrits","nodmgspread","payload","uncletopia"],"game_id":440,"stv_port":27016,"stv_name":"Uncletopia | Chicago | 1 | All Maps | STV","players":[{"user_id":67,"name":"Schlurp","steam_id":76561198004467697,"connected_time":1991000000000,"state":"active","ping":69},{"user_id":75,"name":"Wormy Getting Coal","steam_id":76561198054539200,"connected_time":1417000000000,"state":"active","ping":89},{"user_id":60,"name":"HAT-WEARING™ Maggot Gamer Cat","steam_id":76561197973992705,"connected_time":2255000000000,"state":"active","ping":97},{"user_id":79,"name":"derz","steam_id":76561198010742216,"connected_time":1220000000000,"state":"active","ping":48},{"user_id":39,"name":"JA","steam_id":76561198308183330,"connected_time":3953000000000,"state":"active","ping":58},{"user_id":88,"name":"spherewithahat","steam_id":76561199122192660,"connected_time":144000000000,"state":"active","ping":63},{"user_id":80,"name":"Michaelpc1","steam_id":76561198088365519,"connected_time":1036000000000,"state":"active","ping":72},{"user_id":90,"name":"Bubbamanme","steam_id":76561198119778504,"connected_time":124000000000,"state":"active","ping":100},{"user_id":89,"name":"Quentin","steam_id":76561198032941413,"connected_time":143000000000,"state":"active","ping":69},{"user_id":82,"name":"Stew Eater","steam_id":76561198978307159,"connected_time":975000000000,"state":"active","ping":63},{"user_id":92,"name":"Yengozi","steam_id":76561198448764748,"connected_time":89000000000,"state":"active","ping":71},{"user_id":40,"name":"Winter the Witchie","steam_id":76561198151971178,"connected_time":3947000000000,"state":"active","ping":55},{"user_id":50,"name":"Veirū Viseris","steam_id":76561197989857176,"connected_time":3422000000000,"state":"active","ping":160},{"user_id":91,"name":"makaio","steam_id":76561198067631696,"connected_time":113000000000,"state":"active","ping":79},{"user_id":69,"name":"Dank","steam_id":76561198157983180,"connected_time":1929000000000,"state":"active","ping":60},{"user_id":25,"name":"earthtraveler413","steam_id":76561198865139926,"connected_time":4567000000000,"state":"active","ping":99},{"user_id":71,"name":"crit","steam_id":76561198067529503,"connected_time":1760000000000,"state":"active","ping":62},{"user_id":81,"name":"The Caretaker","steam_id":76561198125241411,"connected_time":1015000000000,"state":"active","ping":104},{"user_id":61,"name":"claire","steam_id":76561198127525888,"connected_time":2253000000000,"state":"active","ping":72},{"user_id":62,"name":"ShinyOrion (She/Her)","steam_id":76561198408378321,"connected_time":2135000000000,"state":"active","ping":76},{"user_id":34,"name":"gordon freeman christmas","steam_id":76561198367735460,"connected_time":4415000000000,"state":"active","ping":75},{"user_id":84,"name":"Very Small Giant","steam_id":76561199187337967,"connected_time":853000000000,"state":"active","ping":64},{"user_id":74,"name":"Rappitor","steam_id":76561198105613110,"connected_time":1449000000000,"state":"active","ping":60},{"user_id":86,"name":"Hell's Reindeer","steam_id":76561198065310364,"connected_time":527000000000,"state":"active","ping":55}]},{"server_id":106,"name":"Uncletopia | Chicago | 2 | All Maps","name_short":"chi-2","host":"chi-1.us.uncletopia.com","port":27025,"enabled":true,"region":"us-central","cc":"us","latitude":41.881832,"longitude":-87.62318,"reserved":0,"last_update":"0001-01-01T00:00:00Z","name_a2s":"Uncletopia | Chicago | 2 | All Maps","protocol":17,"map":"pl_upward","folder":"tf","game":"Team Fortress","app_id":440,"player_count":24,"max_players":24,"Bots":0,"server_type":"Dedicated","server_os":"Linux","password":true,"vac":true,"version":"7742253","steam_id":85568392924469985,"keywords":["nocrits","nodmgspread","payload","uncletopia"],"game_id":440,"stv_port":27026,"stv_name":"Uncletopia | Chicago | 2 | All Maps | STV","players":[{"user_id":56,"name":"Amogus The Sussy Baka ඞ","steam_id":76561198008577961,"connected_time":527000000000,"state":"active","ping":70},{"user_id":61,"name":"KOOSTIFF","steam_id":76561198053727976,"connected_time":82000000000,"state":"active","ping":65},{"user_id":41,"name":"Nuggets","steam_id":76561198267826226,"connected_time":1963000000000,"state":"active","ping":97},{"user_id":8,"name":"Myagic","steam_id":76561198123746755,"connected_time":3580000000000,"state":"active","ping":60},{"user_id":48,"name":"neonblack","steam_id":76561198060316801,"connected_time":1070000000000,"state":"active","ping":74},{"user_id":57,"name":"Jesus","steam_id":76561198018890911,"connected_time":244000000000,"state":"active","ping":78},{"user_id":44,"name":"8killernguyen8™","steam_id":76561198108367803,"connected_time":1606000000000,"state":"active","ping":75},{"user_id":45,"name":"CoconutRice","steam_id":76561198114909164,"connected_time":1361000000000,"state":"active","ping":52},{"user_id":49,"name":"BRONYMINT","steam_id":76561198155185583,"connected_time":1070000000000,"state":"active","ping":54},{"user_id":58,"name":"Pep Seeman","steam_id":76561198038393007,"connected_time":242000000000,"state":"active","ping":48},{"user_id":37,"name":"Anxious Nerd Bird","steam_id":76561198112178602,"connected_time":2217000000000,"state":"active","ping":110},{"user_id":36,"name":"Im_The_Lynx_202","steam_id":76561198322363286,"connected_time":2244000000000,"state":"active","ping":77},{"user_id":19,"name":"The Zoidberg Medic","steam_id":76561197994285087,"connected_time":3069000000000,"state":"active","ping":60},{"user_id":20,"name":"Dr. Enforcicle (real)","steam_id":76561198964471859,"connected_time":3014000000000,"state":"active","ping":69},{"user_id":21,"name":"James","steam_id":76561198081313916,"connected_time":2962000000000,"state":"active","ping":74},{"user_id":32,"name":"griptape","steam_id":76561198078415931,"connected_time":2650000000000,"state":"active","ping":67},{"user_id":23,"name":"Existential Crisis","steam_id":76561198026296319,"connected_time":2935000000000,"state":"active","ping":54},{"user_id":24,"name":"Super Noob","steam_id":76561199179611350,"connected_time":2909000000000,"state":"active","ping":63},{"user_id":25,"name":"Rocco__","steam_id":76561197992824074,"connected_time":2864000000000,"state":"active","ping":73},{"user_id":59,"name":"Defender0070","steam_id":76561199089678158,"connected_time":152000000000,"state":"active","ping":63},{"user_id":40,"name":"I Have No Skill And I Must Frag","steam_id":76561198326052355,"connected_time":2121000000000,"state":"active","ping":152},{"user_id":60,"name":"Loogus","steam_id":76561198811561721,"connected_time":138000000000,"state":"active","ping":91},{"user_id":34,"name":"Sup","steam_id":76561198384763147,"connected_time":2388000000000,"state":"active","ping":160},{"user_id":54,"name":"fiber1","steam_id":76561198095518320,"connected_time":547000000000,"state":"active","ping":87}]},{"server_id":402,"name":"Uncletopia | Chicago | 3 | All Maps","name_short":"chi-3","host":"chi-1.us.uncletopia.com","port":27035,"enabled":true,"region":"us-central","cc":"us","latitude":41.881832,"longitude":-87.62318,"reserved":0,"last_update":"0001-01-01T00:00:00Z","name_a2s":"Uncletopia | Chicago | 3 | All Maps","protocol":17,"map":"pl_badwater","folder":"tf","game":"Team Fortress","app_id":440,"player_count":0,"max_players":24,"Bots":0,"server_type":"Dedicated","server_os":"Linux","password":true,"vac":true,"version":"7742253","steam_id":85568392924515191,"keywords":["nocrits","nodmgspread","payload","uncletopia"],"game_id":440,"stv_port":27036,"stv_name":"Uncletopia | Chicago | 3 | All Maps | STV","players":null},{"server_id":403,"name":"Uncletopia | Chicago | 4 | All Maps","name_short":"chi-4","host":"chi-1.us.uncletopia.com","port":27045,"enabled":true,"region":"us-central","cc":"us","latitude":41.881832,"longitude":-87.62318,"reserved":0,"last_update":"0001-01-01T00:00:00Z","name_a2s":"Uncletopia | Chicago | 4 | All Maps","protocol":17,"map":"cp_process_final","folder":"tf","game":"Team Fortress","app_id":440,"player_count":0,"max_players":24,"Bots":0,"server_type":"Dedicated","server_os":"Linux","password":true,"vac":true,"version":"7742253","steam_id":85568392924515193,"keywords":["cp","nocrits","nodmgspread","uncletopia"],"game_id":440,"stv_port":27046,"stv_name":"Uncletopia | Chicago | 4 | All Maps | STV","players":null},{"server_id":36,"name":"Uncletopia | Chicago | 5 | All Maps","name_short":"chi-5","host":"chi-2.us.uncletopia.com","port":27015,"enabled":true,"region":"us-central","cc":"us","latitude":41.881832,"longitude":-87.62318,"reserved":0,"last_update":"0001-01-01T00:00:00Z","name_a2s":"Uncletopia | Chicago | 5 | All Maps","protocol":17,"map":"koth_highpass","folder":"tf","game":"Team Fortress","app_id":440,"player_count":0,"max_players":24,"Bots":0,"server_type":"Dedicated","server_os":"Linux","password":true,"vac":true,"version":"7742253","steam_id":85568392924866362,"keywords":["cp","nocrits","nodmgspread","uncletopia"],"game_id":440,"stv_port":27016,"stv_name":"Uncletopia | Chicago | 5 | All Maps | STV","players":null},{"server_id":37,"name":"Uncletopia | Chicago | 6 | All Maps","name_short":"chi-6","host":"chi-2.us.uncletopia.com","port":27025,"enabled":true,"region":"us-central","cc":"us","latitude":41.881832,"longitude":-87.62318,"reserved":0,"last_update":"0001-01-01T00:00:00Z","name_a2s":"Uncletopia | Chicago | 6 | All Maps","protocol":17,"map":"pl_frontier_final","folder":"tf","game":"Team Fortress","app_id":440,"player_count":0,"max_players":24,"Bots":0,"server_type":"Dedicated","server_os":"Linux","password":true,"vac":true,"version":"7742253","steam_id":85568392924866363,"keywords":["nocrits","nodmgspread","payload","uncletopia"],"game_id":440,"stv_port":27026,"stv_name":"Uncletopia | Chicago | 6 | All Maps | STV","players":null},{"server_id":38,"name":"Uncletopia | Chicago | 7 | Stopwatch Beta","name_short":"chi-7","host":"chi-2.us.uncletopia.com","port":27035,"enabled":true,"region":"us-central","cc":"us","latitude":41.881832,"longitude":-87.62318,"reserved":0,"last_update":"0001-01-01T00:00:00Z","name_a2s":"Uncletopia | Chicago | 7 | Stopwatch Beta","protocol":17,"map":"cp_altitude","folder":"tf","game":"Team Fortress","app_id":440,"player_count":0,"max_players":24,"Bots":0,"server_type":"Dedicated","server_os":"Linux","password":true,"vac":true,"version":"7742253","steam_id":85568392924866364,"keywords":["cp","nocrits","nodmgspread","uncletopia"],"game_id":440,"stv_port":27036,"stv_name":"Uncletopia | Chicago | 7 | Stopwatch Beta | STV","players":null},{"server_id":39,"name":"Uncletopia | Chicago | 8 | Community","name_short":"chi-8","host":"chi-2.us.uncletopia.com","port":27045,"enabled":true,"region":"us-central","cc":"us","latitude":41.881832,"longitude":-87.62318,"reserved":0,"last_update":"0001-01-01T00:00:00Z","name_a2s":"Uncletopia | Chicago | 8 | Community","protocol":17,"map":"koth_cascade","folder":"tf","game":"Team Fortress","app_id":440,"player_count":0,"max_players":24,"Bots":0,"server_type":"Dedicated","server_os":"Linux","password":true,"vac":true,"version":"7742253","steam_id":85568392924866365,"keywords":["cp","nocrits","nodmgspread","uncletopia"],"game_id":440,"stv_port":27046,"stv_name":"Uncletopia | Chicago | 8 | Community | STV","players":null},{"server_id":8,"name":"Uncletopia | Dallas | 1 | All Maps","name_short":"dal-1","host":"dal-1.us.uncletopia.com","port":27015,"enabled":true,"region":"us-central","cc":"us","latitude":32.779167,"longitude":-96.80889,"reserved":0,"last_update":"0001-01-01T00:00:00Z","name_a2s":"Uncletopia | Dallas | 1 | All Maps","protocol":17,"map":"koth_viaduct","folder":"tf","game":"Team Fortress","app_id":440,"player_count":0,"max_players":24,"Bots":0,"server_type":"Dedicated","server_os":"Linux","password":true,"vac":true,"version":"7742253","steam_id":85568392924469986,"keywords":["cp","nocrits","nodmgspread","uncletopia"],"game_id":440,"stv_port":27016,"stv_name":"Uncletopia | Dallas | 1 | All Maps | STV","players":null},{"server_id":108,"name":"Uncletopia | Dallas | 2 | All Maps","name_short":"dal-2","host":"dal-1.us.uncletopia.com","port":27025,"enabled":true,"region":"us-central","cc":"us","latitude":32.779167,"longitude":-96.80889,"reserved":0,"last_update":"0001-01-01T00:00:00Z","name_a2s":"Uncletopia | Dallas | 2 | All Maps","protocol":17,"map":"pl_barnblitz","folder":"tf","game":"Team Fortress","app_id":440,"player_count":0,"max_players":24,"Bots":0,"server_type":"Dedicated","server_os":"Linux","password":true,"vac":true,"version":"7742253","steam_id":85568392924469988,"keywords":["nocrits","nodmgspread","payload","uncletopia"],"game_id":440,"stv_port":27026,"stv_name":"Uncletopia | Dallas | 2 | All Maps | STV","players":null},{"server_id":5,"name":"Uncletopia | Frankfurt | 1 | All Maps","name_short":"frk-1","host":"frk-1.de.uncletopia.com","port":27015,"enabled":true,"region":"eu","cc":"de","latitude":50.110924,"longitude":8.682127,"reserved":0,"last_update":"0001-01-01T00:00:00Z","name_a2s":"Uncletopia | Frankfurt | 1 | All Maps","protocol":17,"map":"pl_borneo","folder":"tf","game":"Team Fortress","app_id":440,"player_count":18,"max_players":24,"Bots":0,"server_type":"Dedicated","server_os":"Linux","password":true,"vac":true,"version":"7742253","steam_id":85568392924469989,"keywords":["nocrits","nodmgspread","payload","uncletopia"],"game_id":440,"stv_port":27016,"stv_name":"Uncletopia | Frankfurt | 1 | All Maps | STV","players":[{"user_id":169,"name":"Belgorodec","steam_id":76561199383879505,"connected_time":215000000000,"state":"active","ping":96},{"user_id":164,"name":"AntiVolt","steam_id":76561198108768295,"connected_time":970000000000,"state":"active","ping":73},{"user_id":170,"name":"citronous","steam_id":76561198093290934,"connected_time":211000000000,"state":"active","ping":53},{"user_id":171,"name":"Tea","steam_id":76561198799243030,"connected_time":208000000000,"state":"active","ping":61},{"user_id":172,"name":"loop zoop","steam_id":76561198969373800,"connected_time":84000000000,"state":"active","ping":78},{"user_id":151,"name":"Thorfinn","steam_id":76561198813640500,"connected_time":1738000000000,"state":"active","ping":53},{"user_id":150,"name":"Soap","steam_id":76561198074619142,"connected_time":1787000000000,"state":"active","ping":160},{"user_id":173,"name":"iddoros","steam_id":76561199202283283,"connected_time":16000000000,"state":"spawning","ping":272},{"user_id":174,"name":"Sprayus","steam_id":76561198399216417,"connected_time":1000000000,"state":"spawning","ping":108},{"user_id":168,"name":"Lillen I ちび","steam_id":76561198103877803,"connected_time":572000000000,"state":"active","ping":65},{"user_id":133,"name":"MAJAX","steam_id":76561198254828632,"connected_time":4136000000000,"state":"active","ping":65},{"user_id":132,"name":"Glue Scent Enjoyer","steam_id":76561198120949216,"connected_time":4213000000000,"state":"active","ping":56},{"user_id":158,"name":"Pineapple (real)","steam_id":76561199203187933,"connected_time":1557000000000,"state":"active","ping":101},{"user_id":65,"name":"hushhx","steam_id":76561198216200092,"connected_time":7238000000000,"state":"active","ping":61},{"user_id":157,"name":"Dapikus","steam_id":76561198086291417,"connected_time":1571000000000,"state":"active","ping":48},{"user_id":165,"name":"Duarte™","steam_id":76561198131456324,"connected_time":965000000000,"state":"active","ping":84},{"user_id":139,"name":"kamekame","steam_id":76561198047108054,"connected_time":3311000000000,"state":"active","ping":92},{"user_id":142,"name":"Yellow Dice","steam_id":76561198036388377,"connected_time":2989000000000,"state":"active","ping":107}]},{"server_id":110,"name":"Uncletopia | Frankfurt | 2 | All Maps","name_short":"frk-2","host":"frk-1.de.uncletopia.com","port":27025,"enabled":true,"region":"eu","cc":"de","latitude":50.110924,"longitude":8.682127,"reserved":0,"last_update":"0001-01-01T00:00:00Z","name_a2s":"Uncletopia | Frankfurt | 2 | All Maps","protocol":17,"map":"pl_pier","folder":"tf","game":"Team Fortress","app_id":440,"player_count":0,"max_players":24,"Bots":0,"server_type":"Dedicated","server_os":"Linux","password":true,"vac":true,"version":"7742253","steam_id":85568392924469990,"keywords":["nocrits","nodmgspread","payload","uncletopia"],"game_id":440,"stv_port":27026,"stv_name":"Uncletopia | Frankfurt | 2 | All Maps | STV","players":null},{"server_id":308,"name":"Uncletopia | Frankfurt | 3 | All Maps","name_short":"frk-3","host":"frk-1.de.uncletopia.com","port":27035,"enabled":true,"region":"eu","cc":"de","latitude":50.110924,"longitude":8.682127,"reserved":0,"last_update":"0001-01-01T00:00:00Z","name_a2s":"Uncletopia | Frankfurt | 3 | All Maps","protocol":17,"map":"pl_snowycoast","folder":"tf","game":"Team Fortress","app_id":440,"player_count":24,"max_players":24,"Bots":0,"server_type":"Dedicated","server_os":"Linux","password":true,"vac":true,"version":"7742253","steam_id":85568392924504274,"keywords":["nocrits","nodmgspread","payload","uncletopia"],"game_id":440,"stv_port":27036,"stv_name":"Uncletopia | Frankfurt | 3 | All Maps | STV","players":[{"user_id":267,"name":"vilajur","steam_id":76561198196395193,"connected_time":1081000000000,"state":"active","ping":73},{"user_id":237,"name":"Senator Armstrong","steam_id":76561198984346408,"connected_time":3247000000000,"state":"active","ping":69},{"user_id":268,"name":"silicon based life form","steam_id":76561199127121346,"connected_time":1080000000000,"state":"active","ping":69},{"user_id":214,"name":"Cosmetic brain","steam_id":76561198055936410,"connected_time":4406000000000,"state":"active","ping":87},{"user_id":246,"name":"Proto-arc","steam_id":76561198012776747,"connected_time":2531000000000,"state":"active","ping":61},{"user_id":269,"name":"Brinnck","steam_id":76561198340776600,"connected_time":1027000000000,"state":"active","ping":60},{"user_id":258,"name":"Light601","steam_id":76561198134998492,"connected_time":1800000000000,"state":"active","ping":85},{"user_id":270,"name":"presidentialAIDS","steam_id":76561199257284077,"connected_time":1020000000000,"state":"active","ping":136},{"user_id":247,"name":"the scunge","steam_id":76561198089201193,"connected_time":2513000000000,"state":"active","ping":58},{"user_id":170,"name":"powerbottom","steam_id":76561198049405872,"connected_time":8205000000000,"state":"active","ping":45},{"user_id":257,"name":"gamer man","steam_id":76561198436817109,"connected_time":1867000000000,"state":"active","ping":62},{"user_id":271,"name":"RAINZ","steam_id":76561198335370929,"connected_time":997000000000,"state":"active","ping":124},{"user_id":280,"name":"Iva","steam_id":76561198254963150,"connected_time":471000000000,"state":"active","ping":56},{"user_id":272,"name":"SealDealer","steam_id":76561198310852145,"connected_time":994000000000,"state":"active","ping":69},{"user_id":273,"name":"Harpenden, Harpenden, Harpenden","steam_id":76561198118138546,"connected_time":986000000000,"state":"active","ping":59},{"user_id":250,"name":"Mclovin567","steam_id":76561198799105302,"connected_time":2494000000000,"state":"active","ping":56},{"user_id":266,"name":"104.3 kg/m² gaming","steam_id":76561198267411149,"connected_time":1170000000000,"state":"active","ping":45},{"user_id":282,"name":"Ocelot9610","steam_id":76561199227216384,"connected_time":319000000000,"state":"active","ping":72},{"user_id":261,"name":"azzy","steam_id":76561198061293740,"connected_time":1599000000000,"state":"active","ping":82},{"user_id":171,"name":"mountaindrill","steam_id":76561198864327475,"connected_time":8096000000000,"state":"active","ping":47},{"user_id":265,"name":"pummed","steam_id":76561198827108475,"connected_time":1301000000000,"state":"active","ping":66},{"user_id":281,"name":"stonebum","steam_id":76561198057004606,"connected_time":440000000000,"state":"active","ping":60},{"user_id":253,"name":"Raivop","steam_id":76561197980854307,"connected_time":2409000000000,"state":"active","ping":109},{"user_id":240,"name":"YeetusFeetus","steam_id":76561199043598948,"connected_time":3170000000000,"state":"active","ping":110}]},{"server_id":309,"name":"Uncletopia | Frankfurt | 4 | All Maps","name_short":"frk-4","host":"frk-1.de.uncletopia.com","port":27045,"enabled":true,"region":"eu","cc":"de","latitude":50.110924,"longitude":8.682127,"reserved":0,"last_update":"0001-01-01T00:00:00Z","name_a2s":"Uncletopia | Frankfurt | 4 | All Maps","protocol":17,"map":"koth_cascade","folder":"tf","game":"Team Fortress","app_id":440,"player_count":23,"max_players":24,"Bots":0,"server_type":"Dedicated","server_os":"Linux","password":true,"vac":true,"version":"7742253","steam_id":85568392924504275,"keywords":["cp","nocrits","nodmgspread","uncletopia"],"game_id":440,"stv_port":27046,"stv_name":"Uncletopia | Frankfurt | 4 | All Maps | STV","players":[{"user_id":367,"name":"é_é","steam_id":76561198066355802,"connected_time":18000000000,"state":"active","ping":57},{"user_id":343,"name":"Tusho","steam_id":76561198115447383,"connected_time":928000000000,"state":"active","ping":74},{"user_id":345,"name":"tealoverr.190","steam_id":76561199028497703,"connected_time":891000000000,"state":"active","ping":100},{"user_id":298,"name":"fmdi","steam_id":76561199433879329,"connected_time":4068000000000,"state":"active","ping":72},{"user_id":341,"name":"Cousin Balki","steam_id":76561198070496395,"connected_time":1021000000000,"state":"active","ping":157},{"user_id":250,"name":"ducksattack","steam_id":76561198074706076,"connected_time":6462000000000,"state":"active","ping":69},{"user_id":368,"name":"Coyote29","steam_id":76561198344502070,"connected_time":4000000000,"state":"spawning","ping":86},{"user_id":360,"name":"Borowka","steam_id":76561199095708127,"connected_time":651000000000,"state":"active","ping":84},{"user_id":322,"name":"Happy new light year!","steam_id":76561198352926998,"connected_time":2967000000000,"state":"active","ping":90},{"user_id":347,"name":"PerskuleBenener","steam_id":76561198156899375,"connected_time":836000000000,"state":"active","ping":85},{"user_id":334,"name":"Oupa [ᴙ-μ]","steam_id":76561198418538887,"connected_time":2062000000000,"state":"active","ping":90},{"user_id":355,"name":"Valioholi","steam_id":76561199206511274,"connected_time":786000000000,"state":"active","ping":106},{"user_id":364,"name":"DirtyFred","steam_id":76561198031814950,"connected_time":158000000000,"state":"active","ping":61},{"user_id":230,"name":"16s","steam_id":76561199118850564,"connected_time":8474000000000,"state":"active","ping":118},{"user_id":361,"name":"Archyro","steam_id":76561198862832918,"connected_time":580000000000,"state":"active","ping":80},{"user_id":358,"name":"Alice can't hit pipes","steam_id":76561198052410860,"connected_time":699000000000,"state":"active","ping":136},{"user_id":356,"name":"Malik794","steam_id":76561198967164437,"connected_time":737000000000,"state":"active","ping":104},{"user_id":369,"name":"muza♥","steam_id":76561198220183377,"connected_time":1000000000,"state":"spawning","ping":66},{"user_id":331,"name":"☩ Knightz ☩","steam_id":76561198040936414,"connected_time":2328000000000,"state":"active","ping":114},{"user_id":354,"name":"timothy mcgee","steam_id":76561198131670413,"connected_time":807000000000,"state":"active","ping":59},{"user_id":357,"name":"GIGANIGGA","steam_id":76561198999865145,"connected_time":727000000000,"state":"active","ping":69},{"user_id":359,"name":"Wang HaoSun (王浩孙)","steam_id":76561198112108109,"connected_time":689000000000,"state":"active","ping":66},{"user_id":342,"name":"Dubious Little Creature","steam_id":76561198167986695,"connected_time":949000000000,"state":"active","ping":50}]},{"server_id":310,"name":"Uncletopia | Frankfurt | 5 | All Maps","name_short":"frk-5","host":"frk-1.de.uncletopia.com","port":27055,"enabled":true,"region":"eu","cc":"de","latitude":50.110924,"longitude":8.682127,"reserved":0,"last_update":"0001-01-01T00:00:00Z","name_a2s":"Uncletopia | Frankfurt | 5 | All Maps","protocol":17,"map":"koth_viaduct","folder":"tf","game":"Team Fortress","app_id":440,"player_count":0,"max_players":24,"Bots":0,"server_type":"Dedicated","server_os":"Linux","password":true,"vac":true,"version":"7742253","steam_id":85568392924504277,"keywords":["cp","nocrits","nodmgspread","uncletopia"],"game_id":440,"stv_port":27056,"stv_name":"Uncletopia | Frankfurt | 5 | All Maps | STV","players":null},{"server_id":311,"name":"Uncletopia | Frankfurt | 6 | All Maps","name_short":"frk-6","host":"frk-1.de.uncletopia.com","port":27065,"enabled":true,"region":"eu","cc":"de","latitude":50.110924,"longitude":8.682127,"reserved":0,"last_update":"0001-01-01T00:00:00Z","name_a2s":"Uncletopia | Frankfurt | 6 | All Maps","protocol":17,"map":"cp_altitude","folder":"tf","game":"Team Fortress","app_id":440,"player_count":17,"max_players":24,"Bots":0,"server_type":"Dedicated","server_os":"Linux","password":true,"vac":true,"version":"7742253","steam_id":85568392924504278,"keywords":["cp","nocrits","nodmgspread","uncletopia"],"game_id":440,"stv_port":27066,"stv_name":"Uncletopia | Frankfurt | 6 | All Maps | STV","players":[{"user_id":267,"name":"Infantile Pillock","steam_id":76561198283851362,"connected_time":124000000000,"state":"active","ping":60},{"user_id":265,"name":"wootabs","steam_id":76561198831766743,"connected_time":230000000000,"state":"active","ping":73},{"user_id":239,"name":"LeaveNoTrace","steam_id":76561199095771331,"connected_time":1855000000000,"state":"active","ping":145},{"user_id":222,"name":"Wüstenfuchs","steam_id":76561198453885708,"connected_time":3199000000000,"state":"active","ping":57},{"user_id":269,"name":"Badrock 1","steam_id":76561198368513115,"connected_time":94000000000,"state":"active","ping":196},{"user_id":240,"name":".::[SerafeTTiN]::.","steam_id":76561198009471724,"connected_time":1841000000000,"state":"active","ping":89},{"user_id":263,"name":"Duck_gaming","steam_id":76561198841587079,"connected_time":370000000000,"state":"active","ping":55},{"user_id":249,"name":"cosmetical","steam_id":76561198444036574,"connected_time":1121000000000,"state":"active","ping":68},{"user_id":260,"name":"zoro","steam_id":76561198083657017,"connected_time":544000000000,"state":"active","ping":97},{"user_id":169,"name":"Bohelor","steam_id":76561198135329948,"connected_time":6225000000000,"state":"active","ping":86},{"user_id":255,"name":"Nicaea Sera","steam_id":76561198805876471,"connected_time":821000000000,"state":"active","ping":89},{"user_id":252,"name":"Miton","steam_id":76561197970323209,"connected_time":1103000000000,"state":"active","ping":80},{"user_id":243,"name":"Radical priest","steam_id":76561198110470565,"connected_time":1565000000000,"state":"active","ping":97},{"user_id":266,"name":"chachiply","steam_id":76561198316355509,"connected_time":165000000000,"state":"active","ping":66},{"user_id":254,"name":"Karol i Milena","steam_id":76561198291575048,"connected_time":1087000000000,"state":"active","ping":60},{"user_id":258,"name":"matexi","steam_id":76561199261216289,"connected_time":629000000000,"state":"active","ping":68},{"user_id":245,"name":"Bromoneto","steam_id":76561198876695014,"connected_time":1393000000000,"state":"active","ping":86}]},{"server_id":23,"name":"Uncletopia | Frankfurt | 7 | Stopwatch Beta","name_short":"frk-7","host":"frk-1.de.uncletopia.com","port":27075,"enabled":true,"region":"eu","cc":"de","latitude":50.110924,"longitude":8.682127,"reserved":0,"last_update":"0001-01-01T00:00:00Z","name_a2s":"Uncletopia | Frankfurt | 7 | Stopwatch Beta","protocol":17,"map":"koth_lakeside_final","folder":"tf","game":"Team Fortress","app_id":440,"player_count":7,"max_players":24,"Bots":0,"server_type":"Dedicated","server_os":"Linux","password":true,"vac":true,"version":"7742253","steam_id":85568392924742827,"keywords":["cp","nocrits","nodmgspread","uncletopia"],"game_id":440,"stv_port":27076,"stv_name":"Uncletopia | Frankfurt | 7 | Stopwatch Beta | STV","players":[{"user_id":32,"name":"Pan Pan","steam_id":76561199074670515,"connected_time":4308000000000,"state":"active","ping":95},{"user_id":40,"name":"SomeRandomPerson (f2p)","steam_id":76561198977045933,"connected_time":2282000000000,"state":"active","ping":155},{"user_id":41,"name":"val","steam_id":76561198324316160,"connected_time":1381000000000,"state":"active","ping":62},{"user_id":47,"name":"LVNAR3xp","steam_id":76561199405413008,"connected_time":859000000000,"state":"active","ping":157},{"user_id":45,"name":"CloudyCan","steam_id":76561199175295836,"connected_time":1157000000000,"state":"active","ping":60},{"user_id":49,"name":"TheCrazedSpoon","steam_id":76561199089174692,"connected_time":836000000000,"state":"active","ping":157},{"user_id":50,"name":"Alex","steam_id":76561199108180200,"connected_time":769000000000,"state":"active","ping":77}]},{"server_id":24,"name":"Uncletopia | Frankfurt | 8 | Community","name_short":"frk-8","host":"frk-1.de.uncletopia.com","port":27085,"enabled":true,"region":"eu","cc":"de","latitude":50.110924,"longitude":8.682127,"reserved":0,"last_update":"0001-01-01T00:00:00Z","name_a2s":"Uncletopia | Frankfurt | 8 | Community","protocol":17,"map":"workshop/koth_product_final.ugc454272353","folder":"tf","game":"Team Fortress","app_id":440,"player_count":0,"max_players":24,"Bots":0,"server_type":"Dedicated","server_os":"Linux","password":true,"vac":true,"version":"7742253","steam_id":85568392924742828,"keywords":["cp","nocrits","nodmgspread","uncletopia"],"game_id":440,"stv_port":27086,"stv_name":"Uncletopia | Frankfurt | 8 | Community | STV","players":null},{"server_id":202,"name":"Uncletopia | Hong Kong | 1 | All Maps","name_short":"hgk-1","host":"hgk-1.hk.uncletopia.com","port":27015,"enabled":true,"region":"asia","cc":"hk","latitude":22.302711,"longitude":114.177216,"reserved":0,"last_update":"0001-01-01T00:00:00Z","name_a2s":"Uncletopia | Hong Kong | 1 | All Maps","protocol":17,"map":"pl_barnblitz","folder":"tf","game":"Team Fortress","app_id":440,"player_count":24,"max_players":24,"Bots":0,"server_type":"Dedicated","server_os":"Linux","password":true,"vac":true,"version":"7742253","steam_id":85568392924494504,"keywords":["nocrits","nodmgspread","payload","uncletopia"],"game_id":440,"stv_port":27016,"stv_name":"Uncletopia | Hong Kong | 1 | All Maps | STV","players":[{"user_id":758,"name":"u mad milk","steam_id":76561199146847474,"connected_time":5101000000000,"state":"active","ping":50},{"user_id":766,"name":"dunkleshreken","steam_id":76561198044875028,"connected_time":3525000000000,"state":"active","ping":104},{"user_id":726,"name":"쿠키","steam_id":76561197997220367,"connected_time":6683000000000,"state":"active","ping":46},{"user_id":799,"name":"talkoo","steam_id":76561198160004007,"connected_time":363000000000,"state":"active","ping":120},{"user_id":786,"name":"j_rex","steam_id":76561198132473926,"connected_time":2014000000000,"state":"active","ping":67},{"user_id":801,"name":"Skeptikal01","steam_id":76561199064694137,"connected_time":283000000000,"state":"active","ping":102},{"user_id":717,"name":"aisha","steam_id":76561198132172320,"connected_time":8427000000000,"state":"active","ping":87},{"user_id":734,"name":"Noyour","steam_id":76561198323259830,"connected_time":6370000000000,"state":"active","ping":117},{"user_id":780,"name":"母の肉団子","steam_id":76561198069561896,"connected_time":2453000000000,"state":"active","ping":40},{"user_id":753,"name":"elite anarchest","steam_id":76561198411982822,"connected_time":5449000000000,"state":"active","ping":60},{"user_id":746,"name":"ZUdolph, the Robo-reindeer","steam_id":76561198179320563,"connected_time":5922000000000,"state":"active","ping":77},{"user_id":789,"name":"Talkk More","steam_id":76561198305424433,"connected_time":1768000000000,"state":"active","ping":100},{"user_id":747,"name":"egg","steam_id":76561199229248492,"connected_time":5890000000000,"state":"active","ping":118},{"user_id":790,"name":"Michael Scott","steam_id":76561198023082794,"connected_time":1672000000000,"state":"active","ping":51},{"user_id":787,"name":"no vc no c","steam_id":76561197989503095,"connected_time":2011000000000,"state":"active","ping":99},{"user_id":765,"name":"ghuzik","steam_id":76561199107596818,"connected_time":3539000000000,"state":"active","ping":112},{"user_id":720,"name":"Cheesey","steam_id":76561198975684137,"connected_time":7912000000000,"state":"active","ping":91},{"user_id":795,"name":"Rudy","steam_id":76561198089227368,"connected_time":848000000000,"state":"active","ping":367},{"user_id":794,"name":"Merp","steam_id":76561198093179826,"connected_time":855000000000,"state":"active","ping":47},{"user_id":712,"name":"LOLGAL","steam_id":76561198347418251,"connected_time":8683000000000,"state":"active","ping":67},{"user_id":736,"name":"voot","steam_id":76561198041936377,"connected_time":6369000000000,"state":"active","ping":110},{"user_id":643,"name":"Kurtie","steam_id":76561198144737876,"connected_time":16370000000000,"state":"active","ping":63},{"user_id":778,"name":"Kamtheph","steam_id":76561198167201211,"connected_time":3170000000000,"state":"active","ping":102},{"user_id":798,"name":"Puddin","steam_id":76561198140052918,"connected_time":490000000000,"state":"active","ping":91}]},{"server_id":1,"name":"Uncletopia | Los Angeles | 1 | All Maps","name_short":"lax-1","host":"lax-1.us.uncletopia.com","port":27015,"enabled":true,"region":"us-west","cc":"us","latitude":33.94279,"longitude":-118.41004,"reserved":0,"last_update":"0001-01-01T00:00:00Z","name_a2s":"Uncletopia | Los Angeles | 1 | All Maps","protocol":17,"map":"pl_borneo","folder":"tf","game":"Team Fortress","app_id":440,"player_count":0,"max_players":24,"Bots":0,"server_type":"Dedicated","server_os":"Linux","password":true,"vac":true,"version":"7742253","steam_id":85568392924469991,"keywords":["nocrits","nodmgspread","payload","uncletopia"],"game_id":440,"stv_port":27016,"stv_name":"Uncletopia | Los Angeles | 1 | All Maps | STV","players":null},{"server_id":112,"name":"Uncletopia | Los Angeles | 2 | All Maps","name_short":"lax-2","host":"lax-1.us.uncletopia.com","port":27025,"enabled":true,"region":"us-west","cc":"us","latitude":33.94279,"longitude":-118.41004,"reserved":0,"last_update":"0001-01-01T00:00:00Z","name_a2s":"Uncletopia | Los Angeles | 2 | All Maps","protocol":17,"map":"pl_upward","folder":"tf","game":"Team Fortress","app_id":440,"player_count":0,"max_players":24,"Bots":0,"server_type":"Dedicated","server_os":"Linux","password":true,"vac":true,"version":"7742253","steam_id":85568392924469992,"keywords":["nocrits","nodmgspread","payload","uncletopia"],"game_id":440,"stv_port":27026,"stv_name":"Uncletopia | Los Angeles | 2 | All Maps | STV","players":null},{"server_id":324,"name":"Uncletopia | Los Angeles | 3 | All Maps","name_short":"lax-3","host":"lax-1.us.uncletopia.com","port":27035,"enabled":true,"region":"us-west","cc":"us","latitude":33.94279,"longitude":-118.41004,"reserved":0,"last_update":"0001-01-01T00:00:00Z","name_a2s":"Uncletopia | Los Angeles | 3 | All Maps","protocol":17,"map":"pl_borneo","folder":"tf","game":"Team Fortress","app_id":440,"player_count":0,"max_players":24,"Bots":0,"server_type":"Dedicated","server_os":"Linux","password":true,"vac":true,"version":"7742253","steam_id":85568392924510198,"keywords":["nocrits","nodmgspread","payload","uncletopia"],"game_id":440,"stv_port":27036,"stv_name":"Uncletopia | Los Angeles | 3 | All Maps | STV","players":null},{"server_id":25,"name":"Uncletopia | Los Angeles | 4 | Stopwatch Beta","name_short":"lax-4","host":"lax-1.us.uncletopia.com","port":27045,"enabled":true,"region":"us-west","cc":"us","latitude":33.94279,"longitude":-118.41004,"reserved":0,"last_update":"0001-01-01T00:00:00Z","name_a2s":"Uncletopia | Los Angeles | 4 | Stopwatch Beta","protocol":17,"map":"cp_process_final","folder":"tf","game":"Team Fortress","app_id":440,"player_count":0,"max_players":24,"Bots":0,"server_type":"Dedicated","server_os":"Linux","password":true,"vac":true,"version":"7742253","steam_id":85568392924510199,"keywords":["cp","nocrits","nodmgspread","uncletopia"],"game_id":440,"stv_port":27046,"stv_name":"Uncletopia | Los Angeles | 4 | Stopwatch Beta | STV","players":null},{"server_id":11,"name":"Uncletopia | London | 1 | All Maps","name_short":"lon-1","host":"lon-1.uk.uncletopia.com","port":27015,"enabled":true,"region":"eu","cc":"gb","latitude":51.509865,"longitude":-0.118092,"reserved":0,"last_update":"0001-01-01T00:00:00Z","name_a2s":"Uncletopia | London | 1 | All Maps","protocol":17,"map":"pl_swiftwater_final1","folder":"tf","game":"Team Fortress","app_id":440,"player_count":23,"max_players":24,"Bots":0,"server_type":"Dedicated","server_os":"Linux","password":true,"vac":true,"version":"7742253","steam_id":85568392924367362,"keywords":["nocrits","nodmgspread","payload","uncletopia"],"game_id":440,"stv_port":27016,"stv_name":"Uncletopia | London | 1 | All Maps | STV","players":[{"user_id":340,"name":"Codename 50","steam_id":76561198024454833,"connected_time":886000000000,"state":"active","ping":164},{"user_id":341,"name":"yawnne","steam_id":76561198088624259,"connected_time":785000000000,"state":"active","ping":57},{"user_id":328,"name":"most sane mentalist","steam_id":76561198310095220,"connected_time":2378000000000,"state":"active","ping":35},{"user_id":329,"name":"Festive Femboy Lilli","steam_id":76561198090146457,"connected_time":2008000000000,"state":"active","ping":37},{"user_id":343,"name":"Jahusi!*","steam_id":76561197992445165,"connected_time":736000000000,"state":"active","ping":61},{"user_id":303,"name":"Dominus.","steam_id":76561199065917088,"connected_time":4525000000000,"state":"active","ping":68},{"user_id":293,"name":"LordTrap.exe","steam_id":76561198318089716,"connected_time":5830000000000,"state":"active","ping":47},{"user_id":324,"name":"Kahvi","steam_id":76561198723244199,"connected_time":2844000000000,"state":"active","ping":77},{"user_id":342,"name":"Equinox","steam_id":76561199055592635,"connected_time":783000000000,"state":"active","ping":49},{"user_id":344,"name":"GamingCarp","steam_id":76561198285235511,"connected_time":728000000000,"state":"active","ping":43},{"user_id":357,"name":"Mike Myers","steam_id":76561199021342831,"connected_time":12000000000,"state":"spawning","ping":60},{"user_id":326,"name":"Well","steam_id":76561198411337640,"connected_time":2744000000000,"state":"active","ping":96},{"user_id":352,"name":"MR CrustyBacon","steam_id":76561198140442055,"connected_time":486000000000,"state":"active","ping":36},{"user_id":347,"name":"Mr.Cupcake","steam_id":76561198152711174,"connected_time":637000000000,"state":"active","ping":64},{"user_id":323,"name":"ciliorkun18","steam_id":76561198228942500,"connected_time":2913000000000,"state":"active","ping":94},{"user_id":309,"name":"Monet","steam_id":76561198087656854,"connected_time":3474000000000,"state":"active","ping":66},{"user_id":348,"name":"KuhlerKarl","steam_id":76561198411211564,"connected_time":620000000000,"state":"active","ping":73},{"user_id":354,"name":"tayro","steam_id":76561198202990635,"connected_time":259000000000,"state":"active","ping":65},{"user_id":356,"name":"Buddy","steam_id":76561198050185582,"connected_time":77000000000,"state":"active","ping":63},{"user_id":349,"name":"robbob","steam_id":76561198137375391,"connected_time":607000000000,"state":"active","ping":84},{"user_id":319,"name":"[P-roc] Cmm Bert","steam_id":76561198016658674,"connected_time":2987000000000,"state":"active","ping":57},{"user_id":334,"name":"HUGE ANIME TITTIES","steam_id":76561198208316165,"connected_time":1325000000000,"state":"active","ping":164},{"user_id":353,"name":"i will unheal your scars","steam_id":76561198067994868,"connected_time":427000000000,"state":"active","ping":160}]},{"server_id":114,"name":"Uncletopia | London | 2 | All Maps","name_short":"lon-2","host":"lon-1.uk.uncletopia.com","port":27025,"enabled":true,"region":"eu","cc":"gb","latitude":51.509865,"longitude":-0.118092,"reserved":0,"last_update":"0001-01-01T00:00:00Z","name_a2s":"Uncletopia | London | 2 | All Maps","protocol":17,"map":"cp_process_final","folder":"tf","game":"Team Fortress","app_id":440,"player_count":24,"max_players":24,"Bots":0,"server_type":"Dedicated","server_os":"Linux","password":true,"vac":true,"version":"7742253","steam_id":85568392924470941,"keywords":["cp","nocrits","nodmgspread","uncletopia"],"game_id":440,"stv_port":27026,"stv_name":"Uncletopia | London | 2 | All Maps | STV","players":[{"user_id":101,"name":"ronnie","steam_id":76561198377533237,"connected_time":676000000000,"state":"active","ping":80},{"user_id":115,"name":"insane","steam_id":76561198968160899,"connected_time":115000000000,"state":"active","ping":75},{"user_id":107,"name":"random_player691","steam_id":76561199209946306,"connected_time":438000000000,"state":"active","ping":54},{"user_id":39,"name":"Vibing Wave [IRan]","steam_id":76561198866358613,"connected_time":3768000000000,"state":"active","ping":155},{"user_id":103,"name":"Gin-Gi","steam_id":76561198108332859,"connected_time":587000000000,"state":"active","ping":49},{"user_id":87,"name":"Maveth","steam_id":76561198315021197,"connected_time":1888000000000,"state":"active","ping":134},{"user_id":104,"name":"Bits\u0026Peices","steam_id":76561199225453607,"connected_time":559000000000,"state":"active","ping":101},{"user_id":95,"name":"Master Chef","steam_id":76561198066714909,"connected_time":1276000000000,"state":"active","ping":67},{"user_id":112,"name":"Autumnsky","steam_id":76561198055161203,"connected_time":237000000000,"state":"active","ping":62},{"user_id":113,"name":"Lyell","steam_id":76561198350329389,"connected_time":231000000000,"state":"active","ping":73},{"user_id":108,"name":"GodOfGobboz","steam_id":76561198154677956,"connected_time":407000000000,"state":"active","ping":68},{"user_id":109,"name":"he do be playing games thoo","steam_id":76561199020626489,"connected_time":334000000000,"state":"active","ping":86},{"user_id":114,"name":"LennyFX","steam_id":76561198881122743,"connected_time":168000000000,"state":"active","ping":53},{"user_id":111,"name":"The BOY","steam_id":76561199248698896,"connected_time":310000000000,"state":"active","ping":47},{"user_id":116,"name":"Marmatong","steam_id":76561199056562986,"connected_time":103000000000,"state":"active","ping":58},{"user_id":58,"name":"Ghost","steam_id":76561198110914180,"connected_time":3116000000000,"state":"active","ping":99},{"user_id":117,"name":"DefinitelyNotClorox","steam_id":76561198056801474,"connected_time":96000000000,"state":"active","ping":63},{"user_id":118,"name":"mt","steam_id":76561197961319303,"connected_time":66000000000,"state":"active","ping":60},{"user_id":119,"name":"guyinahat","steam_id":76561198367203640,"connected_time":47000000000,"state":"active","ping":59},{"user_id":48,"name":"When Life gives you Lemons","steam_id":76561198318290663,"connected_time":3606000000000,"state":"active","ping":60},{"user_id":81,"name":"Florua","steam_id":76561198182297846,"connected_time":2310000000000,"state":"active","ping":69},{"user_id":82,"name":"0xConnectUser","steam_id":76561198441513355,"connected_time":2310000000000,"state":"active","ping":88},{"user_id":93,"name":"clipsy11","steam_id":76561199185851191,"connected_time":1520000000000,"state":"active","ping":75},{"user_id":120,"name":"nicco","steam_id":76561198046217866,"connected_time":16000000000,"state":"spawning","ping":51}]},{"server_id":320,"name":"Uncletopia | London | 3 | All Maps","name_short":"lon-3","host":"lon-1.uk.uncletopia.com","port":27035,"enabled":true,"region":"eu","cc":"gb","latitude":51.509865,"longitude":-0.118092,"reserved":0,"last_update":"0001-01-01T00:00:00Z","name_a2s":"Uncletopia | London | 3 | All Maps","protocol":17,"map":"pl_badwater","folder":"tf","game":"Team Fortress","app_id":440,"player_count":23,"max_players":24,"Bots":0,"server_type":"Dedicated","server_os":"Linux","password":true,"vac":true,"version":"7742253","steam_id":85568392924510192,"keywords":["nocrits","nodmgspread","payload","uncletopia"],"game_id":440,"stv_port":27036,"stv_name":"Uncletopia | London | 3 | All Maps | STV","players":[{"user_id":238,"name":"Waffles","steam_id":76561199086942763,"connected_time":1972000000000,"state":"active","ping":184},{"user_id":276,"name":"a Cat that cry","steam_id":76561198134378108,"connected_time":37000000000,"state":"active","ping":67},{"user_id":272,"name":"LOBZIK","steam_id":76561198114830120,"connected_time":115000000000,"state":"active","ping":76},{"user_id":268,"name":"FaceShackle","steam_id":76561198038371397,"connected_time":390000000000,"state":"active","ping":49},{"user_id":234,"name":"Flying Eagle","steam_id":76561198925681565,"connected_time":2089000000000,"state":"active","ping":104},{"user_id":250,"name":"xxEng1n33r_G4m1ngxx","steam_id":76561199083337210,"connected_time":1471000000000,"state":"active","ping":47},{"user_id":245,"name":"Sauerkraut","steam_id":76561197996241017,"connected_time":1798000000000,"state":"active","ping":65},{"user_id":253,"name":"Sipsu","steam_id":76561198059424107,"connected_time":1401000000000,"state":"active","ping":83},{"user_id":251,"name":"gagalak","steam_id":76561198089979108,"connected_time":1460000000000,"state":"active","ping":98},{"user_id":256,"name":"fаt cսոt","steam_id":76561198845550388,"connected_time":1368000000000,"state":"active","ping":110},{"user_id":269,"name":"teamspeakisbeter","steam_id":76561198994349483,"connected_time":298000000000,"state":"active","ping":176},{"user_id":208,"name":"Bob","steam_id":76561198218200489,"connected_time":3786000000000,"state":"active","ping":55},{"user_id":248,"name":"Vollys","steam_id":76561198018077773,"connected_time":1521000000000,"state":"active","ping":60},{"user_id":273,"name":"LAN-","steam_id":76561199444121228,"connected_time":76000000000,"state":"active","ping":47},{"user_id":274,"name":"Pungkrockaren","steam_id":76561198050214002,"connected_time":46000000000,"state":"active","ping":64},{"user_id":239,"name":"tictak211","steam_id":76561198128091924,"connected_time":1888000000000,"state":"active","ping":94},{"user_id":258,"name":"Wardruna96","steam_id":76561199057083828,"connected_time":1343000000000,"state":"active","ping":77},{"user_id":275,"name":"Ariel ⨁ ᚨᚱᛁᛖᛚ🌪","steam_id":76561198011340227,"connected_time":42000000000,"state":"active","ping":71},{"user_id":189,"name":"hmscole09","steam_id":76561198811362788,"connected_time":5142000000000,"state":"active","ping":48},{"user_id":242,"name":"OH_","steam_id":76561197986134103,"connected_time":1868000000000,"state":"active","ping":45},{"user_id":262,"name":"DrExplosive","steam_id":76561198063678579,"connected_time":790000000000,"state":"active","ping":42},{"user_id":265,"name":"Michael","steam_id":76561198317273294,"connected_time":715000000000,"state":"active","ping":75},{"user_id":260,"name":"rummy","steam_id":76561197997573379,"connected_time":1164000000000,"state":"active","ping":40}]},{"server_id":321,"name":"Uncletopia | London | 4 | All Maps","name_short":"lon-4","host":"lon-1.uk.uncletopia.com","port":27045,"enabled":true,"region":"eu","cc":"gb","latitude":51.509865,"longitude":-0.118092,"reserved":0,"last_update":"0001-01-01T00:00:00Z","name_a2s":"Uncletopia | London | 4 | All Maps","protocol":17,"map":"pl_pier","folder":"tf","game":"Team Fortress","app_id":440,"player_count":17,"max_players":24,"Bots":0,"server_type":"Dedicated","server_os":"Linux","password":true,"vac":true,"version":"7742253","steam_id":85568392924510193,"keywords":["nocrits","nodmgspread","payload","uncletopia"],"game_id":440,"stv_port":27046,"stv_name":"Uncletopia | London | 4 | All Maps | STV","players":[{"user_id":152,"name":"LemonLeCitron","steam_id":76561198215545267,"connected_time":2175000000000,"state":"active","ping":81},{"user_id":168,"name":"AforeKingDwarf","steam_id":76561198043562926,"connected_time":1425000000000,"state":"active","ping":41},{"user_id":179,"name":"Phvntqm","steam_id":76561198095172813,"connected_time":955000000000,"state":"active","ping":46},{"user_id":137,"name":"SirVitek","steam_id":76561198142961758,"connected_time":3333000000000,"state":"active","ping":56},{"user_id":183,"name":"Twin Fantasy (Mirror To Mirror)","steam_id":76561198397024973,"connected_time":364000000000,"state":"active","ping":41},{"user_id":189,"name":"The all seeing four eye","steam_id":76561198372971096,"connected_time":101000000000,"state":"active","ping":81},{"user_id":139,"name":"zeppa114","steam_id":76561198065192734,"connected_time":3285000000000,"state":"active","ping":49},{"user_id":184,"name":"Tomfool","steam_id":76561197993256481,"connected_time":305000000000,"state":"active","ping":87},{"user_id":165,"name":"Montrose","steam_id":76561198338911736,"connected_time":1506000000000,"state":"active","ping":174},{"user_id":186,"name":"Dozer","steam_id":76561197998742338,"connected_time":259000000000,"state":"active","ping":50},{"user_id":23,"name":"E1s #TransPhobic","steam_id":76561198894958917,"connected_time":9074000000000,"state":"active","ping":54},{"user_id":187,"name":"McGov","steam_id":76561198211361463,"connected_time":219000000000,"state":"active","ping":67},{"user_id":69,"name":".quickfast.","steam_id":76561199438900919,"connected_time":7242000000000,"state":"active","ping":46},{"user_id":47,"name":"WiiSportKing","steam_id":76561198114139081,"connected_time":8154000000000,"state":"active","ping":48},{"user_id":178,"name":"Untermenshh","steam_id":76561198284636705,"connected_time":1009000000000,"state":"active","ping":103},{"user_id":157,"name":"Joseph Stalin LFT","steam_id":76561198033199746,"connected_time":1876000000000,"state":"active","ping":56},{"user_id":182,"name":"Jughead","steam_id":76561198000355410,"connected_time":441000000000,"state":"active","ping":51}]},{"server_id":21,"name":"Uncletopia | London | 5 | All Maps","name_short":"lon-5","host":"lon-1.uk.uncletopia.com","port":27055,"enabled":true,"region":"eu","cc":"gb","latitude":51.509865,"longitude":-0.118092,"reserved":0,"last_update":"0001-01-01T00:00:00Z","name_a2s":"Uncletopia | London | 5 | All Maps","protocol":17,"map":"pl_barnblitz","folder":"tf","game":"Team Fortress","app_id":440,"player_count":1,"max_players":24,"Bots":0,"server_type":"Dedicated","server_os":"Linux","password":true,"vac":true,"version":"7742253","steam_id":85568392924742829,"keywords":["nocrits","nodmgspread","payload","uncletopia"],"game_id":440,"stv_port":27056,"stv_name":"Uncletopia | London | 5 | All Maps | STV","players":[{"user_id":9,"name":"TheTerrarian349","steam_id":76561199211735265,"connected_time":342000000000,"state":"active","ping":44}]},{"server_id":22,"name":"Uncletopia | London | 6 | All Maps","name_short":"lon-6","host":"lon-1.uk.uncletopia.com","port":27065,"enabled":true,"region":"eu","cc":"gb","latitude":51.509865,"longitude":-0.118092,"reserved":0,"last_update":"0001-01-01T00:00:00Z","name_a2s":"Uncletopia | London | 6 | All Maps","protocol":17,"map":"cp_process_final","folder":"tf","game":"Team Fortress","app_id":440,"player_count":0,"max_players":24,"Bots":0,"server_type":"Dedicated","server_os":"Linux","password":true,"vac":true,"version":"7742253","steam_id":85568392924742830,"keywords":["cp","nocrits","nodmgspread","uncletopia"],"game_id":440,"stv_port":27066,"stv_name":"Uncletopia | London | 6 | All Maps | STV","players":null},{"server_id":40,"name":"Uncletopia | London | 7 | No Payload","name_short":"lon-7","host":"lon-1.uk.uncletopia.com","port":27075,"enabled":true,"region":"eu","cc":"gb","latitude":51.509865,"longitude":-0.118092,"reserved":0,"last_update":"0001-01-01T00:00:00Z","name_a2s":"Uncletopia | London | 7 | No Payload","protocol":17,"map":"cp_dustbowl","folder":"tf","game":"Team Fortress","app_id":440,"player_count":2,"max_players":24,"Bots":0,"server_type":"Dedicated","server_os":"Linux","password":true,"vac":true,"version":"7742253","steam_id":85568392924964314,"keywords":["cp","nocrits","nodmgspread","uncletopia"],"game_id":440,"stv_port":27076,"stv_name":"Uncletopia | London | 7 | No Payload | STV","players":[{"user_id":4,"name":"Bendy_Tank","steam_id":76561199438911774,"connected_time":372000000000,"state":"active","ping":61},{"user_id":5,"name":"Fiddlah","steam_id":76561198077916925,"connected_time":143000000000,"state":"active","ping":30}]},{"server_id":41,"name":"Uncletopia | London | 8 | Community","name_short":"lon-8","host":"lon-1.uk.uncletopia.com","port":27085,"enabled":true,"region":"eu","cc":"gb","latitude":51.509865,"longitude":-0.118092,"reserved":0,"last_update":"0001-01-01T00:00:00Z","name_a2s":"Uncletopia | London | 8 | Community","protocol":17,"map":"workshop/cp_caldera_rc2.ugc2834196889","folder":"tf","game":"Team Fortress","app_id":440,"player_count":0,"max_players":24,"Bots":0,"server_type":"Dedicated","server_os":"Linux","password":true,"vac":true,"version":"7742253","steam_id":85568392924964315,"keywords":["cp","nocrits","nodmgspread","uncletopia"],"game_id":440,"stv_port":27086,"stv_name":"Uncletopia | London | 8 | Community | STV","players":null},{"server_id":300,"name":"Uncletopia | Montréal | 1 | All Maps","name_short":"mtl-1","host":"mtl-1.ca.uncletopia.com","port":27015,"enabled":true,"region":"us-east","cc":"ca","latitude":45.50889,"longitude":-73.56167,"reserved":0,"last_update":"0001-01-01T00:00:00Z","name_a2s":"Uncletopia | Montréal | 1 | All Maps","protocol":17,"map":"koth_lakeside_final","folder":"tf","game":"Team Fortress","app_id":440,"player_count":0,"max_players":24,"Bots":0,"server_type":"Dedicated","server_os":"Linux","password":true,"vac":true,"version":"7742253","steam_id":85568392924500087,"keywords":["cp","nocrits","nodmgspread","uncletopia"],"game_id":440,"stv_port":27016,"stv_name":"Uncletopia | Montréal | 1 | All Maps | STV","players":null},{"server_id":301,"name":"Uncletopia | Montréal | 2 | All Maps","name_short":"mtl-2","host":"mtl-1.ca.uncletopia.com","port":27025,"enabled":true,"region":"us-east","cc":"ca","latitude":45.50889,"longitude":-73.56167,"reserved":0,"last_update":"0001-01-01T00:00:00Z","name_a2s":"Uncletopia | Montréal | 2 | All Maps","protocol":17,"map":"koth_lakeside_final","folder":"tf","game":"Team Fortress","app_id":440,"player_count":0,"max_players":24,"Bots":0,"server_type":"Dedicated","server_os":"Linux","password":true,"vac":true,"version":"7742253","steam_id":85568392924500088,"keywords":["cp","nocrits","nodmgspread","uncletopia"],"game_id":440,"stv_port":27026,"stv_name":"Uncletopia | Montréal | 2 | All Maps | STV","players":null},{"server_id":302,"name":"Uncletopia | Montréal | 3 | All Maps","name_short":"mtl-3","host":"mtl-1.ca.uncletopia.com","port":27035,"enabled":true,"region":"us-east","cc":"ca","latitude":45.50889,"longitude":-73.56167,"reserved":0,"last_update":"0001-01-01T00:00:00Z","name_a2s":"Uncletopia | Montréal | 3 | All Maps","protocol":17,"map":"cp_altitude","folder":"tf","game":"Team Fortress","app_id":440,"player_count":0,"max_players":24,"Bots":0,"server_type":"Dedicated","server_os":"Linux","password":true,"vac":true,"version":"7742253","steam_id":85568392924500089,"keywords":["cp","nocrits","nodmgspread","uncletopia"],"game_id":440,"stv_port":27036,"stv_name":"Uncletopia | Montréal | 3 | All Maps | STV","players":null},{"server_id":303,"name":"Uncletopia | Montréal | 4 | No Payload","name_short":"mtl-4","host":"mtl-1.ca.uncletopia.com","port":27045,"enabled":true,"region":"us-east","cc":"ca","latitude":45.50889,"longitude":-73.56167,"reserved":0,"last_update":"0001-01-01T00:00:00Z","name_a2s":"Uncletopia | Montréal | 4 | No Payload","protocol":17,"map":"koth_highpass","folder":"tf","game":"Team Fortress","app_id":440,"player_count":0,"max_players":24,"Bots":0,"server_type":"Dedicated","server_os":"Linux","password":true,"vac":true,"version":"7742253","steam_id":85568392924500090,"keywords":["cp","nocrits","nodmgspread","uncletopia"],"game_id":440,"stv_port":27046,"stv_name":"Uncletopia | Montréal | 4 | No Payload | STV","players":null},{"server_id":13,"name":"Uncletopia | New York City | 1 | All Maps","name_short":"nyc-1","host":"nyc-1.us.uncletopia.com","port":27015,"enabled":true,"region":"us-east","cc":"us","latitude":40.73061,"longitude":-73.93524,"reserved":0,"last_update":"0001-01-01T00:00:00Z","name_a2s":"Uncletopia | New York City | 1 | All Maps","protocol":17,"map":"cp_process_final","folder":"tf","game":"Team Fortress","app_id":440,"player_count":0,"max_players":24,"Bots":0,"server_type":"Dedicated","server_os":"Linux","password":true,"vac":true,"version":"7742253","steam_id":85568392924469993,"keywords":["cp","nocrits","nodmgspread","uncletopia"],"game_id":440,"stv_port":27016,"stv_name":"Uncletopia | New York City | 1 | All Maps | STV","players":null},{"server_id":14,"name":"Uncletopia | New York City | 2 | All Maps","name_short":"nyc-2","host":"nyc-1.us.uncletopia.com","port":27025,"enabled":true,"region":"us-east","cc":"us","latitude":40.73061,"longitude":-73.93524,"reserved":0,"last_update":"0001-01-01T00:00:00Z","name_a2s":"Uncletopia | New York City | 2 | All Maps","protocol":17,"map":"koth_viaduct","folder":"tf","game":"Team Fortress","app_id":440,"player_count":2,"max_players":24,"Bots":0,"server_type":"Dedicated","server_os":"Linux","password":true,"vac":true,"version":"7742253","steam_id":85568392924469994,"keywords":["cp","nocrits","nodmgspread","uncletopia"],"game_id":440,"stv_port":27026,"stv_name":"Uncletopia | New York City | 2 | All Maps | STV","players":[{"user_id":4,"name":"Amphetamine Gun","steam_id":76561199029189825,"connected_time":1285000000000,"state":"active","ping":60},{"user_id":6,"name":"Ms.Silver","steam_id":76561199194349087,"connected_time":429000000000,"state":"active","ping":57}]},{"server_id":15,"name":"Uncletopia | New York City | 3 | Stopwatch Beta","name_short":"nyc-3","host":"nyc-1.us.uncletopia.com","port":27035,"enabled":true,"region":"us-east","cc":"us","latitude":40.73061,"longitude":-73.93524,"reserved":0,"last_update":"0001-01-01T00:00:00Z","name_a2s":"Uncletopia | New York City | 3 | Stopwatch Beta","protocol":17,"map":"cp_altitude","folder":"tf","game":"Team Fortress","app_id":440,"player_count":0,"max_players":24,"Bots":0,"server_type":"Dedicated","server_os":"Linux","password":true,"vac":true,"version":"7742253","steam_id":85568392924742820,"keywords":["cp","nocrits","nodmgspread","uncletopia"],"game_id":440,"stv_port":27036,"stv_name":"Uncletopia | New York City | 3 | Stopwatch Beta | STV","players":null},{"server_id":16,"name":"Uncletopia | New York City | 4 | Community","name_short":"nyc-4","host":"nyc-1.us.uncletopia.com","port":27045,"enabled":true,"region":"us-east","cc":"us","latitude":40.73061,"longitude":-73.93524,"reserved":0,"last_update":"0001-01-01T00:00:00Z","name_a2s":"Uncletopia | New York City | 4 | Community","protocol":17,"map":"pl_barnblitz","folder":"tf","game":"Team Fortress","app_id":440,"player_count":0,"max_players":24,"Bots":0,"server_type":"Dedicated","server_os":"Linux","password":true,"vac":true,"version":"7742253","steam_id":85568392924742821,"keywords":["nocrits","nodmgspread","payload","uncletopia"],"game_id":440,"stv_port":27046,"stv_name":"Uncletopia | New York City | 4 | Community | STV","players":null},{"server_id":142,"name":"Uncletopia | São Paulo | 1 | All Maps","name_short":"sao-1","host":"sao-1.br.uncletopia.com","port":27015,"enabled":true,"region":"sa","cc":"br","latitude":-23.533773,"longitude":-46.62529,"reserved":0,"last_update":"0001-01-01T00:00:00Z","name_a2s":"Uncletopia | São Paulo | 1 | All Maps","protocol":17,"map":"koth_viaduct","folder":"tf","game":"Team Fortress","app_id":440,"player_count":0,"max_players":24,"Bots":0,"server_type":"Dedicated","server_os":"Linux","password":true,"vac":true,"version":"7742253","steam_id":85568392924469996,"keywords":["cp","nocrits","nodmgspread","uncletopia"],"game_id":440,"stv_port":27016,"stv_name":"Uncletopia | São Paulo | 1 | All Maps | STV","players":null},{"server_id":143,"name":"Uncletopia | São Paulo | 2 | All Maps","name_short":"sao-2","host":"sao-2.br.uncletopia.com","port":27015,"enabled":true,"region":"sa","cc":"br","latitude":-23.533773,"longitude":-46.62529,"reserved":0,"last_update":"0001-01-01T00:00:00Z","name_a2s":"Uncletopia | São Paulo | 2 | All Maps","protocol":17,"map":"cp_dustbowl","folder":"tf","game":"Team Fortress","app_id":440,"player_count":0,"max_players":24,"Bots":0,"server_type":"Dedicated","server_os":"Linux","password":true,"vac":true,"version":"7742253","steam_id":85568392924485349,"keywords":["cp","nocrits","nodmgspread","uncletopia"],"game_id":440,"stv_port":27016,"stv_name":"Uncletopia | São Paulo | 2 | All Maps | STV","players":null},{"server_id":7,"name":"Uncletopia | Seattle | 1 | All Maps","name_short":"sea-1","host":"sea-1.us.uncletopia.com","port":27015,"enabled":true,"region":"us-west","cc":"us","latitude":47.608013,"longitude":-122.33517,"reserved":0,"last_update":"0001-01-01T00:00:00Z","name_a2s":"Uncletopia | Seattle | 1 | All Maps","protocol":17,"map":"pl_badwater","folder":"tf","game":"Team Fortress","app_id":440,"player_count":0,"max_players":24,"Bots":0,"server_type":"Dedicated","server_os":"Linux","password":true,"vac":true,"version":"7742253","steam_id":85568392924469997,"keywords":["nocrits","nodmgspread","payload","uncletopia"],"game_id":440,"stv_port":27016,"stv_name":"Uncletopia | Seattle | 1 | All Maps | STV","players":null},{"server_id":119,"name":"Uncletopia | Seattle | 2 | All Maps","name_short":"sea-2","host":"sea-1.us.uncletopia.com","port":27025,"enabled":true,"region":"us-west","cc":"us","latitude":47.608013,"longitude":-122.33517,"reserved":0,"last_update":"0001-01-01T00:00:00Z","name_a2s":"Uncletopia | Seattle | 2 | All Maps","protocol":17,"map":"pl_barnblitz","folder":"tf","game":"Team Fortress","app_id":440,"player_count":0,"max_players":24,"Bots":0,"server_type":"Dedicated","server_os":"Linux","password":true,"vac":true,"version":"7742253","steam_id":85568392924469998,"keywords":["nocrits","nodmgspread","payload","uncletopia"],"game_id":440,"stv_port":27026,"stv_name":"Uncletopia | Seattle | 2 | All Maps | STV","players":null},{"server_id":406,"name":"Uncletopia | Seattle | 3 | Stopwatch Beta","name_short":"sea-3","host":"sea-1.us.uncletopia.com","port":27035,"enabled":true,"region":"us-west","cc":"us","latitude":47.608013,"longitude":-122.33517,"reserved":0,"last_update":"0001-01-01T00:00:00Z","name_a2s":"Uncletopia | Seattle | 3 | Stopwatch Beta","protocol":17,"map":"pl_upward","folder":"tf","game":"Team Fortress","app_id":440,"player_count":0,"max_players":24,"Bots":0,"server_type":"Dedicated","server_os":"Linux","password":true,"vac":false,"version":"7742253","steam_id":0,"keywords":["nocrits","nodmgspread","payload","uncletopia"],"game_id":440,"stv_port":27036,"stv_name":"Uncletopia | Seattle | 3 | Stopwatch Beta | STV","players":null},{"server_id":17,"name":"Uncletopia | San Francisco | 1 | All Maps","name_short":"sfo-1","host":"sfo-1.us.uncletopia.com","port":27015,"enabled":true,"region":"us-west","cc":"us","latitude":37.77397,"longitude":-122.4313,"reserved":0,"last_update":"0001-01-01T00:00:00Z","name_a2s":"Uncletopia | San Francisco | 1 | All Maps","protocol":17,"map":"koth_cascade","folder":"tf","game":"Team Fortress","app_id":440,"player_count":0,"max_players":24,"Bots":0,"server_type":"Dedicated","server_os":"Linux","password":true,"vac":true,"version":"7742253","steam_id":85568392924469999,"keywords":["cp","nocrits","nodmgspread","uncletopia"],"game_id":440,"stv_port":27016,"stv_name":"Uncletopia | San Francisco | 1 | All Maps | STV","players":null},{"server_id":18,"name":"Uncletopia | San Francisco | 2 | All Maps","name_short":"sfo-2","host":"sfo-1.us.uncletopia.com","port":27025,"enabled":true,"region":"us-west","cc":"us","latitude":37.77397,"longitude":-122.4313,"reserved":0,"last_update":"0001-01-01T00:00:00Z","name_a2s":"Uncletopia | San Francisco | 2 | All Maps","protocol":17,"map":"cp_process_final","folder":"tf","game":"Team Fortress","app_id":440,"player_count":0,"max_players":24,"Bots":0,"server_type":"Dedicated","server_os":"Linux","password":true,"vac":true,"version":"7742253","steam_id":85568392924470000,"keywords":["cp","nocrits","nodmgspread","uncletopia"],"game_id":440,"stv_port":27026,"stv_name":"Uncletopia | San Francisco | 2 | All Maps | STV","players":null},{"server_id":19,"name":"Uncletopia | San Francisco | 3 | Stopwatch Beta","name_short":"sfo-3","host":"sfo-1.us.uncletopia.com","port":27035,"enabled":true,"region":"us-west","cc":"us","latitude":37.77397,"longitude":-122.4313,"reserved":0,"last_update":"0001-01-01T00:00:00Z","name_a2s":"Uncletopia | San Francisco | 3 | Stopwatch Beta","protocol":17,"map":"cp_snakewater_final1","folder":"tf","game":"Team Fortress","app_id":440,"player_count":0,"max_players":24,"Bots":0,"server_type":"Dedicated","server_os":"Linux","password":true,"vac":true,"version":"7742253","steam_id":85568392924742824,"keywords":["cp","nocrits","nodmgspread","uncletopia"],"game_id":440,"stv_port":27036,"stv_name":"Uncletopia | San Francisco | 3 | Stopwatch Beta | STV","players":null},{"server_id":20,"name":"Uncletopia | San Francisco | 4 | Community","name_short":"sfo-4","host":"sfo-1.us.uncletopia.com","port":27045,"enabled":true,"region":"us-west","cc":"us","latitude":37.77397,"longitude":-122.4313,"reserved":0,"last_update":"0001-01-01T00:00:00Z","name_a2s":"Uncletopia | San Francisco | 4 | Community","protocol":17,"map":"cp_altitude","folder":"tf","game":"Team Fortress","app_id":440,"player_count":0,"max_players":24,"Bots":0,"server_type":"Dedicated","server_os":"Linux","password":true,"vac":true,"version":"7742253","steam_id":85568392924742826,"keywords":["cp","nocrits","nodmgspread","uncletopia"],"game_id":440,"stv_port":27046,"stv_name":"Uncletopia | San Francisco | 4 | Community | STV","players":null},{"server_id":141,"name":"Uncletopia | Sydney | 1 | All Maps","name_short":"syd-1","host":"syd-1.au.uncletopia.com","port":27015,"enabled":true,"region":"au","cc":"au","latitude":-33.865143,"longitude":151.2099,"reserved":0,"last_update":"0001-01-01T00:00:00Z","name_a2s":"Uncletopia | Sydney | 1 | All Maps","protocol":17,"map":"koth_viaduct","folder":"tf","game":"Team Fortress","app_id":440,"player_count":0,"max_players":24,"Bots":0,"server_type":"Dedicated","server_os":"Linux","password":true,"vac":true,"version":"7742253","steam_id":85568392924470001,"keywords":["cp","nocrits","nodmgspread","uncletopia"],"game_id":440,"stv_port":27016,"stv_name":"Uncletopia | Sydney | 1 | All Maps | STV","players":null},{"server_id":123,"name":"Uncletopia | Sydney | 2 | All Maps","name_short":"syd-2","host":"syd-1.au.uncletopia.com","port":27025,"enabled":true,"region":"au","cc":"au","latitude":-33.865143,"longitude":151.2099,"reserved":0,"last_update":"0001-01-01T00:00:00Z","name_a2s":"Uncletopia | Sydney | 2 | All Maps","protocol":17,"map":"cp_snakewater_final1","folder":"tf","game":"Team Fortress","app_id":440,"player_count":0,"max_players":24,"Bots":0,"server_type":"Dedicated","server_os":"Linux","password":true,"vac":true,"version":"7742253","steam_id":85568392924470002,"keywords":["cp","nocrits","nodmgspread","uncletopia"],"game_id":440,"stv_port":27026,"stv_name":"Uncletopia | Sydney | 2 | All Maps | STV","players":null},{"server_id":395,"name":"Uncletopia | Sydney | 3 | All Maps","name_short":"syd-3","host":"syd-1.au.uncletopia.com","port":27035,"enabled":true,"region":"au","cc":"au","latitude":-33.865143,"longitude":151.2099,"reserved":0,"last_update":"0001-01-01T00:00:00Z","name_a2s":"Uncletopia | Sydney | 3 | All Maps","protocol":17,"map":"pl_snowycoast","folder":"tf","game":"Team Fortress","app_id":440,"player_count":0,"max_players":24,"Bots":0,"server_type":"Dedicated","server_os":"Linux","password":true,"vac":true,"version":"7742253","steam_id":85568392925194467,"keywords":["nocrits","nodmgspread","payload","uncletopia"],"game_id":440,"stv_port":27036,"stv_name":"Uncletopia | Sydney | 3 | All Maps | STV","players":null},{"server_id":396,"name":"Uncletopia | Sydney | 4 | All Maps","name_short":"syd-4","host":"syd-1.au.uncletopia.com","port":27045,"enabled":true,"region":"au","cc":"au","latitude":-33.865143,"longitude":151.2099,"reserved":0,"last_update":"0001-01-01T00:00:00Z","name_a2s":"Uncletopia | Sydney | 4 | All Maps","protocol":17,"map":"koth_viaduct","folder":"tf","game":"Team Fortress","app_id":440,"player_count":0,"max_players":24,"Bots":0,"server_type":"Dedicated","server_os":"Linux","password":true,"vac":true,"version":"7742253","steam_id":85568392925397958,"keywords":["cp","nocrits","nodmgspread","uncletopia"],"game_id":440,"stv_port":27046,"stv_name":"Uncletopia | Sydney | 4 | All Maps | STV","players":null},{"server_id":58,"name":"Uncletopia | Sydney | 5 | Stopwatch Beta","name_short":"syd-5","host":"syd-1.au.uncletopia.com","port":27055,"enabled":true,"region":"au","cc":"au","latitude":-33.865143,"longitude":151.2099,"reserved":0,"last_update":"0001-01-01T00:00:00Z","name_a2s":"Uncletopia | Sydney | 5 | Stopwatch Beta","protocol":17,"map":"cp_snakewater_final1","folder":"tf","game":"Team Fortress","app_id":440,"player_count":0,"max_players":24,"Bots":0,"server_type":"Dedicated","server_os":"Linux","password":true,"vac":true,"version":"7742253","steam_id":85568392925397959,"keywords":["cp","nocrits","nodmgspread","uncletopia"],"game_id":440,"stv_port":27056,"stv_name":"Uncletopia | Sydney | 5 | Stopwatch Beta | STV","players":null},{"server_id":59,"name":"Uncletopia | Sydney | 6 | Community","name_short":"syd-6","host":"syd-1.au.uncletopia.com","port":27065,"enabled":true,"region":"au","cc":"au","latitude":-33.865143,"longitude":151.2099,"reserved":0,"last_update":"0001-01-01T00:00:00Z","name_a2s":"Uncletopia | Sydney | 6 | Community","protocol":17,"map":"workshop/koth_product_final.ugc454272353","folder":"tf","game":"Team Fortress","app_id":440,"player_count":0,"max_players":24,"Bots":0,"server_type":"Dedicated","server_os":"Linux","password":true,"vac":true,"version":"7742253","steam_id":85568392925397960,"keywords":["cp","nocrits","nodmgspread","uncletopia"],"game_id":440,"stv_port":27066,"stv_name":"Uncletopia | Sydney | 6 | Community | STV","players":null},{"server_id":49,"name":"Uncletopia | Warsaw | 1 | All Maps","name_short":"waw-1","host":"waw-1.pl.uncletopia.com","port":27015,"enabled":true,"region":"eu","cc":"pl","latitude":52.2297,"longitude":21.017532,"reserved":0,"last_update":"0001-01-01T00:00:00Z","name_a2s":"Uncletopia | Warsaw | 1 | All Maps","protocol":17,"map":"koth_lakeside_final","folder":"tf","game":"Team Fortress","app_id":440,"player_count":0,"max_players":24,"Bots":0,"server_type":"Dedicated","server_os":"Linux","password":true,"vac":true,"version":"7723704","steam_id":85568392925397850,"keywords":["cp","nocrits","nodmgspread","uncletopia"],"game_id":440,"stv_port":27016,"stv_name":"Uncletopia | Warsaw | 1 | All Maps | STV","players":null},{"server_id":50,"name":"Uncletopia | Warsaw | 2 | All Maps","name_short":"waw-2","host":"waw-1.pl.uncletopia.com","port":27025,"enabled":true,"region":"eu","cc":"pl","latitude":52.2297,"longitude":21.017532,"reserved":0,"last_update":"0001-01-01T00:00:00Z","name_a2s":"Uncletopia | Warsaw | 2 | All Maps","protocol":17,"map":"koth_highpass","folder":"tf","game":"Team Fortress","app_id":440,"player_count":0,"max_players":24,"Bots":0,"server_type":"Dedicated","server_os":"Linux","password":true,"vac":true,"version":"7742253","steam_id":85568392925397851,"keywords":["cp","nocrits","nodmgspread","uncletopia"],"game_id":440,"stv_port":27026,"stv_name":"Uncletopia | Warsaw | 2 | All Maps | STV","players":null},{"server_id":51,"name":"Uncletopia | Warsaw | 3 | All Maps","name_short":"waw-3","host":"waw-1.pl.uncletopia.com","port":27035,"enabled":true,"region":"eu","cc":"pl","latitude":52.2297,"longitude":21.017532,"reserved":0,"last_update":"0001-01-01T00:00:00Z","name_a2s":"Uncletopia | Warsaw | 3 | All Maps","protocol":17,"map":"pl_frontier_final","folder":"tf","game":"Team Fortress","app_id":440,"player_count":0,"max_players":24,"Bots":0,"server_type":"Dedicated","server_os":"Linux","password":true,"vac":true,"version":"7742253","steam_id":85568392925397852,"keywords":["nocrits","nodmgspread","payload","uncletopia"],"game_id":440,"stv_port":27036,"stv_name":"Uncletopia | Warsaw | 3 | All Maps | STV","players":null},{"server_id":52,"name":"Uncletopia | Warsaw | 4 | All Maps","name_short":"waw-4","host":"waw-1.pl.uncletopia.com","port":27045,"enabled":true,"region":"eu","cc":"pl","latitude":52.2297,"longitude":21.017532,"reserved":0,"last_update":"0001-01-01T00:00:00Z","name_a2s":"Uncletopia | Warsaw | 4 | All Maps","protocol":17,"map":"pl_swiftwater_final1","folder":"tf","game":"Team Fortress","app_id":440,"player_count":0,"max_players":24,"Bots":0,"server_type":"Dedicated","server_os":"Linux","password":true,"vac":true,"version":"7742253","steam_id":85568392925397853,"keywords":["nocrits","nodmgspread","payload","uncletopia"],"game_id":440,"stv_port":27046,"stv_name":"Uncletopia | Warsaw | 4 | All Maps | STV","players":null},{"server_id":53,"name":"Uncletopia | Warsaw | 5 | Stopwatch Beta","name_short":"waw-5","host":"waw-1.pl.uncletopia.com","port":27055,"enabled":true,"region":"eu","cc":"pl","latitude":52.2297,"longitude":21.017532,"reserved":0,"last_update":"0001-01-01T00:00:00Z","name_a2s":"Uncletopia | Warsaw | 5 | Stopwatch Beta","protocol":17,"map":"pl_pier","folder":"tf","game":"Team Fortress","app_id":440,"player_count":0,"max_players":24,"Bots":0,"server_type":"Dedicated","server_os":"Linux","password":true,"vac":true,"version":"7742253","steam_id":85568392925397854,"keywords":["nocrits","nodmgspread","payload","uncletopia"],"game_id":440,"stv_port":27056,"stv_name":"Uncletopia | Warsaw | 5 | Stopwatch Beta | STV","players":null},{"server_id":54,"name":"Uncletopia | Warsaw | 6 | Community","name_short":"waw-6","host":"waw-1.pl.uncletopia.com","port":27065,"enabled":true,"region":"eu","cc":"pl","latitude":52.2297,"longitude":21.017532,"reserved":0,"last_update":"0001-01-01T00:00:00Z","name_a2s":"Uncletopia | Warsaw | 6 | Community","protocol":17,"map":"workshop/cp_reckoner_rc6.ugc674719999","folder":"tf","game":"Team Fortress","app_id":440,"player_count":0,"max_players":24,"Bots":0,"server_type":"Dedicated","server_os":"Linux","password":true,"vac":true,"version":"7742253","steam_id":85568392925397856,"keywords":["cp","nocrits","nodmgspread","uncletopia"],"game_id":440,"stv_port":27066,"stv_name":"Uncletopia | Warsaw | 6 | Community | STV","players":null}]}