{"status":true,"message":"","result":[{"server_id":9,"name":"Uncletopia | Atlanta | 1 | All Maps","name_short":"atl-1","host":"atl-1.us.uncletopia.com","port":27015,"enabled":true,"region":"us-east","cc":"us","latitude":33.753746,"longitude":-84.38633,"reserved":0,"last_update":"0001-01-01T00:00:00Z","name_a2s":"Uncletopia | Atlanta | 1 | All Maps","protocol":17,"map":"cp_mossrock","folder":"tf","game":"Team Fortress","app_id":440,"player_count":24,"max_players":24,"Bots":0,"server_type":"Dedicated","server_os":"Linux","password":true,"vac":true,"version":"7757534","steam_id":85568392924469982,"keywords":["cp","nocrits","nodmgspread","uncletopia"],"game_id":440,"stv_port":27016,"stv_name":"Uncletopia | Atlanta | 1 | All Maps | STV","players":[{"user_id":327,"name":"ShadowDragon0125","steam_id":76561198343849022,"connected_time":829000000000,"state":"active","ping":115},{"user_id":318,"name":"goober","steam_id":76561198943598378,"connected_time":1825000000000,"state":"active","ping":37},{"user_id":328,"name":"Temina","steam_id":76561198978778718,"connected_time":825000000000,"state":"active","ping":120},{"user_id":319,"name":"BotchyAlarm8","steam_id":76561198092682129,"connected_time":1815000000000,"state":"active","ping":72},{"user_id":325,"name":"namisimp102","steam_id":76561198166710027,"connected_time":849000000000,"state":"active","ping":56},{"user_id":324,"name":"hand warmer :3","steam_id":76561198239286750,"connected_time":1025000000000,"state":"active","ping":136},{"user_id":320,"name":"harry gooch","steam_id":76561198024817457,"connected_time":1584000000000,"state":"active","ping":60},{"user_id":298,"name":"cola","steam_id":76561198374390458,"connected_time":4467000000000,"state":"active","ping":50},{"user_id":321,"name":"Mong","steam_id":76561198838757422,"connected_time":1511000000000,"state":"active","ping":79},{"user_id":330,"name":"John16Mark","steam_id":76561198119445407,"connected_time":608000000000,"state":"active","ping":80},{"user_id":323,"name":"igotmail","steam_id":76561198070631899,"connected_time":1205000000000,"state":"active","ping":85},{"user_id":300,"name":"NO.1 Sojourn hater","steam_id":76561198982810452,"connected_time":3759000000000,"state":"active","ping":111},{"user_id":329,"name":"nhbiker","steam_id":76561198081277675,"connected_time":824000000000,"state":"active","ping":60},{"user_id":305,"name":"cheeks","steam_id":76561197993371179,"connected_time":3335000000000,"state":"active","ping":60},{"user_id":249,"name":"ATL1 | ma0re","steam_id":76561199231971506,"connected_time":5558000000000,"state":"active","ping":63},{"user_id":310,"name":"Flint","steam_id":76561198066547582,"connected_time":2708000000000,"state":"active","ping":110},{"user_id":302,"name":"Wingm4n","steam_id":76561198064127012,"connected_time":3498000000000,"state":"active","ping":47},{"user_id":296,"name":"Decolour","steam_id":76561199045608372,"connected_time":4799000000000,"state":"active","ping":77},{"user_id":241,"name":"fortnite.jimmy.2014","steam_id":76561199177672325,"connected_time":6431000000000,"state":"active","ping":44},{"user_id":315,"name":"ATL 1 | Save your wifi","steam_id":76561198286147372,"connected_time":1840000000000,"state":"active","ping":59},{"user_id":238,"name":"ATL1 | Psionic Box","steam_id":76561198151019322,"connected_time":6461000000000,"state":"active","ping":69},{"user_id":242,"name":"sansa musa","steam_id":76561198163723555,"connected_time":6429000000000,"state":"active","ping":76},{"user_id":225,"name":"deadlypootis (friendly)","steam_id":76561198249206656,"connected_time":8301000000000,"state":"active","ping":86},{"user_id":317,"name":"RED1 | Mug","steam_id":76561199282207802,"connected_time":1839000000000,"state":"active","ping":77}]},{"server_id":400,"name":"Uncletopia | Atlanta | 3 | Community","name_short":"atl-3","host":"atl-1.us.uncletopia.com","port":27035,"enabled":true,"region":"us-east","cc":"us","latitude":33.753746,"longitude":-84.38633,"reserved":0,"last_update":"0001-01-01T00:00:00Z","name_a2s":"Uncletopia | Atlanta | 3 | Community","protocol":17,"map":"workshop/koth_product_final.ugc454272353","folder":"tf","game":"Team Fortress","app_id":440,"player_count":5,"max_players":32,"Bots":0,"server_type":"Dedicated","server_os":"Linux","password":true,"vac":true,"version":"7757534","steam_id":85568392924515187,"keywords":["cp","increased_maxplayers","nocrits","nodmgspread","uncletopia"],"game_id":440,"stv_port":27036,"stv_name":"Uncletopia | Atlanta | 3 | Community | STV","players":[{"user_id":26,"name":"Rin \"Hindwing\" Redtail","steam_id":76561199074865638,"connected_time":575000000000,"state":"active","ping":53},{"user_id":27,"name":"moist","steam_id":76561198301176077,"connected_time":534000000000,"state":"active","ping":57},{"user_id":28,"name":"parsuh","steam_id":76561198057197772,"connected_time":520000000000,"state":"active","ping":91},{"user_id":29,"name":"nah","steam_id":76561198130671890,"connected_time":337000000000,"state":"active","ping":51},{"user_id":30,"name":"Rex","steam_id":76561198138365053,"connected_time":299000000000,"state":"active","ping":221}]},{"server_id":401,"name":"Uncletopia | Atlanta | 4 | No Payload","name_short":"atl-4","host":"atl-1.us.uncletopia.com","port":27045,"enabled":true,"region":"us-east","cc":"us","latitude":33.753746,"longitude":-84.38633,"reserved":0,"last_update":"0001-01-01T00:00:00Z","name_a2s":"","protocol":0,"map":"","folder":"","game":"","app_id":0,"player_count":0,"max_players":0,"Bots":0,"server_type":"","server_os":"","password":false,"vac":false,"version":"","steam_id":0,"keywords":null,"game_id":0,"stv_port":0,"stv_name":"","players":null},{"server_id":2,"name":"Uncletopia | Chicago | 1 | All Maps","name_short":"chi-1","host":"chi-1.us.uncletopia.com","port":27015,"enabled":true,"region":"us-central","cc":"us","latitude":41.881832,"longitude":-87.62318,"reserved":0,"last_update":"0001-01-01T00:00:00Z","name_a2s":"Uncletopia | Chicago | 1 | All Maps","protocol":17,"map":"pl_swiftwater_final1","folder":"tf","game":"Team Fortress","app_id":440,"player_count":24,"max_players":24,"Bots":0,"server_type":"Dedicated","server_os":"Linux","password":true,"vac":true,"version":"7757534","steam_id":85568392924469984,"keywords":["nocrits","nodmgspread","payload","uncletopia"],"game_id":440,"stv_port":27016,"stv_name":"Uncletopia | Chicago | 1 | All Maps | STV","players":[{"user_id":485,"name":"Gheeotine","steam_id":76561198010181698,"connected_time":2657000000000,"state":"active","ping":95},{"user_id":438,"name":"blob","steam_id":76561198122375328,"connected_time":6786000000000,"state":"active","ping":69},{"user_id":496,"name":"garbage (very bad)","steam_id":76561198172454407,"connected_time":1994000000000,"state":"active","ping":75},{"user_id":502,"name":"Grundle Thunder","steam_id":76561197960790338,"connected_time":1211000000000,"state":"active","ping":84},{"user_id":488,"name":"Universal Knowledge Allah","steam_id":76561198855935442,"connected_time":2498000000000,"state":"active","ping":69},{"user_id":390,"name":"upside down cat","steam_id":76561198028288349,"connected_time":9219000000000,"state":"active","ping":89},{"user_id":497,"name":"Acid-talon","steam_id":76561198039545578,"connected_time":1937000000000,"state":"active","ping":75},{"user_id":503,"name":"StevieNicholai","steam_id":76561198327310266,"connected_time":1210000000000,"state":"active","ping":60},{"user_id":452,"name":"Owen","steam_id":76561198025446908,"connected_time":5678000000000,"state":"active","ping":114},{"user_id":506,"name":"Waddluigi","steam_id":76561198181328519,"connected_time":640000000000,"state":"active","ping":71},{"user_id":478,"name":"Mycelion","steam_id":76561198024999530,"connected_time":3615000000000,"state":"active","ping":133},{"user_id":482,"name":"Kitt(eh) ∑:3","steam_id":76561198110858518,"connected_time":3553000000000,"state":"active","ping":53},{"user_id":484,"name":"Godmode","steam_id":76561198076240365,"connected_time":2732000000000,"state":"active","ping":62},{"user_id":483,"name":"wheres my drink?","steam_id":76561198031675881,"connected_time":3191000000000,"state":"active","ping":69},{"user_id":476,"name":"oh god","steam_id":76561198068558572,"connected_time":3654000000000,"state":"active","ping":89},{"user_id":471,"name":"Fudge_Cake","steam_id":76561198059218167,"connected_time":4149000000000,"state":"active","ping":76},{"user_id":507,"name":"edwinbrood","steam_id":76561198044848769,"connected_time":605000000000,"state":"active","ping":67},{"user_id":505,"name":"FuMoment (real)","steam_id":76561198281974391,"connected_time":642000000000,"state":"active","ping":62},{"user_id":492,"name":"CanadianScoot","steam_id":76561198847107866,"connected_time":2409000000000,"state":"active","ping":56},{"user_id":451,"name":"Sone","steam_id":76561198069601032,"connected_time":5735000000000,"state":"active","ping":78},{"user_id":446,"name":"Bismofunyuns","steam_id":76561198154206862,"connected_time":6558000000000,"state":"active","ping":104},{"user_id":437,"name":"Eins","steam_id":76561199030343810,"connected_time":6799000000000,"state":"active","ping":61},{"user_id":500,"name":"Λlxium","steam_id":76561198131272900,"connected_time":1223000000000,"state":"active","ping":60},{"user_id":501,"name":"Hylic","steam_id":76561199051314589,"connected_time":1222000000000,"state":"active","ping":60}]},{"server_id":106,"name":"Uncletopia | Chicago | 2 | All Maps","name_short":"chi-2","host":"chi-1.us.uncletopia.com","port":27025,"enabled":true,"region":"us-central","cc":"us","latitude":41.881832,"longitude":-87.62318,"reserved":0,"last_update":"0001-01-01T00:00:00Z","name_a2s":"Uncletopia | Chicago | 2 | All Maps","protocol":17,"map":"cp_snakewater_final1","folder":"tf","game":"Team Fortress","app_id":440,"player_count":24,"max_players":24,"Bots":0,"server_type":"Dedicated","server_os":"Linux","password":true,"vac":true,"version":"7757534","steam_id":85568392924469985,"keywords":["cp","nocrits","nodmgspread","uncletopia"],"game_id":440,"stv_port":27026,"stv_name":"Uncletopia | Chicago | 2 | All Maps | STV","players":[{"user_id":194,"name":"Capn. Wing Ding","steam_id":76561198076068424,"connected_time":4264000000000,"state":"active","ping":75},{"user_id":245,"name":"GiraffeMan","steam_id":76561198042104084,"connected_time":564000000000,"state":"active","ping":76},{"user_id":208,"name":"Nodin","steam_id":76561198135757376,"connected_time":2689000000000,"state":"active","ping":57},{"user_id":179,"name":"Fungus Head","steam_id":76561198066867150,"connected_time":4504000000000,"state":"active","ping":125},{"user_id":186,"name":"daffodil","steam_id":76561198049480053,"connected_time":4303000000000,"state":"active","ping":56},{"user_id":209,"name":"FreeZy","steam_id":76561198183906287,"connected_time":2669000000000,"state":"active","ping":62},{"user_id":235,"name":"Comfy Monkey","steam_id":76561197998434936,"connected_time":964000000000,"state":"active","ping":103},{"user_id":248,"name":"Yeagle","steam_id":76561199086620299,"connected_time":476000000000,"state":"active","ping":81},{"user_id":169,"name":"Cyber Cylon","steam_id":76561198048972781,"connected_time":5366000000000,"state":"active","ping":61},{"user_id":246,"name":"Forevershooting","steam_id":76561198124213574,"connected_time":541000000000,"state":"active","ping":115},{"user_id":249,"name":"rlty","steam_id":76561198009395055,"connected_time":415000000000,"state":"active","ping":66},{"user_id":247,"name":"Miller™","steam_id":76561198085090516,"connected_time":506000000000,"state":"active","ping":89},{"user_id":205,"name":"Toottoot","steam_id":76561197992404836,"connected_time":2748000000000,"state":"active","ping":51},{"user_id":240,"name":"the entire cast of shrek 2","steam_id":76561198367019006,"connected_time":816000000000,"state":"active","ping":71},{"user_id":250,"name":"Rowan","steam_id":76561199002411211,"connected_time":362000000000,"state":"active","ping":128},{"user_id":223,"name":"Cooldude_15","steam_id":76561198346713382,"connected_time":1859000000000,"state":"active","ping":43},{"user_id":196,"name":"years","steam_id":76561197994098627,"connected_time":4061000000000,"state":"active","ping":115},{"user_id":251,"name":"Ashe Fox","steam_id":76561198073404069,"connected_time":350000000000,"state":"active","ping":75},{"user_id":229,"name":"MilkDust","steam_id":76561199130046427,"connected_time":1780000000000,"state":"active","ping":57},{"user_id":252,"name":"MoldyCoffee936","steam_id":76561198099061153,"connected_time":224000000000,"state":"active","ping":103},{"user_id":253,"name":"gps","steam_id":76561198067492304,"connected_time":65000000000,"state":"active","ping":120},{"user_id":128,"name":"Young-OG","steam_id":76561198058800479,"connected_time":8985000000000,"state":"active","ping":81},{"user_id":237,"name":"Muejiza","steam_id":76561199467836831,"connected_time":845000000000,"state":"active","ping":63},{"user_id":244,"name":"Maik","steam_id":76561198045257088,"connected_time":757000000000,"state":"active","ping":129}]},{"server_id":402,"name":"Uncletopia | Chicago | 3 | All Maps","name_short":"chi-3","host":"chi-1.us.uncletopia.com","port":27035,"enabled":true,"region":"us-central","cc":"us","latitude":41.881832,"longitude":-87.62318,"reserved":0,"last_update":"0001-01-01T00:00:00Z","name_a2s":"Uncletopia | Chicago | 3 | All Maps","protocol":17,"map":"pl_thundermountain","folder":"tf","game":"Team Fortress","app_id":440,"player_count":24,"max_players":24,"Bots":0,"server_type":"Dedicated","server_os":"Linux","password":true,"vac":true,"version":"7757534","steam_id":85568392924515191,"keywords":["nocrits","nodmgspread","payload","uncletopia"],"game_id":440,"stv_port":27036,"stv_name":"Uncletopia | Chicago | 3 | All Maps | STV","players":[{"user_id":449,"name":"zero .","steam_id":76561198880290310,"connected_time":783000000000,"state":"active","ping":125},{"user_id":432,"name":"the lesbianist pyroshark","steam_id":76561198374227766,"connected_time":3157000000000,"state":"active","ping":70},{"user_id":443,"name":"weeb_whacker #Jenius","steam_id":76561198187098041,"connected_time":2555000000000,"state":"active","ping":57},{"user_id":461,"name":"m yfrogs","steam_id":76561198371149432,"connected_time":702000000000,"state":"active","ping":47},{"user_id":451,"name":"SpaceCatPro","steam_id":76561199243795978,"connected_time":777000000000,"state":"active","ping":78},{"user_id":448,"name":"ChillyJones","steam_id":76561198017658702,"connected_time":1158000000000,"state":"active","ping":80},{"user_id":462,"name":"A Future US Army Soldier","steam_id":76561198008263869,"connected_time":692000000000,"state":"active","ping":73},{"user_id":452,"name":"Acro Banwagon","steam_id":76561198092451804,"connected_time":774000000000,"state":"active","ping":55},{"user_id":455,"name":"athletesfoot","steam_id":76561197997331867,"connected_time":766000000000,"state":"active","ping":57},{"user_id":460,"name":"wyatt","steam_id":76561198253574099,"connected_time":738000000000,"state":"active","ping":59},{"user_id":473,"name":"∀ɐ","steam_id":76561198139718219,"connected_time":249000000000,"state":"active","ping":77},{"user_id":472,"name":"pearly","steam_id":76561198017274978,"connected_time":283000000000,"state":"active","ping":84},{"user_id":464,"name":"Dieu-Sama","steam_id":76561198002075862,"connected_time":591000000000,"state":"active","ping":84},{"user_id":466,"name":"Stew Eater","steam_id":76561198978307159,"connected_time":528000000000,"state":"active","ping":69},{"user_id":421,"name":"Buho Gaming","steam_id":76561198106327673,"connected_time":4374000000000,"state":"active","ping":96},{"user_id":467,"name":"trenchpines","steam_id":76561199165140868,"connected_time":444000000000,"state":"active","ping":173},{"user_id":459,"name":"I Like Bread","steam_id":76561199015644213,"connected_time":749000000000,"state":"active","ping":99},{"user_id":405,"name":"Desse","steam_id":76561198817390149,"connected_time":5849000000000,"state":"active","ping":64},{"user_id":442,"name":"ecks","steam_id":76561197978114705,"connected_time":2704000000000,"state":"active","ping":61},{"user_id":438,"name":"Cousin Corn on the Cob","steam_id":76561198049837377,"connected_time":3028000000000,"state":"active","ping":49},{"user_id":471,"name":"ZBaldTop","steam_id":76561199396318132,"connected_time":290000000000,"state":"active","ping":52},{"user_id":469,"name":"SuperFresh","steam_id":76561198200723198,"connected_time":371000000000,"state":"active","ping":42},{"user_id":344,"name":"Laksbi","steam_id":76561198151205759,"connected_time":10812000000000,"state":"active","ping":99},{"user_id":347,"name":"Birch","steam_id":76561198316231704,"connected_time":10760000000000,"state":"active","ping":59}]},{"server_id":403,"name":"Uncletopia | Chicago | 4 | All Maps","name_short":"chi-4","host":"chi-1.us.uncletopia.com","port":27045,"enabled":true,"region":"us-central","cc":"us","latitude":41.881832,"longitude":-87.62318,"reserved":0,"last_update":"0001-01-01T00:00:00Z","name_a2s":"Uncletopia | Chicago | 4 | All Maps","protocol":17,"map":"koth_highpass","folder":"tf","game":"Team Fortress","app_id":440,"player_count":24,"max_players":24,"Bots":0,"server_type":"Dedicated","server_os":"Linux","password":true,"vac":true,"version":"7757534","steam_id":85568392924515193,"keywords":["cp","nocrits","nodmgspread","uncletopia"],"game_id":440,"stv_port":27046,"stv_name":"Uncletopia | Chicago | 4 | All Maps | STV","players":[{"user_id":597,"name":"Nodspine","steam_id":76561198253579994,"connected_time":1343000000000,"state":"active","ping":137},{"user_id":485,"name":"Ofn I Mi","steam_id":76561199232403503,"connected_time":5401000000000,"state":"active","ping":70},{"user_id":623,"name":"OpenDown","steam_id":76561198064132688,"connected_time":105000000000,"state":"active","ping":145},{"user_id":617,"name":"Roberto Del Fuego","steam_id":76561198043458554,"connected_time":257000000000,"state":"active","ping":39},{"user_id":600,"name":"Coup de Grass","steam_id":76561198011643226,"connected_time":1000000000000,"state":"active","ping":44},{"user_id":620,"name":"mdharsy","steam_id":76561198065831053,"connected_time":182000000000,"state":"active","ping":75},{"user_id":595,"name":"Rock Kickass","steam_id":76561198450510841,"connected_time":1406000000000,"state":"active","ping":113},{"user_id":608,"name":"Dojoloachfr","steam_id":76561198826298849,"connected_time":921000000000,"state":"active","ping":85},{"user_id":624,"name":"Arrythmia","steam_id":76561198093748123,"connected_time":98000000000,"state":"active","ping":91},{"user_id":627,"name":"sharia compliant gamer","steam_id":76561198005884261,"connected_time":28000000000,"state":"active","ping":60},{"user_id":619,"name":"xthyl","steam_id":76561199361299006,"connected_time":203000000000,"state":"active","ping":94},{"user_id":613,"name":"faze pantalla","steam_id":76561198250215734,"connected_time":633000000000,"state":"active","ping":69},{"user_id":587,"name":"ENA","steam_id":76561198057457396,"connected_time":1473000000000,"state":"active","ping":85},{"user_id":621,"name":"Complex_Divine","steam_id":76561198812369488,"connected_time":176000000000,"state":"active","ping":80},{"user_id":622,"name":"Grimace D. Drippings","steam_id":76561198050849790,"connected_time":126000000000,"state":"active","ping":145},{"user_id":606,"name":"vyx","steam_id":76561198037205391,"connected_time":966000000000,"state":"active","ping":62},{"user_id":625,"name":"deepmeta","steam_id":76561199053600691,"connected_time":74000000000,"state":"active","ping":70},{"user_id":626,"name":"dbelow_","steam_id":76561198056148853,"connected_time":48000000000,"state":"active","ping":65},{"user_id":611,"name":"Satan-2","steam_id":76561199231742764,"connected_time":754000000000,"state":"active","ping":70},{"user_id":599,"name":"PeopleOrderOurPatties","steam_id":76561198323144922,"connected_time":1330000000000,"state":"active","ping":56},{"user_id":628,"name":"Kaya #SaveTF2","steam_id":76561198053907503,"connected_time":18000000000,"state":"active","ping":83},{"user_id":629,"name":"Kit Carson","steam_id":76561198115691546,"connected_time":9000000000,"state":"spawning","ping":105},{"user_id":607,"name":"Johnny Lawrence #JohnnyMaxxing","steam_id":76561199367141671,"connected_time":951000000000,"state":"active","ping":95},{"user_id":469,"name":"sweppy","steam_id":76561198035457667,"connected_time":6060000000000,"state":"active","ping":70}]},{"server_id":36,"name":"Uncletopia | Chicago | 5 | All Maps","name_short":"chi-5","host":"chi-2.us.uncletopia.com","port":27015,"enabled":true,"region":"us-central","cc":"us","latitude":41.881832,"longitude":-87.62318,"reserved":0,"last_update":"0001-01-01T00:00:00Z","name_a2s":"Uncletopia | Chicago | 5 | All Maps","protocol":17,"map":"pl_swiftwater_final1","folder":"tf","game":"Team Fortress","app_id":440,"player_count":24,"max_players":24,"Bots":0,"server_type":"Dedicated","server_os":"Linux","password":true,"vac":true,"version":"7757534","steam_id":85568392924866362,"keywords":["nocrits","nodmgspread","payload","uncletopia"],"game_id":440,"stv_port":27016,"stv_name":"Uncletopia | Chicago | 5 | All Maps | STV","players":[{"user_id":152,"name":"ChebJeb","steam_id":76561198981377081,"connected_time":2964000000000,"state":"active","ping":80},{"user_id":181,"name":"evnobev","steam_id":76561198038966462,"connected_time":1408000000000,"state":"active","ping":54},{"user_id":188,"name":"Phillip Jeffries","steam_id":76561198064052174,"connected_time":810000000000,"state":"active","ping":57},{"user_id":115,"name":"Gourdian Gang #3","steam_id":76561198120758046,"connected_time":4978000000000,"state":"active","ping":60},{"user_id":177,"name":"Buddybudman","steam_id":76561198144316911,"connected_time":1645000000000,"state":"active","ping":65},{"user_id":169,"name":"Happy eye (spellcaster)","steam_id":76561198116106967,"connected_time":1968000000000,"state":"active","ping":45},{"user_id":187,"name":"Hob-Goblin Jim The IV","steam_id":76561199046650666,"connected_time":873000000000,"state":"active","ping":62},{"user_id":132,"name":"Puke Skyfucker","steam_id":76561198012846213,"connected_time":4133000000000,"state":"active","ping":72},{"user_id":172,"name":"Adam (Cursed Confetti Creature)","steam_id":76561198317690197,"connected_time":1917000000000,"state":"active","ping":46},{"user_id":102,"name":"Gourdian Gang #8","steam_id":76561198068738250,"connected_time":5667000000000,"state":"active","ping":116},{"user_id":184,"name":"yayte","steam_id":76561198311004039,"connected_time":1140000000000,"state":"active","ping":85},{"user_id":173,"name":"Bobbn","steam_id":76561198876124683,"connected_time":1745000000000,"state":"active","ping":72},{"user_id":153,"name":"KevCraft","steam_id":76561199000622939,"connected_time":2960000000000,"state":"active","ping":80},{"user_id":133,"name":"Gourdian Gang #2","steam_id":76561198251054454,"connected_time":4067000000000,"state":"active","ping":68},{"user_id":180,"name":"muffin","steam_id":76561199101981082,"connected_time":1476000000000,"state":"active","ping":65},{"user_id":166,"name":"Gourdian Gang #1","steam_id":76561198041460359,"connected_time":2070000000000,"state":"active","ping":126},{"user_id":167,"name":"aversa","steam_id":76561198840460101,"connected_time":2058000000000,"state":"active","ping":75},{"user_id":86,"name":"Gourdian Gang #11","steam_id":76561197961299302,"connected_time":6490000000000,"state":"active","ping":52},{"user_id":182,"name":"Miner2495","steam_id":76561198445904523,"connected_time":1384000000000,"state":"active","ping":62},{"user_id":176,"name":"Pinapley","steam_id":76561198063130298,"connected_time":1670000000000,"state":"active","ping":120},{"user_id":168,"name":"Jennifer Aniston's Nipples","steam_id":76561198086107548,"connected_time":2054000000000,"state":"active","ping":70},{"user_id":136,"name":"Justis","steam_id":76561197963835016,"connected_time":3773000000000,"state":"active","ping":70},{"user_id":155,"name":"Crylec","steam_id":76561198092755279,"connected_time":2940000000000,"state":"active","ping":79},{"user_id":190,"name":"CrunchySaturns","steam_id":76561198126780534,"connected_time":460000000000,"state":"active","ping":86}]},{"server_id":37,"name":"Uncletopia | Chicago | 6 | All Maps","name_short":"chi-6","host":"chi-2.us.uncletopia.com","port":27025,"enabled":true,"region":"us-central","cc":"us","latitude":41.881832,"longitude":-87.62318,"reserved":0,"last_update":"0001-01-01T00:00:00Z","name_a2s":"Uncletopia | Chicago | 6 | All Maps","protocol":17,"map":"pl_frontier_final","folder":"tf","game":"Team Fortress","app_id":440,"player_count":24,"max_players":24,"Bots":0,"server_type":"Dedicated","server_os":"Linux","password":true,"vac":true,"version":"7757534","steam_id":85568392924866363,"keywords":["nocrits","nodmgspread","payload","uncletopia"],"game_id":440,"stv_port":27026,"stv_name":"Uncletopia | Chicago | 6 | All Maps | STV","players":[{"user_id":76,"name":"Pinder","steam_id":76561198176708643,"connected_time":150000000000,"state":"active","ping":95},{"user_id":50,"name":"papi Chulo","steam_id":76561198126274984,"connected_time":1676000000000,"state":"active","ping":139},{"user_id":57,"name":"Olive","steam_id":76561198003474783,"connected_time":1226000000000,"state":"active","ping":74},{"user_id":64,"name":"Depresso","steam_id":76561198394787270,"connected_time":701000000000,"state":"active","ping":71},{"user_id":24,"name":"Dispenser (Twan)","steam_id":76561197991064908,"connected_time":2303000000000,"state":"active","ping":74},{"user_id":53,"name":"Viokik","steam_id":76561198408846602,"connected_time":1534000000000,"state":"active","ping":68},{"user_id":26,"name":"magical_mage0","steam_id":76561198213271916,"connected_time":2260000000000,"state":"active","ping":63},{"user_id":75,"name":"Decimus","steam_id":76561198341781527,"connected_time":191000000000,"state":"active","ping":75},{"user_id":58,"name":"extinct111","steam_id":76561199013696367,"connected_time":1199000000000,"state":"active","ping":64},{"user_id":32,"name":"Transformer6000","steam_id":76561199261627100,"connected_time":2014000000000,"state":"active","ping":74},{"user_id":33,"name":"Mythic","steam_id":76561198028616665,"connected_time":2007000000000,"state":"active","ping":55},{"user_id":66,"name":"Mister36","steam_id":76561198019132100,"connected_time":558000000000,"state":"active","ping":50},{"user_id":35,"name":"Poomanchu","steam_id":76561198070071631,"connected_time":1970000000000,"state":"active","ping":91},{"user_id":77,"name":"JohnnyGitGud","steam_id":76561198401455467,"connected_time":149000000000,"state":"active","ping":112},{"user_id":56,"name":"Prof. Abedul","steam_id":76561198146171581,"connected_time":1266000000000,"state":"active","ping":128},{"user_id":71,"name":"Mara Roo","steam_id":76561198279341789,"connected_time":352000000000,"state":"active","ping":90},{"user_id":41,"name":"craxyt","steam_id":76561198050192689,"connected_time":1897000000000,"state":"active","ping":102},{"user_id":74,"name":"META.exe","steam_id":76561199067098696,"connected_time":298000000000,"state":"active","ping":94},{"user_id":67,"name":"b0nes______________________WANG","steam_id":76561198120312532,"connected_time":516000000000,"state":"active","ping":60},{"user_id":44,"name":"bb.rrr","steam_id":76561198339644583,"connected_time":1868000000000,"state":"active","ping":60},{"user_id":45,"name":"My dad owns Club Penguin.","steam_id":76561198032864436,"connected_time":1867000000000,"state":"active","ping":72},{"user_id":52,"name":"Bottle","steam_id":76561198044031558,"connected_time":1631000000000,"state":"active","ping":71},{"user_id":78,"name":"haya","steam_id":76561198125094179,"connected_time":33000000000,"state":"active","ping":39},{"user_id":49,"name":"boppetson","steam_id":76561198073529045,"connected_time":1783000000000,"state":"active","ping":68}]},{"server_id":38,"name":"Uncletopia | Chicago | 7 | Stopwatch Beta","name_short":"chi-7","host":"chi-2.us.uncletopia.com","port":27035,"enabled":true,"region":"us-central","cc":"us","latitude":41.881832,"longitude":-87.62318,"reserved":0,"last_update":"0001-01-01T00:00:00Z","name_a2s":"Uncletopia | Chicago | 7 | Stopwatch Beta","protocol":17,"map":"workshop/koth_ramjam_rc1.ugc459778887","folder":"tf","game":"Team Fortress","app_id":440,"player_count":0,"max_players":24,"Bots":0,"server_type":"Dedicated","server_os":"Linux","password":true,"vac":true,"version":"7757534","steam_id":85568392924866364,"keywords":["cp","nocrits","nodmgspread","uncletopia"],"game_id":440,"stv_port":27036,"stv_name":"Uncletopia | Chicago | 7 | Stopwatch Beta | STV","players":null},{"server_id":39,"name":"Uncletopia | Chicago | 8 | Community","name_short":"chi-8","host":"chi-2.us.uncletopia.com","port":27045,"enabled":true,"region":"us-central","cc":"us","latitude":41.881832,"longitude":-87.62318,"reserved":0,"last_update":"0001-01-01T00:00:00Z","name_a2s":"Uncletopia | Chicago | 8 | Community","protocol":17,"map":"workshop/koth_kemptown_rc1.ugc767410655","folder":"tf","game":"Team Fortress","app_id":440,"player_count":1,"max_players":24,"Bots":0,"server_type":"Dedicated","server_os":"Linux","password":true,"vac":true,"version":"7757534","steam_id":85568392924866365,"keywords":["cp","nocrits","nodmgspread","uncletopia"],"game_id":440,"stv_port":27046,"stv_name":"Uncletopia | Chicago | 8 | Community | STV","players":[{"user_id":13,"name":"cooljaidon1223","steam_id":76561199079292596,"connected_time":20000000000,"state":"spawning","ping":168}]},{"server_id":8,"name":"Uncletopia | Dallas | 1 | All Maps","name_short":"dal-1","host":"dal-1.us.uncletopia.com","port":27015,"enabled":true,"region":"us-central","cc":"us","latitude":32.779167,"longitude":-96.80889,"reserved":0,"last_update":"0001-01-01T00:00:00Z","name_a2s":"Uncletopia | Dallas | 1 | All Maps","protocol":17,"map":"pl_swiftwater_final1","folder":"tf","game":"Team Fortress","app_id":440,"player_count":24,"max_players":24,"Bots":0,"server_type":"Dedicated","server_os":"Linux","password":true,"vac":true,"version":"7757534","steam_id":85568392924469986,"keywords":["nocrits","nodmgspread","payload","uncletopia"],"game_id":440,"stv_port":27016,"stv_name":"Uncletopia | Dallas | 1 | All Maps | STV","players":[{"user_id":435,"name":"Sagertooth","steam_id":76561198060863894,"connected_time":304000000000,"state":"active","ping":59},{"user_id":285,"name":"Brass beast heavy","steam_id":76561198274197623,"connected_time":9851000000000,"state":"active","ping":164},{"user_id":426,"name":"annunaki","steam_id":76561198126358045,"connected_time":950000000000,"state":"active","ping":83},{"user_id":433,"name":"nav","steam_id":76561198872608266,"connected_time":557000000000,"state":"active","ping":91},{"user_id":386,"name":"voidpuppy","steam_id":76561198799922000,"connected_time":3915000000000,"state":"active","ping":76},{"user_id":436,"name":"Tomoscones","steam_id":76561198813586588,"connected_time":273000000000,"state":"active","ping":96},{"user_id":402,"name":"beep boop","steam_id":76561198414336279,"connected_time":2685000000000,"state":"active","ping":66},{"user_id":417,"name":"Project_Counter","steam_id":76561198152786076,"connected_time":1488000000000,"state":"active","ping":52},{"user_id":429,"name":"FuzzyWuzzyVonBear","steam_id":76561198273020482,"connected_time":895000000000,"state":"active","ping":76},{"user_id":437,"name":"Mellon","steam_id":76561198092509893,"connected_time":106000000000,"state":"active","ping":48},{"user_id":387,"name":"De_pressed","steam_id":76561198154619174,"connected_time":3889000000000,"state":"active","ping":94},{"user_id":383,"name":"Romo","steam_id":76561198243101572,"connected_time":3934000000000,"state":"active","ping":78},{"user_id":427,"name":"agb 4FUN","steam_id":76561198094512992,"connected_time":919000000000,"state":"active","ping":77},{"user_id":419,"name":"Captain MLG","steam_id":76561199183321645,"connected_time":1238000000000,"state":"active","ping":54},{"user_id":430,"name":"flopolol","steam_id":76561199440904423,"connected_time":891000000000,"state":"active","ping":115},{"user_id":424,"name":"dick suckcharlie","steam_id":76561198233978116,"connected_time":1113000000000,"state":"active","ping":95},{"user_id":393,"name":"NBA Youngboy","steam_id":76561199118797200,"connected_time":3298000000000,"state":"active","ping":57},{"user_id":412,"name":"karbomb","steam_id":76561198120744480,"connected_time":1836000000000,"state":"active","ping":44},{"user_id":438,"name":"wahooka","steam_id":76561197981211922,"connected_time":97000000000,"state":"active","ping":94},{"user_id":391,"name":"MINILEGOLAS","steam_id":76561198859362058,"connected_time":3550000000000,"state":"active","ping":81},{"user_id":420,"name":"BLOOD DRIP FROM HER MOUTH","steam_id":76561198100942212,"connected_time":1213000000000,"state":"active","ping":76},{"user_id":431,"name":"Your Local NPR Station","steam_id":76561198143830279,"connected_time":886000000000,"state":"active","ping":58},{"user_id":432,"name":"Ellie","steam_id":76561198388123421,"connected_time":882000000000,"state":"active","ping":76},{"user_id":439,"name":"Moon","steam_id":76561198007449103,"connected_time":86000000000,"state":"active","ping":171}]},{"server_id":108,"name":"Uncletopia | Dallas | 2 | All Maps","name_short":"dal-2","host":"dal-1.us.uncletopia.com","port":27025,"enabled":true,"region":"us-central","cc":"us","latitude":32.779167,"longitude":-96.80889,"reserved":0,"last_update":"0001-01-01T00:00:00Z","name_a2s":"Uncletopia | Dallas | 2 | All Maps","protocol":17,"map":"plr_bananabay","folder":"tf","game":"Team Fortress","app_id":440,"player_count":23,"max_players":24,"Bots":0,"server_type":"Dedicated","server_os":"Linux","password":true,"vac":true,"version":"7757534","steam_id":85568392924469988,"keywords":["nocrits","nodmgspread","payload","uncletopia"],"game_id":440,"stv_port":27026,"stv_name":"Uncletopia | Dallas | 2 | All Maps | STV","players":[{"user_id":10,"name":"pepsoi","steam_id":76561198361818082,"connected_time":10385000000000,"state":"active","ping":67},{"user_id":156,"name":"Kingmango3","steam_id":76561198284345763,"connected_time":215000000000,"state":"active","ping":102},{"user_id":145,"name":"A Duck Phone!?","steam_id":76561198044707749,"connected_time":1052000000000,"state":"active","ping":81},{"user_id":149,"name":"Coffee","steam_id":76561198154646418,"connected_time":333000000000,"state":"active","ping":57},{"user_id":123,"name":"Jujitsu82","steam_id":76561198445522556,"connected_time":2375000000000,"state":"active","ping":94},{"user_id":146,"name":"CptSkippy","steam_id":76561198127439343,"connected_time":804000000000,"state":"active","ping":88},{"user_id":148,"name":"The Glizzanator","steam_id":76561198115355451,"connected_time":707000000000,"state":"active","ping":72},{"user_id":140,"name":"Unban Level Eater (She/They)","steam_id":76561198823616667,"connected_time":1470000000000,"state":"active","ping":61},{"user_id":142,"name":"FEESH EGG","steam_id":76561198164699517,"connected_time":1304000000000,"state":"active","ping":77},{"user_id":64,"name":"Zero","steam_id":76561199383267408,"connected_time":6962000000000,"state":"active","ping":49},{"user_id":152,"name":"darkness.danny3481","steam_id":76561198132808002,"connected_time":307000000000,"state":"active","ping":78},{"user_id":116,"name":"Scottish meatballs.","steam_id":76561199405759754,"connected_time":3058000000000,"state":"active","ping":62},{"user_id":82,"name":"Jelpo","steam_id":76561198406920072,"connected_time":5284000000000,"state":"active","ping":76},{"user_id":83,"name":"MrButter","steam_id":76561198845773528,"connected_time":5119000000000,"state":"active","ping":96},{"user_id":157,"name":"Biosock Infiknit","steam_id":76561198072693794,"connected_time":128000000000,"state":"active","ping":65},{"user_id":153,"name":"IPlayGamez","steam_id":76561198041387508,"connected_time":302000000000,"state":"active","ping":117},{"user_id":125,"name":"orange rind (eating bagels)","steam_id":76561198130242461,"connected_time":1871000000000,"state":"active","ping":57},{"user_id":121,"name":"AtomLao","steam_id":76561198886167680,"connected_time":2518000000000,"state":"active","ping":68},{"user_id":155,"name":"bolainassr0","steam_id":76561199079078845,"connected_time":272000000000,"state":"active","ping":101},{"user_id":69,"name":"WillDeBuilder","steam_id":76561198084092564,"connected_time":6693000000000,"state":"active","ping":44},{"user_id":158,"name":"Lynux","steam_id":76561198343651916,"connected_time":34000000000,"state":"spawning","ping":143},{"user_id":150,"name":"Flarpjacks","steam_id":76561199117086921,"connected_time":322000000000,"state":"active","ping":55},{"user_id":159,"name":"hack fraud","steam_id":76561198015036066,"connected_time":31000000000,"state":"active","ping":69}]},{"server_id":5,"name":"Uncletopia | Frankfurt | 1 | All Maps","name_short":"frk-1","host":"frk-1.de.uncletopia.com","port":27015,"enabled":true,"region":"eu","cc":"de","latitude":50.110924,"longitude":8.682127,"reserved":0,"last_update":"0001-01-01T00:00:00Z","name_a2s":"Uncletopia | Frankfurt | 1 | All Maps","protocol":17,"map":"koth_highpass","folder":"tf","game":"Team Fortress","app_id":440,"player_count":0,"max_players":24,"Bots":0,"server_type":"Dedicated","server_os":"Linux","password":true,"vac":true,"version":"7757534","steam_id":85568392924469989,"keywords":["cp","nocrits","nodmgspread","uncletopia"],"game_id":440,"stv_port":27016,"stv_name":"Uncletopia | Frankfurt | 1 | All Maps | STV","players":null},{"server_id":110,"name":"Uncletopia | Frankfurt | 2 | All Maps","name_short":"frk-2","host":"frk-1.de.uncletopia.com","port":27025,"enabled":true,"region":"eu","cc":"de","latitude":50.110924,"longitude":8.682127,"reserved":0,"last_update":"0001-01-01T00:00:00Z","name_a2s":"Uncletopia | Frankfurt | 2 | All Maps","protocol":17,"map":"cp_altitude","folder":"tf","game":"Team Fortress","app_id":440,"player_count":0,"max_players":24,"Bots":0,"server_type":"Dedicated","server_os":"Linux","password":true,"vac":true,"version":"7757534","steam_id":85568392924469990,"keywords":["cp","nocrits","nodmgspread","uncletopia"],"game_id":440,"stv_port":27026,"stv_name":"Uncletopia | Frankfurt | 2 | All Maps | STV","players":null},{"server_id":308,"name":"Uncletopia | Frankfurt | 3 | All Maps","name_short":"frk-3","host":"frk-1.de.uncletopia.com","port":27035,"enabled":true,"region":"eu","cc":"de","latitude":50.110924,"longitude":8.682127,"reserved":0,"last_update":"0001-01-01T00:00:00Z","name_a2s":"Uncletopia | Frankfurt | 3 | All Maps","protocol":17,"map":"koth_viaduct","folder":"tf","game":"Team Fortress","app_id":440,"player_count":0,"max_players":24,"Bots":0,"server_type":"Dedicated","server_os":"Linux","password":true,"vac":true,"version":"7757534","steam_id":85568392924504274,"keywords":["cp","nocrits","nodmgspread","uncletopia"],"game_id":440,"stv_port":27036,"stv_name":"Uncletopia | Frankfurt | 3 | All Maps | STV","players":null},{"server_id":309,"name":"Uncletopia | Frankfurt | 4 | All Maps","name_short":"frk-4","host":"frk-1.de.uncletopia.com","port":27045,"enabled":true,"region":"eu","cc":"de","latitude":50.110924,"longitude":8.682127,"reserved":0,"last_update":"0001-01-01T00:00:00Z","name_a2s":"Uncletopia | Frankfurt | 4 | All Maps","protocol":17,"map":"cp_dustbowl","folder":"tf","game":"Team Fortress","app_id":440,"player_count":0,"max_players":24,"Bots":0,"server_type":"Dedicated","server_os":"Linux","password":true,"vac":true,"version":"7757534","steam_id":85568392924504275,"keywords":["cp","nocrits","nodmgspread","uncletopia"],"game_id":440,"stv_port":27046,"stv_name":"Uncletopia | Frankfurt | 4 | All Maps | STV","players":null},{"server_id":310,"name":"Uncletopia | Frankfurt | 5 | All Maps","name_short":"frk-5","host":"frk-1.de.uncletopia.com","port":27055,"enabled":true,"region":"eu","cc":"de","latitude":50.110924,"longitude":8.682127,"reserved":0,"last_update":"0001-01-01T00:00:00Z","name_a2s":"Uncletopia | Frankfurt | 5 | All Maps","protocol":17,"map":"koth_cascade","folder":"tf","game":"Team Fortress","app_id":440,"player_count":0,"max_players":24,"Bots":0,"server_type":"Dedicated","server_os":"Linux","password":true,"vac":true,"version":"7757534","steam_id":85568392924504277,"keywords":["cp","nocrits","nodmgspread","uncletopia"],"game_id":440,"stv_port":27056,"stv_name":"Uncletopia | Frankfurt | 5 | All Maps | STV","players":null},{"server_id":311,"name":"Uncletopia | Frankfurt | 6 | All Maps","name_short":"frk-6","host":"frk-1.de.uncletopia.com","port":27065,"enabled":true,"region":"eu","cc":"de","latitude":50.110924,"longitude":8.682127,"reserved":0,"last_update":"0001-01-01T00:00:00Z","name_a2s":"Uncletopia | Frankfurt | 6 | All Maps","protocol":17,"map":"koth_viaduct","folder":"tf","game":"Team Fortress","app_id":440,"player_count":0,"max_players":24,"Bots":0,"server_type":"Dedicated","server_os":"Linux","password":true,"vac":true,"version":"7757534","steam_id":85568392924504278,"keywords":["cp","nocrits","nodmgspread","uncletopia"],"game_id":440,"stv_port":27066,"stv_name":"Uncletopia | Frankfurt | 6 | All Maps | STV","players":null},{"server_id":23,"name":"Uncletopia | Frankfurt | 7 | Stopwatch Beta","name_short":"frk-7","host":"frk-1.de.uncletopia.com","port":27075,"enabled":true,"region":"eu","cc":"de","latitude":50.110924,"longitude":8.682127,"reserved":0,"last_update":"0001-01-01T00:00:00Z","name_a2s":"Uncletopia | Frankfurt | 7 | Stopwatch Beta","protocol":17,"map":"pl_frontier_final","folder":"tf","game":"Team Fortress","app_id":440,"player_count":0,"max_players":24,"Bots":0,"server_type":"Dedicated","server_os":"Linux","password":true,"vac":true,"version":"7757534","steam_id":85568392924742827,"keywords":["nocrits","nodmgspread","payload","uncletopia"],"game_id":440,"stv_port":27076,"stv_name":"Uncletopia | Frankfurt | 7 | Stopwatch Beta | STV","players":null},{"server_id":24,"name":"Uncletopia | Frankfurt | 8 | Community","name_short":"frk-8","host":"frk-1.de.uncletopia.com","port":27085,"enabled":true,"region":"eu","cc":"de","latitude":50.110924,"longitude":8.682127,"reserved":0,"last_update":"0001-01-01T00:00:00Z","name_a2s":"Uncletopia | Frankfurt | 8 | Community","protocol":17,"map":"workshop/cp_logjam_rc12.ugc454812035","folder":"tf","game":"Team Fortress","app_id":440,"player_count":0,"max_players":24,"Bots":0,"server_type":"Dedicated","server_os":"Linux","password":true,"vac":true,"version":"7757534","steam_id":85568392924742828,"keywords":["cp","nocrits","nodmgspread","uncletopia"],"game_id":440,"stv_port":27086,"stv_name":"Uncletopia | Frankfurt | 8 | Community | STV","players":null},{"server_id":202,"name":"Uncletopia | Hong Kong | 1 | All Maps","name_short":"hgk-1","host":"hgk-1.hk.uncletopia.com","port":27015,"enabled":true,"region":"asia","cc":"hk","latitude":22.302711,"longitude":114.177216,"reserved":0,"last_update":"0001-01-01T00:00:00Z","name_a2s":"Uncletopia | Hong Kong | 1 | All Maps","protocol":17,"map":"pl_badwater","folder":"tf","game":"Team Fortress","app_id":440,"player_count":0,"max_players":24,"Bots":0,"server_type":"Dedicated","server_os":"Linux","password":true,"vac":true,"version":"7757534","steam_id":85568392924494504,"keywords":["nocrits","nodmgspread","payload","uncletopia"],"game_id":440,"stv_port":27016,"stv_name":"Uncletopia | Hong Kong | 1 | All Maps | STV","players":null},{"server_id":1,"name":"Uncletopia | Los Angeles | 1 | All Maps","name_short":"lax-1","host":"lax-1.us.uncletopia.com","port":27015,"enabled":true,"region":"us-west","cc":"us","latitude":33.94279,"longitude":-118.41004,"reserved":0,"last_update":"0001-01-01T00:00:00Z","name_a2s":"Uncletopia | Los Angeles | 1 | All Maps","protocol":17,"map":"cp_dustbowl","folder":"tf","game":"Team Fortress","app_id":440,"player_count":24,"max_players":24,"Bots":0,"server_type":"Dedicated","server_os":"Linux","password":true,"vac":true,"version":"7757534","steam_id":85568392924469991,"keywords":["cp","nocrits","nodmgspread","uncletopia"],"game_id":440,"stv_port":27016,"stv_name":"Uncletopia | Los Angeles | 1 | All Maps | STV","players":[{"user_id":184,"name":"HomesliceHobbes","steam_id":76561198042770895,"connected_time":157000000000,"state":"active","ping":73},{"user_id":159,"name":"GUINNESS ANYONE?","steam_id":76561197985970131,"connected_time":1991000000000,"state":"active","ping":125},{"user_id":178,"name":"LX-24","steam_id":76561198016168993,"connected_time":522000000000,"state":"active","ping":84},{"user_id":148,"name":"trans rights","steam_id":76561198066270313,"connected_time":3120000000000,"state":"active","ping":136},{"user_id":180,"name":"Magical.Puffin","steam_id":76561198129039275,"connected_time":478000000000,"state":"active","ping":67},{"user_id":177,"name":"matto1120","steam_id":76561198201321499,"connected_time":586000000000,"state":"active","ping":59},{"user_id":117,"name":"Nickolish","steam_id":76561198287046224,"connected_time":4597000000000,"state":"active","ping":46},{"user_id":181,"name":"Arthropod Enjoyer","steam_id":76561198980062131,"connected_time":425000000000,"state":"active","ping":115},{"user_id":155,"name":"Just a little bit blue?","steam_id":76561199113013688,"connected_time":2559000000000,"state":"active","ping":50},{"user_id":157,"name":"Moss","steam_id":76561198980149992,"connected_time":2044000000000,"state":"active","ping":144},{"user_id":175,"name":"doobiebob","steam_id":76561198071963742,"connected_time":966000000000,"state":"active","ping":55},{"user_id":163,"name":"Based gamer","steam_id":76561198096346593,"connected_time":1665000000000,"state":"active","ping":79},{"user_id":84,"name":"GoGo's Hungry Bussy","steam_id":76561198023080645,"connected_time":6367000000000,"state":"active","ping":123},{"user_id":150,"name":"lamadre07","steam_id":76561198067337453,"connected_time":3021000000000,"state":"active","ping":107},{"user_id":183,"name":"not a bot","steam_id":76561198319280303,"connected_time":286000000000,"state":"active","ping":69},{"user_id":174,"name":"r u guys going trick or treatin","steam_id":76561199074585110,"connected_time":1296000000000,"state":"active","ping":45},{"user_id":166,"name":"Bond","steam_id":76561198089262776,"connected_time":1591000000000,"state":"active","ping":85},{"user_id":167,"name":"Midi","steam_id":76561199179087677,"connected_time":1573000000000,"state":"active","ping":108},{"user_id":168,"name":"Quon Grene for Vice Prez","steam_id":76561198127545817,"connected_time":1569000000000,"state":"active","ping":70},{"user_id":176,"name":"online","steam_id":76561198192531745,"connected_time":957000000000,"state":"active","ping":59},{"user_id":144,"name":"Foggy","steam_id":76561198853222793,"connected_time":3323000000000,"state":"active","ping":89},{"user_id":111,"name":"zzz","steam_id":76561199066425911,"connected_time":4733000000000,"state":"active","ping":58},{"user_id":171,"name":"sushimomo","steam_id":76561198152131605,"connected_time":1518000000000,"state":"active","ping":131},{"user_id":173,"name":"Merach","steam_id":76561197994544587,"connected_time":1380000000000,"state":"active","ping":56}]},{"server_id":112,"name":"Uncletopia | Los Angeles | 2 | All Maps","name_short":"lax-2","host":"lax-1.us.uncletopia.com","port":27025,"enabled":true,"region":"us-west","cc":"us","latitude":33.94279,"longitude":-118.41004,"reserved":0,"last_update":"0001-01-01T00:00:00Z","name_a2s":"Uncletopia | Los Angeles | 2 | All Maps","protocol":17,"map":"koth_cascade","folder":"tf","game":"Team Fortress","app_id":440,"player_count":0,"max_players":24,"Bots":0,"server_type":"Dedicated","server_os":"Linux","password":true,"vac":true,"version":"7757534","steam_id":85568392924469992,"keywords":["cp","nocrits","nodmgspread","uncletopia"],"game_id":440,"stv_port":27026,"stv_name":"Uncletopia | Los Angeles | 2 | All Maps | STV","players":null},{"server_id":324,"name":"Uncletopia | Los Angeles | 3 | All Maps","name_short":"lax-3","host":"lax-1.us.uncletopia.com","port":27035,"enabled":true,"region":"us-west","cc":"us","latitude":33.94279,"longitude":-118.41004,"reserved":0,"last_update":"0001-01-01T00:00:00Z","name_a2s":"Uncletopia | Los Angeles | 3 | All Maps","protocol":17,"map":"koth_cascade","folder":"tf","game":"Team Fortress","app_id":440,"player_count":2,"max_players":24,"Bots":0,"server_type":"Dedicated","server_os":"Linux","password":true,"vac":true,"version":"7757534","steam_id":85568392924510198,"keywords":["cp","nocrits","nodmgspread","uncletopia"],"game_id":440,"stv_port":27036,"stv_name":"Uncletopia | Los Angeles | 3 | All Maps | STV","players":[{"user_id":17,"name":"MancalaMadMan","steam_id":76561198347324053,"connected_time":578000000000,"state":"active","ping":95},{"user_id":19,"name":"Ashified21","steam_id":76561199357672686,"connected_time":166000000000,"state":"active","ping":72}]},{"server_id":25,"name":"Uncletopia | Los Angeles | 4 | Stopwatch Beta","name_short":"lax-4","host":"lax-1.us.uncletopia.com","port":27045,"enabled":true,"region":"us-west","cc":"us","latitude":33.94279,"longitude":-118.41004,"reserved":0,"last_update":"0001-01-01T00:00:00Z","name_a2s":"Uncletopia | Los Angeles | 4 | Stopwatch Beta","protocol":17,"map":"pl_frontier_final","folder":"tf","game":"Team Fortress","app_id":440,"player_count":0,"max_players":24,"Bots":0,"server_type":"Dedicated","server_os":"Linux","password":true,"vac":true,"version":"7757534","steam_id":85568392924510199,"keywords":["nocrits","nodmgspread","payload","uncletopia"],"game_id":440,"stv_port":27046,"stv_name":"Uncletopia | Los Angeles | 4 | Stopwatch Beta | STV","players":null},{"server_id":11,"name":"Uncletopia | London | 1 | All Maps","name_short":"lon-1","host":"lon-1.uk.uncletopia.com","port":27015,"enabled":true,"region":"eu","cc":"gb","latitude":51.509865,"longitude":-0.118092,"reserved":0,"last_update":"0001-01-01T00:00:00Z","name_a2s":"Uncletopia | London | 1 | All Maps","protocol":17,"map":"pl_snowycoast","folder":"tf","game":"Team Fortress","app_id":440,"player_count":24,"max_players":24,"Bots":0,"server_type":"Dedicated","server_os":"Linux","password":true,"vac":true,"version":"7757534","steam_id":85568392924367362,"keywords":["nocrits","nodmgspread","payload","uncletopia"],"game_id":440,"stv_port":27016,"stv_name":"Uncletopia | London | 1 | All Maps | STV","players":[{"user_id":956,"name":"SuperBob103","steam_id":76561199175360012,"connected_time":1051000000000,"state":"active","ping":48},{"user_id":957,"name":"Kendo-6","steam_id":76561198318748304,"connected_time":1038000000000,"state":"active","ping":129},{"user_id":953,"name":"Toasted Toby","steam_id":76561198002139581,"connected_time":1261000000000,"state":"active","ping":60},{"user_id":958,"name":"Doublë","steam_id":76561198257836694,"connected_time":1002000000000,"state":"active","ping":36},{"user_id":885,"name":"cinny","steam_id":76561198832112629,"connected_time":7548000000000,"state":"active","ping":83},{"user_id":968,"name":"Fred","steam_id":76561198107137362,"connected_time":119000000000,"state":"active","ping":49},{"user_id":892,"name":"teddy","steam_id":76561198007436837,"connected_time":7293000000000,"state":"active","ping":42},{"user_id":940,"name":"Spooky the Ghost","steam_id":76561198322969864,"connected_time":2252000000000,"state":"active","ping":141},{"user_id":967,"name":"Owl","steam_id":76561198248266580,"connected_time":314000000000,"state":"active","ping":66},{"user_id":948,"name":"gibb (official)","steam_id":76561198074097655,"connected_time":1533000000000,"state":"active","ping":39},{"user_id":962,"name":"Cheshireycat","steam_id":76561198067204908,"connected_time":836000000000,"state":"active","ping":59},{"user_id":963,"name":"Racist -*issou*-","steam_id":76561198099433856,"connected_time":732000000000,"state":"active","ping":69},{"user_id":919,"name":"Blank","steam_id":76561198212308677,"connected_time":3619000000000,"state":"active","ping":68},{"user_id":950,"name":"Dr.Disrespect","steam_id":76561198043820228,"connected_time":1490000000000,"state":"active","ping":60},{"user_id":915,"name":"Slow Mode","steam_id":76561199414716848,"connected_time":4110000000000,"state":"active","ping":71},{"user_id":959,"name":"XXDANTEFANXX","steam_id":76561198197910725,"connected_time":962000000000,"state":"active","ping":68},{"user_id":966,"name":"Stone Solid Septim","steam_id":76561198087543005,"connected_time":435000000000,"state":"active","ping":33},{"user_id":946,"name":"rev up the bugatti wahey","steam_id":76561198079589665,"connected_time":1695000000000,"state":"active","ping":58},{"user_id":903,"name":"Volcyy","steam_id":76561198063979124,"connected_time":5457000000000,"state":"active","ping":46},{"user_id":955,"name":"tone' (real)","steam_id":76561198055552635,"connected_time":1113000000000,"state":"active","ping":60},{"user_id":954,"name":"Tsuruko","steam_id":76561198063618114,"connected_time":1247000000000,"state":"active","ping":75},{"user_id":935,"name":"RunicFeather","steam_id":76561198081170971,"connected_time":2647000000000,"state":"active","ping":91},{"user_id":951,"name":"vug","steam_id":76561198042227249,"connected_time":1488000000000,"state":"active","ping":45},{"user_id":882,"name":"KittyKate ❤","steam_id":76561198116340817,"connected_time":7813000000000,"state":"active","ping":60}]},{"server_id":114,"name":"Uncletopia | London | 2 | All Maps","name_short":"lon-2","host":"lon-1.uk.uncletopia.com","port":27025,"enabled":true,"region":"eu","cc":"gb","latitude":51.509865,"longitude":-0.118092,"reserved":0,"last_update":"0001-01-01T00:00:00Z","name_a2s":"Uncletopia | London | 2 | All Maps","protocol":17,"map":"pl_pier","folder":"tf","game":"Team Fortress","app_id":440,"player_count":23,"max_players":24,"Bots":0,"server_type":"Dedicated","server_os":"Linux","password":true,"vac":true,"version":"7757534","steam_id":85568392924470941,"keywords":["nocrits","nodmgspread","payload","uncletopia"],"game_id":440,"stv_port":27026,"stv_name":"Uncletopia | London | 2 | All Maps | STV","players":[{"user_id":430,"name":"FTN | Nice1","steam_id":76561198026969020,"connected_time":4964000000000,"state":"active","ping":87},{"user_id":490,"name":"MetaKrakalaka","steam_id":76561199095316646,"connected_time":739000000000,"state":"active","ping":120},{"user_id":477,"name":"Krow","steam_id":76561198817864089,"connected_time":1341000000000,"state":"active","ping":80},{"user_id":491,"name":"marceloose","steam_id":76561198360009237,"connected_time":586000000000,"state":"active","ping":41},{"user_id":429,"name":"FTN | Shakaman","steam_id":76561198039829758,"connected_time":4972000000000,"state":"active","ping":121},{"user_id":478,"name":"THVG","steam_id":76561199156685368,"connected_time":1231000000000,"state":"active","ping":75},{"user_id":493,"name":"csibe","steam_id":76561197960949281,"connected_time":489000000000,"state":"active","ping":76},{"user_id":480,"name":"JaydenForgotHisInfo","steam_id":76561199184684206,"connected_time":1154000000000,"state":"active","ping":161},{"user_id":481,"name":"Bolund Falkreath","steam_id":76561198531978435,"connected_time":1107000000000,"state":"active","ping":56},{"user_id":450,"name":"Cosmetic brain","steam_id":76561198055936410,"connected_time":3909000000000,"state":"active","ping":83},{"user_id":499,"name":"dlk","steam_id":76561198086660302,"connected_time":1000000000,"state":"spawning","ping":39},{"user_id":453,"name":"GunGuy","steam_id":76561198124510978,"connected_time":3774000000000,"state":"active","ping":42},{"user_id":483,"name":"Backup","steam_id":76561197999557567,"connected_time":1075000000000,"state":"active","ping":62},{"user_id":484,"name":"Frodo T Baggins","steam_id":76561198048090297,"connected_time":1064000000000,"state":"active","ping":148},{"user_id":494,"name":"孤独","steam_id":76561198331329777,"connected_time":467000000000,"state":"active","ping":71},{"user_id":487,"name":"hud_saytext_time 0","steam_id":76561198010327228,"connected_time":970000000000,"state":"active","ping":64},{"user_id":488,"name":"The destroyer of foreskin","steam_id":76561198135275966,"connected_time":890000000000,"state":"active","ping":159},{"user_id":444,"name":"hmscole09","steam_id":76561198811362788,"connected_time":4304000000000,"state":"active","ping":55},{"user_id":489,"name":"stuntz","steam_id":76561197974814348,"connected_time":756000000000,"state":"active","ping":73},{"user_id":394,"name":"darktheif54","steam_id":76561198043650119,"connected_time":6722000000000,"state":"active","ping":51},{"user_id":495,"name":"boo_thefeared","steam_id":76561198127967685,"connected_time":394000000000,"state":"active","ping":50},{"user_id":498,"name":"Dirt Road","steam_id":76561198210372012,"connected_time":242000000000,"state":"active","ping":144},{"user_id":497,"name":"some guy","steam_id":76561199119000874,"connected_time":273000000000,"state":"active","ping":129}]},{"server_id":320,"name":"Uncletopia | London | 3 | All Maps","name_short":"lon-3","host":"lon-1.uk.uncletopia.com","port":27035,"enabled":true,"region":"eu","cc":"gb","latitude":51.509865,"longitude":-0.118092,"reserved":0,"last_update":"0001-01-01T00:00:00Z","name_a2s":"Uncletopia | London | 3 | All Maps","protocol":17,"map":"koth_viaduct","folder":"tf","game":"Team Fortress","app_id":440,"player_count":0,"max_players":24,"Bots":0,"server_type":"Dedicated","server_os":"Linux","password":true,"vac":true,"version":"7757534","steam_id":85568392924510192,"keywords":["cp","nocrits","nodmgspread","uncletopia"],"game_id":440,"stv_port":27036,"stv_name":"Uncletopia | London | 3 | All Maps | STV","players":null},{"server_id":321,"name":"Uncletopia | London | 4 | All Maps","name_short":"lon-4","host":"lon-1.uk.uncletopia.com","port":27045,"enabled":true,"region":"eu","cc":"gb","latitude":51.509865,"longitude":-0.118092,"reserved":0,"last_update":"0001-01-01T00:00:00Z","name_a2s":"Uncletopia | London | 4 | All Maps","protocol":17,"map":"koth_viaduct","folder":"tf","game":"Team Fortress","app_id":440,"player_count":0,"max_players":24,"Bots":0,"server_type":"Dedicated","server_os":"Linux","password":true,"vac":true,"version":"7757534","steam_id":85568392924510193,"keywords":["cp","nocrits","nodmgspread","uncletopia"],"game_id":440,"stv_port":27046,"stv_name":"Uncletopia | London | 4 | All Maps | STV","players":null},{"server_id":21,"name":"Uncletopia | London | 5 | All Maps","name_short":"lon-5","host":"lon-1.uk.uncletopia.com","port":27055,"enabled":true,"region":"eu","cc":"gb","latitude":51.509865,"longitude":-0.118092,"reserved":0,"last_update":"0001-01-01T00:00:00Z","name_a2s":"Uncletopia | London | 5 | All Maps","protocol":17,"map":"cp_mountainlab","folder":"tf","game":"Team Fortress","app_id":440,"player_count":0,"max_players":24,"Bots":0,"server_type":"Dedicated","server_os":"Linux","password":true,"vac":true,"version":"7757534","steam_id":85568392924742829,"keywords":["cp","nocrits","nodmgspread","uncletopia"],"game_id":440,"stv_port":27056,"stv_name":"Uncletopia | London | 5 | All Maps | STV","players":null},{"server_id":22,"name":"Uncletopia | London | 6 | All Maps","name_short":"lon-6","host":"lon-1.uk.uncletopia.com","port":27065,"enabled":true,"region":"eu","cc":"gb","latitude":51.509865,"longitude":-0.118092,"reserved":0,"last_update":"0001-01-01T00:00:00Z","name_a2s":"Uncletopia | London | 6 | All Maps","protocol":17,"map":"koth_cascade","folder":"tf","game":"Team Fortress","app_id":440,"player_count":0,"max_players":24,"Bots":0,"server_type":"Dedicated","server_os":"Linux","password":true,"vac":true,"version":"7757534","steam_id":85568392924742830,"keywords":["cp","nocrits","nodmgspread","uncletopia"],"game_id":440,"stv_port":27066,"stv_name":"Uncletopia | London | 6 | All Maps | STV","players":null},{"server_id":40,"name":"Uncletopia | London | 7 | No Payload","name_short":"lon-7","host":"lon-1.uk.uncletopia.com","port":27075,"enabled":true,"region":"eu","cc":"gb","latitude":51.509865,"longitude":-0.118092,"reserved":0,"last_update":"0001-01-01T00:00:00Z","name_a2s":"Uncletopia | London | 7 | No Payload","protocol":17,"map":"cp_sunshine","folder":"tf","game":"Team Fortress","app_id":440,"player_count":0,"max_players":24,"Bots":0,"server_type":"Dedicated","server_os":"Linux","password":true,"vac":true,"version":"7757534","steam_id":85568392924964314,"keywords":["cp","nocrits","nodmgspread","uncletopia"],"game_id":440,"stv_port":27076,"stv_name":"Uncletopia | London | 7 | No Payload | STV","players":null},{"server_id":41,"name":"Uncletopia | London | 8 | Community","name_short":"lon-8","host":"lon-1.uk.uncletopia.com","port":27085,"enabled":true,"region":"eu","cc":"gb","latitude":51.509865,"longitude":-0.118092,"reserved":0,"last_update":"0001-01-01T00:00:00Z","name_a2s":"Uncletopia | London | 8 | Community","protocol":17,"map":"workshop/koth_ashville_final.ugc2130459942","folder":"tf","game":"Team Fortress","app_id":440,"player_count":0,"max_players":24,"Bots":0,"server_type":"Dedicated","server_os":"Linux","password":true,"vac":true,"version":"7757534","steam_id":85568392924964315,"keywords":["cp","nocrits","nodmgspread","uncletopia"],"game_id":440,"stv_port":27086,"stv_name":"Uncletopia | London | 8 | Community | STV","players":null},{"server_id":300,"name":"Uncletopia | Montréal | 1 | All Maps","name_short":"mtl-1","host":"mtl-1.ca.uncletopia.com","port":27015,"enabled":true,"region":"us-east","cc":"ca","latitude":45.50889,"longitude":-73.56167,"reserved":0,"last_update":"0001-01-01T00:00:00Z","name_a2s":"Uncletopia | Montréal | 1 | All Maps","protocol":17,"map":"pl_swiftwater_final1","folder":"tf","game":"Team Fortress","app_id":440,"player_count":0,"max_players":24,"Bots":0,"server_type":"Dedicated","server_os":"Linux","password":true,"vac":true,"version":"7757534","steam_id":85568392924500087,"keywords":["nocrits","nodmgspread","payload","uncletopia"],"game_id":440,"stv_port":27016,"stv_name":"Uncletopia | Montréal | 1 | All Maps | STV","players":null},{"server_id":301,"name":"Uncletopia | Montréal | 2 | All Maps","name_short":"mtl-2","host":"mtl-1.ca.uncletopia.com","port":27025,"enabled":true,"region":"us-east","cc":"ca","latitude":45.50889,"longitude":-73.56167,"reserved":0,"last_update":"0001-01-01T00:00:00Z","name_a2s":"Uncletopia | Montréal | 2 | All Maps","protocol":17,"map":"koth_viaduct","folder":"tf","game":"Team Fortress","app_id":440,"player_count":0,"max_players":24,"Bots":0,"server_type":"Dedicated","server_os":"Linux","password":true,"vac":true,"version":"7757534","steam_id":85568392924500088,"keywords":["cp","nocrits","nodmgspread","uncletopia"],"game_id":440,"stv_port":27026,"stv_name":"Uncletopia | Montréal | 2 | All Maps | STV","players":null},{"server_id":302,"name":"Uncletopia | Montréal | 3 | All Maps","name_short":"mtl-3","host":"mtl-1.ca.uncletopia.com","port":27035,"enabled":true,"region":"us-east","cc":"ca","latitude":45.50889,"longitude":-73.56167,"reserved":0,"last_update":"0001-01-01T00:00:00Z","name_a2s":"Uncletopia | Montréal | 3 | All Maps","protocol":17,"map":"cp_dustbowl","folder":"tf","game":"Team Fortress","app_id":440,"player_count":0,"max_players":24,"Bots":0,"server_type":"Dedicated","server_os":"Linux","password":true,"vac":true,"version":"7757534","steam_id":85568392924500089,"keywords":["cp","nocrits","nodmgspread","uncletopia"],"game_id":440,"stv_port":27036,"stv_name":"Uncletopia | Montréal | 3 | All Maps | STV","players":null},{"server_id":303,"name":"Uncletopia | Montréal | 4 | No Payload","name_short":"mtl-4","host":"mtl-1.ca.uncletopia.com","port":27045,"enabled":true,"region":"us-east","cc":"ca","latitude":45.50889,"longitude":-73.56167,"reserved":0,"last_update":"0001-01-01T00:00:00Z","name_a2s":"Uncletopia | Montréal | 4 | No Payload","protocol":17,"map":"ctf_doublecross","folder":"tf","game":"Team Fortress","app_id":440,"player_count":0,"max_players":24,"Bots":0,"server_type":"Dedicated","server_os":"Linux","password":true,"vac":true,"version":"7757534","steam_id":85568392924500090,"keywords":["ctf","nocrits","nodmgspread","uncletopia"],"game_id":440,"stv_port":27046,"stv_name":"Uncletopia | Montréal | 4 | No Payload | STV","players":null},{"server_id":13,"name":"Uncletopia | New York City | 1 | All Maps","name_short":"nyc-1","host":"nyc-1.us.uncletopia.com","port":27015,"enabled":true,"region":"us-east","cc":"us","latitude":40.73061,"longitude":-73.93524,"reserved":0,"last_update":"0001-01-01T00:00:00Z","name_a2s":"Uncletopia | New York City | 1 | All Maps","protocol":17,"map":"pl_barnblitz","folder":"tf","game":"Team Fortress","app_id":440,"player_count":24,"max_players":24,"Bots":0,"server_type":"Dedicated","server_os":"Linux","password":true,"vac":true,"version":"7757534","steam_id":85568392924469993,"keywords":["nocrits","nodmgspread","payload","uncletopia"],"game_id":440,"stv_port":27016,"stv_name":"Uncletopia | New York City | 1 | All Maps | STV","players":[{"user_id":448,"name":"A Puppy","steam_id":76561198828184456,"connected_time":10304000000000,"state":"active","ping":47},{"user_id":575,"name":"fi_ji","steam_id":76561198126087725,"connected_time":1789000000000,"state":"active","ping":60},{"user_id":588,"name":"portablestove","steam_id":76561197999392355,"connected_time":208000000000,"state":"active","ping":87},{"user_id":539,"name":"Dazzleberry","steam_id":76561198030369150,"connected_time":4324000000000,"state":"active","ping":75},{"user_id":485,"name":"Bali","steam_id":76561198038693845,"connected_time":8694000000000,"state":"active","ping":94},{"user_id":589,"name":"AverageRundownJoe.ttv","steam_id":76561198059359620,"connected_time":196000000000,"state":"active","ping":74},{"user_id":593,"name":"muzikelretifhbr","steam_id":76561198445169719,"connected_time":174000000000,"state":"active","ping":114},{"user_id":582,"name":"Pap","steam_id":76561198001003656,"connected_time":1657000000000,"state":"active","ping":71},{"user_id":585,"name":"Strangelove","steam_id":76561198353773611,"connected_time":1030000000000,"state":"active","ping":79},{"user_id":578,"name":"Marshall","steam_id":76561198042570322,"connected_time":1708000000000,"state":"active","ping":84},{"user_id":584,"name":"Tallyden","steam_id":76561197998572962,"connected_time":1275000000000,"state":"active","ping":82},{"user_id":591,"name":"ApertureCity","steam_id":76561198004153607,"connected_time":193000000000,"state":"active","ping":77},{"user_id":579,"name":"Zoot","steam_id":76561198004398296,"connected_time":1707000000000,"state":"active","ping":61},{"user_id":559,"name":"cooltool21","steam_id":76561197996817585,"connected_time":2974000000000,"state":"active","ping":61},{"user_id":580,"name":"Pizza","steam_id":76561198118748364,"connected_time":1701000000000,"state":"active","ping":75},{"user_id":586,"name":"sam!!! :)","steam_id":76561198217362968,"connected_time":214000000000,"state":"active","ping":69},{"user_id":569,"name":"Ziath","steam_id":76561198094009164,"connected_time":2127000000000,"state":"active","ping":50},{"user_id":592,"name":"e0e0","steam_id":76561198293839750,"connected_time":192000000000,"state":"active","ping":54},{"user_id":564,"name":"Scout","steam_id":76561198414175953,"connected_time":2782000000000,"state":"active","ping":135},{"user_id":583,"name":"Super D Duper","steam_id":76561198078203677,"connected_time":1411000000000,"state":"active","ping":55},{"user_id":587,"name":"Autogyro","steam_id":76561198047943679,"connected_time":214000000000,"state":"active","ping":79},{"user_id":594,"name":"white ray","steam_id":76561198026664629,"connected_time":168000000000,"state":"active","ping":45},{"user_id":529,"name":"Fake Uncle","steam_id":76561198880227689,"connected_time":5436000000000,"state":"active","ping":47},{"user_id":595,"name":"tokyo","steam_id":76561199013458589,"connected_time":160000000000,"state":"active","ping":68}]},{"server_id":14,"name":"Uncletopia | New York City | 2 | All Maps","name_short":"nyc-2","host":"nyc-1.us.uncletopia.com","port":27025,"enabled":true,"region":"us-east","cc":"us","latitude":40.73061,"longitude":-73.93524,"reserved":0,"last_update":"0001-01-01T00:00:00Z","name_a2s":"Uncletopia | New York City | 2 | All Maps","protocol":17,"map":"pl_borneo","folder":"tf","game":"Team Fortress","app_id":440,"player_count":24,"max_players":24,"Bots":0,"server_type":"Dedicated","server_os":"Linux","password":true,"vac":true,"version":"7757534","steam_id":85568392924469994,"keywords":["nocrits","nodmgspread","payload","uncletopia"],"game_id":440,"stv_port":27026,"stv_name":"Uncletopia | New York City | 2 | All Maps | STV","players":[{"user_id":371,"name":"dr cock","steam_id":76561198124810219,"connected_time":2852000000000,"state":"active","ping":63},{"user_id":392,"name":"Fiendish Frog","steam_id":76561198029478821,"connected_time":1956000000000,"state":"active","ping":54},{"user_id":368,"name":"SE X","steam_id":76561198094525829,"connected_time":3235000000000,"state":"active","ping":62},{"user_id":385,"name":"Coke Himmy","steam_id":76561198397459211,"connected_time":2454000000000,"state":"active","ping":51},{"user_id":405,"name":"demomeomoman","steam_id":76561198001781616,"connected_time":964000000000,"state":"active","ping":46},{"user_id":415,"name":"Chewbacca","steam_id":76561198041927925,"connected_time":360000000000,"state":"active","ping":53},{"user_id":394,"name":"Barry","steam_id":76561198371953939,"connected_time":1886000000000,"state":"active","ping":70},{"user_id":374,"name":"DaBaby","steam_id":76561198067814189,"connected_time":2810000000000,"state":"active","ping":64},{"user_id":416,"name":"triangleman","steam_id":76561198972733542,"connected_time":333000000000,"state":"active","ping":75},{"user_id":417,"name":".9 lg","steam_id":76561198092238353,"connected_time":323000000000,"state":"active","ping":91},{"user_id":418,"name":"Korra \u003c3","steam_id":76561198044991497,"connected_time":311000000000,"state":"active","ping":134},{"user_id":408,"name":"Amisonist","steam_id":76561199027395054,"connected_time":854000000000,"state":"active","ping":74},{"user_id":419,"name":"koob","steam_id":76561198987464129,"connected_time":287000000000,"state":"active","ping":41},{"user_id":377,"name":"the doo doo man","steam_id":76561198057076267,"connected_time":2743000000000,"state":"active","ping":78},{"user_id":410,"name":"Mr. Call You Back","steam_id":76561198025172811,"connected_time":670000000000,"state":"active","ping":41},{"user_id":379,"name":"Gian","steam_id":76561198041434512,"connected_time":2736000000000,"state":"active","ping":121},{"user_id":402,"name":"Kite","steam_id":76561199060915563,"connected_time":1163000000000,"state":"active","ping":86},{"user_id":403,"name":"barbara","steam_id":76561198072417792,"connected_time":1139000000000,"state":"active","ping":177},{"user_id":268,"name":"Elixir","steam_id":76561198166786809,"connected_time":10719000000000,"state":"active","ping":53},{"user_id":382,"name":"Indigolake","steam_id":76561198202215807,"connected_time":2611000000000,"state":"active","ping":71},{"user_id":413,"name":"Lesbian Chungus","steam_id":76561198055964295,"connected_time":507000000000,"state":"active","ping":68},{"user_id":388,"name":"Skyfox","steam_id":76561198036647535,"connected_time":2236000000000,"state":"active","ping":135},{"user_id":420,"name":"Dark Lord","steam_id":76561198044199150,"connected_time":285000000000,"state":"active","ping":70},{"user_id":421,"name":"Dorothy","steam_id":76561198152455316,"connected_time":284000000000,"state":"active","ping":152}]},{"server_id":15,"name":"Uncletopia | New York City | 3 | Stopwatch Beta","name_short":"nyc-3","host":"nyc-1.us.uncletopia.com","port":27035,"enabled":true,"region":"us-east","cc":"us","latitude":40.73061,"longitude":-73.93524,"reserved":0,"last_update":"0001-01-01T00:00:00Z","name_a2s":"Uncletopia | New York City | 3 | Stopwatch Beta","protocol":17,"map":"koth_highpass","folder":"tf","game":"Team Fortress","app_id":440,"player_count":0,"max_players":24,"Bots":0,"server_type":"Dedicated","server_os":"Linux","password":true,"vac":true,"version":"7757534","steam_id":85568392924742820,"keywords":["cp","nocrits","nodmgspread","uncletopia"],"game_id":440,"stv_port":27036,"stv_name":"Uncletopia | New York City | 3 | Stopwatch Beta | STV","players":null},{"server_id":16,"name":"Uncletopia | New York City | 4 | Community","name_short":"nyc-4","host":"nyc-1.us.uncletopia.com","port":27045,"enabled":true,"region":"us-east","cc":"us","latitude":40.73061,"longitude":-73.93524,"reserved":0,"last_update":"0001-01-01T00:00:00Z","name_a2s":"Uncletopia | New York City | 4 | Community","protocol":17,"map":"workshop/koth_ashville_final.ugc2130459942","folder":"tf","game":"Team Fortress","app_id":440,"player_count":0,"max_players":24,"Bots":0,"server_type":"Dedicated","server_os":"Linux","password":true,"vac":true,"version":"7757534","steam_id":85568392924742821,"keywords":["cp","nocrits","nodmgspread","uncletopia"],"game_id":440,"stv_port":27046,"stv_name":"Uncletopia | New York City | 4 | Community | STV","players":null},{"server_id":142,"name":"Uncletopia | São Paulo | 1 | All Maps","name_short":"sao-1","host":"sao-1.br.uncletopia.com","port":27015,"enabled":true,"region":"sa","cc":"br","latitude":-23.533773,"longitude":-46.62529,"reserved":0,"last_update":"0001-01-01T00:00:00Z","name_a2s":"Uncletopia | São Paulo | 1 | All Maps","protocol":17,"map":"koth_cascade","folder":"tf","game":"Team Fortress","app_id":440,"player_count":0,"max_players":24,"Bots":0,"server_type":"Dedicated","server_os":"Linux","password":true,"vac":true,"version":"7757534","steam_id":85568392924469996,"keywords":["cp","nocrits","nodmgspread","uncletopia"],"game_id":440,"stv_port":27016,"stv_name":"Uncletopia | São Paulo | 1 | All Maps | STV","players":null},{"server_id":143,"name":"Uncletopia | São Paulo | 2 | All Maps","name_short":"sao-2","host":"sao-2.br.uncletopia.com","port":27015,"enabled":true,"region":"sa","cc":"br","latitude":-23.533773,"longitude":-46.62529,"reserved":0,"last_update":"0001-01-01T00:00:00Z","name_a2s":"Uncletopia | São Paulo | 2 | All Maps","protocol":17,"map":"koth_highpass","folder":"tf","game":"Team Fortress","app_id":440,"player_count":0,"max_players":24,"Bots":0,"server_type":"Dedicated","server_os":"Linux","password":true,"vac":true,"version":"7757534","steam_id":85568392924485349,"keywords":["cp","nocrits","nodmgspread","uncletopia"],"game_id":440,"stv_port":27016,"stv_name":"Uncletopia | São Paulo | 2 | All Maps | STV","players":null},{"server_id":7,"name":"Uncletopia | Seattle | 1 | All Maps","name_short":"sea-1","host":"sea-1.us.uncletopia.com","port":27015,"enabled":true,"region":"us-west","cc":"us","latitude":47.608013,"longitude":-122.33517,"reserved":0,"last_update":"0001-01-01T00:00:00Z","name_a2s":"Uncletopia | Seattle | 1 | All Maps","protocol":17,"map":"pl_barnblitz","folder":"tf","game":"Team Fortress","app_id":440,"player_count":25,"max_players":24,"Bots":0,"server_type":"Dedicated","server_os":"Linux","password":true,"vac":true,"version":"7757534","steam_id":85568392924469997,"keywords":["nocrits","nodmgspread","payload","uncletopia"],"game_id":440,"stv_port":27016,"stv_name":"Uncletopia | Seattle | 1 | All Maps | STV","players":[{"user_id":509,"name":"Lambchop","steam_id":76561198043900363,"connected_time":4005000000000,"state":"active","ping":79},{"user_id":532,"name":"Fh","steam_id":76561198000903511,"connected_time":1849000000000,"state":"active","ping":63},{"user_id":500,"name":"Mico (Goblin Mode)","steam_id":76561198125462953,"connected_time":5230000000000,"state":"active","ping":54},{"user_id":540,"name":"Battle Pope","steam_id":76561198059627663,"connected_time":1571000000000,"state":"active","ping":76},{"user_id":524,"name":"Protoshake","steam_id":76561198840276176,"connected_time":3411000000000,"state":"active","ping":98},{"user_id":520,"name":"shane","steam_id":76561198060491451,"connected_time":3430000000000,"state":"active","ping":114},{"user_id":545,"name":"resh","steam_id":76561198239598834,"connected_time":1118000000000,"state":"active","ping":139},{"user_id":548,"name":"SHADOW (he/him)","steam_id":76561198207768148,"connected_time":848000000000,"state":"active","ping":75},{"user_id":510,"name":"Willy Wonker","steam_id":76561198082944789,"connected_time":4002000000000,"state":"active","ping":73},{"user_id":537,"name":"EEBIGAA","steam_id":76561198056535988,"connected_time":1671000000000,"state":"active","ping":76},{"user_id":536,"name":"Must Ard","steam_id":76561198271939793,"connected_time":1751000000000,"state":"active","ping":45},{"user_id":538,"name":"SpinetinglingToast","steam_id":76561198099470670,"connected_time":1668000000000,"state":"active","ping":125},{"user_id":555,"name":"Crake","steam_id":76561198001959071,"connected_time":2000000000,"state":"spawning","ping":45},{"user_id":511,"name":"bbbbb","steam_id":76561198095480838,"connected_time":3985000000000,"state":"active","ping":46},{"user_id":554,"name":"Bluedemon","steam_id":76561199212058684,"connected_time":25000000000,"state":"active","ping":79},{"user_id":547,"name":"Xruffel :3 (gay)","steam_id":76561198067697879,"connected_time":878000000000,"state":"active","ping":105},{"user_id":480,"name":"Luca","steam_id":76561198125087140,"connected_time":7197000000000,"state":"active","ping":47},{"user_id":543,"name":"chunkysquare","steam_id":76561199076468383,"connected_time":1172000000000,"state":"active","ping":65},{"user_id":552,"name":"BobSagettttt","steam_id":76561198067683192,"connected_time":38000000000,"state":"active","ping":56},{"user_id":546,"name":"Gary, 40, soul sucking 9-5","steam_id":76561198073812888,"connected_time":1024000000000,"state":"active","ping":45},{"user_id":533,"name":"BBL Sponsor","steam_id":76561199093733603,"connected_time":1838000000000,"state":"active","ping":80},{"user_id":530,"name":"mumbles","steam_id":76561197994528974,"connected_time":2290000000000,"state":"active","ping":75},{"user_id":553,"name":"BolognaWithOlives","steam_id":76561198101262668,"connected_time":31000000000,"state":"active","ping":89},{"user_id":556,"name":"Grammaring","steam_id":76561198867366139,"connected_time":2000000000,"state":"spawning","ping":90},{"user_id":534,"name":"ikuyo","steam_id":76561198996950205,"connected_time":1838000000000,"state":"active","ping":64}]},{"server_id":119,"name":"Uncletopia | Seattle | 2 | All Maps","name_short":"sea-2","host":"sea-1.us.uncletopia.com","port":27025,"enabled":true,"region":"us-west","cc":"us","latitude":47.608013,"longitude":-122.33517,"reserved":0,"last_update":"0001-01-01T00:00:00Z","name_a2s":"Uncletopia | Seattle | 2 | All Maps","protocol":17,"map":"koth_harvest_final","folder":"tf","game":"Team Fortress","app_id":440,"player_count":24,"max_players":24,"Bots":0,"server_type":"Dedicated","server_os":"Linux","password":true,"vac":true,"version":"7757534","steam_id":85568392924469998,"keywords":["cp","nocrits","nodmgspread","uncletopia"],"game_id":440,"stv_port":27026,"stv_name":"Uncletopia | Seattle | 2 | All Maps | STV","players":[{"user_id":354,"name":"Biggest Dude In Town 4U","steam_id":76561198070281464,"connected_time":1040000000000,"state":"active","ping":110},{"user_id":370,"name":"Nea","steam_id":76561198408792773,"connected_time":56000000000,"state":"active","ping":40},{"user_id":368,"name":"Jface1221","steam_id":76561198188082091,"connected_time":169000000000,"state":"active","ping":75},{"user_id":353,"name":"Vivi","steam_id":76561198402450455,"connected_time":1053000000000,"state":"active","ping":94},{"user_id":349,"name":"NotSoProfessionalGuy","steam_id":76561199045501608,"connected_time":1336000000000,"state":"active","ping":84},{"user_id":359,"name":"Genius Meme","steam_id":76561198162911254,"connected_time":999000000000,"state":"active","ping":101},{"user_id":329,"name":"Agent86","steam_id":76561198046794593,"connected_time":2537000000000,"state":"active","ping":154},{"user_id":352,"name":"Oxferd Crow","steam_id":76561198096916018,"connected_time":1203000000000,"state":"active","ping":66},{"user_id":348,"name":"barrack omama","steam_id":76561199180441047,"connected_time":1351000000000,"state":"active","ping":45},{"user_id":344,"name":"Algibruh","steam_id":76561199221599415,"connected_time":1776000000000,"state":"active","ping":47},{"user_id":357,"name":"NGsterson","steam_id":76561198162108154,"connected_time":1033000000000,"state":"active","ping":56},{"user_id":366,"name":"h","steam_id":76561198868164815,"connected_time":452000000000,"state":"active","ping":43},{"user_id":361,"name":"aqua","steam_id":76561199407709552,"connected_time":977000000000,"state":"active","ping":99},{"user_id":367,"name":"larguu","steam_id":76561197994336210,"connected_time":212000000000,"state":"active","ping":105},{"user_id":340,"name":"JS","steam_id":76561198149183514,"connected_time":2028000000000,"state":"active","ping":87},{"user_id":341,"name":"squash","steam_id":76561198150281353,"connected_time":2027000000000,"state":"active","ping":58},{"user_id":312,"name":"Deathninja952","steam_id":76561199066489355,"connected_time":3863000000000,"state":"active","ping":111},{"user_id":363,"name":"Lemongrab Enjoyer","steam_id":76561199059257565,"connected_time":958000000000,"state":"active","ping":130},{"user_id":307,"name":"leeeeeeeeeeeeeeeeeeeeeeeeeee","steam_id":76561199083322731,"connected_time":3963000000000,"state":"active","ping":108},{"user_id":355,"name":"Tibetan Pop Star","steam_id":76561198844903984,"connected_time":1040000000000,"state":"active","ping":89},{"user_id":356,"name":"Rendoas","steam_id":76561198002105259,"connected_time":1038000000000,"state":"active","ping":105},{"user_id":333,"name":"DoctorHa","steam_id":76561198044026008,"connected_time":2297000000000,"state":"active","ping":93},{"user_id":364,"name":"Vulcan","steam_id":76561198399735208,"connected_time":902000000000,"state":"active","ping":115},{"user_id":319,"name":"eye see you","steam_id":76561198115242460,"connected_time":3439000000000,"state":"active","ping":46}]},{"server_id":406,"name":"Uncletopia | Seattle | 3 | Stopwatch Beta","name_short":"sea-3","host":"sea-1.us.uncletopia.com","port":27035,"enabled":true,"region":"us-west","cc":"us","latitude":47.608013,"longitude":-122.33517,"reserved":0,"last_update":"0001-01-01T00:00:00Z","name_a2s":"Uncletopia | Seattle | 3 | Stopwatch Beta","protocol":17,"map":"cp_sunshine","folder":"tf","game":"Team Fortress","app_id":440,"player_count":0,"max_players":24,"Bots":0,"server_type":"Dedicated","server_os":"Linux","password":true,"vac":true,"version":"7757534","steam_id":85568392924515217,"keywords":["cp","nocrits","nodmgspread","uncletopia"],"game_id":440,"stv_port":27036,"stv_name":"Uncletopia | Seattle | 3 | Stopwatch Beta | STV","players":null},{"server_id":17,"name":"Uncletopia | San Francisco | 1 | All Maps","name_short":"sfo-1","host":"sfo-1.us.uncletopia.com","port":27015,"enabled":true,"region":"us-west","cc":"us","latitude":37.77397,"longitude":-122.4313,"reserved":0,"last_update":"0001-01-01T00:00:00Z","name_a2s":"Uncletopia | San Francisco | 1 | All Maps","protocol":17,"map":"pl_frontier_final","folder":"tf","game":"Team Fortress","app_id":440,"player_count":24,"max_players":24,"Bots":0,"server_type":"Dedicated","server_os":"Linux","password":true,"vac":true,"version":"7757534","steam_id":85568392924469999,"keywords":["nocrits","nodmgspread","payload","uncletopia"],"game_id":440,"stv_port":27016,"stv_name":"Uncletopia | San Francisco | 1 | All Maps | STV","players":[{"user_id":228,"name":"Dali","steam_id":76561198077593486,"connected_time":1774000000000,"state":"active","ping":72},{"user_id":216,"name":"LazyDoll","steam_id":76561198053186338,"connected_time":2738000000000,"state":"active","ping":55},{"user_id":230,"name":"trobin120","steam_id":76561199122420273,"connected_time":1166000000000,"state":"active","ping":111},{"user_id":132,"name":"domky","steam_id":76561198066114874,"connected_time":9286000000000,"state":"active","ping":72},{"user_id":222,"name":"Krazy","steam_id":76561198835502709,"connected_time":2206000000000,"state":"active","ping":53},{"user_id":184,"name":"Smiley_R5","steam_id":76561198113083770,"connected_time":5999000000000,"state":"active","ping":103},{"user_id":121,"name":"Dietrich","steam_id":76561198028163840,"connected_time":9637000000000,"state":"active","ping":60},{"user_id":212,"name":"Nova Academy of Salmon Action","steam_id":76561198021842526,"connected_time":3185000000000,"state":"active","ping":57},{"user_id":240,"name":"Ferguzt","steam_id":76561198428353797,"connected_time":425000000000,"state":"active","ping":63},{"user_id":209,"name":"Joey Wheeler","steam_id":76561198073792437,"connected_time":3753000000000,"state":"active","ping":76},{"user_id":217,"name":"Jkbh1","steam_id":76561198093449670,"connected_time":2726000000000,"state":"active","ping":85},{"user_id":237,"name":"❤ Ashley ❤","steam_id":76561198056428303,"connected_time":915000000000,"state":"active","ping":60},{"user_id":241,"name":"Igrium","steam_id":76561198119549811,"connected_time":156000000000,"state":"active","ping":67},{"user_id":188,"name":"Sprucelass","steam_id":76561197998391724,"connected_time":5515000000000,"state":"active","ping":106},{"user_id":138,"name":":bunnyinablanket:","steam_id":76561198149443710,"connected_time":9150000000000,"state":"active","ping":60},{"user_id":205,"name":"nella","steam_id":76561198079349621,"connected_time":3799000000000,"state":"active","ping":61},{"user_id":235,"name":"Curtisssalem","steam_id":76561199033918651,"connected_time":1020000000000,"state":"active","ping":127},{"user_id":194,"name":"The Super Mario Bros. Movie","steam_id":76561198871692156,"connected_time":5330000000000,"state":"active","ping":73},{"user_id":210,"name":"mcdonal poptart","steam_id":76561198206922028,"connected_time":3727000000000,"state":"active","ping":61},{"user_id":236,"name":"oil","steam_id":76561198099980149,"connected_time":1013000000000,"state":"active","ping":66},{"user_id":225,"name":"SneakySneak","steam_id":76561198064847921,"connected_time":2069000000000,"state":"active","ping":141},{"user_id":197,"name":"wizard","steam_id":76561198153972834,"connected_time":4425000000000,"state":"active","ping":91},{"user_id":231,"name":"westward","steam_id":76561198805512350,"connected_time":1122000000000,"state":"active","ping":83},{"user_id":238,"name":"gulch","steam_id":76561199227946025,"connected_time":902000000000,"state":"active","ping":102}]},{"server_id":18,"name":"Uncletopia | San Francisco | 2 | All Maps","name_short":"sfo-2","host":"sfo-1.us.uncletopia.com","port":27025,"enabled":true,"region":"us-west","cc":"us","latitude":37.77397,"longitude":-122.4313,"reserved":0,"last_update":"0001-01-01T00:00:00Z","name_a2s":"Uncletopia | San Francisco | 2 | All Maps","protocol":17,"map":"pl_badwater","folder":"tf","game":"Team Fortress","app_id":440,"player_count":1,"max_players":24,"Bots":0,"server_type":"Dedicated","server_os":"Linux","password":true,"vac":true,"version":"7757534","steam_id":85568392924470000,"keywords":["nocrits","nodmgspread","payload","uncletopia"],"game_id":440,"stv_port":27026,"stv_name":"Uncletopia | San Francisco | 2 | All Maps | STV","players":[{"user_id":14,"name":"｡*✧Bad Temper✧*｡","steam_id":76561199200969139,"connected_time":236000000000,"state":"active","ping":106}]},{"server_id":19,"name":"Uncletopia | San Francisco | 3 | Stopwatch Beta","name_short":"sfo-3","host":"sfo-1.us.uncletopia.com","port":27035,"enabled":true,"region":"us-west","cc":"us","latitude":37.77397,"longitude":-122.4313,"reserved":0,"last_update":"0001-01-01T00:00:00Z","name_a2s":"Uncletopia | San Francisco | 3 | Stopwatch Beta","protocol":17,"map":"pl_borneo","folder":"tf","game":"Team Fortress","app_id":440,"player_count":0,"max_players":24,"Bots":0,"server_type":"Dedicated","server_os":"Linux","password":true,"vac":true,"version":"7757534","steam_id":85568392924742824,"keywords":["nocrits","nodmgspread","payload","uncletopia"],"game_id":440,"stv_port":27036,"stv_name":"Uncletopia | San Francisco | 3 | Stopwatch Beta | STV","players":null},{"server_id":20,"name":"Uncletopia | San Francisco | 4 | Community","name_short":"sfo-4","host":"sfo-1.us.uncletopia.com","port":27045,"enabled":true,"region":"us-west","cc":"us","latitude":37.77397,"longitude":-122.4313,"reserved":0,"last_update":"0001-01-01T00:00:00Z","name_a2s":"Uncletopia | San Francisco | 4 | Community","protocol":17,"map":"workshop/pl_cashworks_final1.ugc2904065412","folder":"tf","game":"Team Fortress","app_id":440,"player_count":24,"max_players":24,"Bots":0,"server_type":"Dedicated","server_os":"Linux","password":true,"vac":true,"version":"7757534","steam_id":85568392924742826,"keywords":["nocrits","nodmgspread","payload","uncletopia"],"game_id":440,"stv_port":27046,"stv_name":"Uncletopia | San Francisco | 4 | Community | STV","players":[{"user_id":78,"name":"Solifuga","steam_id":76561198119569902,"connected_time":1101000000000,"state":"active","ping":74},{"user_id":74,"name":"Amadeus","steam_id":76561198160047173,"connected_time":1258000000000,"state":"active","ping":59},{"user_id":80,"name":"Hairy Pear","steam_id":76561198087397457,"connected_time":715000000000,"state":"active","ping":84},{"user_id":49,"name":"sting like boogers","steam_id":76561198986534519,"connected_time":3273000000000,"state":"active","ping":58},{"user_id":77,"name":"emily","steam_id":76561198051872256,"connected_time":1175000000000,"state":"active","ping":102},{"user_id":39,"name":"wii sports","steam_id":76561198035674082,"connected_time":3492000000000,"state":"active","ping":115},{"user_id":40,"name":"dog","steam_id":76561198069093485,"connected_time":3455000000000,"state":"active","ping":108},{"user_id":63,"name":"Pnuema the Skooma Drinker","steam_id":76561199024080693,"connected_time":2629000000000,"state":"active","ping":127},{"user_id":37,"name":"capybara","steam_id":76561198843437081,"connected_time":3737000000000,"state":"active","ping":145},{"user_id":82,"name":"SHI ' THEAD","steam_id":76561198119697137,"connected_time":549000000000,"state":"active","ping":96},{"user_id":64,"name":"bergly","steam_id":76561198811650078,"connected_time":2569000000000,"state":"active","ping":113},{"user_id":42,"name":"Gutsfree","steam_id":76561198047701548,"connected_time":3447000000000,"state":"active","ping":111},{"user_id":43,"name":"SKYMETRO","steam_id":76561198038731318,"connected_time":3445000000000,"state":"active","ping":131},{"user_id":44,"name":"MetaMischief","steam_id":76561198202787948,"connected_time":3445000000000,"state":"active","ping":88},{"user_id":21,"name":"Villchip","steam_id":76561198198599982,"connected_time":4448000000000,"state":"active","ping":73},{"user_id":45,"name":"kot","steam_id":76561198165200201,"connected_time":3436000000000,"state":"active","ping":120},{"user_id":84,"name":"Saddam","steam_id":76561197985725267,"connected_time":436000000000,"state":"active","ping":86},{"user_id":61,"name":"superx","steam_id":76561198044976613,"connected_time":2810000000000,"state":"active","ping":115},{"user_id":53,"name":"Omnoman","steam_id":76561198006258213,"connected_time":3055000000000,"state":"active","ping":131},{"user_id":83,"name":"chrisd149","steam_id":76561198018710480,"connected_time":516000000000,"state":"active","ping":137},{"user_id":55,"name":"Ślimak","steam_id":76561198296476784,"connected_time":3008000000000,"state":"active","ping":63},{"user_id":59,"name":"Bronze Age GRINDSET","steam_id":76561198859118263,"connected_time":2833000000000,"state":"active","ping":135},{"user_id":76,"name":"Flyingcat9000","steam_id":76561198179561797,"connected_time":1190000000000,"state":"active","ping":33},{"user_id":60,"name":"Eden","steam_id":76561198075587475,"connected_time":2813000000000,"state":"active","ping":100}]},{"server_id":141,"name":"Uncletopia | Sydney | 1 | All Maps","name_short":"syd-1","host":"syd-1.au.uncletopia.com","port":27015,"enabled":true,"region":"au","cc":"au","latitude":-33.865143,"longitude":151.2099,"reserved":0,"last_update":"0001-01-01T00:00:00Z","name_a2s":"Uncletopia | Sydney | 1 | All Maps","protocol":17,"map":"pl_borneo","folder":"tf","game":"Team Fortress","app_id":440,"player_count":22,"max_players":24,"Bots":0,"server_type":"Dedicated","server_os":"Linux","password":true,"vac":true,"version":"7757534","steam_id":85568392924470001,"keywords":["nocrits","nodmgspread","payload","uncletopia"],"game_id":440,"stv_port":27016,"stv_name":"Uncletopia | Sydney | 1 | All Maps | STV","players":[{"user_id":40,"name":"stupid_cow","steam_id":76561198241303512,"connected_time":5612000000000,"state":"active","ping":55},{"user_id":91,"name":"Dragondude_FX","steam_id":76561198993814246,"connected_time":3050000000000,"state":"active","ping":91},{"user_id":118,"name":"Twink-182","steam_id":76561198090088613,"connected_time":1386000000000,"state":"active","ping":98},{"user_id":134,"name":"cullen","steam_id":76561198128695488,"connected_time":682000000000,"state":"active","ping":48},{"user_id":89,"name":"Blazey 伊達 政宗","steam_id":76561197971082275,"connected_time":3127000000000,"state":"active","ping":108},{"user_id":54,"name":"Pat","steam_id":76561198244663182,"connected_time":4583000000000,"state":"active","ping":58},{"user_id":39,"name":"the rot doesn't consume","steam_id":76561198866538028,"connected_time":5714000000000,"state":"active","ping":86},{"user_id":130,"name":"Teags","steam_id":76561198310870519,"connected_time":831000000000,"state":"active","ping":48},{"user_id":142,"name":"Jazza Boi","steam_id":76561198196764109,"connected_time":167000000000,"state":"active","ping":96},{"user_id":108,"name":"maximon54","steam_id":76561198804484552,"connected_time":1714000000000,"state":"active","ping":59},{"user_id":97,"name":"Balsamic Vinegar","steam_id":76561198260148888,"connected_time":2612000000000,"state":"active","ping":71},{"user_id":135,"name":"¯\\_(ツ)_/¯","steam_id":76561199206182584,"connected_time":680000000000,"state":"active","ping":65},{"user_id":117,"name":"Tantei Rotana","steam_id":76561198041204323,"connected_time":1391000000000,"state":"active","ping":60},{"user_id":51,"name":"SUSHIMAN","steam_id":76561199089989428,"connected_time":4670000000000,"state":"active","ping":91},{"user_id":136,"name":"League of Loling","steam_id":76561198052378807,"connected_time":617000000000,"state":"active","ping":77},{"user_id":53,"name":"hobo","steam_id":76561199046481213,"connected_time":4632000000000,"state":"active","ping":65},{"user_id":125,"name":"dog","steam_id":76561198073933737,"connected_time":1186000000000,"state":"active","ping":31},{"user_id":145,"name":"huey","steam_id":76561199069777966,"connected_time":11000000000,"state":"spawning","ping":74},{"user_id":104,"name":"shaymii","steam_id":76561198058562392,"connected_time":2080000000000,"state":"active","ping":83},{"user_id":94,"name":"CardBoard.exe","steam_id":76561199131334049,"connected_time":2838000000000,"state":"active","ping":60},{"user_id":143,"name":"jcoll444","steam_id":76561198143025380,"connected_time":154000000000,"state":"active","ping":49},{"user_id":73,"name":"Mayor Ballsworth","steam_id":76561199174593635,"connected_time":3802000000000,"state":"active","ping":72}]},{"server_id":123,"name":"Uncletopia | Sydney | 2 | All Maps","name_short":"syd-2","host":"syd-1.au.uncletopia.com","port":27025,"enabled":true,"region":"au","cc":"au","latitude":-33.865143,"longitude":151.2099,"reserved":0,"last_update":"0001-01-01T00:00:00Z","name_a2s":"Uncletopia | Sydney | 2 | All Maps","protocol":17,"map":"koth_cascade","folder":"tf","game":"Team Fortress","app_id":440,"player_count":0,"max_players":24,"Bots":0,"server_type":"Dedicated","server_os":"Linux","password":true,"vac":true,"version":"7757534","steam_id":85568392924470002,"keywords":["cp","nocrits","nodmgspread","uncletopia"],"game_id":440,"stv_port":27026,"stv_name":"Uncletopia | Sydney | 2 | All Maps | STV","players":null},{"server_id":395,"name":"Uncletopia | Sydney | 3 | All Maps","name_short":"syd-3","host":"syd-1.au.uncletopia.com","port":27035,"enabled":true,"region":"au","cc":"au","latitude":-33.865143,"longitude":151.2099,"reserved":0,"last_update":"0001-01-01T00:00:00Z","name_a2s":"Uncletopia | Sydney | 3 | All Maps","protocol":17,"map":"cp_snakewater_final1","folder":"tf","game":"Team Fortress","app_id":440,"player_count":0,"max_players":24,"Bots":0,"server_type":"Dedicated","server_os":"Linux","password":true,"vac":true,"version":"7757534","steam_id":85568392925194467,"keywords":["cp","nocrits","nodmgspread","uncletopia"],"game_id":440,"stv_port":27036,"stv_name":"Uncletopia | Sydney | 3 | All Maps | STV","players":null},{"server_id":396,"name":"Uncletopia | Sydney | 4 | All Maps","name_short":"syd-4","host":"syd-1.au.uncletopia.com","port":27045,"enabled":true,"region":"au","cc":"au","latitude":-33.865143,"longitude":151.2099,"reserved":0,"last_update":"0001-01-01T00:00:00Z","name_a2s":"Uncletopia | Sydney | 4 | All Maps","protocol":17,"map":"koth_lakeside_final","folder":"tf","game":"Team Fortress","app_id":440,"player_count":0,"max_players":24,"Bots":0,"server_type":"Dedicated","server_os":"Linux","password":true,"vac":true,"version":"7757534","steam_id":85568392925397958,"keywords":["cp","nocrits","nodmgspread","uncletopia"],"game_id":440,"stv_port":27046,"stv_name":"Uncletopia | Sydney | 4 | All Maps | STV","players":null},{"server_id":58,"name":"Uncletopia | Sydney | 5 | Stopwatch Beta","name_short":"syd-5","host":"syd-1.au.uncletopia.com","port":27055,"enabled":true,"region":"au","cc":"au","latitude":-33.865143,"longitude":151.2099,"reserved":0,"last_update":"0001-01-01T00:00:00Z","name_a2s":"Uncletopia | Sydney | 5 | Stopwatch Beta","protocol":17,"map":"koth_highpass","folder":"tf","game":"Team Fortress","app_id":440,"player_count":0,"max_players":24,"Bots":0,"server_type":"Dedicated","server_os":"Linux","password":true,"vac":true,"version":"7757534","steam_id":85568392925397959,"keywords":["cp","nocrits","nodmgspread","uncletopia"],"game_id":440,"stv_port":27056,"stv_name":"Uncletopia | Sydney | 5 | Stopwatch Beta | STV","players":null},{"server_id":59,"name":"Uncletopia | Sydney | 6 | Community","name_short":"syd-6","host":"syd-1.au.uncletopia.com","port":27065,"enabled":true,"region":"au","cc":"au","latitude":-33.865143,"longitude":151.2099,"reserved":0,"last_update":"0001-01-01T00:00:00Z","name_a2s":"Uncletopia | Sydney | 6 | Community","protocol":17,"map":"workshop/koth_slaughter_rc1.ugc1712845210","folder":"tf","game":"Team Fortress","app_id":440,"player_count":0,"max_players":24,"Bots":0,"server_type":"Dedicated","server_os":"Linux","password":true,"vac":true,"version":"7757534","steam_id":85568392925397960,"keywords":["cp","nocrits","nodmgspread","uncletopia"],"game_id":440,"stv_port":27066,"stv_name":"Uncletopia | Sydney | 6 | Community | STV","players":null},{"server_id":49,"name":"Uncletopia | Warsaw | 1 | All Maps","name_short":"waw-1","host":"waw-1.pl.uncletopia.com","port":27015,"enabled":true,"region":"eu","cc":"pl","latitude":52.2297,"longitude":21.017532,"reserved":0,"last_update":"0001-01-01T00:00:00Z","name_a2s":"","protocol":0,"map":"","folder":"","game":"","app_id":0,"player_count":0,"max_players":0,"Bots":0,"server_type":"","server_os":"","password":false,"vac":false,"version":"","steam_id":0,"keywords":null,"game_id":0,"stv_port":0,"stv_name":"","players":null},{"server_id":50,"name":"Uncletopia | Warsaw | 2 | All Maps","name_short":"waw-2","host":"waw-1.pl.uncletopia.com","port":27025,"enabled":true,"region":"eu","cc":"pl","latitude":52.2297,"longitude":21.017532,"reserved":0,"last_update":"0001-01-01T00:00:00Z","name_a2s":"Uncletopia | Warsaw | 2 | All Maps","protocol":17,"map":"koth_highpass","folder":"tf","game":"Team Fortress","app_id":440,"player_count":0,"max_players":24,"Bots":0,"server_type":"Dedicated","server_os":"Linux","password":true,"vac":true,"version":"7757534","steam_id":85568392925397851,"keywords":["cp","nocrits","nodmgspread","uncletopia"],"game_id":440,"stv_port":27026,"stv_name":"Uncletopia | Warsaw | 2 | All Maps | STV","players":null},{"server_id":51,"name":"Uncletopia | Warsaw | 3 | All Maps","name_short":"waw-3","host":"waw-1.pl.uncletopia.com","port":27035,"enabled":true,"region":"eu","cc":"pl","latitude":52.2297,"longitude":21.017532,"reserved":0,"last_update":"0001-01-01T00:00:00Z","name_a2s":"Uncletopia | Warsaw | 3 | All Maps","protocol":17,"map":"koth_cascade","folder":"tf","game":"Team Fortress","app_id":440,"player_count":0,"max_players":24,"Bots":0,"server_type":"Dedicated","server_os":"Linux","password":true,"vac":true,"version":"7757534","steam_id":85568392925397852,"keywords":["cp","nocrits","nodmgspread","uncletopia"],"game_id":440,"stv_port":27036,"stv_name":"Uncletopia | Warsaw | 3 | All Maps | STV","players":null},{"server_id":52,"name":"Uncletopia | Warsaw | 4 | All Maps","name_short":"waw-4","host":"waw-1.pl.uncletopia.com","port":27045,"enabled":true,"region":"eu","cc":"pl","latitude":52.2297,"longitude":21.017532,"reserved":0,"last_update":"0001-01-01T00:00:00Z","name_a2s":"Uncletopia | Warsaw | 4 | All Maps","protocol":17,"map":"koth_lakeside_final","folder":"tf","game":"Team Fortress","app_id":440,"player_count":0,"max_players":24,"Bots":0,"server_type":"Dedicated","server_os":"Linux","password":true,"vac":true,"version":"7757534","steam_id":85568392925397853,"keywords":["cp","nocrits","nodmgspread","uncletopia"],"game_id":440,"stv_port":27046,"stv_name":"Uncletopia | Warsaw | 4 | All Maps | STV","players":null},{"server_id":53,"name":"Uncletopia | Warsaw | 5 | Stopwatch Beta","name_short":"waw-5","host":"waw-1.pl.uncletopia.com","port":27055,"enabled":true,"region":"eu","cc":"pl","latitude":52.2297,"longitude":21.017532,"reserved":0,"last_update":"0001-01-01T00:00:00Z","name_a2s":"Uncletopia | Warsaw | 5 | Stopwatch Beta","protocol":17,"map":"pl_barnblitz","folder":"tf","game":"Team Fortress","app_id":440,"player_count":0,"max_players":24,"Bots":0,"server_type":"Dedicated","server_os":"Linux","password":true,"vac":true,"version":"7757534","steam_id":85568392925397854,"keywords":["nocrits","nodmgspread","payload","uncletopia"],"game_id":440,"stv_port":27056,"stv_name":"Uncletopia | Warsaw | 5 | Stopwatch Beta | STV","players":null},{"server_id":54,"name":"Uncletopia | Warsaw | 6 | Community","name_short":"waw-6","host":"waw-1.pl.uncletopia.com","port":27065,"enabled":true,"region":"eu","cc":"pl","latitude":52.2297,"longitude":21.017532,"reserved":0,"last_update":"0001-01-01T00:00:00Z","name_a2s":"Uncletopia | Warsaw | 6 | Community","protocol":17,"map":"workshop/rd_asteroid_redux_b1.ugc2154902912","folder":"tf","game":"Team Fortress","app_id":440,"player_count":0,"max_players":24,"Bots":0,"server_type":"Dedicated","server_os":"Linux","password":true,"vac":true,"version":"7757534","steam_id":85568392925397856,"keywords":["beta","nocrits","nodmgspread","rd","uncletopia"],"game_id":440,"stv_port":27066,"stv_name":"Uncletopia | Warsaw | 6 | Community | STV","players":null}]}