{"status":true,"message":"","result":[{"server_id":9,"name":"Uncletopia | Atlanta | 1 | All Maps","name_short":"atl-1","host":"atl-1.us.uncletopia.com","port":27015,"enabled":true,"region":"us-east","cc":"us","latitude":33.753746,"longitude":-84.38633,"reserved":0,"last_update":"0001-01-01T00:00:00Z","name_a2s":"Uncletopia | Atlanta | 1 | All Maps","protocol":17,"map":"koth_harvest_final","folder":"tf","game":"Team Fortress","app_id":440,"player_count":24,"max_players":24,"Bots":0,"server_type":"Dedicated","server_os":"Linux","password":true,"vac":true,"version":"7882260","steam_id":85568392924469982,"keywords":["cp","nocrits","nodmgspread","uncletopia"],"game_id":440,"stv_port":27016,"stv_name":"Uncletopia | Atlanta | 1 | All Maps | STV","players":[{"user_id":67,"name":"Horse","steam_id":76561198004583631,"connected_time":2138000000000,"state":"active","ping":90},{"user_id":84,"name":"Kurt Biscuitmaker","steam_id":76561198331701823,"connected_time":923000000000,"state":"active","ping":85},{"user_id":85,"name":"VLC Media Player","steam_id":76561198103243847,"connected_time":877000000000,"state":"active","ping":103},{"user_id":70,"name":"Sup m8","steam_id":76561198081659121,"connected_time":1981000000000,"state":"active","ping":55},{"user_id":87,"name":"Snak3aries","steam_id":76561198307596348,"connected_time":858000000000,"state":"active","ping":60},{"user_id":69,"name":"6t26j","steam_id":76561198278282836,"connected_time":2125000000000,"state":"active","ping":64},{"user_id":88,"name":"Your Local Queer Librarian","steam_id":76561198013077080,"connected_time":794000000000,"state":"active","ping":74},{"user_id":56,"name":"wally","steam_id":76561198027450079,"connected_time":3279000000000,"state":"active","ping":61},{"user_id":99,"name":"The Goat","steam_id":76561197960432083,"connected_time":371000000000,"state":"active","ping":75},{"user_id":74,"name":"g00bur","steam_id":76561197993622520,"connected_time":1662000000000,"state":"active","ping":65},{"user_id":95,"name":"._.","steam_id":76561198127039453,"connected_time":659000000000,"state":"active","ping":97},{"user_id":55,"name":"1997 Acura integra gs","steam_id":76561198997971509,"connected_time":3316000000000,"state":"active","ping":123},{"user_id":46,"name":"send dudes","steam_id":76561198084277762,"connected_time":3564000000000,"state":"active","ping":75},{"user_id":66,"name":"Wattle","steam_id":76561198036756626,"connected_time":2235000000000,"state":"active","ping":78},{"user_id":102,"name":"The Loveable CHI.I.BI.","steam_id":76561198039262228,"connected_time":154000000000,"state":"active","ping":48},{"user_id":60,"name":"Keroro","steam_id":76561198075106705,"connected_time":3154000000000,"state":"active","ping":76},{"user_id":103,"name":"Dezorbo","steam_id":76561197971883897,"connected_time":116000000000,"state":"active","ping":69},{"user_id":89,"name":"VALENCE","steam_id":76561198118492031,"connected_time":777000000000,"state":"active","ping":91},{"user_id":98,"name":"Lost CS player","steam_id":76561198892387723,"connected_time":469000000000,"state":"active","ping":72},{"user_id":86,"name":"krueger","steam_id":76561198268654031,"connected_time":875000000000,"state":"active","ping":75},{"user_id":101,"name":"TJGSASQUATCH","steam_id":76561198077806921,"connected_time":235000000000,"state":"active","ping":76},{"user_id":97,"name":"Take the L","steam_id":76561198379223875,"connected_time":473000000000,"state":"active","ping":93},{"user_id":58,"name":"WarMace","steam_id":76561198395937853,"connected_time":3274000000000,"state":"active","ping":112},{"user_id":79,"name":"King Col","steam_id":76561198033384990,"connected_time":1637000000000,"state":"active","ping":48}]},{"server_id":104,"name":"Uncletopia | Atlanta | 2 | All Maps","name_short":"atl-2","host":"atl-1.us.uncletopia.com","port":27025,"enabled":true,"region":"us-east","cc":"us","latitude":33.753746,"longitude":-84.38633,"reserved":0,"last_update":"0001-01-01T00:00:00Z","name_a2s":"Uncletopia | Atlanta | 2 | All Maps","protocol":17,"map":"pl_snowycoast","folder":"tf","game":"Team Fortress","app_id":440,"player_count":24,"max_players":24,"Bots":0,"server_type":"Dedicated","server_os":"Linux","password":true,"vac":true,"version":"7882260","steam_id":85568392924469983,"keywords":["nocrits","nodmgspread","payload","uncletopia"],"game_id":440,"stv_port":27026,"stv_name":"Uncletopia | Atlanta | 2 | All Maps | STV","players":[{"user_id":281,"name":"Cad","steam_id":76561198312145232,"connected_time":525000000000,"state":"active","ping":80},{"user_id":154,"name":"SHADY SWEATER SALESMAN","steam_id":76561198014616865,"connected_time":12801000000000,"state":"active","ping":92},{"user_id":266,"name":"MoePlaysGames","steam_id":76561198316877833,"connected_time":2093000000000,"state":"active","ping":111},{"user_id":255,"name":"CJDGuy","steam_id":76561198213009545,"connected_time":2961000000000,"state":"active","ping":74},{"user_id":256,"name":"Pixeled","steam_id":76561198088917077,"connected_time":2958000000000,"state":"active","ping":70},{"user_id":257,"name":"Jasper Zawn","steam_id":76561198077651204,"connected_time":2930000000000,"state":"active","ping":89},{"user_id":275,"name":"Snake","steam_id":76561198817933714,"connected_time":852000000000,"state":"active","ping":120},{"user_id":271,"name":"Shame","steam_id":76561198100490994,"connected_time":1430000000000,"state":"active","ping":58},{"user_id":277,"name":"capybara","steam_id":76561198182288455,"connected_time":719000000000,"state":"active","ping":74},{"user_id":286,"name":"KFC Rat","steam_id":76561198135128086,"connected_time":98000000000,"state":"active","ping":111},{"user_id":203,"name":"Glory","steam_id":76561198013975080,"connected_time":7618000000000,"state":"active","ping":95},{"user_id":141,"name":"BuncusBeffer","steam_id":76561198285936616,"connected_time":13898000000000,"state":"active","ping":119},{"user_id":285,"name":"CollDragon","steam_id":76561198067534450,"connected_time":123000000000,"state":"active","ping":59},{"user_id":278,"name":"An Enemy Gamer","steam_id":76561198205328953,"connected_time":667000000000,"state":"active","ping":103},{"user_id":252,"name":"chestes *\u003c|B^)","steam_id":76561198066223818,"connected_time":3091000000000,"state":"active","ping":81},{"user_id":283,"name":"Hideout","steam_id":76561198163765260,"connected_time":257000000000,"state":"active","ping":89},{"user_id":262,"name":"Quartermistress","steam_id":76561198140199123,"connected_time":2862000000000,"state":"active","ping":134},{"user_id":272,"name":"t(._. t)","steam_id":76561198241034752,"connected_time":1415000000000,"state":"active","ping":121},{"user_id":284,"name":"∆ê’å—¥∆≥","steam_id":76561198099470277,"connected_time":166000000000,"state":"active","ping":74},{"user_id":279,"name":"devmonk","steam_id":76561198090807130,"connected_time":664000000000,"state":"active","ping":80},{"user_id":169,"name":"Somsnosa","steam_id":76561198366299848,"connected_time":10965000000000,"state":"active","ping":59},{"user_id":280,"name":"puffy","steam_id":76561198411347037,"connected_time":657000000000,"state":"active","ping":72},{"user_id":254,"name":"Walmart Employee","steam_id":76561198840373909,"connected_time":3041000000000,"state":"active","ping":70},{"user_id":243,"name":"scrapheap","steam_id":76561198202407087,"connected_time":4230000000000,"state":"active","ping":78}]},{"server_id":400,"name":"Uncletopia | Atlanta | 3 | Community","name_short":"atl-3","host":"atl-1.us.uncletopia.com","port":27035,"enabled":true,"region":"us-east","cc":"us","latitude":33.753746,"longitude":-84.38633,"reserved":0,"last_update":"0001-01-01T00:00:00Z","name_a2s":"Uncletopia | Atlanta | 3 | Community","protocol":17,"map":"workshop/koth_trenchfoot_b1a.ugc731436616","folder":"tf","game":"Team Fortress","app_id":440,"player_count":0,"max_players":24,"Bots":0,"server_type":"Dedicated","server_os":"Linux","password":true,"vac":true,"version":"7882260","steam_id":85568392924515187,"keywords":["cp","nocrits","nodmgspread","uncletopia"],"game_id":440,"stv_port":27036,"stv_name":"Uncletopia | Atlanta | 3 | Community | STV","players":null},{"server_id":401,"name":"Uncletopia | Atlanta | 4 | No Payload","name_short":"atl-4","host":"atl-1.us.uncletopia.com","port":27045,"enabled":true,"region":"us-east","cc":"us","latitude":33.753746,"longitude":-84.38633,"reserved":0,"last_update":"0001-01-01T00:00:00Z","name_a2s":"","protocol":0,"map":"","folder":"","game":"","app_id":0,"player_count":0,"max_players":0,"Bots":0,"server_type":"","server_os":"","password":false,"vac":false,"version":"","steam_id":0,"keywords":null,"game_id":0,"stv_port":0,"stv_name":"","players":null},{"server_id":2,"name":"Uncletopia | Chicago | 1 | All Maps","name_short":"chi-1","host":"chi-1.us.uncletopia.com","port":27015,"enabled":true,"region":"us-central","cc":"us","latitude":41.881832,"longitude":-87.62318,"reserved":0,"last_update":"0001-01-01T00:00:00Z","name_a2s":"Uncletopia | Chicago | 1 | All Maps","protocol":17,"map":"pl_snowycoast","folder":"tf","game":"Team Fortress","app_id":440,"player_count":24,"max_players":24,"Bots":0,"server_type":"Dedicated","server_os":"Linux","password":true,"vac":true,"version":"7882260","steam_id":85568392924469984,"keywords":["nocrits","nodmgspread","payload","uncletopia"],"game_id":440,"stv_port":27016,"stv_name":"Uncletopia | Chicago | 1 | All Maps | STV","players":[{"user_id":136,"name":"abed","steam_id":76561198072856511,"connected_time":1490000000000,"state":"active","ping":84},{"user_id":158,"name":"Doctor Bear  ï ‚Ä¢·¥•‚Ä¢ î","steam_id":76561197968103161,"connected_time":77000000000,"state":"active","ping":61},{"user_id":149,"name":"Im High","steam_id":76561198049954886,"connected_time":591000000000,"state":"active","ping":71},{"user_id":119,"name":"Ayumu \"Oakland\" Kasuga","steam_id":76561198345276434,"connected_time":4268000000000,"state":"active","ping":86},{"user_id":142,"name":"bobbymcbobington","steam_id":76561199089411172,"connected_time":1077000000000,"state":"active","ping":107},{"user_id":137,"name":"Falafel","steam_id":76561198111493042,"connected_time":1468000000000,"state":"active","ping":158},{"user_id":140,"name":"PKBEAST_7","steam_id":76561198177136537,"connected_time":1129000000000,"state":"active","ping":87},{"user_id":134,"name":"Mixomin","steam_id":76561198295061570,"connected_time":2028000000000,"state":"active","ping":46},{"user_id":113,"name":"magickxanadu","steam_id":76561199117360103,"connected_time":4595000000000,"state":"active","ping":77},{"user_id":144,"name":"0","steam_id":76561198046055673,"connected_time":1019000000000,"state":"active","ping":74},{"user_id":54,"name":"PyroEagle","steam_id":76561198296434231,"connected_time":8575000000000,"state":"active","ping":58},{"user_id":139,"name":"Rec","steam_id":76561198022813906,"connected_time":1321000000000,"state":"active","ping":50},{"user_id":85,"name":"Influrrno","steam_id":76561198398893302,"connected_time":6626000000000,"state":"active","ping":72},{"user_id":126,"name":"steven","steam_id":76561198173047169,"connected_time":3437000000000,"state":"active","ping":58},{"user_id":123,"name":"AdorableMew","steam_id":76561198186706405,"connected_time":3971000000000,"state":"active","ping":64},{"user_id":151,"name":"brett","steam_id":76561198799740059,"connected_time":336000000000,"state":"active","ping":76},{"user_id":138,"name":"LVL 4 Dispenser Gaming","steam_id":76561198044244547,"connected_time":1415000000000,"state":"active","ping":80},{"user_id":74,"name":"fancyfreak","steam_id":76561198326466375,"connected_time":7188000000000,"state":"active","ping":96},{"user_id":109,"name":"Smoker Lung","steam_id":76561198077167395,"connected_time":4836000000000,"state":"active","ping":46},{"user_id":124,"name":"Ripheart","steam_id":76561198089661561,"connected_time":3965000000000,"state":"active","ping":41},{"user_id":146,"name":"effete","steam_id":76561197994376499,"connected_time":977000000000,"state":"active","ping":97},{"user_id":135,"name":"Jak(i)","steam_id":76561198076823144,"connected_time":1605000000000,"state":"active","ping":65},{"user_id":148,"name":"j - „Éï„É©„Ç§„Éâ„ÉÅ„Ç≠„É≥","steam_id":76561198061224922,"connected_time":827000000000,"state":"active","ping":75},{"user_id":129,"name":"daniel.smith.2009@hotmail.com","steam_id":76561199072955534,"connected_time":2668000000000,"state":"active","ping":54}]},{"server_id":106,"name":"Uncletopia | Chicago | 2 | All Maps","name_short":"chi-2","host":"chi-1.us.uncletopia.com","port":27025,"enabled":true,"region":"us-central","cc":"us","latitude":41.881832,"longitude":-87.62318,"reserved":0,"last_update":"0001-01-01T00:00:00Z","name_a2s":"Uncletopia | Chicago | 2 | All Maps","protocol":17,"map":"pl_frontier_final","folder":"tf","game":"Team Fortress","app_id":440,"player_count":0,"max_players":24,"Bots":0,"server_type":"Dedicated","server_os":"Linux","password":true,"vac":true,"version":"7882260","steam_id":85568392924469985,"keywords":["nocrits","nodmgspread","payload","uncletopia"],"game_id":440,"stv_port":27026,"stv_name":"Uncletopia | Chicago | 2 | All Maps | STV","players":null},{"server_id":402,"name":"Uncletopia | Chicago | 3 | All Maps","name_short":"chi-3","host":"chi-1.us.uncletopia.com","port":27035,"enabled":true,"region":"us-central","cc":"us","latitude":41.881832,"longitude":-87.62318,"reserved":0,"last_update":"0001-01-01T00:00:00Z","name_a2s":"Uncletopia | Chicago | 3 | All Maps","protocol":17,"map":"pl_swiftwater_final1","folder":"tf","game":"Team Fortress","app_id":440,"player_count":0,"max_players":24,"Bots":0,"server_type":"Dedicated","server_os":"Linux","password":true,"vac":true,"version":"7882260","steam_id":85568392924515191,"keywords":["nocrits","nodmgspread","payload","uncletopia"],"game_id":440,"stv_port":27036,"stv_name":"Uncletopia | Chicago | 3 | All Maps | STV","players":null},{"server_id":403,"name":"Uncletopia | Chicago | 4 | All Maps","name_short":"chi-4","host":"chi-1.us.uncletopia.com","port":27045,"enabled":true,"region":"us-central","cc":"us","latitude":41.881832,"longitude":-87.62318,"reserved":0,"last_update":"0001-01-01T00:00:00Z","name_a2s":"Uncletopia | Chicago | 4 | All Maps","protocol":17,"map":"koth_cascade","folder":"tf","game":"Team Fortress","app_id":440,"player_count":0,"max_players":24,"Bots":0,"server_type":"Dedicated","server_os":"Linux","password":true,"vac":true,"version":"7882260","steam_id":85568392924515193,"keywords":["cp","nocrits","nodmgspread","uncletopia"],"game_id":440,"stv_port":27046,"stv_name":"Uncletopia | Chicago | 4 | All Maps | STV","players":null},{"server_id":36,"name":"Uncletopia | Chicago | 5 | All Maps","name_short":"chi-5","host":"chi-2.us.uncletopia.com","port":27015,"enabled":true,"region":"us-central","cc":"us","latitude":41.881832,"longitude":-87.62318,"reserved":0,"last_update":"0001-01-01T00:00:00Z","name_a2s":"Uncletopia | Chicago | 5 | All Maps","protocol":17,"map":"pl_snowycoast","folder":"tf","game":"Team Fortress","app_id":440,"player_count":0,"max_players":24,"Bots":0,"server_type":"Dedicated","server_os":"Linux","password":true,"vac":true,"version":"7882260","steam_id":85568392924866362,"keywords":["nocrits","nodmgspread","payload","uncletopia"],"game_id":440,"stv_port":27016,"stv_name":"Uncletopia | Chicago | 5 | All Maps | STV","players":null},{"server_id":37,"name":"Uncletopia | Chicago | 6 | All Maps","name_short":"chi-6","host":"chi-2.us.uncletopia.com","port":27025,"enabled":true,"region":"us-central","cc":"us","latitude":41.881832,"longitude":-87.62318,"reserved":0,"last_update":"0001-01-01T00:00:00Z","name_a2s":"Uncletopia | Chicago | 6 | All Maps","protocol":17,"map":"koth_cascade","folder":"tf","game":"Team Fortress","app_id":440,"player_count":2,"max_players":24,"Bots":0,"server_type":"Dedicated","server_os":"Linux","password":true,"vac":true,"version":"7882260","steam_id":85568392924866363,"keywords":["cp","nocrits","nodmgspread","uncletopia"],"game_id":440,"stv_port":27026,"stv_name":"Uncletopia | Chicago | 6 | All Maps | STV","players":[{"user_id":7,"name":"shadow","steam_id":76561198194231953,"connected_time":140000000000,"state":"active","ping":174},{"user_id":6,"name":"Bon Gripper","steam_id":76561198090074621,"connected_time":195000000000,"state":"active","ping":50}]},{"server_id":38,"name":"Uncletopia | Chicago | 7 | Stopwatch Beta","name_short":"chi-7","host":"chi-2.us.uncletopia.com","port":27035,"enabled":true,"region":"us-central","cc":"us","latitude":41.881832,"longitude":-87.62318,"reserved":0,"last_update":"0001-01-01T00:00:00Z","name_a2s":"Uncletopia | Chicago | 7 | Stopwatch Beta","protocol":17,"map":"workshop/cp_process_f12.ugc2302948105","folder":"tf","game":"Team Fortress","app_id":440,"player_count":0,"max_players":24,"Bots":0,"server_type":"Dedicated","server_os":"Linux","password":true,"vac":true,"version":"7882260","steam_id":85568392924866364,"keywords":["cp","nocrits","nodmgspread","uncletopia"],"game_id":440,"stv_port":27036,"stv_name":"Uncletopia | Chicago | 7 | Stopwatch Beta | STV","players":null},{"server_id":39,"name":"Uncletopia | Chicago | 8 | Community","name_short":"chi-8","host":"chi-2.us.uncletopia.com","port":27045,"enabled":true,"region":"us-central","cc":"us","latitude":41.881832,"longitude":-87.62318,"reserved":0,"last_update":"0001-01-01T00:00:00Z","name_a2s":"Uncletopia | Chicago | 8 | Community","protocol":17,"map":"workshop/cp_villa_b19.ugc2113052569","folder":"tf","game":"Team Fortress","app_id":440,"player_count":3,"max_players":24,"Bots":0,"server_type":"Dedicated","server_os":"Linux","password":true,"vac":true,"version":"7882260","steam_id":85568392924866365,"keywords":["cp","nocrits","nodmgspread","uncletopia"],"game_id":440,"stv_port":27046,"stv_name":"Uncletopia | Chicago | 8 | Community | STV","players":[{"user_id":3,"name":"xavier64","steam_id":76561199405220871,"connected_time":326000000000,"state":"active","ping":104},{"user_id":4,"name":"LordOSalt","steam_id":76561198353373544,"connected_time":260000000000,"state":"active","ping":67},{"user_id":5,"name":"maS","steam_id":76561198033846407,"connected_time":149000000000,"state":"active","ping":58}]},{"server_id":8,"name":"Uncletopia | Dallas | 1 | All Maps","name_short":"dal-1","host":"dal-1.us.uncletopia.com","port":27015,"enabled":true,"region":"us-central","cc":"us","latitude":32.779167,"longitude":-96.80889,"reserved":0,"last_update":"0001-01-01T00:00:00Z","name_a2s":"Uncletopia | Dallas | 1 | All Maps","protocol":17,"map":"pl_pier","folder":"tf","game":"Team Fortress","app_id":440,"player_count":0,"max_players":24,"Bots":0,"server_type":"Dedicated","server_os":"Linux","password":true,"vac":true,"version":"7882260","steam_id":85568392924469986,"keywords":["nocrits","nodmgspread","payload","uncletopia"],"game_id":440,"stv_port":27016,"stv_name":"Uncletopia | Dallas | 1 | All Maps | STV","players":null},{"server_id":108,"name":"Uncletopia | Dallas | 2 | All Maps","name_short":"dal-2","host":"dal-1.us.uncletopia.com","port":27025,"enabled":true,"region":"us-central","cc":"us","latitude":32.779167,"longitude":-96.80889,"reserved":0,"last_update":"0001-01-01T00:00:00Z","name_a2s":"Uncletopia | Dallas | 2 | All Maps","protocol":17,"map":"pl_frontier_final","folder":"tf","game":"Team Fortress","app_id":440,"player_count":0,"max_players":24,"Bots":0,"server_type":"Dedicated","server_os":"Linux","password":true,"vac":true,"version":"7882260","steam_id":85568392924469988,"keywords":["nocrits","nodmgspread","payload","uncletopia"],"game_id":440,"stv_port":27026,"stv_name":"Uncletopia | Dallas | 2 | All Maps | STV","players":null},{"server_id":5,"name":"Uncletopia | Frankfurt | 1 | All Maps","name_short":"frk-1","host":"frk-1.de.uncletopia.com","port":27015,"enabled":true,"region":"eu","cc":"de","latitude":50.110924,"longitude":8.682127,"reserved":0,"last_update":"0001-01-01T00:00:00Z","name_a2s":"Uncletopia | Frankfurt | 1 | All Maps","protocol":17,"map":"cp_sunshine","folder":"tf","game":"Team Fortress","app_id":440,"player_count":24,"max_players":24,"Bots":0,"server_type":"Dedicated","server_os":"Linux","password":true,"vac":true,"version":"7882260","steam_id":85568392924469989,"keywords":["cp","nocrits","nodmgspread","uncletopia"],"game_id":440,"stv_port":27016,"stv_name":"Uncletopia | Frankfurt | 1 | All Maps | STV","players":[{"user_id":261,"name":"Dwarf man","steam_id":76561198323436713,"connected_time":58000000000,"state":"active","ping":118},{"user_id":214,"name":"MoistMomMauler","steam_id":76561198069359049,"connected_time":2319000000000,"state":"active","ping":75},{"user_id":265,"name":"–ëravo","steam_id":76561198259340310,"connected_time":8000000000,"state":"spawning","ping":98},{"user_id":240,"name":"Falco","steam_id":76561199061187430,"connected_time":1024000000000,"state":"active","ping":45},{"user_id":244,"name":"janga","steam_id":76561197977643629,"connected_time":841000000000,"state":"active","ping":45},{"user_id":249,"name":"murderwow","steam_id":76561198024566944,"connected_time":302000000000,"state":"active","ping":100},{"user_id":251,"name":"Delcup","steam_id":76561199006338376,"connected_time":271000000000,"state":"active","ping":114},{"user_id":252,"name":"Kaishakunin","steam_id":76561198028123874,"connected_time":265000000000,"state":"active","ping":89},{"user_id":263,"name":"Sirzen","steam_id":76561198170155434,"connected_time":21000000000,"state":"active","ping":48},{"user_id":256,"name":"Sage","steam_id":76561198143101697,"connected_time":147000000000,"state":"active","ping":168},{"user_id":254,"name":"Need moar bacon!","steam_id":76561198075914276,"connected_time":217000000000,"state":"active","ping":88},{"user_id":225,"name":"OMFGninjaneer #Hetero","steam_id":76561198044174757,"connected_time":1750000000000,"state":"active","ping":83},{"user_id":227,"name":"Mega Man Legends 3","steam_id":76561198014110199,"connected_time":1743000000000,"state":"active","ping":60},{"user_id":264,"name":"Mr. Mundy","steam_id":76561198132008918,"connected_time":11000000000,"state":"spawning","ping":375},{"user_id":175,"name":"r06u3","steam_id":76561198254099253,"connected_time":4923000000000,"state":"active","ping":165},{"user_id":255,"name":"KillerQueen (he/they/she)","steam_id":76561199019399725,"connected_time":176000000000,"state":"active","ping":63},{"user_id":229,"name":"Radegast the Brown","steam_id":76561198075489505,"connected_time":1650000000000,"state":"active","ping":62},{"user_id":230,"name":"mud","steam_id":76561198141497461,"connected_time":1635000000000,"state":"active","ping":61},{"user_id":257,"name":"WomenBeardLike","steam_id":76561198390184314,"connected_time":134000000000,"state":"active","ping":61},{"user_id":258,"name":"gfjhsdf","steam_id":76561198136736426,"connected_time":132000000000,"state":"active","ping":59},{"user_id":234,"name":"Milosz52","steam_id":76561199060940204,"connected_time":1306000000000,"state":"active","ping":84},{"user_id":232,"name":"Carl","steam_id":76561198285931413,"connected_time":1611000000000,"state":"active","ping":146},{"user_id":233,"name":"THE LAST BALLOONICORN","steam_id":76561198354549261,"connected_time":1444000000000,"state":"active","ping":92},{"user_id":260,"name":"aavikkorotta","steam_id":76561199429407130,"connected_time":73000000000,"state":"active","ping":92}]},{"server_id":110,"name":"Uncletopia | Frankfurt | 2 | All Maps","name_short":"frk-2","host":"frk-1.de.uncletopia.com","port":27025,"enabled":true,"region":"eu","cc":"de","latitude":50.110924,"longitude":8.682127,"reserved":0,"last_update":"0001-01-01T00:00:00Z","name_a2s":"Uncletopia | Frankfurt | 2 | All Maps","protocol":17,"map":"pl_barnblitz","folder":"tf","game":"Team Fortress","app_id":440,"player_count":24,"max_players":24,"Bots":0,"server_type":"Dedicated","server_os":"Linux","password":true,"vac":true,"version":"7882260","steam_id":85568392924469990,"keywords":["nocrits","nodmgspread","payload","uncletopia"],"game_id":440,"stv_port":27026,"stv_name":"Uncletopia | Frankfurt | 2 | All Maps | STV","players":[{"user_id":352,"name":"Twitch.tv/Siigull","steam_id":76561198133341026,"connected_time":2714000000000,"state":"active","ping":102},{"user_id":375,"name":"Saint","steam_id":76561198003296382,"connected_time":812000000000,"state":"active","ping":65},{"user_id":338,"name":"That Phlog mfer","steam_id":76561198050416948,"connected_time":3798000000000,"state":"active","ping":59},{"user_id":303,"name":"Cuthbert","steam_id":76561198204649481,"connected_time":7307000000000,"state":"active","ping":101},{"user_id":369,"name":"Ch0rys","steam_id":76561198314985318,"connected_time":1537000000000,"state":"active","ping":46},{"user_id":346,"name":"Walle","steam_id":76561197995148937,"connected_time":3184000000000,"state":"active","ping":70},{"user_id":341,"name":"on1on (fried)","steam_id":76561197995304137,"connected_time":3632000000000,"state":"active","ping":62},{"user_id":371,"name":"Leituga","steam_id":76561198051127598,"connected_time":1495000000000,"state":"active","ping":94},{"user_id":379,"name":"System","steam_id":76561199442503973,"connected_time":580000000000,"state":"active","ping":48},{"user_id":380,"name":"socaramel","steam_id":76561197984480336,"connected_time":161000000000,"state":"active","ping":80},{"user_id":361,"name":"Halifax","steam_id":76561198056300796,"connected_time":1978000000000,"state":"active","ping":68},{"user_id":336,"name":"[HOL] Solringen","steam_id":76561198003584681,"connected_time":3922000000000,"state":"active","ping":71},{"user_id":351,"name":"weed fairy","steam_id":76561197998843096,"connected_time":2746000000000,"state":"active","ping":71},{"user_id":347,"name":"WaterFk??","steam_id":76561198080419334,"connected_time":3124000000000,"state":"active","ping":59},{"user_id":363,"name":"i eat glue competitively","steam_id":76561198053929269,"connected_time":1963000000000,"state":"active","ping":89},{"user_id":298,"name":"Peanut","steam_id":76561198018865486,"connected_time":7641000000000,"state":"active","ping":75},{"user_id":364,"name":"Spheedermern","steam_id":76561198160898152,"connected_time":1961000000000,"state":"active","ping":66},{"user_id":365,"name":"Isohel [Kiba]","steam_id":76561198129032662,"connected_time":1944000000000,"state":"active","ping":59},{"user_id":368,"name":"celt","steam_id":76561198406083426,"connected_time":1713000000000,"state":"active","ping":99},{"user_id":372,"name":"Jeetach","steam_id":76561199062437546,"connected_time":1430000000000,"state":"active","ping":54},{"user_id":376,"name":"JaneDoe","steam_id":76561198067081506,"connected_time":808000000000,"state":"active","ping":86},{"user_id":377,"name":"Fat Pigeon","steam_id":76561198817940142,"connected_time":755000000000,"state":"active","ping":56},{"user_id":334,"name":"Franticlamp","steam_id":76561198339698995,"connected_time":4199000000000,"state":"active","ping":92}]},{"server_id":308,"name":"Uncletopia | Frankfurt | 3 | All Maps","name_short":"frk-3","host":"frk-1.de.uncletopia.com","port":27035,"enabled":true,"region":"eu","cc":"de","latitude":50.110924,"longitude":8.682127,"reserved":0,"last_update":"0001-01-01T00:00:00Z","name_a2s":"Uncletopia | Frankfurt | 3 | All Maps","protocol":17,"map":"pl_borneo","folder":"tf","game":"Team Fortress","app_id":440,"player_count":24,"max_players":24,"Bots":0,"server_type":"Dedicated","server_os":"Linux","password":true,"vac":true,"version":"7882260","steam_id":85568392924504274,"keywords":["nocrits","nodmgspread","payload","uncletopia"],"game_id":440,"stv_port":27036,"stv_name":"Uncletopia | Frankfurt | 3 | All Maps | STV","players":[{"user_id":769,"name":"Sir Kiops","steam_id":76561198022769275,"connected_time":1089000000000,"state":"active","ping":101},{"user_id":772,"name":"ducks","steam_id":76561198166148685,"connected_time":764000000000,"state":"active","ping":50},{"user_id":761,"name":"WolfmanCZ","steam_id":76561199157141414,"connected_time":1821000000000,"state":"active","ping":69},{"user_id":773,"name":"Deano","steam_id":76561198846529984,"connected_time":758000000000,"state":"active","ping":194},{"user_id":686,"name":"Skuld","steam_id":76561198064734905,"connected_time":5727000000000,"state":"active","ping":90},{"user_id":774,"name":"French Lym","steam_id":76561198954876624,"connected_time":712000000000,"state":"active","ping":66},{"user_id":788,"name":"PixelStachee","steam_id":76561198110453607,"connected_time":425000000000,"state":"active","ping":61},{"user_id":767,"name":"Ocelot9610","steam_id":76561199227216384,"connected_time":1286000000000,"state":"active","ping":64},{"user_id":786,"name":"Burpman","steam_id":76561198022897937,"connected_time":463000000000,"state":"active","ping":61},{"user_id":777,"name":"–î–∏d–≥–ñ_CZ","steam_id":76561198312530456,"connected_time":675000000000,"state":"active","ping":74},{"user_id":778,"name":"askulap","steam_id":76561197992018795,"connected_time":670000000000,"state":"active","ping":79},{"user_id":780,"name":"1914","steam_id":76561198257383813,"connected_time":620000000000,"state":"active","ping":48},{"user_id":750,"name":"CumbustiblePunda","steam_id":76561197974274677,"connected_time":3174000000000,"state":"active","ping":58},{"user_id":751,"name":"Kolmannen","steam_id":76561198288826376,"connected_time":3152000000000,"state":"active","ping":55},{"user_id":783,"name":"37-","steam_id":76561198102195119,"connected_time":576000000000,"state":"active","ping":58},{"user_id":781,"name":"def","steam_id":76561198857396812,"connected_time":618000000000,"state":"active","ping":47},{"user_id":759,"name":"sin","steam_id":76561198193416785,"connected_time":1936000000000,"state":"active","ping":66},{"user_id":791,"name":"Thors","steam_id":76561197968739075,"connected_time":75000000000,"state":"active","ping":45},{"user_id":757,"name":"metamikko","steam_id":76561198324704234,"connected_time":2218000000000,"state":"active","ping":105},{"user_id":784,"name":"result","steam_id":76561198269200388,"connected_time":507000000000,"state":"active","ping":72},{"user_id":790,"name":"Drekad√≥ttir","steam_id":76561198119979169,"connected_time":320000000000,"state":"active","ping":73},{"user_id":756,"name":"Jughead","steam_id":76561198000355410,"connected_time":2473000000000,"state":"active","ping":71},{"user_id":787,"name":"Femboy Micro","steam_id":76561198289540452,"connected_time":457000000000,"state":"active","ping":60},{"user_id":442,"name":"LasagneMan","steam_id":76561198971904377,"connected_time":19835000000000,"state":"active","ping":65}]},{"server_id":309,"name":"Uncletopia | Frankfurt | 4 | All Maps","name_short":"frk-4","host":"frk-1.de.uncletopia.com","port":27045,"enabled":true,"region":"eu","cc":"de","latitude":50.110924,"longitude":8.682127,"reserved":0,"last_update":"0001-01-01T00:00:00Z","name_a2s":"Uncletopia | Frankfurt | 4 | All Maps","protocol":17,"map":"pl_swiftwater_final1","folder":"tf","game":"Team Fortress","app_id":440,"player_count":24,"max_players":24,"Bots":0,"server_type":"Dedicated","server_os":"Linux","password":true,"vac":true,"version":"7882260","steam_id":85568392924504275,"keywords":["nocrits","nodmgspread","payload","uncletopia"],"game_id":440,"stv_port":27046,"stv_name":"Uncletopia | Frankfurt | 4 | All Maps | STV","players":[{"user_id":19,"name":"Daddyflabburger","steam_id":76561198104352907,"connected_time":1390000000000,"state":"active","ping":74},{"user_id":14,"name":"lolger","steam_id":76561199405958997,"connected_time":2502000000000,"state":"active","ping":33},{"user_id":15,"name":"SOBAKIN_F","steam_id":76561199226117708,"connected_time":2307000000000,"state":"active","ping":82},{"user_id":52,"name":"Kildon","steam_id":76561198134661558,"connected_time":232000000000,"state":"active","ping":82},{"user_id":31,"name":"DrunkHungarian","steam_id":76561198853346540,"connected_time":786000000000,"state":"active","ping":50},{"user_id":22,"name":"AidenQG","steam_id":76561198864678536,"connected_time":1315000000000,"state":"active","ping":65},{"user_id":32,"name":"avatar51751","steam_id":76561198129795032,"connected_time":739000000000,"state":"active","ping":64},{"user_id":24,"name":"Wholesome","steam_id":76561198010329501,"connected_time":1192000000000,"state":"active","ping":69},{"user_id":25,"name":"BELLVM ARHIMAGVS DACVS ARIANVS","steam_id":76561198090695039,"connected_time":1086000000000,"state":"active","ping":57},{"user_id":26,"name":"sixth","steam_id":76561198390666516,"connected_time":1080000000000,"state":"active","ping":84},{"user_id":27,"name":"Pes Patron","steam_id":76561199004923871,"connected_time":1063000000000,"state":"active","ping":90},{"user_id":41,"name":"NABER","steam_id":76561198831465151,"connected_time":457000000000,"state":"active","ping":91},{"user_id":53,"name":"snovi","steam_id":76561198984436595,"connected_time":72000000000,"state":"active","ping":73},{"user_id":34,"name":"Vidrox #savetf2","steam_id":76561199217854983,"connected_time":671000000000,"state":"active","ping":86},{"user_id":44,"name":"Fallen Dog","steam_id":76561198851387188,"connected_time":398000000000,"state":"active","ping":64},{"user_id":36,"name":"The Knight","steam_id":76561198055320626,"connected_time":601000000000,"state":"active","ping":94},{"user_id":49,"name":"Baumschleiche","steam_id":76561199098456903,"connected_time":337000000000,"state":"active","ping":68},{"user_id":38,"name":"IncrediblyTexan","steam_id":76561199159370663,"connected_time":558000000000,"state":"active","ping":82},{"user_id":39,"name":"Gbus","steam_id":76561198072335838,"connected_time":556000000000,"state":"active","ping":51},{"user_id":40,"name":"y≈çuy√πdey«énjƒ´ng","steam_id":76561198958441113,"connected_time":520000000000,"state":"active","ping":106},{"user_id":45,"name":"Fargo","steam_id":76561198801474941,"connected_time":389000000000,"state":"active","ping":69},{"user_id":46,"name":"Mr. Mustard","steam_id":76561198025185606,"connected_time":381000000000,"state":"active","ping":71},{"user_id":47,"name":"Rahu 'Siebren' Godless","steam_id":76561198276259175,"connected_time":374000000000,"state":"active","ping":99},{"user_id":50,"name":"Ezekiel","steam_id":76561199024034022,"connected_time":320000000000,"state":"active","ping":79}]},{"server_id":310,"name":"Uncletopia | Frankfurt | 5 | All Maps","name_short":"frk-5","host":"frk-1.de.uncletopia.com","port":27055,"enabled":true,"region":"eu","cc":"de","latitude":50.110924,"longitude":8.682127,"reserved":0,"last_update":"0001-01-01T00:00:00Z","name_a2s":"Uncletopia | Frankfurt | 5 | All Maps","protocol":17,"map":"pl_upward","folder":"tf","game":"Team Fortress","app_id":440,"player_count":24,"max_players":24,"Bots":0,"server_type":"Dedicated","server_os":"Linux","password":true,"vac":true,"version":"7882260","steam_id":85568392924504277,"keywords":["nocrits","nodmgspread","payload","uncletopia"],"game_id":440,"stv_port":27056,"stv_name":"Uncletopia | Frankfurt | 5 | All Maps | STV","players":[{"user_id":82,"name":"jaime8D","steam_id":76561197980590671,"connected_time":143000000000,"state":"active","ping":78},{"user_id":73,"name":"Mon pote est un femboy","steam_id":76561198173218318,"connected_time":1205000000000,"state":"active","ping":52},{"user_id":81,"name":"Carter","steam_id":76561198005243938,"connected_time":437000000000,"state":"active","ping":75},{"user_id":72,"name":"Magirby","steam_id":76561198818777390,"connected_time":1209000000000,"state":"active","ping":106},{"user_id":83,"name":"YuraGreek","steam_id":76561198050182252,"connected_time":65000000000,"state":"active","ping":75},{"user_id":53,"name":"Punchy","steam_id":76561197961020896,"connected_time":2544000000000,"state":"active","ping":64},{"user_id":68,"name":"Mr. Mietsch","steam_id":76561198077516818,"connected_time":1563000000000,"state":"active","ping":49},{"user_id":78,"name":"BLACKBIRD CLOSE [she/her]","steam_id":76561198262910410,"connected_time":606000000000,"state":"active","ping":104},{"user_id":67,"name":"Tsuwu","steam_id":76561198354596897,"connected_time":1877000000000,"state":"active","ping":88},{"user_id":40,"name":"driz","steam_id":76561198069462235,"connected_time":2826000000000,"state":"active","ping":63},{"user_id":58,"name":"Aldiyr","steam_id":76561198101917105,"connected_time":2430000000000,"state":"active","ping":176},{"user_id":75,"name":"Sensei","steam_id":76561198383582429,"connected_time":1189000000000,"state":"active","ping":91},{"user_id":54,"name":"Ôº§ÔΩÅÔΩíÔΩãÔΩìÔΩîÔΩÅÔΩíÔΩì","steam_id":76561198070570879,"connected_time":2540000000000,"state":"active","ping":71},{"user_id":43,"name":"Sammy096","steam_id":76561198128167541,"connected_time":2756000000000,"state":"active","ping":60},{"user_id":44,"name":"radek","steam_id":76561197998883721,"connected_time":2746000000000,"state":"active","ping":72},{"user_id":77,"name":"everyone has their limits...","steam_id":76561198037810091,"connected_time":1033000000000,"state":"active","ping":99},{"user_id":46,"name":"big poo","steam_id":76561199088284199,"connected_time":2734000000000,"state":"active","ping":65},{"user_id":47,"name":"tea girl","steam_id":76561198068054530,"connected_time":2723000000000,"state":"active","ping":80},{"user_id":76,"name":"Creamydot","steam_id":76561198102496062,"connected_time":1156000000000,"state":"active","ping":73},{"user_id":50,"name":"Kiha","steam_id":76561198031408608,"connected_time":2695000000000,"state":"active","ping":59},{"user_id":52,"name":"Tank","steam_id":76561199059174576,"connected_time":2653000000000,"state":"active","ping":167},{"user_id":56,"name":"Greencoffee","steam_id":76561198842090589,"connected_time":2529000000000,"state":"active","ping":87},{"user_id":57,"name":"Foreskin Gamer","steam_id":76561198283106341,"connected_time":2501000000000,"state":"active","ping":61},{"user_id":60,"name":"Yuzu","steam_id":76561198121694613,"connected_time":2243000000000,"state":"active","ping":58}]},{"server_id":311,"name":"Uncletopia | Frankfurt | 6 | All Maps","name_short":"frk-6","host":"frk-1.de.uncletopia.com","port":27065,"enabled":true,"region":"eu","cc":"de","latitude":50.110924,"longitude":8.682127,"reserved":0,"last_update":"0001-01-01T00:00:00Z","name_a2s":"Uncletopia | Frankfurt | 6 | All Maps","protocol":17,"map":"cp_sunshine","folder":"tf","game":"Team Fortress","app_id":440,"player_count":0,"max_players":24,"Bots":0,"server_type":"Dedicated","server_os":"Linux","password":true,"vac":true,"version":"7882260","steam_id":85568392924504278,"keywords":["cp","nocrits","nodmgspread","uncletopia"],"game_id":440,"stv_port":27066,"stv_name":"Uncletopia | Frankfurt | 6 | All Maps | STV","players":null},{"server_id":23,"name":"Uncletopia | Frankfurt | 7 | Stopwatch Beta","name_short":"frk-7","host":"frk-1.de.uncletopia.com","port":27075,"enabled":true,"region":"eu","cc":"de","latitude":50.110924,"longitude":8.682127,"reserved":0,"last_update":"0001-01-01T00:00:00Z","name_a2s":"Uncletopia | Frankfurt | 7 | Stopwatch Beta","protocol":17,"map":"cp_dustbowl","folder":"tf","game":"Team Fortress","app_id":440,"player_count":0,"max_players":24,"Bots":0,"server_type":"Dedicated","server_os":"Linux","password":true,"vac":true,"version":"7882260","steam_id":85568392924742827,"keywords":["cp","nocrits","nodmgspread","uncletopia"],"game_id":440,"stv_port":27076,"stv_name":"Uncletopia | Frankfurt | 7 | Stopwatch Beta | STV","players":null},{"server_id":24,"name":"Uncletopia | Frankfurt | 8 | Community","name_short":"frk-8","host":"frk-1.de.uncletopia.com","port":27085,"enabled":true,"region":"eu","cc":"de","latitude":50.110924,"longitude":8.682127,"reserved":0,"last_update":"0001-01-01T00:00:00Z","name_a2s":"Uncletopia | Frankfurt | 8 | Community","protocol":17,"map":"koth_cascade","folder":"tf","game":"Team Fortress","app_id":440,"player_count":0,"max_players":24,"Bots":0,"server_type":"Dedicated","server_os":"Linux","password":true,"vac":true,"version":"7882260","steam_id":85568392924742828,"keywords":["cp","nocrits","nodmgspread","uncletopia"],"game_id":440,"stv_port":27086,"stv_name":"Uncletopia | Frankfurt | 8 | Community | STV","players":null},{"server_id":202,"name":"Uncletopia | Hong Kong | 1 | All Maps","name_short":"hgk-1","host":"hgk-1.hk.uncletopia.com","port":27015,"enabled":true,"region":"asia","cc":"hk","latitude":22.302711,"longitude":114.177216,"reserved":0,"last_update":"0001-01-01T00:00:00Z","name_a2s":"Uncletopia | Hong Kong | 1 | All Maps","protocol":17,"map":"koth_highpass","folder":"tf","game":"Team Fortress","app_id":440,"player_count":0,"max_players":24,"Bots":0,"server_type":"Dedicated","server_os":"Linux","password":true,"vac":true,"version":"7882260","steam_id":85568392924494504,"keywords":["cp","nocrits","nodmgspread","uncletopia"],"game_id":440,"stv_port":27016,"stv_name":"Uncletopia | Hong Kong | 1 | All Maps | STV","players":null},{"server_id":1,"name":"Uncletopia | Los Angeles | 1 | All Maps","name_short":"lax-1","host":"lax-1.us.uncletopia.com","port":27015,"enabled":true,"region":"us-west","cc":"us","latitude":33.94279,"longitude":-118.41004,"reserved":0,"last_update":"0001-01-01T00:00:00Z","name_a2s":"Uncletopia | Los Angeles | 1 | All Maps","protocol":17,"map":"pl_pier","folder":"tf","game":"Team Fortress","app_id":440,"player_count":0,"max_players":24,"Bots":0,"server_type":"Dedicated","server_os":"Linux","password":true,"vac":true,"version":"7882260","steam_id":85568392924469991,"keywords":["nocrits","nodmgspread","payload","uncletopia"],"game_id":440,"stv_port":27016,"stv_name":"Uncletopia | Los Angeles | 1 | All Maps | STV","players":null},{"server_id":112,"name":"Uncletopia | Los Angeles | 2 | All Maps","name_short":"lax-2","host":"lax-1.us.uncletopia.com","port":27025,"enabled":true,"region":"us-west","cc":"us","latitude":33.94279,"longitude":-118.41004,"reserved":0,"last_update":"0001-01-01T00:00:00Z","name_a2s":"Uncletopia | Los Angeles | 2 | All Maps","protocol":17,"map":"pl_badwater","folder":"tf","game":"Team Fortress","app_id":440,"player_count":23,"max_players":24,"Bots":0,"server_type":"Dedicated","server_os":"Linux","password":true,"vac":true,"version":"7882260","steam_id":85568392924469992,"keywords":["nocrits","nodmgspread","payload","uncletopia"],"game_id":440,"stv_port":27026,"stv_name":"Uncletopia | Los Angeles | 2 | All Maps | STV","players":[{"user_id":126,"name":"TheScootGuy","steam_id":76561198847107866,"connected_time":1899000000000,"state":"active","ping":106},{"user_id":143,"name":"orange","steam_id":76561198406155476,"connected_time":620000000000,"state":"active","ping":88},{"user_id":134,"name":"sleep","steam_id":76561198212421513,"connected_time":1288000000000,"state":"active","ping":45},{"user_id":141,"name":"Saint Laurent Don","steam_id":76561198116820706,"connected_time":801000000000,"state":"active","ping":61},{"user_id":128,"name":"Satori Komeiji","steam_id":76561198158211423,"connected_time":1476000000000,"state":"active","ping":47},{"user_id":129,"name":"Mr. Dick‚Ñ¢","steam_id":76561198047309044,"connected_time":1475000000000,"state":"active","ping":90},{"user_id":130,"name":"ghoster","steam_id":76561199001918194,"connected_time":1459000000000,"state":"active","ping":57},{"user_id":131,"name":"Harold","steam_id":76561198057317770,"connected_time":1411000000000,"state":"active","ping":45},{"user_id":88,"name":"Kuyumiester","steam_id":76561198126835302,"connected_time":5866000000000,"state":"active","ping":75},{"user_id":123,"name":"HeartAttack","steam_id":76561198135833968,"connected_time":2903000000000,"state":"active","ping":60},{"user_id":150,"name":"Ghost Lord","steam_id":76561198088956723,"connected_time":322000000000,"state":"active","ping":138},{"user_id":105,"name":"Ghostly","steam_id":76561199229629421,"connected_time":4165000000000,"state":"active","ping":150},{"user_id":153,"name":"DualiTea","steam_id":76561198081733870,"connected_time":21000000000,"state":"active","ping":151},{"user_id":148,"name":"Û†Ä°Û†Ä°","steam_id":76561198140627349,"connected_time":461000000000,"state":"active","ping":106},{"user_id":137,"name":"LightBulbGlue #SaveTF2","steam_id":76561198329573529,"connected_time":1090000000000,"state":"active","ping":124},{"user_id":110,"name":"vŒªughn","steam_id":76561198144165856,"connected_time":3554000000000,"state":"active","ping":88},{"user_id":111,"name":"he was forced to play scout","steam_id":76561198170381402,"connected_time":3552000000000,"state":"active","ping":100},{"user_id":139,"name":"OG Mando","steam_id":76561198799439774,"connected_time":967000000000,"state":"active","ping":44},{"user_id":142,"name":"Chirp","steam_id":76561198240780230,"connected_time":759000000000,"state":"active","ping":46},{"user_id":149,"name":"Mr. Lahey","steam_id":76561198049373818,"connected_time":445000000000,"state":"active","ping":79},{"user_id":118,"name":"Drapph","steam_id":76561199384213314,"connected_time":3239000000000,"state":"active","ping":115},{"user_id":152,"name":"RapidXenophage","steam_id":76561198175149973,"connected_time":92000000000,"state":"active","ping":83},{"user_id":146,"name":"Hashbrowncow","steam_id":76561198272021902,"connected_time":545000000000,"state":"active","ping":60}]},{"server_id":324,"name":"Uncletopia | Los Angeles | 3 | All Maps","name_short":"lax-3","host":"lax-1.us.uncletopia.com","port":27035,"enabled":true,"region":"us-west","cc":"us","latitude":33.94279,"longitude":-118.41004,"reserved":0,"last_update":"0001-01-01T00:00:00Z","name_a2s":"Uncletopia | Los Angeles | 3 | All Maps","protocol":17,"map":"pl_snowycoast","folder":"tf","game":"Team Fortress","app_id":440,"player_count":23,"max_players":24,"Bots":0,"server_type":"Dedicated","server_os":"Linux","password":true,"vac":true,"version":"7882260","steam_id":85568392924510198,"keywords":["nocrits","nodmgspread","payload","uncletopia"],"game_id":440,"stv_port":27036,"stv_name":"Uncletopia | Los Angeles | 3 | All Maps | STV","players":[{"user_id":72,"name":"cacaspy","steam_id":76561198140946476,"connected_time":6504000000000,"state":"active","ping":126},{"user_id":121,"name":"Smokey","steam_id":76561198071523590,"connected_time":2024000000000,"state":"active","ping":124},{"user_id":97,"name":"Gavial the Invincible","steam_id":76561198348354629,"connected_time":3961000000000,"state":"active","ping":62},{"user_id":131,"name":"Skrunkly","steam_id":76561198241629912,"connected_time":1262000000000,"state":"active","ping":92},{"user_id":136,"name":"BlazedBunny","steam_id":76561198243610560,"connected_time":658000000000,"state":"active","ping":94},{"user_id":115,"name":"ThatGamingKiwi","steam_id":76561199170522237,"connected_time":2234000000000,"state":"active","ping":134},{"user_id":100,"name":"RED","steam_id":76561198030282308,"connected_time":3545000000000,"state":"active","ping":61},{"user_id":111,"name":"Acro Banwagon","steam_id":76561198092451804,"connected_time":2331000000000,"state":"active","ping":109},{"user_id":138,"name":"SKW14","steam_id":76561198215425735,"connected_time":643000000000,"state":"active","ping":102},{"user_id":127,"name":"tyg","steam_id":76561198056246867,"connected_time":1523000000000,"state":"active","ping":104},{"user_id":116,"name":"CasemanTheBlondeBear","steam_id":76561198144862404,"connected_time":2225000000000,"state":"active","ping":85},{"user_id":120,"name":"Buswolley","steam_id":76561197995205571,"connected_time":2059000000000,"state":"active","ping":56},{"user_id":108,"name":"a goose","steam_id":76561197995403717,"connected_time":2600000000000,"state":"active","ping":55},{"user_id":129,"name":"TwinAirplane959","steam_id":76561198866756840,"connected_time":1419000000000,"state":"active","ping":111},{"user_id":143,"name":"Skabbety","steam_id":76561198168044257,"connected_time":28000000000,"state":"active","ping":65},{"user_id":142,"name":"bodie._.","steam_id":76561198079474904,"connected_time":86000000000,"state":"active","ping":84},{"user_id":135,"name":"Jankyo","steam_id":76561198083339492,"connected_time":748000000000,"state":"active","ping":113},{"user_id":141,"name":"bikerkid207","steam_id":76561198390782783,"connected_time":582000000000,"state":"active","ping":109},{"user_id":103,"name":"Blitzy","steam_id":76561198149472890,"connected_time":3089000000000,"state":"active","ping":89},{"user_id":124,"name":"\u003c3 gay for women \u003c3","steam_id":76561198089978036,"connected_time":1921000000000,"state":"active","ping":109},{"user_id":104,"name":"üÖúüÖîüÖîüÖöüÖ¢üÖ£üÖî\ufffd\ufffd\ufffd","steam_id":76561197999748343,"connected_time":3084000000000,"state":"active","ping":74},{"user_id":133,"name":"andmonske","steam_id":76561198821716991,"connected_time":1201000000000,"state":"active","ping":100},{"user_id":140,"name":"[Hoj] []V[]ega[]V[]an","steam_id":76561197961838875,"connected_time":618000000000,"state":"active","ping":88}]},{"server_id":25,"name":"Uncletopia | Los Angeles | 4 | Stopwatch Beta","name_short":"lax-4","host":"lax-1.us.uncletopia.com","port":27045,"enabled":true,"region":"us-west","cc":"us","latitude":33.94279,"longitude":-118.41004,"reserved":0,"last_update":"0001-01-01T00:00:00Z","name_a2s":"Uncletopia | Los Angeles | 4 | Stopwatch Beta","protocol":17,"map":"cp_snakewater_final1","folder":"tf","game":"Team Fortress","app_id":440,"player_count":0,"max_players":24,"Bots":0,"server_type":"Dedicated","server_os":"Linux","password":true,"vac":true,"version":"7882260","steam_id":85568392924510199,"keywords":["cp","nocrits","nodmgspread","uncletopia"],"game_id":440,"stv_port":27046,"stv_name":"Uncletopia | Los Angeles | 4 | Stopwatch Beta | STV","players":null},{"server_id":11,"name":"Uncletopia | London | 1 | All Maps","name_short":"lon-1","host":"lon-1.uk.uncletopia.com","port":27015,"enabled":true,"region":"eu","cc":"gb","latitude":51.509865,"longitude":-0.118092,"reserved":0,"last_update":"0001-01-01T00:00:00Z","name_a2s":"Uncletopia | London | 1 | All Maps","protocol":17,"map":"pl_badwater","folder":"tf","game":"Team Fortress","app_id":440,"player_count":24,"max_players":24,"Bots":0,"server_type":"Dedicated","server_os":"Linux","password":true,"vac":true,"version":"7882260","steam_id":85568392924367362,"keywords":["nocrits","nodmgspread","payload","uncletopia"],"game_id":440,"stv_port":27016,"stv_name":"Uncletopia | London | 1 | All Maps | STV","players":[{"user_id":515,"name":"L√∂ss√∂","steam_id":76561197994254413,"connected_time":436000000000,"state":"active","ping":75},{"user_id":525,"name":"vi hava en usel regering","steam_id":76561198037978654,"connected_time":62000000000,"state":"active","ping":72},{"user_id":519,"name":"Marky","steam_id":76561199474556920,"connected_time":346000000000,"state":"active","ping":118},{"user_id":518,"name":"jerf(bored)","steam_id":76561199213901239,"connected_time":354000000000,"state":"active","ping":46},{"user_id":506,"name":"Sloneczku","steam_id":76561198032886890,"connected_time":773000000000,"state":"active","ping":89},{"user_id":508,"name":"Sammy","steam_id":76561197977379410,"connected_time":692000000000,"state":"active","ping":87},{"user_id":504,"name":"Desj","steam_id":76561198114212636,"connected_time":836000000000,"state":"active","ping":59},{"user_id":478,"name":"Son Goku","steam_id":76561199383437138,"connected_time":3093000000000,"state":"active","ping":116},{"user_id":494,"name":"Rui","steam_id":76561198263735498,"connected_time":1784000000000,"state":"active","ping":96},{"user_id":485,"name":"Nifi","steam_id":76561198102682566,"connected_time":2601000000000,"state":"active","ping":75},{"user_id":467,"name":"flub_","steam_id":76561198337519315,"connected_time":3845000000000,"state":"active","ping":67},{"user_id":520,"name":"DOMAIN","steam_id":76561199095640319,"connected_time":343000000000,"state":"active","ping":90},{"user_id":501,"name":"fshfkr","steam_id":76561198095979282,"connected_time":1227000000000,"state":"active","ping":46},{"user_id":472,"name":"gimmick","steam_id":76561198930670117,"connected_time":3786000000000,"state":"active","ping":43},{"user_id":484,"name":"Kurage","steam_id":76561198021221288,"connected_time":2773000000000,"state":"active","ping":69},{"user_id":476,"name":"dimitrij_6ix_god","steam_id":76561199023275543,"connected_time":3177000000000,"state":"active","ping":83},{"user_id":521,"name":"balanced diet","steam_id":76561198240320806,"connected_time":340000000000,"state":"active","ping":74},{"user_id":522,"name":"After8","steam_id":76561198090750865,"connected_time":299000000000,"state":"active","ping":72},{"user_id":502,"name":"cazador","steam_id":76561198123096922,"connected_time":1150000000000,"state":"active","ping":93},{"user_id":524,"name":"Asfreild","steam_id":76561198055901120,"connected_time":189000000000,"state":"active","ping":74},{"user_id":514,"name":"Hegyi tah√≥ F2P","steam_id":76561199219150356,"connected_time":448000000000,"state":"active","ping":82},{"user_id":510,"name":"leminsc8","steam_id":76561198825084995,"connected_time":584000000000,"state":"active","ping":52},{"user_id":523,"name":"dnl","steam_id":76561198074156929,"connected_time":298000000000,"state":"active","ping":80},{"user_id":332,"name":"‚ú™ qua ‚ú™","steam_id":76561198066408333,"connected_time":13926000000000,"state":"active","ping":76}]},{"server_id":114,"name":"Uncletopia | London | 2 | All Maps","name_short":"lon-2","host":"lon-1.uk.uncletopia.com","port":27025,"enabled":true,"region":"eu","cc":"gb","latitude":51.509865,"longitude":-0.118092,"reserved":0,"last_update":"0001-01-01T00:00:00Z","name_a2s":"Uncletopia | London | 2 | All Maps","protocol":17,"map":"koth_highpass","folder":"tf","game":"Team Fortress","app_id":440,"player_count":3,"max_players":24,"Bots":0,"server_type":"Dedicated","server_os":"Linux","password":true,"vac":true,"version":"7882260","steam_id":85568392924470941,"keywords":["cp","nocrits","nodmgspread","uncletopia"],"game_id":440,"stv_port":27026,"stv_name":"Uncletopia | London | 2 | All Maps | STV","players":[{"user_id":19,"name":"Truegr","steam_id":76561198811912339,"connected_time":582000000000,"state":"active","ping":59},{"user_id":20,"name":"fried","steam_id":76561198307522022,"connected_time":511000000000,"state":"active","ping":53},{"user_id":23,"name":"Kanye VEST","steam_id":76561198294476402,"connected_time":4000000000,"state":"spawning","ping":51}]},{"server_id":320,"name":"Uncletopia | London | 3 | All Maps","name_short":"lon-3","host":"lon-1.uk.uncletopia.com","port":27035,"enabled":true,"region":"eu","cc":"gb","latitude":51.509865,"longitude":-0.118092,"reserved":0,"last_update":"0001-01-01T00:00:00Z","name_a2s":"Uncletopia | London | 3 | All Maps","protocol":17,"map":"koth_highpass","folder":"tf","game":"Team Fortress","app_id":440,"player_count":0,"max_players":24,"Bots":0,"server_type":"Dedicated","server_os":"Linux","password":true,"vac":true,"version":"7882260","steam_id":85568392924510192,"keywords":["cp","nocrits","nodmgspread","uncletopia"],"game_id":440,"stv_port":27036,"stv_name":"Uncletopia | London | 3 | All Maps | STV","players":null},{"server_id":321,"name":"Uncletopia | London | 4 | All Maps","name_short":"lon-4","host":"lon-1.uk.uncletopia.com","port":27045,"enabled":true,"region":"eu","cc":"gb","latitude":51.509865,"longitude":-0.118092,"reserved":0,"last_update":"0001-01-01T00:00:00Z","name_a2s":"Uncletopia | London | 4 | All Maps","protocol":17,"map":"pl_upward","folder":"tf","game":"Team Fortress","app_id":440,"player_count":14,"max_players":24,"Bots":0,"server_type":"Dedicated","server_os":"Linux","password":true,"vac":true,"version":"7882260","steam_id":85568392924510193,"keywords":["nocrits","nodmgspread","payload","uncletopia"],"game_id":440,"stv_port":27046,"stv_name":"Uncletopia | London | 4 | All Maps | STV","players":[{"user_id":288,"name":"Bambi","steam_id":76561198166972711,"connected_time":8812000000000,"state":"active","ping":46},{"user_id":413,"name":"the least schizo med main","steam_id":76561198048530109,"connected_time":2216000000000,"state":"active","ping":72},{"user_id":441,"name":"Brinier","steam_id":76561199012604288,"connected_time":19000000000,"state":"active","ping":64},{"user_id":329,"name":"t√Øger","steam_id":76561198260483157,"connected_time":6421000000000,"state":"active","ping":79},{"user_id":435,"name":"SKFBoge","steam_id":76561198269038278,"connected_time":714000000000,"state":"active","ping":76},{"user_id":269,"name":"clunk","steam_id":76561198836460767,"connected_time":11099000000000,"state":"active","ping":69},{"user_id":404,"name":"Tele Guardian","steam_id":76561198071790583,"connected_time":2373000000000,"state":"active","ping":120},{"user_id":372,"name":"Bodeine Brazy","steam_id":76561198122181176,"connected_time":4254000000000,"state":"active","ping":38},{"user_id":437,"name":"DragonLord","steam_id":76561198074279225,"connected_time":405000000000,"state":"active","ping":47},{"user_id":400,"name":"whyamialive","steam_id":76561199070008862,"connected_time":2674000000000,"state":"active","ping":42},{"user_id":433,"name":"Agartha's child soldier","steam_id":76561198076881381,"connected_time":729000000000,"state":"active","ping":73},{"user_id":422,"name":"ALARM","steam_id":76561198120686521,"connected_time":1910000000000,"state":"active","ping":62},{"user_id":440,"name":"A Shiny Meat Bicycle","steam_id":76561198358757709,"connected_time":305000000000,"state":"active","ping":160},{"user_id":425,"name":"Elix","steam_id":76561199072306920,"connected_time":1743000000000,"state":"active","ping":100}]},{"server_id":21,"name":"Uncletopia | London | 5 | All Maps","name_short":"lon-5","host":"lon-1.uk.uncletopia.com","port":27055,"enabled":true,"region":"eu","cc":"gb","latitude":51.509865,"longitude":-0.118092,"reserved":0,"last_update":"0001-01-01T00:00:00Z","name_a2s":"Uncletopia | London | 5 | All Maps","protocol":17,"map":"cp_snakewater_final1","folder":"tf","game":"Team Fortress","app_id":440,"player_count":0,"max_players":24,"Bots":0,"server_type":"Dedicated","server_os":"Linux","password":true,"vac":true,"version":"7882260","steam_id":85568392924742829,"keywords":["cp","nocrits","nodmgspread","uncletopia"],"game_id":440,"stv_port":27056,"stv_name":"Uncletopia | London | 5 | All Maps | STV","players":null},{"server_id":22,"name":"Uncletopia | London | 6 | All Maps","name_short":"lon-6","host":"lon-1.uk.uncletopia.com","port":27065,"enabled":true,"region":"eu","cc":"gb","latitude":51.509865,"longitude":-0.118092,"reserved":0,"last_update":"0001-01-01T00:00:00Z","name_a2s":"Uncletopia | London | 6 | All Maps","protocol":17,"map":"cp_altitude","folder":"tf","game":"Team Fortress","app_id":440,"player_count":0,"max_players":24,"Bots":0,"server_type":"Dedicated","server_os":"Linux","password":true,"vac":true,"version":"7882260","steam_id":85568392924742830,"keywords":["cp","nocrits","nodmgspread","uncletopia"],"game_id":440,"stv_port":27066,"stv_name":"Uncletopia | London | 6 | All Maps | STV","players":null},{"server_id":40,"name":"Uncletopia | London | 7 | No Payload","name_short":"lon-7","host":"lon-1.uk.uncletopia.com","port":27075,"enabled":true,"region":"eu","cc":"gb","latitude":51.509865,"longitude":-0.118092,"reserved":0,"last_update":"0001-01-01T00:00:00Z","name_a2s":"Uncletopia | London | 7 | No Payload","protocol":17,"map":"koth_harvest_final","folder":"tf","game":"Team Fortress","app_id":440,"player_count":23,"max_players":24,"Bots":0,"server_type":"Dedicated","server_os":"Linux","password":true,"vac":true,"version":"7882260","steam_id":85568392924964314,"keywords":["cp","nocrits","nodmgspread","uncletopia"],"game_id":440,"stv_port":27076,"stv_name":"Uncletopia | London | 7 | No Payload | STV","players":[{"user_id":188,"name":"bad at tf2 episode 2","steam_id":76561198002451113,"connected_time":1742000000000,"state":"active","ping":93},{"user_id":212,"name":"Destroy TF2","steam_id":76561198055389492,"connected_time":900000000000,"state":"active","ping":36},{"user_id":207,"name":"Nikcha","steam_id":76561198253300222,"connected_time":1019000000000,"state":"active","ping":45},{"user_id":195,"name":"Reverie","steam_id":76561198987005784,"connected_time":1517000000000,"state":"active","ping":147},{"user_id":145,"name":"DaKing","steam_id":76561197995935273,"connected_time":3849000000000,"state":"active","ping":120},{"user_id":224,"name":"thebananabomb00","steam_id":76561198296409283,"connected_time":87000000000,"state":"active","ping":88},{"user_id":215,"name":"..-.|..|.-..|..|.--.|","steam_id":76561198829879386,"connected_time":739000000000,"state":"active","ping":71},{"user_id":223,"name":"goz","steam_id":76561198155229347,"connected_time":113000000000,"state":"active","ping":44},{"user_id":205,"name":"SooS","steam_id":76561198058943929,"connected_time":1085000000000,"state":"active","ping":69},{"user_id":206,"name":"I eat pigeons","steam_id":76561198073769916,"connected_time":1076000000000,"state":"active","ping":58},{"user_id":183,"name":"Anonymous47007","steam_id":76561199005211417,"connected_time":2010000000000,"state":"active","ping":82},{"user_id":225,"name":"brehs","steam_id":76561198150653454,"connected_time":84000000000,"state":"active","ping":39},{"user_id":216,"name":"Envy","steam_id":76561198132723219,"connected_time":648000000000,"state":"active","ping":106},{"user_id":221,"name":"joethefool","steam_id":76561199015436319,"connected_time":174000000000,"state":"active","ping":118},{"user_id":217,"name":"MEDiUM","steam_id":76561198112328561,"connected_time":599000000000,"state":"active","ping":80},{"user_id":211,"name":"V0iDZMAX","steam_id":76561198153592566,"connected_time":925000000000,"state":"active","ping":31},{"user_id":226,"name":"Ablativus","steam_id":76561198025698470,"connected_time":69000000000,"state":"active","ping":76},{"user_id":227,"name":"TSx* {Demon-Angel}","steam_id":76561198151486463,"connected_time":42000000000,"state":"spawning","ping":92},{"user_id":219,"name":"Saul Goodman","steam_id":76561198346169853,"connected_time":514000000000,"state":"active","ping":88},{"user_id":228,"name":"Batman in one piece","steam_id":76561199129969202,"connected_time":15000000000,"state":"connecting","ping":0},{"user_id":229,"name":"Michael Tansaction","steam_id":76561198051054132,"connected_time":10000000000,"state":"spawning","ping":36},{"user_id":230,"name":"TSx* Osa__PL","steam_id":76561198027016799,"connected_time":4000000000,"state":"spawning","ping":112},{"user_id":194,"name":"Favi","steam_id":76561198013236935,"connected_time":1563000000000,"state":"active","ping":72}]},{"server_id":41,"name":"Uncletopia | London | 8 | Community","name_short":"lon-8","host":"lon-1.uk.uncletopia.com","port":27085,"enabled":true,"region":"eu","cc":"gb","latitude":51.509865,"longitude":-0.118092,"reserved":0,"last_update":"0001-01-01T00:00:00Z","name_a2s":"Uncletopia | London | 8 | Community","protocol":17,"map":"workshop/cp_sulfur_rc2.ugc619869471","folder":"tf","game":"Team Fortress","app_id":440,"player_count":0,"max_players":24,"Bots":0,"server_type":"Dedicated","server_os":"Linux","password":true,"vac":true,"version":"7882260","steam_id":85568392924964315,"keywords":["cp","nocrits","nodmgspread","uncletopia"],"game_id":440,"stv_port":27086,"stv_name":"Uncletopia | London | 8 | Community | STV","players":null},{"server_id":300,"name":"Uncletopia | Montr√©al | 1 | All Maps","name_short":"mtl-1","host":"mtl-1.ca.uncletopia.com","port":27015,"enabled":true,"region":"us-east","cc":"ca","latitude":45.50889,"longitude":-73.56167,"reserved":0,"last_update":"0001-01-01T00:00:00Z","name_a2s":"Uncletopia | Montr√©al | 1 | All Maps","protocol":17,"map":"pl_snowycoast","folder":"tf","game":"Team Fortress","app_id":440,"player_count":0,"max_players":24,"Bots":0,"server_type":"Dedicated","server_os":"Linux","password":true,"vac":true,"version":"7882260","steam_id":85568392924500087,"keywords":["nocrits","nodmgspread","payload","uncletopia"],"game_id":440,"stv_port":27016,"stv_name":"Uncletopia | Montr√©al | 1 | All Maps | STV","players":null},{"server_id":301,"name":"Uncletopia | Montr√©al | 2 | All Maps","name_short":"mtl-2","host":"mtl-1.ca.uncletopia.com","port":27025,"enabled":true,"region":"us-east","cc":"ca","latitude":45.50889,"longitude":-73.56167,"reserved":0,"last_update":"0001-01-01T00:00:00Z","name_a2s":"Uncletopia | Montr√©al | 2 | All Maps","protocol":17,"map":"cp_sunshine","folder":"tf","game":"Team Fortress","app_id":440,"player_count":0,"max_players":24,"Bots":0,"server_type":"Dedicated","server_os":"Linux","password":true,"vac":true,"version":"7882260","steam_id":85568392924500088,"keywords":["cp","nocrits","nodmgspread","uncletopia"],"game_id":440,"stv_port":27026,"stv_name":"Uncletopia | Montr√©al | 2 | All Maps | STV","players":null},{"server_id":302,"name":"Uncletopia | Montr√©al | 3 | All Maps","name_short":"mtl-3","host":"mtl-1.ca.uncletopia.com","port":27035,"enabled":true,"region":"us-east","cc":"ca","latitude":45.50889,"longitude":-73.56167,"reserved":0,"last_update":"0001-01-01T00:00:00Z","name_a2s":"Uncletopia | Montr√©al | 3 | All Maps","protocol":17,"map":"pl_borneo","folder":"tf","game":"Team Fortress","app_id":440,"player_count":0,"max_players":24,"Bots":0,"server_type":"Dedicated","server_os":"Linux","password":true,"vac":true,"version":"7882260","steam_id":85568392924500089,"keywords":["nocrits","nodmgspread","payload","uncletopia"],"game_id":440,"stv_port":27036,"stv_name":"Uncletopia | Montr√©al | 3 | All Maps | STV","players":null},{"server_id":303,"name":"Uncletopia | Montr√©al | 4 | No Payload","name_short":"mtl-4","host":"mtl-1.ca.uncletopia.com","port":27045,"enabled":true,"region":"us-east","cc":"ca","latitude":45.50889,"longitude":-73.56167,"reserved":0,"last_update":"0001-01-01T00:00:00Z","name_a2s":"Uncletopia | Montr√©al | 4 | No Payload","protocol":17,"map":"cp_altitude","folder":"tf","game":"Team Fortress","app_id":440,"player_count":0,"max_players":24,"Bots":0,"server_type":"Dedicated","server_os":"Linux","password":true,"vac":true,"version":"7882260","steam_id":85568392924500090,"keywords":["cp","nocrits","nodmgspread","uncletopia"],"game_id":440,"stv_port":27046,"stv_name":"Uncletopia | Montr√©al | 4 | No Payload | STV","players":null},{"server_id":13,"name":"Uncletopia | New York City | 1 | All Maps","name_short":"nyc-1","host":"nyc-1.us.uncletopia.com","port":27015,"enabled":true,"region":"us-east","cc":"us","latitude":40.73061,"longitude":-73.93524,"reserved":0,"last_update":"0001-01-01T00:00:00Z","name_a2s":"Uncletopia | New York City | 1 | All Maps","protocol":17,"map":"koth_highpass","folder":"tf","game":"Team Fortress","app_id":440,"player_count":0,"max_players":24,"Bots":0,"server_type":"Dedicated","server_os":"Linux","password":true,"vac":true,"version":"7882260","steam_id":85568392924469993,"keywords":["cp","nocrits","nodmgspread","uncletopia"],"game_id":440,"stv_port":27016,"stv_name":"Uncletopia | New York City | 1 | All Maps | STV","players":null},{"server_id":14,"name":"Uncletopia | New York City | 2 | All Maps","name_short":"nyc-2","host":"nyc-1.us.uncletopia.com","port":27025,"enabled":true,"region":"us-east","cc":"us","latitude":40.73061,"longitude":-73.93524,"reserved":0,"last_update":"0001-01-01T00:00:00Z","name_a2s":"Uncletopia | New York City | 2 | All Maps","protocol":17,"map":"pl_swiftwater_final1","folder":"tf","game":"Team Fortress","app_id":440,"player_count":0,"max_players":24,"Bots":0,"server_type":"Dedicated","server_os":"Linux","password":true,"vac":true,"version":"7882260","steam_id":85568392924469994,"keywords":["nocrits","nodmgspread","payload","uncletopia"],"game_id":440,"stv_port":27026,"stv_name":"Uncletopia | New York City | 2 | All Maps | STV","players":null},{"server_id":15,"name":"Uncletopia | New York City | 3 | Stopwatch Beta","name_short":"nyc-3","host":"nyc-1.us.uncletopia.com","port":27035,"enabled":true,"region":"us-east","cc":"us","latitude":40.73061,"longitude":-73.93524,"reserved":0,"last_update":"0001-01-01T00:00:00Z","name_a2s":"Uncletopia | New York City | 3 | Stopwatch Beta","protocol":17,"map":"cp_sunshine","folder":"tf","game":"Team Fortress","app_id":440,"player_count":0,"max_players":24,"Bots":0,"server_type":"Dedicated","server_os":"Linux","password":true,"vac":true,"version":"7882260","steam_id":85568392924742820,"keywords":["cp","nocrits","nodmgspread","uncletopia"],"game_id":440,"stv_port":27036,"stv_name":"Uncletopia | New York City | 3 | Stopwatch Beta | STV","players":null},{"server_id":16,"name":"Uncletopia | New York City | 4 | Community","name_short":"nyc-4","host":"nyc-1.us.uncletopia.com","port":27045,"enabled":true,"region":"us-east","cc":"us","latitude":40.73061,"longitude":-73.93524,"reserved":0,"last_update":"0001-01-01T00:00:00Z","name_a2s":"Uncletopia | New York City | 4 | Community","protocol":17,"map":"pl_badwater","folder":"tf","game":"Team Fortress","app_id":440,"player_count":0,"max_players":24,"Bots":0,"server_type":"Dedicated","server_os":"Linux","password":true,"vac":true,"version":"7882260","steam_id":85568392924742821,"keywords":["nocrits","nodmgspread","payload","uncletopia"],"game_id":440,"stv_port":27046,"stv_name":"Uncletopia | New York City | 4 | Community | STV","players":null},{"server_id":142,"name":"Uncletopia | S√£o Paulo | 1 | All Maps","name_short":"sao-1","host":"sao-1.br.uncletopia.com","port":27015,"enabled":true,"region":"sa","cc":"br","latitude":-23.533773,"longitude":-46.62529,"reserved":0,"last_update":"0001-01-01T00:00:00Z","name_a2s":"Uncletopia | S√£o Paulo | 1 | All Maps","protocol":17,"map":"pl_badwater","folder":"tf","game":"Team Fortress","app_id":440,"player_count":0,"max_players":24,"Bots":0,"server_type":"Dedicated","server_os":"Linux","password":true,"vac":true,"version":"7882260","steam_id":85568392924469996,"keywords":["nocrits","nodmgspread","payload","uncletopia"],"game_id":440,"stv_port":27016,"stv_name":"Uncletopia | S√£o Paulo | 1 | All Maps | STV","players":null},{"server_id":143,"name":"Uncletopia | S√£o Paulo | 2 | All Maps","name_short":"sao-2","host":"sao-2.br.uncletopia.com","port":27015,"enabled":true,"region":"sa","cc":"br","latitude":-23.533773,"longitude":-46.62529,"reserved":0,"last_update":"0001-01-01T00:00:00Z","name_a2s":"Uncletopia | S√£o Paulo | 2 | All Maps","protocol":17,"map":"pl_pier","folder":"tf","game":"Team Fortress","app_id":440,"player_count":0,"max_players":24,"Bots":0,"server_type":"Dedicated","server_os":"Linux","password":true,"vac":true,"version":"7882260","steam_id":85568392924485349,"keywords":["nocrits","nodmgspread","payload","uncletopia"],"game_id":440,"stv_port":27016,"stv_name":"Uncletopia | S√£o Paulo | 2 | All Maps | STV","players":null},{"server_id":7,"name":"Uncletopia | Seattle | 1 | All Maps","name_short":"sea-1","host":"sea-1.us.uncletopia.com","port":27015,"enabled":true,"region":"us-west","cc":"us","latitude":47.608013,"longitude":-122.33517,"reserved":0,"last_update":"0001-01-01T00:00:00Z","name_a2s":"Uncletopia | Seattle | 1 | All Maps","protocol":17,"map":"pl_swiftwater_final1","folder":"tf","game":"Team Fortress","app_id":440,"player_count":2,"max_players":24,"Bots":0,"server_type":"Dedicated","server_os":"Linux","password":true,"vac":true,"version":"7882260","steam_id":85568392924469997,"keywords":["nocrits","nodmgspread","payload","uncletopia"],"game_id":440,"stv_port":27016,"stv_name":"Uncletopia | Seattle | 1 | All Maps | STV","players":[{"user_id":16,"name":"Lazy","steam_id":76561198802747832,"connected_time":200000000000,"state":"active","ping":51},{"user_id":17,"name":"Y2K","steam_id":76561199191855486,"connected_time":53000000000,"state":"active","ping":45}]},{"server_id":119,"name":"Uncletopia | Seattle | 2 | All Maps","name_short":"sea-2","host":"sea-1.us.uncletopia.com","port":27025,"enabled":true,"region":"us-west","cc":"us","latitude":47.608013,"longitude":-122.33517,"reserved":0,"last_update":"0001-01-01T00:00:00Z","name_a2s":"Uncletopia | Seattle | 2 | All Maps","protocol":17,"map":"koth_highpass","folder":"tf","game":"Team Fortress","app_id":440,"player_count":0,"max_players":24,"Bots":0,"server_type":"Dedicated","server_os":"Linux","password":true,"vac":true,"version":"7882260","steam_id":85568392924469998,"keywords":["cp","nocrits","nodmgspread","uncletopia"],"game_id":440,"stv_port":27026,"stv_name":"Uncletopia | Seattle | 2 | All Maps | STV","players":null},{"server_id":406,"name":"Uncletopia | Seattle | 3 | Stopwatch Beta","name_short":"sea-3","host":"sea-1.us.uncletopia.com","port":27035,"enabled":true,"region":"us-west","cc":"us","latitude":47.608013,"longitude":-122.33517,"reserved":0,"last_update":"0001-01-01T00:00:00Z","name_a2s":"Uncletopia | Seattle | 3 | Stopwatch Beta","protocol":17,"map":"cp_mountainlab","folder":"tf","game":"Team Fortress","app_id":440,"player_count":0,"max_players":24,"Bots":0,"server_type":"Dedicated","server_os":"Linux","password":true,"vac":true,"version":"7882260","steam_id":85568392924515217,"keywords":["cp","nocrits","nodmgspread","uncletopia"],"game_id":440,"stv_port":27036,"stv_name":"Uncletopia | Seattle | 3 | Stopwatch Beta | STV","players":null},{"server_id":17,"name":"Uncletopia | San Francisco | 1 | All Maps","name_short":"sfo-1","host":"sfo-1.us.uncletopia.com","port":27015,"enabled":true,"region":"us-west","cc":"us","latitude":37.77397,"longitude":-122.4313,"reserved":0,"last_update":"0001-01-01T00:00:00Z","name_a2s":"Uncletopia | San Francisco | 1 | All Maps","protocol":17,"map":"cp_process_final","folder":"tf","game":"Team Fortress","app_id":440,"player_count":0,"max_players":24,"Bots":0,"server_type":"Dedicated","server_os":"Linux","password":true,"vac":true,"version":"7757534","steam_id":85568392924469999,"keywords":["cp","nocrits","nodmgspread","uncletopia"],"game_id":440,"stv_port":27016,"stv_name":"Uncletopia | San Francisco | 1 | All Maps | STV","players":null},{"server_id":18,"name":"Uncletopia | San Francisco | 2 | All Maps","name_short":"sfo-2","host":"sfo-1.us.uncletopia.com","port":27025,"enabled":true,"region":"us-west","cc":"us","latitude":37.77397,"longitude":-122.4313,"reserved":0,"last_update":"0001-01-01T00:00:00Z","name_a2s":"Uncletopia | San Francisco | 2 | All Maps","protocol":17,"map":"koth_highpass","folder":"tf","game":"Team Fortress","app_id":440,"player_count":0,"max_players":24,"Bots":0,"server_type":"Dedicated","server_os":"Linux","password":true,"vac":true,"version":"7757534","steam_id":85568392924470000,"keywords":["cp","nocrits","nodmgspread","uncletopia"],"game_id":440,"stv_port":27026,"stv_name":"Uncletopia | San Francisco | 2 | All Maps | STV","players":null},{"server_id":19,"name":"Uncletopia | San Francisco | 3 | Stopwatch Beta","name_short":"sfo-3","host":"sfo-1.us.uncletopia.com","port":27035,"enabled":true,"region":"us-west","cc":"us","latitude":37.77397,"longitude":-122.4313,"reserved":0,"last_update":"0001-01-01T00:00:00Z","name_a2s":"Uncletopia | San Francisco | 3 | Stopwatch Beta","protocol":17,"map":"koth_lakeside_final","folder":"tf","game":"Team Fortress","app_id":440,"player_count":0,"max_players":24,"Bots":0,"server_type":"Dedicated","server_os":"Linux","password":true,"vac":true,"version":"7757534","steam_id":85568392924742824,"keywords":["cp","nocrits","nodmgspread","uncletopia"],"game_id":440,"stv_port":27036,"stv_name":"Uncletopia | San Francisco | 3 | Stopwatch Beta | STV","players":null},{"server_id":20,"name":"Uncletopia | San Francisco | 4 | Community","name_short":"sfo-4","host":"sfo-1.us.uncletopia.com","port":27045,"enabled":true,"region":"us-west","cc":"us","latitude":37.77397,"longitude":-122.4313,"reserved":0,"last_update":"0001-01-01T00:00:00Z","name_a2s":"Uncletopia | San Francisco | 4 | Community","protocol":17,"map":"cp_altitude","folder":"tf","game":"Team Fortress","app_id":440,"player_count":0,"max_players":24,"Bots":0,"server_type":"Dedicated","server_os":"Linux","password":true,"vac":true,"version":"7757534","steam_id":85568392924742826,"keywords":["cp","nocrits","nodmgspread","uncletopia"],"game_id":440,"stv_port":27046,"stv_name":"Uncletopia | San Francisco | 4 | Community | STV","players":null},{"server_id":141,"name":"Uncletopia | Sydney | 1 | All Maps","name_short":"syd-1","host":"syd-1.au.uncletopia.com","port":27015,"enabled":true,"region":"au","cc":"au","latitude":-33.865143,"longitude":151.2099,"reserved":0,"last_update":"0001-01-01T00:00:00Z","name_a2s":"Uncletopia | Sydney | 1 | All Maps","protocol":17,"map":"pl_badwater","folder":"tf","game":"Team Fortress","app_id":440,"player_count":0,"max_players":24,"Bots":0,"server_type":"Dedicated","server_os":"Linux","password":true,"vac":true,"version":"7882260","steam_id":85568392924470001,"keywords":["nocrits","nodmgspread","payload","uncletopia"],"game_id":440,"stv_port":27016,"stv_name":"Uncletopia | Sydney | 1 | All Maps | STV","players":null},{"server_id":123,"name":"Uncletopia | Sydney | 2 | All Maps","name_short":"syd-2","host":"syd-1.au.uncletopia.com","port":27025,"enabled":true,"region":"au","cc":"au","latitude":-33.865143,"longitude":151.2099,"reserved":0,"last_update":"0001-01-01T00:00:00Z","name_a2s":"Uncletopia | Sydney | 2 | All Maps","protocol":17,"map":"pl_borneo","folder":"tf","game":"Team Fortress","app_id":440,"player_count":0,"max_players":24,"Bots":0,"server_type":"Dedicated","server_os":"Linux","password":true,"vac":true,"version":"7882260","steam_id":85568392924470002,"keywords":["nocrits","nodmgspread","payload","uncletopia"],"game_id":440,"stv_port":27026,"stv_name":"Uncletopia | Sydney | 2 | All Maps | STV","players":null},{"server_id":395,"name":"Uncletopia | Sydney | 3 | All Maps","name_short":"syd-3","host":"syd-1.au.uncletopia.com","port":27035,"enabled":true,"region":"au","cc":"au","latitude":-33.865143,"longitude":151.2099,"reserved":0,"last_update":"0001-01-01T00:00:00Z","name_a2s":"Uncletopia | Sydney | 3 | All Maps","protocol":17,"map":"koth_brazil","folder":"tf","game":"Team Fortress","app_id":440,"player_count":0,"max_players":24,"Bots":0,"server_type":"Dedicated","server_os":"Linux","password":true,"vac":true,"version":"7882260","steam_id":85568392925194467,"keywords":["cp","nocrits","nodmgspread","uncletopia"],"game_id":440,"stv_port":27036,"stv_name":"Uncletopia | Sydney | 3 | All Maps | STV","players":null},{"server_id":396,"name":"Uncletopia | Sydney | 4 | All Maps","name_short":"syd-4","host":"syd-1.au.uncletopia.com","port":27045,"enabled":true,"region":"au","cc":"au","latitude":-33.865143,"longitude":151.2099,"reserved":0,"last_update":"0001-01-01T00:00:00Z","name_a2s":"Uncletopia | Sydney | 4 | All Maps","protocol":17,"map":"pl_badwater","folder":"tf","game":"Team Fortress","app_id":440,"player_count":0,"max_players":24,"Bots":0,"server_type":"Dedicated","server_os":"Linux","password":true,"vac":true,"version":"7882260","steam_id":85568392925397958,"keywords":["nocrits","nodmgspread","payload","uncletopia"],"game_id":440,"stv_port":27046,"stv_name":"Uncletopia | Sydney | 4 | All Maps | STV","players":null},{"server_id":58,"name":"Uncletopia | Sydney | 5 | Stopwatch Beta","name_short":"syd-5","host":"syd-1.au.uncletopia.com","port":27055,"enabled":true,"region":"au","cc":"au","latitude":-33.865143,"longitude":151.2099,"reserved":0,"last_update":"0001-01-01T00:00:00Z","name_a2s":"Uncletopia | Sydney | 5 | Stopwatch Beta","protocol":17,"map":"workshop/pl_summercoast_rc8e.ugc1761528829","folder":"tf","game":"Team Fortress","app_id":440,"player_count":0,"max_players":24,"Bots":0,"server_type":"Dedicated","server_os":"Linux","password":true,"vac":true,"version":"7882260","steam_id":85568392925397959,"keywords":["nocrits","nodmgspread","payload","uncletopia"],"game_id":440,"stv_port":27056,"stv_name":"Uncletopia | Sydney | 5 | Stopwatch Beta | STV","players":null},{"server_id":59,"name":"Uncletopia | Sydney | 6 | Community","name_short":"syd-6","host":"syd-1.au.uncletopia.com","port":27065,"enabled":true,"region":"au","cc":"au","latitude":-33.865143,"longitude":151.2099,"reserved":0,"last_update":"0001-01-01T00:00:00Z","name_a2s":"Uncletopia | Sydney | 6 | Community","protocol":17,"map":"workshop/cp_indulge.ugc528106646","folder":"tf","game":"Team Fortress","app_id":440,"player_count":0,"max_players":24,"Bots":0,"server_type":"Dedicated","server_os":"Linux","password":true,"vac":true,"version":"7882260","steam_id":85568392925397960,"keywords":["cp","nocrits","nodmgspread","uncletopia"],"game_id":440,"stv_port":27066,"stv_name":"Uncletopia | Sydney | 6 | Community | STV","players":null},{"server_id":49,"name":"Uncletopia | Warsaw | 1 | All Maps","name_short":"waw-1","host":"waw-1.pl.uncletopia.com","port":27015,"enabled":true,"region":"eu","cc":"pl","latitude":52.2297,"longitude":21.017532,"reserved":0,"last_update":"0001-01-01T00:00:00Z","name_a2s":"","protocol":0,"map":"","folder":"","game":"","app_id":0,"player_count":0,"max_players":0,"Bots":0,"server_type":"","server_os":"","password":false,"vac":false,"version":"","steam_id":0,"keywords":null,"game_id":0,"stv_port":0,"stv_name":"","players":null},{"server_id":50,"name":"Uncletopia | Warsaw | 2 | All Maps","name_short":"waw-2","host":"waw-1.pl.uncletopia.com","port":27025,"enabled":true,"region":"eu","cc":"pl","latitude":52.2297,"longitude":21.017532,"reserved":0,"last_update":"0001-01-01T00:00:00Z","name_a2s":"Uncletopia | Warsaw | 2 | All Maps","protocol":17,"map":"koth_lakeside_final","folder":"tf","game":"Team Fortress","app_id":440,"player_count":0,"max_players":24,"Bots":0,"server_type":"Dedicated","server_os":"Linux","password":true,"vac":true,"version":"7882260","steam_id":85568392925397851,"keywords":["cp","nocrits","nodmgspread","uncletopia"],"game_id":440,"stv_port":27026,"stv_name":"Uncletopia | Warsaw | 2 | All Maps | STV","players":null},{"server_id":51,"name":"Uncletopia | Warsaw | 3 | All Maps","name_short":"waw-3","host":"waw-1.pl.uncletopia.com","port":27035,"enabled":true,"region":"eu","cc":"pl","latitude":52.2297,"longitude":21.017532,"reserved":0,"last_update":"0001-01-01T00:00:00Z","name_a2s":"Uncletopia | Warsaw | 3 | All Maps","protocol":17,"map":"koth_viaduct","folder":"tf","game":"Team Fortress","app_id":440,"player_count":0,"max_players":24,"Bots":0,"server_type":"Dedicated","server_os":"Linux","password":true,"vac":true,"version":"7882260","steam_id":85568392925397852,"keywords":["cp","nocrits","nodmgspread","uncletopia"],"game_id":440,"stv_port":27036,"stv_name":"Uncletopia | Warsaw | 3 | All Maps | STV","players":null},{"server_id":52,"name":"Uncletopia | Warsaw | 4 | All Maps","name_short":"waw-4","host":"waw-1.pl.uncletopia.com","port":27045,"enabled":true,"region":"eu","cc":"pl","latitude":52.2297,"longitude":21.017532,"reserved":0,"last_update":"0001-01-01T00:00:00Z","name_a2s":"Uncletopia | Warsaw | 4 | All Maps","protocol":17,"map":"koth_highpass","folder":"tf","game":"Team Fortress","app_id":440,"player_count":0,"max_players":24,"Bots":0,"server_type":"Dedicated","server_os":"Linux","password":true,"vac":true,"version":"7882260","steam_id":85568392925397853,"keywords":["cp","nocrits","nodmgspread","uncletopia"],"game_id":440,"stv_port":27046,"stv_name":"Uncletopia | Warsaw | 4 | All Maps | STV","players":null},{"server_id":53,"name":"Uncletopia | Warsaw | 5 | Stopwatch Beta","name_short":"waw-5","host":"waw-1.pl.uncletopia.com","port":27055,"enabled":true,"region":"eu","cc":"pl","latitude":52.2297,"longitude":21.017532,"reserved":0,"last_update":"0001-01-01T00:00:00Z","name_a2s":"Uncletopia | Warsaw | 5 | Stopwatch Beta","protocol":17,"map":"cp_mountainlab","folder":"tf","game":"Team Fortress","app_id":440,"player_count":0,"max_players":24,"Bots":0,"server_type":"Dedicated","server_os":"Linux","password":true,"vac":true,"version":"7882260","steam_id":85568392925397854,"keywords":["cp","nocrits","nodmgspread","uncletopia"],"game_id":440,"stv_port":27056,"stv_name":"Uncletopia | Warsaw | 5 | Stopwatch Beta | STV","players":null},{"server_id":54,"name":"Uncletopia | Warsaw | 6 | Community","name_short":"waw-6","host":"waw-1.pl.uncletopia.com","port":27065,"enabled":true,"region":"eu","cc":"pl","latitude":52.2297,"longitude":21.017532,"reserved":0,"last_update":"0001-01-01T00:00:00Z","name_a2s":"Uncletopia | Warsaw | 6 | Community","protocol":17,"map":"koth_viaduct","folder":"tf","game":"Team Fortress","app_id":440,"player_count":0,"max_players":24,"Bots":0,"server_type":"Dedicated","server_os":"Linux","password":true,"vac":true,"version":"7882260","steam_id":85568392925397856,"keywords":["cp","nocrits","nodmgspread","uncletopia"],"game_id":440,"stv_port":27066,"stv_name":"Uncletopia | Warsaw | 6 | Community | STV","players":null}]}