{"status":true,"message":"","result":[{"server_id":9,"name":"Uncletopia | Atlanta | 1 | All Maps","name_short":"atl-1","host":"atl-1.us.uncletopia.com","port":27015,"enabled":true,"region":"us-east","cc":"us","latitude":33.753746,"longitude":-84.38633,"reserved":0,"last_update":"0001-01-01T00:00:00Z","name_a2s":"Uncletopia | Atlanta | 1 | All Maps","protocol":17,"map":"pl_pier","folder":"tf","game":"Team Fortress","app_id":440,"player_count":24,"max_players":24,"Bots":0,"server_type":"Dedicated","server_os":"Linux","password":true,"vac":true,"version":"7961495","steam_id":85568392924469982,"keywords":["nocrits","nodmgspread","payload","uncletopia"],"game_id":440,"stv_port":27016,"stv_name":"Uncletopia | Atlanta | 1 | All Maps | STV","players":[{"user_id":321,"name":"Motreir","steam_id":76561198151717946,"connected_time":4764000000000,"state":"active","ping":78},{"user_id":414,"name":"canakblasteran","steam_id":76561199472518822,"connected_time":1691000000000,"state":"active","ping":101},{"user_id":375,"name":"Dreszerg","steam_id":76561198838757422,"connected_time":2709000000000,"state":"active","ping":81},{"user_id":437,"name":"Cat Liker ™ Trans thing :3c","steam_id":76561198964321336,"connected_time":1114000000000,"state":"active","ping":49},{"user_id":279,"name":"BIG HOG","steam_id":76561198079923652,"connected_time":7474000000000,"state":"active","ping":64},{"user_id":415,"name":"SneakySneak","steam_id":76561198064847921,"connected_time":1687000000000,"state":"active","ping":59},{"user_id":332,"name":"Heathcliff","steam_id":76561198044288534,"connected_time":3456000000000,"state":"active","ping":75},{"user_id":304,"name":"lil hog","steam_id":76561199230929836,"connected_time":5415000000000,"state":"active","ping":89},{"user_id":427,"name":"Captain Malarkey","steam_id":76561198869924281,"connected_time":1407000000000,"state":"active","ping":77},{"user_id":409,"name":"krabby","steam_id":76561199072773402,"connected_time":1830000000000,"state":"active","ping":65},{"user_id":417,"name":"patronshito","steam_id":76561198266063209,"connected_time":1636000000000,"state":"active","ping":114},{"user_id":420,"name":"Xavibite","steam_id":76561198209380493,"connected_time":1606000000000,"state":"active","ping":60},{"user_id":491,"name":"Universe Man","steam_id":76561197997710655,"connected_time":376000000000,"state":"active","ping":70},{"user_id":438,"name":"Intro Bonito","steam_id":76561198119478838,"connected_time":1087000000000,"state":"active","ping":46},{"user_id":440,"name":"Grxy","steam_id":76561198012858810,"connected_time":1049000000000,"state":"active","ping":62},{"user_id":436,"name":"Toa of Time","steam_id":76561198086867556,"connected_time":1150000000000,"state":"active","ping":91},{"user_id":441,"name":"psychiclion","steam_id":76561198201974900,"connected_time":1009000000000,"state":"active","ping":65},{"user_id":442,"name":"toastman","steam_id":76561198207073088,"connected_time":1004000000000,"state":"active","ping":91},{"user_id":484,"name":"River","steam_id":76561198053962431,"connected_time":404000000000,"state":"active","ping":69},{"user_id":287,"name":"Ashes!","steam_id":76561197998475441,"connected_time":7054000000000,"state":"active","ping":82},{"user_id":366,"name":"HARRY B HOLE","steam_id":76561198842067238,"connected_time":2794000000000,"state":"active","ping":73},{"user_id":443,"name":"Uncle Leo From Seinfeld (Real)","steam_id":76561199102009679,"connected_time":1004000000000,"state":"active","ping":78},{"user_id":449,"name":"Gitt Midgetstien","steam_id":76561198006890639,"connected_time":910000000000,"state":"active","ping":79},{"user_id":485,"name":"ATL1 | Uganda (Steel enjoyer)","steam_id":76561199121276474,"connected_time":403000000000,"state":"active","ping":78}]},{"server_id":104,"name":"Uncletopia | Atlanta | 2 | All Maps","name_short":"atl-2","host":"atl-1.us.uncletopia.com","port":27025,"enabled":true,"region":"us-east","cc":"us","latitude":33.753746,"longitude":-84.38633,"reserved":0,"last_update":"0001-01-01T00:00:00Z","name_a2s":"Uncletopia | Atlanta | 2 | All Maps","protocol":17,"map":"pl_frontier_final","folder":"tf","game":"Team Fortress","app_id":440,"player_count":24,"max_players":24,"Bots":0,"server_type":"Dedicated","server_os":"Linux","password":true,"vac":true,"version":"7961495","steam_id":85568392924469983,"keywords":["nocrits","nodmgspread","payload","uncletopia"],"game_id":440,"stv_port":27026,"stv_name":"Uncletopia | Atlanta | 2 | All Maps | STV","players":[{"user_id":125,"name":"Psychosis","steam_id":76561198078659070,"connected_time":458000000000,"state":"active","ping":74},{"user_id":53,"name":"OOF Meister","steam_id":76561198145345694,"connected_time":4030000000000,"state":"active","ping":70},{"user_id":54,"name":"Skapoodle","steam_id":76561198128285530,"connected_time":3964000000000,"state":"active","ping":81},{"user_id":123,"name":"Oxygen User","steam_id":76561199111975528,"connected_time":506000000000,"state":"active","ping":65},{"user_id":35,"name":"custodian","steam_id":76561198058793778,"connected_time":6073000000000,"state":"active","ping":75},{"user_id":116,"name":"Zozbieta","steam_id":76561198010336265,"connected_time":1054000000000,"state":"active","ping":77},{"user_id":106,"name":"imng","steam_id":76561198014988031,"connected_time":1329000000000,"state":"active","ping":61},{"user_id":104,"name":"Wooden E","steam_id":76561198020308956,"connected_time":1735000000000,"state":"active","ping":47},{"user_id":93,"name":"meem","steam_id":76561198875335451,"connected_time":2957000000000,"state":"active","ping":54},{"user_id":114,"name":"Serenue","steam_id":76561199040361250,"connected_time":1192000000000,"state":"active","ping":88},{"user_id":113,"name":"ranroll, Ph.D.","steam_id":76561197980733511,"connected_time":1215000000000,"state":"active","ping":75},{"user_id":130,"name":"Versuski","steam_id":76561198085193084,"connected_time":67000000000,"state":"active","ping":68},{"user_id":128,"name":"Your Loyal Familiar","steam_id":76561198106476075,"connected_time":123000000000,"state":"active","ping":60},{"user_id":63,"name":"HoeYoBro","steam_id":76561198079142181,"connected_time":3575000000000,"state":"active","ping":80},{"user_id":103,"name":"Momo","steam_id":76561198815067088,"connected_time":1989000000000,"state":"active","ping":89},{"user_id":121,"name":"BlueMew","steam_id":76561198060454348,"connected_time":774000000000,"state":"active","ping":75},{"user_id":110,"name":"bacongamer445","steam_id":76561199161318030,"connected_time":1274000000000,"state":"active","ping":93},{"user_id":124,"name":"Assitins","steam_id":76561198041572892,"connected_time":494000000000,"state":"active","ping":62},{"user_id":129,"name":"emperor taizong of tang (real)","steam_id":76561198209333517,"connected_time":86000000000,"state":"active","ping":61},{"user_id":119,"name":"Notsocreative","steam_id":76561198236372202,"connected_time":1014000000000,"state":"active","ping":75},{"user_id":120,"name":"LoveAndDevotion","steam_id":76561198102907464,"connected_time":897000000000,"state":"active","ping":83},{"user_id":112,"name":"sanxi's cave","steam_id":76561199034371191,"connected_time":1255000000000,"state":"active","ping":165},{"user_id":99,"name":"Dosux2","steam_id":76561198390916062,"connected_time":2602000000000,"state":"active","ping":132},{"user_id":127,"name":"I enjoy the spy class","steam_id":76561199122145635,"connected_time":432000000000,"state":"active","ping":59}]},{"server_id":400,"name":"Uncletopia | Atlanta | 3 | Stopwatch","name_short":"atl-3","host":"atl-1.us.uncletopia.com","port":27035,"enabled":true,"region":"us-east","cc":"us","latitude":33.753746,"longitude":-84.38633,"reserved":0,"last_update":"0001-01-01T00:00:00Z","name_a2s":"Uncletopia | Atlanta | 3 | Stopwatch","protocol":17,"map":"workshop/koth_jamram_rc1a.ugc2964065613","folder":"tf","game":"Team Fortress","app_id":440,"player_count":0,"max_players":24,"Bots":0,"server_type":"Dedicated","server_os":"Linux","password":true,"vac":true,"version":"7961495","steam_id":85568392924515187,"keywords":["cp","nocrits","nodmgspread","uncletopia"],"game_id":440,"stv_port":27036,"stv_name":"Uncletopia | Atlanta | 3 | Stopwatch | STV","players":null},{"server_id":401,"name":"Uncletopia | Atlanta | 4 | Community","name_short":"atl-4","host":"atl-1.us.uncletopia.com","port":27045,"enabled":true,"region":"us-east","cc":"us","latitude":33.753746,"longitude":-84.38633,"reserved":0,"last_update":"0001-01-01T00:00:00Z","name_a2s":"Uncletopia | Atlanta | 4 | Community","protocol":17,"map":"workshop/koth_relic_rc3.ugc2965301326","folder":"tf","game":"Team Fortress","app_id":440,"player_count":17,"max_players":24,"Bots":0,"server_type":"Dedicated","server_os":"Linux","password":true,"vac":true,"version":"7961495","steam_id":85568392924515188,"keywords":["cp","nocrits","nodmgspread","uncletopia"],"game_id":440,"stv_port":27046,"stv_name":"Uncletopia | Atlanta | 4 | Community | STV","players":[{"user_id":78,"name":"VAPORO","steam_id":76561198044186051,"connected_time":581000000000,"state":"active","ping":67},{"user_id":69,"name":"Whompert","steam_id":76561198042939624,"connected_time":1796000000000,"state":"active","ping":62},{"user_id":87,"name":"pHsHy","steam_id":76561198013195018,"connected_time":72000000000,"state":"active","ping":85},{"user_id":76,"name":"*Gage*","steam_id":76561197975233869,"connected_time":1168000000000,"state":"active","ping":84},{"user_id":70,"name":"morty","steam_id":76561199230137467,"connected_time":1794000000000,"state":"active","ping":69},{"user_id":86,"name":"Archbread","steam_id":76561198023186137,"connected_time":109000000000,"state":"active","ping":77},{"user_id":35,"name":"green bean","steam_id":76561198113099204,"connected_time":4060000000000,"state":"active","ping":89},{"user_id":75,"name":"who is gavin?","steam_id":76561198069415057,"connected_time":1193000000000,"state":"active","ping":62},{"user_id":30,"name":"hazel","steam_id":76561198879911815,"connected_time":4600000000000,"state":"active","ping":57},{"user_id":72,"name":"battlepuppy592","steam_id":76561199390201854,"connected_time":1719000000000,"state":"active","ping":77},{"user_id":79,"name":"maya","steam_id":76561198341534830,"connected_time":574000000000,"state":"active","ping":143},{"user_id":37,"name":"Shrebbie","steam_id":76561198875230824,"connected_time":4054000000000,"state":"active","ping":63},{"user_id":56,"name":"ThatOneDioDude (Joe Defender)","steam_id":76561198840608049,"connected_time":2236000000000,"state":"active","ping":54},{"user_id":82,"name":"Taskrabbits","steam_id":76561198366682546,"connected_time":494000000000,"state":"active","ping":116},{"user_id":64,"name":"creeper","steam_id":76561198421686376,"connected_time":1920000000000,"state":"active","ping":105},{"user_id":77,"name":"RC","steam_id":76561198048127881,"connected_time":1106000000000,"state":"active","ping":75},{"user_id":53,"name":"Daksuki","steam_id":76561198084127751,"connected_time":3091000000000,"state":"active","ping":90}]},{"server_id":2,"name":"Uncletopia | Chicago | 1 | All Maps","name_short":"chi-1","host":"chi-1.us.uncletopia.com","port":27015,"enabled":true,"region":"us-central","cc":"us","latitude":41.881832,"longitude":-87.62318,"reserved":0,"last_update":"0001-01-01T00:00:00Z","name_a2s":"Uncletopia | Chicago | 1 | All Maps","protocol":17,"map":"pl_frontier_final","folder":"tf","game":"Team Fortress","app_id":440,"player_count":24,"max_players":24,"Bots":0,"server_type":"Dedicated","server_os":"Linux","password":true,"vac":true,"version":"7961495","steam_id":85568392924469984,"keywords":["nocrits","nodmgspread","payload","uncletopia"],"game_id":440,"stv_port":27016,"stv_name":"Uncletopia | Chicago | 1 | All Maps | STV","players":[{"user_id":406,"name":"Leeous","steam_id":76561198081083248,"connected_time":1806000000000,"state":"active","ping":100},{"user_id":377,"name":"Horrizan","steam_id":76561197965028480,"connected_time":5417000000000,"state":"active","ping":75},{"user_id":399,"name":"Mish","steam_id":76561198042287075,"connected_time":3094000000000,"state":"active","ping":90},{"user_id":428,"name":"joosssh","steam_id":76561198072130805,"connected_time":422000000000,"state":"active","ping":160},{"user_id":426,"name":"Siz","steam_id":76561198072962154,"connected_time":552000000000,"state":"active","ping":73},{"user_id":412,"name":"Laventhey","steam_id":76561198977523626,"connected_time":1201000000000,"state":"active","ping":67},{"user_id":417,"name":"be","steam_id":76561198000824533,"connected_time":926000000000,"state":"active","ping":208},{"user_id":433,"name":"Jolyne","steam_id":76561198169960915,"connected_time":145000000000,"state":"active","ping":86},{"user_id":394,"name":"poorman #1 sniper","steam_id":76561198447884169,"connected_time":3661000000000,"state":"active","ping":46},{"user_id":432,"name":"illegal","steam_id":76561198871530383,"connected_time":229000000000,"state":"active","ping":58},{"user_id":398,"name":"War on Drugs Fighter","steam_id":76561198103211035,"connected_time":3212000000000,"state":"active","ping":52},{"user_id":379,"name":"AnimeFan2011","steam_id":76561198074024853,"connected_time":5394000000000,"state":"active","ping":94},{"user_id":421,"name":"TwitchyEyes","steam_id":76561199087750592,"connected_time":885000000000,"state":"active","ping":65},{"user_id":418,"name":"Digit","steam_id":76561198156589157,"connected_time":926000000000,"state":"active","ping":96},{"user_id":419,"name":"Black Rose Oncore","steam_id":76561198040489960,"connected_time":923000000000,"state":"active","ping":64},{"user_id":422,"name":"Sentry Gun (American)","steam_id":76561198313770809,"connected_time":881000000000,"state":"active","ping":56},{"user_id":423,"name":"Silverkeys","steam_id":76561197986012496,"connected_time":869000000000,"state":"active","ping":63},{"user_id":431,"name":"KATSURB","steam_id":76561199172118456,"connected_time":284000000000,"state":"active","ping":60},{"user_id":386,"name":"Durts","steam_id":76561198045954506,"connected_time":4639000000000,"state":"active","ping":96},{"user_id":371,"name":"HumFreY","steam_id":76561198076639682,"connected_time":5666000000000,"state":"active","ping":77},{"user_id":402,"name":"Casanova","steam_id":76561198126990853,"connected_time":2950000000000,"state":"active","ping":92},{"user_id":391,"name":"pizza rat","steam_id":76561198044874072,"connected_time":4297000000000,"state":"active","ping":56},{"user_id":403,"name":"AC-130","steam_id":76561198858155238,"connected_time":2926000000000,"state":"active","ping":106},{"user_id":405,"name":"calculator (freak)","steam_id":76561198046650995,"connected_time":1839000000000,"state":"active","ping":86}]},{"server_id":106,"name":"Uncletopia | Chicago | 2 | All Maps","name_short":"chi-2","host":"chi-1.us.uncletopia.com","port":27025,"enabled":true,"region":"us-central","cc":"us","latitude":41.881832,"longitude":-87.62318,"reserved":0,"last_update":"0001-01-01T00:00:00Z","name_a2s":"Uncletopia | Chicago | 2 | All Maps","protocol":17,"map":"pl_snowycoast","folder":"tf","game":"Team Fortress","app_id":440,"player_count":24,"max_players":24,"Bots":0,"server_type":"Dedicated","server_os":"Linux","password":true,"vac":true,"version":"7961495","steam_id":85568392924469985,"keywords":["nocrits","nodmgspread","payload","uncletopia"],"game_id":440,"stv_port":27026,"stv_name":"Uncletopia | Chicago | 2 | All Maps | STV","players":[{"user_id":554,"name":"Ursus Ludius","steam_id":76561198025470722,"connected_time":317000000000,"state":"active","ping":65},{"user_id":541,"name":"biggerB","steam_id":76561199075318360,"connected_time":2263000000000,"state":"active","ping":110},{"user_id":555,"name":"loscemo","steam_id":76561197994884609,"connected_time":302000000000,"state":"active","ping":56},{"user_id":509,"name":"..!","steam_id":76561198882483441,"connected_time":5248000000000,"state":"active","ping":82},{"user_id":550,"name":"Toxic Mercenary","steam_id":76561197988501611,"connected_time":1634000000000,"state":"active","ping":78},{"user_id":566,"name":"Half-Life","steam_id":76561197995469460,"connected_time":64000000000,"state":"active","ping":89},{"user_id":564,"name":"Elias","steam_id":76561198106431732,"connected_time":118000000000,"state":"active","ping":51},{"user_id":557,"name":"Mom","steam_id":76561198207936000,"connected_time":279000000000,"state":"active","ping":89},{"user_id":519,"name":"eloressa","steam_id":76561198120330867,"connected_time":4431000000000,"state":"active","ping":63},{"user_id":547,"name":"SharpieMan","steam_id":76561198396527475,"connected_time":1684000000000,"state":"active","ping":57},{"user_id":558,"name":"ุ","steam_id":76561198355935693,"connected_time":256000000000,"state":"active","ping":48},{"user_id":565,"name":"Macko","steam_id":76561198452005461,"connected_time":87000000000,"state":"active","ping":81},{"user_id":559,"name":"Grify","steam_id":76561198012292317,"connected_time":243000000000,"state":"active","ping":80},{"user_id":560,"name":"Sebhann","steam_id":76561199033464900,"connected_time":241000000000,"state":"active","ping":84},{"user_id":512,"name":"mastermt","steam_id":76561198165359850,"connected_time":5197000000000,"state":"active","ping":89},{"user_id":523,"name":"lycoris","steam_id":76561199113965768,"connected_time":4117000000000,"state":"active","ping":78},{"user_id":561,"name":"ocky","steam_id":76561198313049944,"connected_time":190000000000,"state":"active","ping":107},{"user_id":562,"name":"Gibs Degrossi","steam_id":76561198066152609,"connected_time":187000000000,"state":"active","ping":50},{"user_id":451,"name":"hearthian","steam_id":76561198113235260,"connected_time":10787000000000,"state":"active","ping":94},{"user_id":569,"name":"Siopao","steam_id":76561198254089497,"connected_time":29000000000,"state":"spawning","ping":87},{"user_id":570,"name":"Fortune","steam_id":76561198346118738,"connected_time":4000000000,"state":"spawning","ping":67},{"user_id":539,"name":"Michael :D","steam_id":76561198041191113,"connected_time":2496000000000,"state":"active","ping":78},{"user_id":543,"name":"Beau-tiful","steam_id":76561198258200651,"connected_time":2235000000000,"state":"active","ping":93},{"user_id":563,"name":"Penis Mike","steam_id":76561198151211444,"connected_time":165000000000,"state":"active","ping":74}]},{"server_id":402,"name":"Uncletopia | Chicago | 3 | All Maps","name_short":"chi-3","host":"chi-1.us.uncletopia.com","port":27035,"enabled":true,"region":"us-central","cc":"us","latitude":41.881832,"longitude":-87.62318,"reserved":0,"last_update":"0001-01-01T00:00:00Z","name_a2s":"Uncletopia | Chicago | 3 | All Maps","protocol":17,"map":"koth_harvest_final","folder":"tf","game":"Team Fortress","app_id":440,"player_count":23,"max_players":24,"Bots":0,"server_type":"Dedicated","server_os":"Linux","password":true,"vac":true,"version":"7961495","steam_id":85568392924515191,"keywords":["cp","nocrits","nodmgspread","uncletopia"],"game_id":440,"stv_port":27036,"stv_name":"Uncletopia | Chicago | 3 | All Maps | STV","players":[{"user_id":310,"name":"bacon :D","steam_id":76561199121940464,"connected_time":2606000000000,"state":"active","ping":94},{"user_id":356,"name":"AndyChan_","steam_id":76561198875392592,"connected_time":302000000000,"state":"active","ping":55},{"user_id":366,"name":"Trigger","steam_id":76561198133713218,"connected_time":55000000000,"state":"active","ping":63},{"user_id":335,"name":"Jerk Tryhard (roleplay)","steam_id":76561199470538309,"connected_time":1653000000000,"state":"active","ping":56},{"user_id":330,"name":"FireQuiz","steam_id":76561198107357249,"connected_time":1837000000000,"state":"active","ping":96},{"user_id":328,"name":"Tony","steam_id":76561198169799653,"connected_time":1881000000000,"state":"active","ping":60},{"user_id":339,"name":"bcizzo","steam_id":76561197994399953,"connected_time":1114000000000,"state":"active","ping":99},{"user_id":358,"name":"Bignuts69","steam_id":76561199302763718,"connected_time":279000000000,"state":"active","ping":55},{"user_id":359,"name":"jcera","steam_id":76561198882985900,"connected_time":247000000000,"state":"active","ping":57},{"user_id":311,"name":"Junk","steam_id":76561198024382753,"connected_time":2590000000000,"state":"active","ping":43},{"user_id":354,"name":"TwoTurntables","steam_id":76561198013828648,"connected_time":311000000000,"state":"active","ping":57},{"user_id":342,"name":"SKYRRUNNER","steam_id":76561199275648928,"connected_time":949000000000,"state":"active","ping":88},{"user_id":352,"name":"Caribou","steam_id":76561197997211265,"connected_time":461000000000,"state":"active","ping":69},{"user_id":353,"name":"subdromeda","steam_id":76561198884351860,"connected_time":314000000000,"state":"active","ping":61},{"user_id":340,"name":"biden cart 15 dollars","steam_id":76561198253731826,"connected_time":1114000000000,"state":"active","ping":61},{"user_id":316,"name":"xxxsinpadres","steam_id":76561198366873419,"connected_time":2333000000000,"state":"active","ping":52},{"user_id":360,"name":"ShaiKai","steam_id":76561198333319986,"connected_time":231000000000,"state":"active","ping":88},{"user_id":361,"name":"Just washed","steam_id":76561199030160932,"connected_time":175000000000,"state":"active","ping":75},{"user_id":362,"name":"snorg","steam_id":76561199103766971,"connected_time":157000000000,"state":"active","ping":69},{"user_id":341,"name":"BROCCOLI DAD","steam_id":76561198455511587,"connected_time":1105000000000,"state":"active","ping":70},{"user_id":363,"name":"Joe Biden","steam_id":76561198238699798,"connected_time":155000000000,"state":"active","ping":92},{"user_id":333,"name":"Shroomish","steam_id":76561199109440924,"connected_time":1700000000000,"state":"active","ping":95},{"user_id":351,"name":"=Silver=","steam_id":76561198292307127,"connected_time":528000000000,"state":"active","ping":96}]},{"server_id":403,"name":"Uncletopia | Chicago | 4 | All Maps","name_short":"chi-4","host":"chi-1.us.uncletopia.com","port":27045,"enabled":true,"region":"us-central","cc":"us","latitude":41.881832,"longitude":-87.62318,"reserved":0,"last_update":"0001-01-01T00:00:00Z","name_a2s":"Uncletopia | Chicago | 4 | All Maps","protocol":17,"map":"koth_cascade","folder":"tf","game":"Team Fortress","app_id":440,"player_count":24,"max_players":24,"Bots":0,"server_type":"Dedicated","server_os":"Linux","password":true,"vac":true,"version":"7961495","steam_id":85568392924515193,"keywords":["cp","nocrits","nodmgspread","uncletopia"],"game_id":440,"stv_port":27046,"stv_name":"Uncletopia | Chicago | 4 | All Maps | STV","players":[{"user_id":319,"name":"celestia ludenberg","steam_id":76561199196437823,"connected_time":5690000000000,"state":"active","ping":125},{"user_id":365,"name":"gretchling","steam_id":76561198046111695,"connected_time":2115000000000,"state":"active","ping":64},{"user_id":372,"name":"CCTV Camera","steam_id":76561198373692962,"connected_time":1491000000000,"state":"active","ping":46},{"user_id":387,"name":"Mr.Clean(All Purpose Cleaner)","steam_id":76561198208014257,"connected_time":407000000000,"state":"active","ping":79},{"user_id":388,"name":"lightcatnap","steam_id":76561199385584854,"connected_time":401000000000,"state":"active","ping":68},{"user_id":390,"name":"edgebug b-roll","steam_id":76561198043558709,"connected_time":320000000000,"state":"active","ping":90},{"user_id":330,"name":"zoey","steam_id":76561198084679526,"connected_time":4765000000000,"state":"active","ping":46},{"user_id":391,"name":"wugmup","steam_id":76561199096287734,"connected_time":311000000000,"state":"active","ping":124},{"user_id":373,"name":"TheLonliestThelonius","steam_id":76561198097657243,"connected_time":1468000000000,"state":"active","ping":71},{"user_id":396,"name":"hej","steam_id":76561197996366940,"connected_time":68000000000,"state":"active","ping":60},{"user_id":360,"name":"etai.dade","steam_id":76561198430211406,"connected_time":2586000000000,"state":"active","ping":67},{"user_id":374,"name":"airballer","steam_id":76561198165899125,"connected_time":1464000000000,"state":"active","ping":65},{"user_id":349,"name":"Dwanor","steam_id":76561198039571887,"connected_time":3255000000000,"state":"active","ping":68},{"user_id":389,"name":"i eat glue","steam_id":76561198827026673,"connected_time":350000000000,"state":"active","ping":70},{"user_id":339,"name":"milkerstf2 is NOT an alt.","steam_id":76561198069600113,"connected_time":3893000000000,"state":"active","ping":73},{"user_id":384,"name":"Fumohuxi Viriphyto","steam_id":76561198369395636,"connected_time":1080000000000,"state":"active","ping":93},{"user_id":385,"name":"rabbit","steam_id":76561198071248170,"connected_time":1008000000000,"state":"active","ping":78},{"user_id":376,"name":"Lifial","steam_id":76561198271885819,"connected_time":1450000000000,"state":"active","ping":74},{"user_id":344,"name":"SevenSuns","steam_id":76561198434263375,"connected_time":3548000000000,"state":"active","ping":84},{"user_id":392,"name":"Tlaxcalli","steam_id":76561198189330642,"connected_time":307000000000,"state":"active","ping":102},{"user_id":368,"name":"any flooders?","steam_id":76561197977347045,"connected_time":1869000000000,"state":"active","ping":80},{"user_id":367,"name":"Bacchus","steam_id":76561199056815356,"connected_time":2018000000000,"state":"active","ping":66},{"user_id":394,"name":"RNG","steam_id":76561198156413369,"connected_time":227000000000,"state":"active","ping":69},{"user_id":379,"name":"Aswad The Great","steam_id":76561198123572130,"connected_time":1395000000000,"state":"active","ping":69}]},{"server_id":36,"name":"Uncletopia | Chicago | 5 | All Maps","name_short":"chi-5","host":"chi-2.us.uncletopia.com","port":27015,"enabled":true,"region":"us-central","cc":"us","latitude":41.881832,"longitude":-87.62318,"reserved":0,"last_update":"0001-01-01T00:00:00Z","name_a2s":"Uncletopia | Chicago | 5 | All Maps","protocol":17,"map":"cp_gorge","folder":"tf","game":"Team Fortress","app_id":440,"player_count":24,"max_players":24,"Bots":0,"server_type":"Dedicated","server_os":"Linux","password":true,"vac":true,"version":"7961495","steam_id":85568392924866362,"keywords":["cp","nocrits","nodmgspread","uncletopia"],"game_id":440,"stv_port":27016,"stv_name":"Uncletopia | Chicago | 5 | All Maps | STV","players":[{"user_id":307,"name":"Whyamidoingthisaaaa","steam_id":76561199168837342,"connected_time":640000000000,"state":"active","ping":79},{"user_id":288,"name":"Slugger01","steam_id":76561198975798014,"connected_time":2325000000000,"state":"active","ping":58},{"user_id":308,"name":"Farseer Ulwithy","steam_id":76561197965179245,"connected_time":636000000000,"state":"active","ping":124},{"user_id":302,"name":"Ahaboda","steam_id":76561198987200640,"connected_time":908000000000,"state":"active","ping":59},{"user_id":309,"name":"sidhaktheguy","steam_id":76561198306006593,"connected_time":569000000000,"state":"active","ping":53},{"user_id":298,"name":"Nixon Me, Dixon Me","steam_id":76561198126519537,"connected_time":1508000000000,"state":"active","ping":80},{"user_id":303,"name":"Der Krieger105","steam_id":76561197978384609,"connected_time":896000000000,"state":"active","ping":87},{"user_id":310,"name":"Echo","steam_id":76561199509574620,"connected_time":499000000000,"state":"active","ping":106},{"user_id":311,"name":"the creature","steam_id":76561199015635037,"connected_time":462000000000,"state":"active","ping":80},{"user_id":282,"name":"flagman21","steam_id":76561198036788143,"connected_time":2676000000000,"state":"active","ping":89},{"user_id":301,"name":"Nathan #savetf2","steam_id":76561198255986022,"connected_time":975000000000,"state":"active","ping":74},{"user_id":294,"name":"Precision_Context","steam_id":76561199180393975,"connected_time":1952000000000,"state":"active","ping":91},{"user_id":277,"name":"appy","steam_id":76561198074357676,"connected_time":2885000000000,"state":"active","ping":52},{"user_id":278,"name":"MoreOfTheDead","steam_id":76561198957981576,"connected_time":2864000000000,"state":"active","ping":157},{"user_id":297,"name":"Rekwiium","steam_id":76561198079470564,"connected_time":1609000000000,"state":"active","ping":114},{"user_id":290,"name":"MoistPP","steam_id":76561199100990739,"connected_time":2233000000000,"state":"active","ping":93},{"user_id":295,"name":"ZE BIRD MAN","steam_id":76561198397212175,"connected_time":1906000000000,"state":"active","ping":87},{"user_id":299,"name":"Dardo","steam_id":76561198121678346,"connected_time":1281000000000,"state":"active","ping":137},{"user_id":305,"name":"A Random Guy","steam_id":76561198282519457,"connected_time":837000000000,"state":"active","ping":113},{"user_id":306,"name":"Mike Bean Burritos","steam_id":76561198173430607,"connected_time":824000000000,"state":"active","ping":96},{"user_id":257,"name":"A Trigger Happy Chipmunk","steam_id":76561198013608736,"connected_time":4500000000000,"state":"active","ping":58},{"user_id":292,"name":"mcbanggang14","steam_id":76561199025505860,"connected_time":2109000000000,"state":"active","ping":106},{"user_id":267,"name":"goodypiggy","steam_id":76561198434705310,"connected_time":3751000000000,"state":"active","ping":101},{"user_id":291,"name":"Goat","steam_id":76561198068447650,"connected_time":2230000000000,"state":"active","ping":74}]},{"server_id":37,"name":"Uncletopia | Chicago | 6 | All Maps","name_short":"chi-6","host":"chi-2.us.uncletopia.com","port":27025,"enabled":true,"region":"us-central","cc":"us","latitude":41.881832,"longitude":-87.62318,"reserved":0,"last_update":"0001-01-01T00:00:00Z","name_a2s":"Uncletopia | Chicago | 6 | All Maps","protocol":17,"map":"pl_upward","folder":"tf","game":"Team Fortress","app_id":440,"player_count":24,"max_players":24,"Bots":0,"server_type":"Dedicated","server_os":"Linux","password":true,"vac":true,"version":"7961495","steam_id":85568392924866363,"keywords":["nocrits","nodmgspread","payload","uncletopia"],"game_id":440,"stv_port":27026,"stv_name":"Uncletopia | Chicago | 6 | All Maps | STV","players":[{"user_id":240,"name":"Jam Jams","steam_id":76561198128811267,"connected_time":597000000000,"state":"active","ping":81},{"user_id":226,"name":"starfungus","steam_id":76561198158312789,"connected_time":1881000000000,"state":"active","ping":78},{"user_id":232,"name":"minecraft_2.0","steam_id":76561198391819120,"connected_time":1435000000000,"state":"active","ping":95},{"user_id":167,"name":"♥Boy Pussy♥","steam_id":76561199121980584,"connected_time":6350000000000,"state":"active","ping":63},{"user_id":209,"name":"Moshi Man","steam_id":76561198038249762,"connected_time":3553000000000,"state":"active","ping":46},{"user_id":245,"name":"Wang of Wall St","steam_id":76561198047460598,"connected_time":433000000000,"state":"active","ping":73},{"user_id":238,"name":"Novu","steam_id":76561198886997024,"connected_time":657000000000,"state":"active","ping":96},{"user_id":195,"name":"CommodoreEvac","steam_id":76561198035694806,"connected_time":4733000000000,"state":"active","ping":78},{"user_id":218,"name":"haileywestbrook123@gmail.com","steam_id":76561199169445769,"connected_time":2595000000000,"state":"active","ping":71},{"user_id":221,"name":"BLITZ","steam_id":76561198980779200,"connected_time":2412000000000,"state":"active","ping":65},{"user_id":241,"name":"ConnectedUser","steam_id":76561199126217062,"connected_time":488000000000,"state":"active","ping":59},{"user_id":242,"name":"CaptainRex","steam_id":76561199468930886,"connected_time":481000000000,"state":"active","ping":72},{"user_id":246,"name":"Gotta Move That Gear Up","steam_id":76561197993467034,"connected_time":414000000000,"state":"active","ping":49},{"user_id":168,"name":"Scita","steam_id":76561198066861559,"connected_time":6343000000000,"state":"active","ping":73},{"user_id":249,"name":"Skip Hop Doo Bop","steam_id":76561199161571849,"connected_time":373000000000,"state":"active","ping":95},{"user_id":223,"name":"AkimboAoki","steam_id":76561198158323058,"connected_time":2354000000000,"state":"active","ping":96},{"user_id":234,"name":"Drake the Pixel","steam_id":76561198131824401,"connected_time":1208000000000,"state":"active","ping":60},{"user_id":252,"name":"MekkieManul","steam_id":76561198053165462,"connected_time":356000000000,"state":"active","ping":61},{"user_id":230,"name":"Bolbi","steam_id":76561198051811597,"connected_time":1592000000000,"state":"active","ping":112},{"user_id":256,"name":"monsterkill4567","steam_id":76561198272986367,"connected_time":100000000000,"state":"active","ping":111},{"user_id":247,"name":"Some_Arse","steam_id":76561198039095394,"connected_time":383000000000,"state":"active","ping":64},{"user_id":253,"name":"theownmedic","steam_id":76561198138665427,"connected_time":337000000000,"state":"active","ping":54},{"user_id":254,"name":"brains","steam_id":76561198197388678,"connected_time":329000000000,"state":"active","ping":60},{"user_id":255,"name":"bleach₪","steam_id":76561198004482768,"connected_time":324000000000,"state":"active","ping":116}]},{"server_id":38,"name":"Uncletopia | Chicago | 7 | Stopwatch","name_short":"chi-7","host":"chi-2.us.uncletopia.com","port":27035,"enabled":true,"region":"us-central","cc":"us","latitude":41.881832,"longitude":-87.62318,"reserved":0,"last_update":"0001-01-01T00:00:00Z","name_a2s":"Uncletopia | Chicago | 7 | Stopwatch","protocol":17,"map":"cp_sunshine","folder":"tf","game":"Team Fortress","app_id":440,"player_count":0,"max_players":24,"Bots":0,"server_type":"Dedicated","server_os":"Linux","password":true,"vac":true,"version":"7961495","steam_id":85568392924866364,"keywords":["cp","nocrits","nodmgspread","uncletopia"],"game_id":440,"stv_port":27036,"stv_name":"Uncletopia | Chicago | 7 | Stopwatch | STV","players":null},{"server_id":39,"name":"Uncletopia | Chicago | 8 | Community","name_short":"chi-8","host":"chi-2.us.uncletopia.com","port":27045,"enabled":true,"region":"us-central","cc":"us","latitude":41.881832,"longitude":-87.62318,"reserved":0,"last_update":"0001-01-01T00:00:00Z","name_a2s":"Uncletopia | Chicago | 8 | Community","protocol":17,"map":"workshop/pl_fifthcurve_rc1.ugc648227046","folder":"tf","game":"Team Fortress","app_id":440,"player_count":0,"max_players":24,"Bots":0,"server_type":"Dedicated","server_os":"Linux","password":true,"vac":true,"version":"7961495","steam_id":85568392924866365,"keywords":["nocrits","nodmgspread","payload","uncletopia"],"game_id":440,"stv_port":27046,"stv_name":"Uncletopia | Chicago | 8 | Community | STV","players":null},{"server_id":8,"name":"Uncletopia | Dallas | 1 | All Maps","name_short":"dal-1","host":"dal-1.us.uncletopia.com","port":27015,"enabled":true,"region":"us-central","cc":"us","latitude":32.779167,"longitude":-96.80889,"reserved":0,"last_update":"0001-01-01T00:00:00Z","name_a2s":"Uncletopia | Dallas | 1 | All Maps","protocol":17,"map":"pl_thundermountain","folder":"tf","game":"Team Fortress","app_id":440,"player_count":24,"max_players":24,"Bots":0,"server_type":"Dedicated","server_os":"Linux","password":true,"vac":true,"version":"7961495","steam_id":85568392924469986,"keywords":["nocrits","nodmgspread","payload","uncletopia"],"game_id":440,"stv_port":27016,"stv_name":"Uncletopia | Dallas | 1 | All Maps | STV","players":[{"user_id":482,"name":"Neptune˖⁺｡˚⋆˙♥","steam_id":76561199054203198,"connected_time":426000000000,"state":"active","ping":74},{"user_id":485,"name":"Victoria Wood (as seen on TV)","steam_id":76561198066243851,"connected_time":259000000000,"state":"active","ping":155},{"user_id":465,"name":"love a good EHCAIGSDA","steam_id":76561198135559825,"connected_time":1321000000000,"state":"active","ping":60},{"user_id":466,"name":"Swag Emu","steam_id":76561198336272791,"connected_time":1310000000000,"state":"active","ping":105},{"user_id":483,"name":"awakelist","steam_id":76561199129744011,"connected_time":394000000000,"state":"active","ping":140},{"user_id":438,"name":"TheSpudThing","steam_id":76561198327300008,"connected_time":2875000000000,"state":"active","ping":64},{"user_id":464,"name":"Rhulk, Disciple of Rizz","steam_id":76561199226631828,"connected_time":1351000000000,"state":"active","ping":93},{"user_id":486,"name":"Kyle","steam_id":76561198150061073,"connected_time":256000000000,"state":"active","ping":61},{"user_id":468,"name":"Juan Solo","steam_id":76561198018688536,"connected_time":1280000000000,"state":"active","ping":98},{"user_id":455,"name":"Certified Hood Classic","steam_id":76561199086159354,"connected_time":2267000000000,"state":"active","ping":58},{"user_id":460,"name":"Kk","steam_id":76561198197211135,"connected_time":1747000000000,"state":"active","ping":59},{"user_id":471,"name":"TGD","steam_id":76561198197582594,"connected_time":1134000000000,"state":"active","ping":55},{"user_id":461,"name":"FearfoxBot","steam_id":76561198319818399,"connected_time":1719000000000,"state":"active","ping":59},{"user_id":487,"name":"Yodie","steam_id":76561198152474661,"connected_time":248000000000,"state":"active","ping":79},{"user_id":441,"name":"Lezabel","steam_id":76561198970753261,"connected_time":2773000000000,"state":"active","ping":76},{"user_id":488,"name":"bengineer","steam_id":76561198171912174,"connected_time":243000000000,"state":"active","ping":109},{"user_id":481,"name":"5ft Powerhouse","steam_id":76561198078040365,"connected_time":471000000000,"state":"active","ping":61},{"user_id":458,"name":"tsz","steam_id":76561199246231090,"connected_time":1850000000000,"state":"active","ping":83},{"user_id":448,"name":"Gaio","steam_id":76561198136293406,"connected_time":2589000000000,"state":"active","ping":59},{"user_id":470,"name":"ark","steam_id":76561198041066271,"connected_time":1237000000000,"state":"active","ping":75},{"user_id":480,"name":"Primordial pouch","steam_id":76561198077993687,"connected_time":507000000000,"state":"active","ping":102},{"user_id":489,"name":"[☯] randomshagz*","steam_id":76561197968666646,"connected_time":228000000000,"state":"active","ping":73},{"user_id":451,"name":"big shot","steam_id":76561199350870177,"connected_time":2491000000000,"state":"active","ping":90},{"user_id":477,"name":"Entity from Hell","steam_id":76561199174310124,"connected_time":913000000000,"state":"active","ping":87}]},{"server_id":108,"name":"Uncletopia | Dallas | 2 | All Maps","name_short":"dal-2","host":"dal-1.us.uncletopia.com","port":27025,"enabled":true,"region":"us-central","cc":"us","latitude":32.779167,"longitude":-96.80889,"reserved":0,"last_update":"0001-01-01T00:00:00Z","name_a2s":"Uncletopia | Dallas | 2 | All Maps","protocol":17,"map":"pl_barnblitz","folder":"tf","game":"Team Fortress","app_id":440,"player_count":24,"max_players":24,"Bots":0,"server_type":"Dedicated","server_os":"Linux","password":true,"vac":true,"version":"7961495","steam_id":85568392924469988,"keywords":["nocrits","nodmgspread","payload","uncletopia"],"game_id":440,"stv_port":27026,"stv_name":"Uncletopia | Dallas | 2 | All Maps | STV","players":[{"user_id":193,"name":"gravitywave_42","steam_id":76561199188500725,"connected_time":1143000000000,"state":"active","ping":173},{"user_id":140,"name":"Master Of Whales","steam_id":76561198349104889,"connected_time":5693000000000,"state":"active","ping":81},{"user_id":178,"name":"Batso","steam_id":76561198106589452,"connected_time":2753000000000,"state":"active","ping":85},{"user_id":197,"name":"Rae","steam_id":76561198171461153,"connected_time":963000000000,"state":"active","ping":71},{"user_id":198,"name":"GrantTheMedicYT","steam_id":76561199077176696,"connected_time":949000000000,"state":"active","ping":81},{"user_id":150,"name":"Muselk, but mexican","steam_id":76561199289676387,"connected_time":4441000000000,"state":"active","ping":65},{"user_id":186,"name":"TeriyakiDynamite","steam_id":76561198050049346,"connected_time":1712000000000,"state":"active","ping":85},{"user_id":194,"name":"rare endangered spycrab","steam_id":76561199110859362,"connected_time":1124000000000,"state":"active","ping":165},{"user_id":139,"name":"TheHumanTaco119","steam_id":76561198996107520,"connected_time":5703000000000,"state":"active","ping":88},{"user_id":120,"name":"The Duck","steam_id":76561199362841212,"connected_time":6754000000000,"state":"active","ping":68},{"user_id":191,"name":"gerge","steam_id":76561198092238353,"connected_time":1369000000000,"state":"active","ping":68},{"user_id":123,"name":"Combeevee","steam_id":76561199437113070,"connected_time":6712000000000,"state":"active","ping":78},{"user_id":204,"name":"Koi","steam_id":76561198064411172,"connected_time":599000000000,"state":"active","ping":75},{"user_id":160,"name":"pan","steam_id":76561198093968095,"connected_time":4171000000000,"state":"active","ping":90},{"user_id":199,"name":"mrpineapple070","steam_id":76561199088278757,"connected_time":941000000000,"state":"active","ping":72},{"user_id":210,"name":"Koyo","steam_id":76561198290256750,"connected_time":307000000000,"state":"active","ping":77},{"user_id":213,"name":"CHIKN","steam_id":76561198277792665,"connected_time":235000000000,"state":"active","ping":81},{"user_id":66,"name":"apcsmoore","steam_id":76561199124727793,"connected_time":10600000000000,"state":"active","ping":85},{"user_id":216,"name":"Seskova","steam_id":76561198090207032,"connected_time":205000000000,"state":"active","ping":105},{"user_id":214,"name":"DoctorDrew","steam_id":76561197962400538,"connected_time":230000000000,"state":"active","ping":95},{"user_id":187,"name":"Roman","steam_id":76561198138140596,"connected_time":1703000000000,"state":"active","ping":71},{"user_id":203,"name":"Koala Bear","steam_id":76561198118025990,"connected_time":670000000000,"state":"active","ping":91},{"user_id":218,"name":"AlbinoRhino ☮","steam_id":76561198005894818,"connected_time":191000000000,"state":"active","ping":97},{"user_id":183,"name":"selvhat","steam_id":76561198114225509,"connected_time":2201000000000,"state":"active","ping":77}]},{"server_id":404,"name":"Uncletopia | Dallas | 3 | All Maps","name_short":"dal-3","host":"dal-1.us.uncletopia.com","port":27035,"enabled":true,"region":"us-central","cc":"us","latitude":32.779167,"longitude":-96.80889,"reserved":0,"last_update":"0001-01-01T00:00:00Z","name_a2s":"Uncletopia | Dallas | 3 | All Maps","protocol":17,"map":"pl_snowycoast","folder":"tf","game":"Team Fortress","app_id":440,"player_count":24,"max_players":24,"Bots":0,"server_type":"Dedicated","server_os":"Linux","password":true,"vac":true,"version":"7961495","steam_id":85568392924515219,"keywords":["nocrits","nodmgspread","payload","uncletopia"],"game_id":440,"stv_port":27036,"stv_name":"Uncletopia | Dallas | 3 | All Maps | STV","players":[{"user_id":300,"name":"LargerThanAverageDragon","steam_id":76561198152036300,"connected_time":4752000000000,"state":"active","ping":45},{"user_id":344,"name":"Xanadu","steam_id":76561198025245508,"connected_time":1125000000000,"state":"active","ping":75},{"user_id":352,"name":"LFTHEAVYBerner415TTV","steam_id":76561198082334363,"connected_time":571000000000,"state":"active","ping":94},{"user_id":341,"name":"oni","steam_id":76561198082038479,"connected_time":1202000000000,"state":"active","ping":82},{"user_id":320,"name":"earthDF","steam_id":76561198026084025,"connected_time":2490000000000,"state":"active","ping":88},{"user_id":342,"name":"Cassafras","steam_id":76561197961994834,"connected_time":1186000000000,"state":"active","ping":64},{"user_id":316,"name":"TacoMan4Life","steam_id":76561198832562728,"connected_time":2951000000000,"state":"active","ping":84},{"user_id":357,"name":"raya","steam_id":76561198051504581,"connected_time":195000000000,"state":"active","ping":50},{"user_id":351,"name":"Decobus","steam_id":76561197961014979,"connected_time":805000000000,"state":"active","ping":85},{"user_id":346,"name":"SorryICan","steam_id":76561199138270672,"connected_time":1094000000000,"state":"active","ping":79},{"user_id":289,"name":"AXELORDX","steam_id":76561198136639581,"connected_time":5172000000000,"state":"active","ping":64},{"user_id":348,"name":"Hemorrhoid Gaming","steam_id":76561199006526991,"connected_time":1047000000000,"state":"active","ping":78},{"user_id":353,"name":"pafijohn","steam_id":76561198002535190,"connected_time":491000000000,"state":"active","ping":75},{"user_id":338,"name":"Shattered Glass","steam_id":76561198116835391,"connected_time":1840000000000,"state":"active","ping":88},{"user_id":327,"name":"Timmy The Tyrant","steam_id":76561199156409732,"connected_time":2325000000000,"state":"active","ping":50},{"user_id":311,"name":"matvey","steam_id":76561199404191412,"connected_time":3676000000000,"state":"active","ping":98},{"user_id":349,"name":"Mello","steam_id":76561198837226897,"connected_time":1044000000000,"state":"active","ping":109},{"user_id":359,"name":"RLLwB","steam_id":76561198021132868,"connected_time":58000000000,"state":"active","ping":45},{"user_id":350,"name":"Chad the Sex Haver","steam_id":76561198058236528,"connected_time":1044000000000,"state":"active","ping":71},{"user_id":332,"name":"Adawnby","steam_id":76561198103057295,"connected_time":2193000000000,"state":"active","ping":57},{"user_id":335,"name":"Robotferret87","steam_id":76561198259837716,"connected_time":2019000000000,"state":"active","ping":88},{"user_id":334,"name":"zeplinnn","steam_id":76561198301300987,"connected_time":2171000000000,"state":"active","ping":67},{"user_id":355,"name":"Vazquez Perez","steam_id":76561199185750989,"connected_time":436000000000,"state":"active","ping":93}]},{"server_id":405,"name":"Uncletopia | Dallas | 4 | Community","name_short":"dal-4","host":"dal-1.us.uncletopia.com","port":27045,"enabled":true,"region":"us-central","cc":"us","latitude":32.779167,"longitude":-96.80889,"reserved":0,"last_update":"0001-01-01T00:00:00Z","name_a2s":"Uncletopia | Dallas | 4 | Community","protocol":17,"map":"workshop/pl_phoenix_b4a.ugc2969509359","folder":"tf","game":"Team Fortress","app_id":440,"player_count":0,"max_players":24,"Bots":0,"server_type":"Dedicated","server_os":"Linux","password":true,"vac":true,"version":"7961495","steam_id":85568392924515220,"keywords":["nocrits","nodmgspread","payload","uncletopia"],"game_id":440,"stv_port":27046,"stv_name":"Uncletopia | Dallas | 4 | Community | STV","players":null},{"server_id":5,"name":"Uncletopia | Frankfurt | 1 | All Maps","name_short":"frk-1","host":"frk-1.de.uncletopia.com","port":27015,"enabled":true,"region":"eu","cc":"de","latitude":50.110924,"longitude":8.682127,"reserved":0,"last_update":"0001-01-01T00:00:00Z","name_a2s":"Uncletopia | Frankfurt | 1 | All Maps","protocol":17,"map":"pl_pier","folder":"tf","game":"Team Fortress","app_id":440,"player_count":24,"max_players":24,"Bots":0,"server_type":"Dedicated","server_os":"Linux","password":true,"vac":true,"version":"7961495","steam_id":85568392924469989,"keywords":["nocrits","nodmgspread","payload","uncletopia"],"game_id":440,"stv_port":27016,"stv_name":"Uncletopia | Frankfurt | 1 | All Maps | STV","players":[{"user_id":845,"name":"(All Muted) Visphiric","steam_id":76561198071938027,"connected_time":991000000000,"state":"active","ping":47},{"user_id":780,"name":"PlasticVoid","steam_id":76561197997870306,"connected_time":5051000000000,"state":"active","ping":44},{"user_id":825,"name":"Benzo Fury","steam_id":76561198025259336,"connected_time":2254000000000,"state":"active","ping":55},{"user_id":839,"name":"KittyKate ❤","steam_id":76561198116340817,"connected_time":1230000000000,"state":"active","ping":62},{"user_id":772,"name":"RAT BASTARD","steam_id":76561199195985387,"connected_time":5682000000000,"state":"active","ping":80},{"user_id":781,"name":"Shift","steam_id":76561198028296732,"connected_time":5006000000000,"state":"active","ping":47},{"user_id":831,"name":"MGE BARBIE","steam_id":76561198815271970,"connected_time":1870000000000,"state":"active","ping":61},{"user_id":807,"name":"CumbustiblePunda","steam_id":76561197974274677,"connected_time":3804000000000,"state":"active","ping":57},{"user_id":849,"name":"Dr.Disrespect","steam_id":76561198043820228,"connected_time":599000000000,"state":"active","ping":43},{"user_id":850,"name":"sork","steam_id":76561198136154518,"connected_time":539000000000,"state":"active","ping":81},{"user_id":846,"name":"Invi","steam_id":76561198061107149,"connected_time":840000000000,"state":"active","ping":84},{"user_id":840,"name":"BuzzBees ❤","steam_id":76561198101502273,"connected_time":1219000000000,"state":"active","ping":64},{"user_id":842,"name":"vug","steam_id":76561198042227249,"connected_time":1150000000000,"state":"active","ping":45},{"user_id":826,"name":"Loudladdy","steam_id":76561198095271834,"connected_time":2249000000000,"state":"active","ping":48},{"user_id":852,"name":"hyperstar","steam_id":76561198880042335,"connected_time":12000000000,"state":"active","ping":102},{"user_id":851,"name":"Bobirulez","steam_id":76561198009125458,"connected_time":384000000000,"state":"active","ping":67},{"user_id":824,"name":"Dan","steam_id":76561198289353288,"connected_time":2275000000000,"state":"active","ping":60},{"user_id":847,"name":"Sheev","steam_id":76561198828371209,"connected_time":653000000000,"state":"active","ping":65},{"user_id":821,"name":"Dei Genetrix","steam_id":76561198305678122,"connected_time":2779000000000,"state":"active","ping":61},{"user_id":844,"name":"NicatsCage","steam_id":76561198067271076,"connected_time":1062000000000,"state":"active","ping":82},{"user_id":836,"name":"Lao","steam_id":76561198004528684,"connected_time":1696000000000,"state":"active","ping":77},{"user_id":837,"name":"Kutti","steam_id":76561198012258937,"connected_time":1683000000000,"state":"active","ping":60},{"user_id":808,"name":"Germanium_Ge","steam_id":76561198130561775,"connected_time":3802000000000,"state":"active","ping":60},{"user_id":848,"name":"Gravel Mercenary","steam_id":76561199019412162,"connected_time":646000000000,"state":"active","ping":63}]},{"server_id":110,"name":"Uncletopia | Frankfurt | 2 | All Maps","name_short":"frk-2","host":"frk-1.de.uncletopia.com","port":27025,"enabled":true,"region":"eu","cc":"de","latitude":50.110924,"longitude":8.682127,"reserved":0,"last_update":"0001-01-01T00:00:00Z","name_a2s":"Uncletopia | Frankfurt | 2 | All Maps","protocol":17,"map":"koth_highpass","folder":"tf","game":"Team Fortress","app_id":440,"player_count":0,"max_players":24,"Bots":0,"server_type":"Dedicated","server_os":"Linux","password":true,"vac":true,"version":"7961495","steam_id":85568392924469990,"keywords":["cp","nocrits","nodmgspread","uncletopia"],"game_id":440,"stv_port":27026,"stv_name":"Uncletopia | Frankfurt | 2 | All Maps | STV","players":null},{"server_id":308,"name":"Uncletopia | Frankfurt | 3 | All Maps","name_short":"frk-3","host":"frk-1.de.uncletopia.com","port":27035,"enabled":true,"region":"eu","cc":"de","latitude":50.110924,"longitude":8.682127,"reserved":0,"last_update":"0001-01-01T00:00:00Z","name_a2s":"Uncletopia | Frankfurt | 3 | All Maps","protocol":17,"map":"koth_highpass","folder":"tf","game":"Team Fortress","app_id":440,"player_count":0,"max_players":24,"Bots":0,"server_type":"Dedicated","server_os":"Linux","password":true,"vac":true,"version":"7961495","steam_id":85568392924504274,"keywords":["cp","nocrits","nodmgspread","uncletopia"],"game_id":440,"stv_port":27036,"stv_name":"Uncletopia | Frankfurt | 3 | All Maps | STV","players":null},{"server_id":309,"name":"Uncletopia | Frankfurt | 4 | All Maps","name_short":"frk-4","host":"frk-1.de.uncletopia.com","port":27045,"enabled":true,"region":"eu","cc":"de","latitude":50.110924,"longitude":8.682127,"reserved":0,"last_update":"0001-01-01T00:00:00Z","name_a2s":"Uncletopia | Frankfurt | 4 | All Maps","protocol":17,"map":"cp_sunshine","folder":"tf","game":"Team Fortress","app_id":440,"player_count":24,"max_players":24,"Bots":0,"server_type":"Dedicated","server_os":"Linux","password":true,"vac":true,"version":"7961495","steam_id":85568392924504275,"keywords":["cp","nocrits","nodmgspread","uncletopia"],"game_id":440,"stv_port":27046,"stv_name":"Uncletopia | Frankfurt | 4 | All Maps | STV","players":[{"user_id":522,"name":"moseley519","steam_id":76561198045485374,"connected_time":4751000000000,"state":"active","ping":55},{"user_id":530,"name":"bora colhao para fora","steam_id":76561198109462631,"connected_time":3985000000000,"state":"active","ping":76},{"user_id":490,"name":"=OKB= P4NTH3R","steam_id":76561197999204603,"connected_time":6358000000000,"state":"active","ping":62},{"user_id":576,"name":"Edd","steam_id":76561198078741162,"connected_time":334000000000,"state":"active","ping":74},{"user_id":548,"name":"vk rat makes me erect","steam_id":76561198355965587,"connected_time":2147000000000,"state":"active","ping":59},{"user_id":528,"name":"NAnicky","steam_id":76561198350260282,"connected_time":4033000000000,"state":"active","ping":70},{"user_id":577,"name":"FilipeLuk","steam_id":76561198150675438,"connected_time":226000000000,"state":"active","ping":64},{"user_id":549,"name":"Phoenix Burger","steam_id":76561199132574931,"connected_time":2115000000000,"state":"active","ping":130},{"user_id":524,"name":"kenzou","steam_id":76561199180054996,"connected_time":4519000000000,"state":"active","ping":56},{"user_id":571,"name":"/⸌.ꞈ.⸍\\","steam_id":76561199510137941,"connected_time":993000000000,"state":"active","ping":166},{"user_id":568,"name":"tr4ce","steam_id":76561198085296732,"connected_time":1185000000000,"state":"active","ping":51},{"user_id":546,"name":"Topool45","steam_id":76561199161389847,"connected_time":2249000000000,"state":"active","ping":90},{"user_id":557,"name":"tm`","steam_id":76561197993580412,"connected_time":1811000000000,"state":"active","ping":57},{"user_id":559,"name":"Wilderhammer","steam_id":76561198132133702,"connected_time":1656000000000,"state":"active","ping":40},{"user_id":514,"name":"Jedunahoru","steam_id":76561199508744635,"connected_time":5358000000000,"state":"active","ping":53},{"user_id":515,"name":"noticed","steam_id":76561198205976029,"connected_time":5349000000000,"state":"active","ping":83},{"user_id":539,"name":"TheMith","steam_id":76561198401193686,"connected_time":3041000000000,"state":"active","ping":81},{"user_id":569,"name":"Snowmotion","steam_id":76561198075022454,"connected_time":1097000000000,"state":"active","ping":61},{"user_id":574,"name":"spесtаtоr","steam_id":76561198228321840,"connected_time":372000000000,"state":"active","ping":191},{"user_id":553,"name":"SissifiedBlackGuy","steam_id":76561199509261527,"connected_time":2061000000000,"state":"active","ping":104},{"user_id":573,"name":"PROFILE NAME","steam_id":76561198180056982,"connected_time":767000000000,"state":"active","ping":68},{"user_id":555,"name":"Anti4life","steam_id":76561198836208242,"connected_time":2007000000000,"state":"active","ping":69},{"user_id":537,"name":"snayke","steam_id":76561198077822932,"connected_time":3640000000000,"state":"active","ping":61},{"user_id":566,"name":"BlueBlaster","steam_id":76561197995684708,"connected_time":1359000000000,"state":"active","ping":74}]},{"server_id":310,"name":"Uncletopia | Frankfurt | 5 | All Maps","name_short":"frk-5","host":"frk-1.de.uncletopia.com","port":27055,"enabled":true,"region":"eu","cc":"de","latitude":50.110924,"longitude":8.682127,"reserved":0,"last_update":"0001-01-01T00:00:00Z","name_a2s":"Uncletopia | Frankfurt | 5 | All Maps","protocol":17,"map":"pl_borneo","folder":"tf","game":"Team Fortress","app_id":440,"player_count":22,"max_players":24,"Bots":0,"server_type":"Dedicated","server_os":"Linux","password":true,"vac":true,"version":"7961495","steam_id":85568392924504277,"keywords":["nocrits","nodmgspread","payload","uncletopia"],"game_id":440,"stv_port":27056,"stv_name":"Uncletopia | Frankfurt | 5 | All Maps | STV","players":[{"user_id":821,"name":"⭐Bv","steam_id":76561198048943710,"connected_time":445000000000,"state":"active","ping":39},{"user_id":822,"name":"yuri boy","steam_id":76561198024292352,"connected_time":441000000000,"state":"active","ping":79},{"user_id":823,"name":"lexi ★","steam_id":76561198988695461,"connected_time":420000000000,"state":"active","ping":47},{"user_id":812,"name":"lolmen789","steam_id":76561198044543167,"connected_time":970000000000,"state":"active","ping":49},{"user_id":820,"name":"Tomato","steam_id":76561199124472513,"connected_time":709000000000,"state":"active","ping":115},{"user_id":803,"name":"Snap back General Stack","steam_id":76561198089478898,"connected_time":1345000000000,"state":"active","ping":53},{"user_id":827,"name":"magma core enjoyer","steam_id":76561199042470246,"connected_time":290000000000,"state":"active","ping":59},{"user_id":760,"name":"Immortal_Toad","steam_id":76561198048194748,"connected_time":4753000000000,"state":"active","ping":71},{"user_id":824,"name":"MISTER SIUUU","steam_id":76561198018330092,"connected_time":407000000000,"state":"active","ping":66},{"user_id":828,"name":"Th3Animix","steam_id":76561197963429852,"connected_time":264000000000,"state":"active","ping":60},{"user_id":759,"name":"Setiago","steam_id":76561198060770498,"connected_time":4883000000000,"state":"active","ping":69},{"user_id":802,"name":"phoinks","steam_id":76561198087543005,"connected_time":1900000000000,"state":"active","ping":45},{"user_id":826,"name":"Crellelund","steam_id":76561198006159403,"connected_time":367000000000,"state":"active","ping":64},{"user_id":832,"name":"Laru","steam_id":76561197998838438,"connected_time":155000000000,"state":"active","ping":75},{"user_id":833,"name":"MS","steam_id":76561198037560108,"connected_time":130000000000,"state":"active","ping":45},{"user_id":817,"name":"Yamiko","steam_id":76561198123999878,"connected_time":815000000000,"state":"active","ping":68},{"user_id":831,"name":"Eric Catman","steam_id":76561198802117294,"connected_time":182000000000,"state":"active","ping":86},{"user_id":834,"name":"Janner","steam_id":76561198127045282,"connected_time":97000000000,"state":"active","ping":59},{"user_id":835,"name":"Voodoo Child","steam_id":76561198110788281,"connected_time":86000000000,"state":"active","ping":67},{"user_id":836,"name":"kavun","steam_id":76561198023461869,"connected_time":37000000000,"state":"active","ping":77},{"user_id":837,"name":"kingdead4","steam_id":76561198079576655,"connected_time":30000000000,"state":"active","ping":59},{"user_id":783,"name":"Nox Equites","steam_id":76561198115438449,"connected_time":3395000000000,"state":"active","ping":87}]},{"server_id":311,"name":"Uncletopia | Frankfurt | 6 | All Maps","name_short":"frk-6","host":"frk-1.de.uncletopia.com","port":27065,"enabled":true,"region":"eu","cc":"de","latitude":50.110924,"longitude":8.682127,"reserved":0,"last_update":"0001-01-01T00:00:00Z","name_a2s":"Uncletopia | Frankfurt | 6 | All Maps","protocol":17,"map":"koth_lakeside_final","folder":"tf","game":"Team Fortress","app_id":440,"player_count":0,"max_players":24,"Bots":0,"server_type":"Dedicated","server_os":"Linux","password":true,"vac":true,"version":"7961495","steam_id":85568392924504278,"keywords":["cp","nocrits","nodmgspread","uncletopia"],"game_id":440,"stv_port":27066,"stv_name":"Uncletopia | Frankfurt | 6 | All Maps | STV","players":null},{"server_id":23,"name":"Uncletopia | Frankfurt | 7 | Stopwatch","name_short":"frk-7","host":"frk-1.de.uncletopia.com","port":27075,"enabled":true,"region":"eu","cc":"de","latitude":50.110924,"longitude":8.682127,"reserved":0,"last_update":"0001-01-01T00:00:00Z","name_a2s":"Uncletopia | Frankfurt | 7 | Stopwatch","protocol":17,"map":"workshop/koth_clearcut_b15.ugc2107050255","folder":"tf","game":"Team Fortress","app_id":440,"player_count":0,"max_players":24,"Bots":0,"server_type":"Dedicated","server_os":"Linux","password":true,"vac":true,"version":"7961495","steam_id":85568392924742827,"keywords":["cp","nocrits","nodmgspread","uncletopia"],"game_id":440,"stv_port":27076,"stv_name":"Uncletopia | Frankfurt | 7 | Stopwatch | STV","players":null},{"server_id":24,"name":"Uncletopia | Frankfurt | 8 | Community","name_short":"frk-8","host":"frk-1.de.uncletopia.com","port":27085,"enabled":true,"region":"eu","cc":"de","latitude":50.110924,"longitude":8.682127,"reserved":0,"last_update":"0001-01-01T00:00:00Z","name_a2s":"Uncletopia | Frankfurt | 8 | Community","protocol":17,"map":"workshop/pl_barnblitz_pro7.ugc582280235","folder":"tf","game":"Team Fortress","app_id":440,"player_count":0,"max_players":24,"Bots":0,"server_type":"Dedicated","server_os":"Linux","password":true,"vac":true,"version":"7961495","steam_id":85568392924742828,"keywords":["nocrits","nodmgspread","payload","uncletopia"],"game_id":440,"stv_port":27086,"stv_name":"Uncletopia | Frankfurt | 8 | Community | STV","players":null},{"server_id":202,"name":"Uncletopia | Hong Kong | 1 | All Maps","name_short":"hgk-1","host":"hgk-1.hk.uncletopia.com","port":27015,"enabled":true,"region":"asia","cc":"hk","latitude":22.302711,"longitude":114.177216,"reserved":0,"last_update":"0001-01-01T00:00:00Z","name_a2s":"Uncletopia | Hong Kong | 1 | All Maps","protocol":17,"map":"cp_metalworks","folder":"tf","game":"Team Fortress","app_id":440,"player_count":0,"max_players":24,"Bots":0,"server_type":"Dedicated","server_os":"Linux","password":true,"vac":true,"version":"7961495","steam_id":85568392924494504,"keywords":["cp","nocrits","nodmgspread","uncletopia"],"game_id":440,"stv_port":27016,"stv_name":"Uncletopia | Hong Kong | 1 | All Maps | STV","players":null},{"server_id":1,"name":"Uncletopia | Los Angeles | 1 | All Maps","name_short":"lax-1","host":"lax-1.us.uncletopia.com","port":27015,"enabled":true,"region":"us-west","cc":"us","latitude":33.94279,"longitude":-118.41004,"reserved":0,"last_update":"0001-01-01T00:00:00Z","name_a2s":"Uncletopia | Los Angeles | 1 | All Maps","protocol":17,"map":"koth_viaduct","folder":"tf","game":"Team Fortress","app_id":440,"player_count":24,"max_players":24,"Bots":0,"server_type":"Dedicated","server_os":"Linux","password":true,"vac":true,"version":"7961495","steam_id":85568392924469991,"keywords":["cp","nocrits","nodmgspread","uncletopia"],"game_id":440,"stv_port":27016,"stv_name":"Uncletopia | Los Angeles | 1 | All Maps | STV","players":[{"user_id":116,"name":"Sergeant Sear","steam_id":76561197963477221,"connected_time":1926000000000,"state":"active","ping":64},{"user_id":142,"name":"Why Me...","steam_id":76561199124019937,"connected_time":203000000000,"state":"active","ping":62},{"user_id":125,"name":"phon","steam_id":76561198140659236,"connected_time":1281000000000,"state":"active","ping":36},{"user_id":119,"name":"Idiotden","steam_id":76561199340950135,"connected_time":1849000000000,"state":"active","ping":42},{"user_id":104,"name":"Eden","steam_id":76561198081284664,"connected_time":2429000000000,"state":"active","ping":52},{"user_id":138,"name":"jokie","steam_id":76561198101901959,"connected_time":450000000000,"state":"active","ping":75},{"user_id":126,"name":"Wiggs is the Shrek 2 Soundtrack","steam_id":76561198078379719,"connected_time":1260000000000,"state":"active","ping":58},{"user_id":141,"name":"30-50 feral hogs","steam_id":76561198073587145,"connected_time":269000000000,"state":"active","ping":53},{"user_id":134,"name":"Silly dog","steam_id":76561199121045139,"connected_time":576000000000,"state":"active","ping":112},{"user_id":130,"name":"Real","steam_id":76561198405830028,"connected_time":1151000000000,"state":"active","ping":48},{"user_id":135,"name":"TüCold","steam_id":76561198111278197,"connected_time":546000000000,"state":"active","ping":60},{"user_id":77,"name":"flo rida","steam_id":76561198226169704,"connected_time":4332000000000,"state":"active","ping":60},{"user_id":136,"name":"Mx. Headroom","steam_id":76561198310731946,"connected_time":519000000000,"state":"active","ping":88},{"user_id":123,"name":"rat","steam_id":76561198130412963,"connected_time":1439000000000,"state":"active","ping":79},{"user_id":121,"name":"cielael","steam_id":76561198043971956,"connected_time":1722000000000,"state":"active","ping":45},{"user_id":96,"name":"Penne","steam_id":76561198982393756,"connected_time":2869000000000,"state":"active","ping":51},{"user_id":105,"name":"FI LO","steam_id":76561198976530881,"connected_time":2417000000000,"state":"active","ping":42},{"user_id":140,"name":"finmin","steam_id":76561198127639913,"connected_time":387000000000,"state":"active","ping":54},{"user_id":128,"name":"Enderkill777","steam_id":76561198876915153,"connected_time":1222000000000,"state":"active","ping":68},{"user_id":131,"name":"HAT-WEARING™ Maggot Gamer Cat","steam_id":76561197973992705,"connected_time":767000000000,"state":"active","ping":65},{"user_id":129,"name":"zinnk","steam_id":76561198092081825,"connected_time":1201000000000,"state":"active","ping":47},{"user_id":117,"name":"Amateur Glaswegian","steam_id":76561198030851956,"connected_time":1926000000000,"state":"active","ping":75},{"user_id":139,"name":"liamtwok10","steam_id":76561198951344626,"connected_time":410000000000,"state":"active","ping":78},{"user_id":113,"name":"Antis","steam_id":76561198055790522,"connected_time":2023000000000,"state":"active","ping":44}]},{"server_id":112,"name":"Uncletopia | Los Angeles | 2 | All Maps","name_short":"lax-2","host":"lax-1.us.uncletopia.com","port":27025,"enabled":true,"region":"us-west","cc":"us","latitude":33.94279,"longitude":-118.41004,"reserved":0,"last_update":"0001-01-01T00:00:00Z","name_a2s":"Uncletopia | Los Angeles | 2 | All Maps","protocol":17,"map":"koth_lazarus","folder":"tf","game":"Team Fortress","app_id":440,"player_count":0,"max_players":24,"Bots":0,"server_type":"Dedicated","server_os":"Linux","password":true,"vac":true,"version":"7961495","steam_id":85568392924469992,"keywords":["cp","nocrits","nodmgspread","uncletopia"],"game_id":440,"stv_port":27026,"stv_name":"Uncletopia | Los Angeles | 2 | All Maps | STV","players":null},{"server_id":324,"name":"Uncletopia | Los Angeles | 3 | All Maps","name_short":"lax-3","host":"lax-1.us.uncletopia.com","port":27035,"enabled":true,"region":"us-west","cc":"us","latitude":33.94279,"longitude":-118.41004,"reserved":0,"last_update":"0001-01-01T00:00:00Z","name_a2s":"Uncletopia | Los Angeles | 3 | All Maps","protocol":17,"map":"cp_snakewater_final1","folder":"tf","game":"Team Fortress","app_id":440,"player_count":0,"max_players":24,"Bots":0,"server_type":"Dedicated","server_os":"Linux","password":true,"vac":true,"version":"7961495","steam_id":85568392924510198,"keywords":["cp","nocrits","nodmgspread","uncletopia"],"game_id":440,"stv_port":27036,"stv_name":"Uncletopia | Los Angeles | 3 | All Maps | STV","players":null},{"server_id":25,"name":"Uncletopia | Los Angeles | 4 | Stopwatch","name_short":"lax-4","host":"lax-1.us.uncletopia.com","port":27045,"enabled":true,"region":"us-west","cc":"us","latitude":33.94279,"longitude":-118.41004,"reserved":0,"last_update":"0001-01-01T00:00:00Z","name_a2s":"Uncletopia | Los Angeles | 4 | Stopwatch","protocol":17,"map":"workshop/koth_product_final.ugc454272353","folder":"tf","game":"Team Fortress","app_id":440,"player_count":5,"max_players":24,"Bots":0,"server_type":"Dedicated","server_os":"Linux","password":true,"vac":true,"version":"7961495","steam_id":85568392924510199,"keywords":["cp","nocrits","nodmgspread","uncletopia"],"game_id":440,"stv_port":27046,"stv_name":"Uncletopia | Los Angeles | 4 | Stopwatch | STV","players":[{"user_id":7,"name":"Cowboyfos","steam_id":76561199055740230,"connected_time":1639000000000,"state":"active","ping":47},{"user_id":5,"name":"tigermouse1939","steam_id":76561199078976251,"connected_time":1669000000000,"state":"active","ping":76},{"user_id":6,"name":"FlexTape","steam_id":76561198871834867,"connected_time":1663000000000,"state":"active","ping":75},{"user_id":8,"name":"MirrorsAreScary","steam_id":76561198860505587,"connected_time":1612000000000,"state":"active","ping":88},{"user_id":9,"name":"cowgirlfos","steam_id":76561199467764239,"connected_time":1216000000000,"state":"active","ping":119}]},{"server_id":11,"name":"Uncletopia | London | 1 | All Maps","name_short":"lon-1","host":"lon-1.uk.uncletopia.com","port":27015,"enabled":true,"region":"eu","cc":"gb","latitude":51.509865,"longitude":-0.118092,"reserved":0,"last_update":"0001-01-01T00:00:00Z","name_a2s":"Uncletopia | London | 1 | All Maps","protocol":17,"map":"pl_frontier_final","folder":"tf","game":"Team Fortress","app_id":440,"player_count":24,"max_players":24,"Bots":0,"server_type":"Dedicated","server_os":"Linux","password":true,"vac":true,"version":"7961495","steam_id":85568392924367362,"keywords":["nocrits","nodmgspread","payload","uncletopia"],"game_id":440,"stv_port":27016,"stv_name":"Uncletopia | London | 1 | All Maps | STV","players":[{"user_id":735,"name":"Kowalski Gaming","steam_id":76561198340935076,"connected_time":2292000000000,"state":"active","ping":65},{"user_id":769,"name":"etc","steam_id":76561197998394797,"connected_time":168000000000,"state":"active","ping":49},{"user_id":766,"name":"Nibbs","steam_id":76561197997903854,"connected_time":430000000000,"state":"active","ping":68},{"user_id":771,"name":"Blax","steam_id":76561198377155387,"connected_time":29000000000,"state":"active","ping":64},{"user_id":765,"name":"Hardlight","steam_id":76561198128064834,"connected_time":526000000000,"state":"active","ping":69},{"user_id":731,"name":"gibb (heLP HELP HELP)","steam_id":76561198074097655,"connected_time":2846000000000,"state":"active","ping":92},{"user_id":738,"name":"ColdGaming87","steam_id":76561198351431631,"connected_time":2137000000000,"state":"active","ping":53},{"user_id":700,"name":"RubyTheUnicorn","steam_id":76561198091772218,"connected_time":5408000000000,"state":"active","ping":60},{"user_id":758,"name":"Anri Okita's Massive Milkers","steam_id":76561199186352720,"connected_time":1073000000000,"state":"active","ping":46},{"user_id":739,"name":"soil.dirt.earth","steam_id":76561198014377623,"connected_time":2085000000000,"state":"active","ping":33},{"user_id":744,"name":"GunGuy","steam_id":76561198124510978,"connected_time":1668000000000,"state":"active","ping":42},{"user_id":741,"name":"Schwerer Panzerspähwagen","steam_id":76561199062437546,"connected_time":2019000000000,"state":"active","ping":54},{"user_id":763,"name":"BreadBubbles","steam_id":76561198174332826,"connected_time":679000000000,"state":"active","ping":60},{"user_id":770,"name":"Speed-Dial","steam_id":76561198012428315,"connected_time":81000000000,"state":"active","ping":53},{"user_id":764,"name":"Vince","steam_id":76561199103000131,"connected_time":622000000000,"state":"active","ping":44},{"user_id":746,"name":"Phalcon","steam_id":76561197987051394,"connected_time":1640000000000,"state":"active","ping":78},{"user_id":747,"name":"DarthMurloc_OW","steam_id":76561198075577711,"connected_time":1637000000000,"state":"active","ping":90},{"user_id":705,"name":"teddy","steam_id":76561198007436837,"connected_time":4831000000000,"state":"active","ping":44},{"user_id":767,"name":"Gry","steam_id":76561198053961616,"connected_time":304000000000,"state":"active","ping":53},{"user_id":686,"name":"Steen","steam_id":76561198122992510,"connected_time":6409000000000,"state":"active","ping":49},{"user_id":759,"name":"JayK","steam_id":76561198046277492,"connected_time":1064000000000,"state":"active","ping":75},{"user_id":749,"name":"big bug buttz","steam_id":76561198115106008,"connected_time":1583000000000,"state":"active","ping":49},{"user_id":750,"name":"mfw0071","steam_id":76561198111713446,"connected_time":1574000000000,"state":"active","ping":47},{"user_id":751,"name":"PeskyPlumber","steam_id":76561198241999094,"connected_time":1574000000000,"state":"active","ping":44}]},{"server_id":114,"name":"Uncletopia | London | 2 | All Maps","name_short":"lon-2","host":"lon-1.uk.uncletopia.com","port":27025,"enabled":true,"region":"eu","cc":"gb","latitude":51.509865,"longitude":-0.118092,"reserved":0,"last_update":"0001-01-01T00:00:00Z","name_a2s":"Uncletopia | London | 2 | All Maps","protocol":17,"map":"koth_lakeside_final","folder":"tf","game":"Team Fortress","app_id":440,"player_count":0,"max_players":24,"Bots":0,"server_type":"Dedicated","server_os":"Linux","password":true,"vac":true,"version":"7961495","steam_id":85568392924470941,"keywords":["cp","nocrits","nodmgspread","uncletopia"],"game_id":440,"stv_port":27026,"stv_name":"Uncletopia | London | 2 | All Maps | STV","players":null},{"server_id":320,"name":"Uncletopia | London | 3 | All Maps","name_short":"lon-3","host":"lon-1.uk.uncletopia.com","port":27035,"enabled":true,"region":"eu","cc":"gb","latitude":51.509865,"longitude":-0.118092,"reserved":0,"last_update":"0001-01-01T00:00:00Z","name_a2s":"Uncletopia | London | 3 | All Maps","protocol":17,"map":"cp_mountainlab","folder":"tf","game":"Team Fortress","app_id":440,"player_count":0,"max_players":24,"Bots":0,"server_type":"Dedicated","server_os":"Linux","password":true,"vac":true,"version":"7961495","steam_id":85568392924510192,"keywords":["cp","nocrits","nodmgspread","uncletopia"],"game_id":440,"stv_port":27036,"stv_name":"Uncletopia | London | 3 | All Maps | STV","players":null},{"server_id":321,"name":"Uncletopia | London | 4 | All Maps","name_short":"lon-4","host":"lon-1.uk.uncletopia.com","port":27045,"enabled":true,"region":"eu","cc":"gb","latitude":51.509865,"longitude":-0.118092,"reserved":0,"last_update":"0001-01-01T00:00:00Z","name_a2s":"Uncletopia | London | 4 | All Maps","protocol":17,"map":"cp_sunshine","folder":"tf","game":"Team Fortress","app_id":440,"player_count":4,"max_players":24,"Bots":0,"server_type":"Dedicated","server_os":"Linux","password":true,"vac":true,"version":"7961495","steam_id":85568392924510193,"keywords":["cp","nocrits","nodmgspread","uncletopia"],"game_id":440,"stv_port":27046,"stv_name":"Uncletopia | London | 4 | All Maps | STV","players":[{"user_id":196,"name":"badmanting155","steam_id":76561198174026262,"connected_time":1317000000000,"state":"active","ping":45},{"user_id":214,"name":"CreepyYellowDuck","steam_id":76561198000479387,"connected_time":221000000000,"state":"active","ping":31},{"user_id":216,"name":"gitlitwitit","steam_id":76561197980019054,"connected_time":151000000000,"state":"active","ping":60},{"user_id":183,"name":"Venwood","steam_id":76561198126973175,"connected_time":2275000000000,"state":"active","ping":45}]},{"server_id":21,"name":"Uncletopia | London | 5 | All Maps","name_short":"lon-5","host":"lon-1.uk.uncletopia.com","port":27055,"enabled":true,"region":"eu","cc":"gb","latitude":51.509865,"longitude":-0.118092,"reserved":0,"last_update":"0001-01-01T00:00:00Z","name_a2s":"Uncletopia | London | 5 | All Maps","protocol":17,"map":"cp_dustbowl","folder":"tf","game":"Team Fortress","app_id":440,"player_count":24,"max_players":24,"Bots":0,"server_type":"Dedicated","server_os":"Linux","password":true,"vac":true,"version":"7961495","steam_id":85568392924742829,"keywords":["cp","nocrits","nodmgspread","uncletopia"],"game_id":440,"stv_port":27056,"stv_name":"Uncletopia | London | 5 | All Maps | STV","players":[{"user_id":655,"name":"Joboul","steam_id":76561198148699805,"connected_time":3435000000000,"state":"active","ping":44},{"user_id":610,"name":"HilldogGaming♛","steam_id":76561198082209322,"connected_time":7736000000000,"state":"active","ping":92},{"user_id":650,"name":"travis","steam_id":76561198138119811,"connected_time":3734000000000,"state":"active","ping":45},{"user_id":626,"name":"fence_","steam_id":76561198150386379,"connected_time":6523000000000,"state":"active","ping":47},{"user_id":675,"name":"\u003cCH\u003e λ T T O S Z","steam_id":76561198043438734,"connected_time":1779000000000,"state":"active","ping":73},{"user_id":671,"name":"giclure :;","steam_id":76561197986362828,"connected_time":2391000000000,"state":"active","ping":90},{"user_id":659,"name":"Milfshake","steam_id":76561198208740557,"connected_time":3151000000000,"state":"active","ping":61},{"user_id":634,"name":"Grogon","steam_id":76561198203300218,"connected_time":5715000000000,"state":"active","ping":55},{"user_id":658,"name":"willus212","steam_id":76561199182615246,"connected_time":3214000000000,"state":"active","ping":83},{"user_id":680,"name":"Scuffed katana+9 PvP stones+4","steam_id":76561199375170916,"connected_time":606000000000,"state":"active","ping":121},{"user_id":635,"name":"High Setting Rice Cooker","steam_id":76561198060638325,"connected_time":5701000000000,"state":"active","ping":48},{"user_id":661,"name":"Owie!!!","steam_id":76561198215391429,"connected_time":3124000000000,"state":"active","ping":44},{"user_id":679,"name":"C.I.","steam_id":76561197972438196,"connected_time":668000000000,"state":"active","ping":47},{"user_id":663,"name":"Edla","steam_id":76561198062815315,"connected_time":3041000000000,"state":"active","ping":123},{"user_id":681,"name":"Enda","steam_id":76561198202980164,"connected_time":213000000000,"state":"active","ping":115},{"user_id":667,"name":"Sang","steam_id":76561198008510868,"connected_time":2825000000000,"state":"active","ping":73},{"user_id":676,"name":"v0ddo","steam_id":76561198092745537,"connected_time":1732000000000,"state":"active","ping":48},{"user_id":665,"name":"angry russian man","steam_id":76561198386712795,"connected_time":2947000000000,"state":"active","ping":50},{"user_id":582,"name":"The Subway Scientist","steam_id":76561198193757646,"connected_time":10075000000000,"state":"active","ping":46},{"user_id":677,"name":"NIKOLAbree123","steam_id":76561198247037348,"connected_time":803000000000,"state":"active","ping":81},{"user_id":674,"name":"Lewylow","steam_id":76561198005425686,"connected_time":1857000000000,"state":"active","ping":57},{"user_id":654,"name":"Isaac Boush","steam_id":76561198179746529,"connected_time":3604000000000,"state":"active","ping":81},{"user_id":672,"name":"HazelForest","steam_id":76561198171827033,"connected_time":2307000000000,"state":"active","ping":52},{"user_id":631,"name":"Silverdarlin","steam_id":76561198118540970,"connected_time":5962000000000,"state":"active","ping":54}]},{"server_id":22,"name":"Uncletopia | London | 6 | All Maps","name_short":"lon-6","host":"lon-1.uk.uncletopia.com","port":27065,"enabled":true,"region":"eu","cc":"gb","latitude":51.509865,"longitude":-0.118092,"reserved":0,"last_update":"0001-01-01T00:00:00Z","name_a2s":"Uncletopia | London | 6 | All Maps","protocol":17,"map":"pl_pier","folder":"tf","game":"Team Fortress","app_id":440,"player_count":0,"max_players":24,"Bots":0,"server_type":"Dedicated","server_os":"Linux","password":true,"vac":true,"version":"7961495","steam_id":85568392924742830,"keywords":["nocrits","nodmgspread","payload","uncletopia"],"game_id":440,"stv_port":27066,"stv_name":"Uncletopia | London | 6 | All Maps | STV","players":null},{"server_id":40,"name":"Uncletopia | London | 7 | Stopwatch","name_short":"lon-7","host":"lon-1.uk.uncletopia.com","port":27075,"enabled":true,"region":"eu","cc":"gb","latitude":51.509865,"longitude":-0.118092,"reserved":0,"last_update":"0001-01-01T00:00:00Z","name_a2s":"Uncletopia | London | 7 | Stopwatch","protocol":17,"map":"workshop/koth_clearcut_b15.ugc2107050255","folder":"tf","game":"Team Fortress","app_id":440,"player_count":0,"max_players":24,"Bots":0,"server_type":"Dedicated","server_os":"Linux","password":true,"vac":true,"version":"7961495","steam_id":85568392924964314,"keywords":["cp","nocrits","nodmgspread","uncletopia"],"game_id":440,"stv_port":27076,"stv_name":"Uncletopia | London | 7 | Stopwatch | STV","players":null},{"server_id":41,"name":"Uncletopia | London | 8 | Community","name_short":"lon-8","host":"lon-1.uk.uncletopia.com","port":27085,"enabled":true,"region":"eu","cc":"gb","latitude":51.509865,"longitude":-0.118092,"reserved":0,"last_update":"0001-01-01T00:00:00Z","name_a2s":"Uncletopia | London | 8 | Community","protocol":17,"map":"workshop/pl_shoreleave_rc2.ugc1238849347","folder":"tf","game":"Team Fortress","app_id":440,"player_count":0,"max_players":24,"Bots":0,"server_type":"Dedicated","server_os":"Linux","password":true,"vac":true,"version":"7961495","steam_id":85568392924964315,"keywords":["nocrits","nodmgspread","payload","uncletopia"],"game_id":440,"stv_port":27086,"stv_name":"Uncletopia | London | 8 | Community | STV","players":null},{"server_id":300,"name":"Uncletopia | Montréal | 1 | One Thousand Uncles","name_short":"mtl-1","host":"mtl-1.ca.uncletopia.com","port":27015,"enabled":true,"region":"us-east","cc":"ca","latitude":45.50889,"longitude":-73.56167,"reserved":0,"last_update":"0001-01-01T00:00:00Z","name_a2s":"Uncletopia | Montréal | 1 | One Thousand Uncles","protocol":17,"map":"cp_mercenarypark","folder":"tf","game":"Team Fortress","app_id":440,"player_count":32,"max_players":32,"Bots":20,"server_type":"Dedicated","server_os":"Linux","password":true,"vac":true,"version":"7961495","steam_id":85568392924500087,"keywords":["alltalk","bots","cp","danepve","increased_maxplayers","norespawntime","uncletopia"],"game_id":440,"stv_port":0,"stv_name":"","players":[{"user_id":297,"name":"hämis","steam_id":76561198089616341,"connected_time":3934000000000,"state":"active","ping":65},{"user_id":307,"name":"Presidential Gaming","steam_id":76561198378380956,"connected_time":1153000000000,"state":"active","ping":75},{"user_id":296,"name":"Wooper","steam_id":76561198047491931,"connected_time":3943000000000,"state":"active","ping":50},{"user_id":301,"name":"rofflehouse","steam_id":76561198090470768,"connected_time":3260000000000,"state":"active","ping":61},{"user_id":291,"name":"Flappus","steam_id":76561198857949632,"connected_time":4908000000000,"state":"active","ping":68},{"user_id":292,"name":"The Skyfoogle","steam_id":76561198797090812,"connected_time":4842000000000,"state":"active","ping":98},{"user_id":281,"name":"Jamu ⚣","steam_id":76561198070013394,"connected_time":8591000000000,"state":"active","ping":143},{"user_id":303,"name":"CyMeryy","steam_id":76561197984986540,"connected_time":1996000000000,"state":"active","ping":81},{"user_id":311,"name":"KindlyRaze","steam_id":76561198159660970,"connected_time":402000000000,"state":"active","ping":135},{"user_id":250,"name":"Miss Steelheart","steam_id":76561198132562365,"connected_time":10384000000000,"state":"active","ping":134},{"user_id":312,"name":"Healing Weapons Guy","steam_id":76561198005608047,"connected_time":60000000000,"state":"active","ping":89},{"user_id":309,"name":"Kiervce","steam_id":76561199175427371,"connected_time":1059000000000,"state":"active","ping":58}]},{"server_id":301,"name":"Uncletopia | Montréal | 2 | One Thousand Uncles","name_short":"mtl-2","host":"mtl-1.ca.uncletopia.com","port":27025,"enabled":true,"region":"us-east","cc":"ca","latitude":45.50889,"longitude":-73.56167,"reserved":0,"last_update":"0001-01-01T00:00:00Z","name_a2s":"Uncletopia | Montréal | 2 | One Thousand Uncles","protocol":17,"map":"cp_mossrock","folder":"tf","game":"Team Fortress","app_id":440,"player_count":0,"max_players":32,"Bots":0,"server_type":"Dedicated","server_os":"Linux","password":true,"vac":true,"version":"7961495","steam_id":85568392924500088,"keywords":["alltalk","cp","danepve","increased_maxplayers","norespawntime","uncletopia"],"game_id":440,"stv_port":0,"stv_name":"","players":null},{"server_id":302,"name":"Uncletopia | Montréal | 3 | One Thousand Uncles","name_short":"mtl-3","host":"mtl-1.ca.uncletopia.com","port":27035,"enabled":true,"region":"us-east","cc":"ca","latitude":45.50889,"longitude":-73.56167,"reserved":0,"last_update":"0001-01-01T00:00:00Z","name_a2s":"Uncletopia | Montréal | 3 | One Thousand Uncles","protocol":17,"map":"pl_badwater","folder":"tf","game":"Team Fortress","app_id":440,"player_count":22,"max_players":32,"Bots":20,"server_type":"Dedicated","server_os":"Linux","password":true,"vac":true,"version":"7961495","steam_id":85568392924500089,"keywords":["alltalk","bots","danepve","increased_maxplayers","norespawntime","payload","uncletopia"],"game_id":440,"stv_port":0,"stv_name":"","players":[{"user_id":177,"name":"sayed951","steam_id":76561199184749202,"connected_time":591000000000,"state":"active","ping":84},{"user_id":181,"name":"DeepDive","steam_id":76561198140542184,"connected_time":546000000000,"state":"active","ping":52}]},{"server_id":13,"name":"Uncletopia | New York City | 1 | All Maps","name_short":"nyc-1","host":"nyc-1.us.uncletopia.com","port":27015,"enabled":true,"region":"us-east","cc":"us","latitude":40.73061,"longitude":-73.93524,"reserved":0,"last_update":"0001-01-01T00:00:00Z","name_a2s":"Uncletopia | New York City | 1 | All Maps","protocol":17,"map":"pl_snowycoast","folder":"tf","game":"Team Fortress","app_id":440,"player_count":21,"max_players":24,"Bots":0,"server_type":"Dedicated","server_os":"Linux","password":true,"vac":true,"version":"7961495","steam_id":85568392924469993,"keywords":["nocrits","nodmgspread","payload","uncletopia"],"game_id":440,"stv_port":27016,"stv_name":"Uncletopia | New York City | 1 | All Maps | STV","players":[{"user_id":541,"name":"Flare rust mode","steam_id":76561198048291891,"connected_time":1780000000000,"state":"active","ping":53},{"user_id":576,"name":"Bulk","steam_id":76561199009814535,"connected_time":103000000000,"state":"active","ping":55},{"user_id":577,"name":"WiLLmaTiC","steam_id":76561198017684173,"connected_time":102000000000,"state":"active","ping":47},{"user_id":515,"name":"playing tf2 while driving","steam_id":76561198007494744,"connected_time":3978000000000,"state":"active","ping":135},{"user_id":571,"name":"Tokyo_Timeshift_","steam_id":76561198048677523,"connected_time":415000000000,"state":"active","ping":61},{"user_id":575,"name":"sin[phonies]","steam_id":76561198141700569,"connected_time":129000000000,"state":"active","ping":59},{"user_id":578,"name":"Wizard Robe Caught in Lathe","steam_id":76561198067994868,"connected_time":77000000000,"state":"active","ping":83},{"user_id":560,"name":"Shmig","steam_id":76561199039358883,"connected_time":1097000000000,"state":"active","ping":132},{"user_id":527,"name":"CDBeans","steam_id":76561198046990367,"connected_time":2781000000000,"state":"active","ping":83},{"user_id":574,"name":"HungryPenguin","steam_id":76561198039803880,"connected_time":166000000000,"state":"active","ping":49},{"user_id":544,"name":"CRAZY engineer","steam_id":76561198887937902,"connected_time":1740000000000,"state":"active","ping":52},{"user_id":554,"name":"Cup # 17","steam_id":76561198132633180,"connected_time":1447000000000,"state":"active","ping":60},{"user_id":579,"name":"N4G4S4K1 1S K4RK4L1C1OUS","steam_id":76561199031772797,"connected_time":48000000000,"state":"active","ping":78},{"user_id":573,"name":"Telomerase","steam_id":76561198095792685,"connected_time":177000000000,"state":"active","ping":63},{"user_id":561,"name":"Zero1010110","steam_id":76561198004526109,"connected_time":1044000000000,"state":"active","ping":86},{"user_id":566,"name":"777","steam_id":76561198277163301,"connected_time":842000000000,"state":"active","ping":75},{"user_id":549,"name":"snezhnaya","steam_id":76561198076395081,"connected_time":1556000000000,"state":"active","ping":106},{"user_id":567,"name":"ArcticTone","steam_id":76561199163932146,"connected_time":821000000000,"state":"active","ping":52},{"user_id":552,"name":"FlyawayFever1","steam_id":76561198349977724,"connected_time":1533000000000,"state":"active","ping":106},{"user_id":511,"name":"MajorSatan","steam_id":76561198363814803,"connected_time":4202000000000,"state":"active","ping":81},{"user_id":562,"name":"Kartyac","steam_id":76561197991069005,"connected_time":1015000000000,"state":"active","ping":63}]},{"server_id":14,"name":"Uncletopia | New York City | 2 | All Maps","name_short":"nyc-2","host":"nyc-1.us.uncletopia.com","port":27025,"enabled":true,"region":"us-east","cc":"us","latitude":40.73061,"longitude":-73.93524,"reserved":0,"last_update":"0001-01-01T00:00:00Z","name_a2s":"Uncletopia | New York City | 2 | All Maps","protocol":17,"map":"pl_snowycoast","folder":"tf","game":"Team Fortress","app_id":440,"player_count":24,"max_players":24,"Bots":0,"server_type":"Dedicated","server_os":"Linux","password":true,"vac":true,"version":"7961495","steam_id":85568392924469994,"keywords":["nocrits","nodmgspread","payload","uncletopia"],"game_id":440,"stv_port":27026,"stv_name":"Uncletopia | New York City | 2 | All Maps | STV","players":[{"user_id":500,"name":"icecxld","steam_id":76561198079018805,"connected_time":794000000000,"state":"active","ping":83},{"user_id":472,"name":"tinklewad","steam_id":76561199163994760,"connected_time":2646000000000,"state":"active","ping":78},{"user_id":501,"name":"Dashh","steam_id":76561198398923537,"connected_time":377000000000,"state":"active","ping":81},{"user_id":478,"name":"F2P Rights Activist","steam_id":76561199012786293,"connected_time":2345000000000,"state":"active","ping":100},{"user_id":489,"name":"Temmie500","steam_id":76561199067942631,"connected_time":1550000000000,"state":"active","ping":96},{"user_id":475,"name":"Agent Scootyboots (SM","steam_id":76561198092361093,"connected_time":2502000000000,"state":"active","ping":65},{"user_id":466,"name":"DiscoTraveler","steam_id":76561199240168088,"connected_time":2961000000000,"state":"active","ping":54},{"user_id":450,"name":"D(b) Hell","steam_id":76561198067869016,"connected_time":4647000000000,"state":"active","ping":61},{"user_id":502,"name":"trayer","steam_id":76561198050729672,"connected_time":342000000000,"state":"active","ping":51},{"user_id":497,"name":"Shack","steam_id":76561198035503322,"connected_time":1245000000000,"state":"active","ping":61},{"user_id":503,"name":"CS 246 - Object Oriented Softwa","steam_id":76561198106967427,"connected_time":133000000000,"state":"active","ping":60},{"user_id":492,"name":"Ikari","steam_id":76561198881674956,"connected_time":1489000000000,"state":"active","ping":62},{"user_id":504,"name":"Fishybros","steam_id":76561198182045699,"connected_time":56000000000,"state":"active","ping":54},{"user_id":471,"name":"Sleeps","steam_id":76561199070343763,"connected_time":2668000000000,"state":"active","ping":104},{"user_id":473,"name":"MunchyApple","steam_id":76561198984745247,"connected_time":2634000000000,"state":"active","ping":92},{"user_id":480,"name":"hgvgdwa","steam_id":76561198156499356,"connected_time":2234000000000,"state":"active","ping":146},{"user_id":481,"name":"shrrrk","steam_id":76561198006029693,"connected_time":2103000000000,"state":"active","ping":101},{"user_id":482,"name":"DaPiͯnkiͦ̚e","steam_id":76561198022362795,"connected_time":2078000000000,"state":"active","ping":87},{"user_id":483,"name":"Atomic West","steam_id":76561197995038281,"connected_time":2063000000000,"state":"active","ping":121},{"user_id":484,"name":"astrobob911","steam_id":76561199099110654,"connected_time":2046000000000,"state":"active","ping":76},{"user_id":498,"name":"BreezeDanish","steam_id":76561198029758057,"connected_time":1193000000000,"state":"active","ping":77},{"user_id":499,"name":"BooceMaster","steam_id":76561198148520318,"connected_time":893000000000,"state":"active","ping":45},{"user_id":487,"name":"marrimae","steam_id":76561198077579990,"connected_time":2012000000000,"state":"active","ping":165},{"user_id":494,"name":"Rori","steam_id":76561198052582902,"connected_time":1450000000000,"state":"active","ping":45}]},{"server_id":15,"name":"Uncletopia | New York City | 3 | Stopwatch","name_short":"nyc-3","host":"nyc-1.us.uncletopia.com","port":27035,"enabled":true,"region":"us-east","cc":"us","latitude":40.73061,"longitude":-73.93524,"reserved":0,"last_update":"0001-01-01T00:00:00Z","name_a2s":"Uncletopia | New York City | 3 | Stopwatch","protocol":17,"map":"workshop/koth_jamram_rc1a.ugc2964065613","folder":"tf","game":"Team Fortress","app_id":440,"player_count":0,"max_players":24,"Bots":0,"server_type":"Dedicated","server_os":"Linux","password":true,"vac":true,"version":"7961495","steam_id":85568392924742820,"keywords":["cp","nocrits","nodmgspread","uncletopia"],"game_id":440,"stv_port":27036,"stv_name":"Uncletopia | New York City | 3 | Stopwatch | STV","players":null},{"server_id":16,"name":"Uncletopia | New York City | 4 | Community","name_short":"nyc-4","host":"nyc-1.us.uncletopia.com","port":27045,"enabled":true,"region":"us-east","cc":"us","latitude":40.73061,"longitude":-73.93524,"reserved":0,"last_update":"0001-01-01T00:00:00Z","name_a2s":"Uncletopia | New York City | 4 | Community","protocol":17,"map":"workshop/cp_bruhstbowl_b6.ugc2878604990","folder":"tf","game":"Team Fortress","app_id":440,"player_count":0,"max_players":24,"Bots":0,"server_type":"Dedicated","server_os":"Linux","password":true,"vac":true,"version":"7961495","steam_id":85568392924742821,"keywords":["cp","nocrits","nodmgspread","uncletopia"],"game_id":440,"stv_port":27046,"stv_name":"Uncletopia | New York City | 4 | Community | STV","players":null},{"server_id":142,"name":"Uncletopia | São Paulo | 1 | All Maps","name_short":"sao-1","host":"sao-1.br.uncletopia.com","port":27015,"enabled":true,"region":"sa","cc":"br","latitude":-23.533773,"longitude":-46.62529,"reserved":0,"last_update":"0001-01-01T00:00:00Z","name_a2s":"Uncletopia | São Paulo | 1 | All Maps","protocol":17,"map":"cp_process_final","folder":"tf","game":"Team Fortress","app_id":440,"player_count":0,"max_players":24,"Bots":0,"server_type":"Dedicated","server_os":"Linux","password":true,"vac":true,"version":"7961495","steam_id":85568392924469996,"keywords":["cp","nocrits","nodmgspread","uncletopia"],"game_id":440,"stv_port":27016,"stv_name":"Uncletopia | São Paulo | 1 | All Maps | STV","players":null},{"server_id":143,"name":"Uncletopia | São Paulo | 2 | Community","name_short":"sao-2","host":"sao-2.br.uncletopia.com","port":27015,"enabled":true,"region":"sa","cc":"br","latitude":-23.533773,"longitude":-46.62529,"reserved":0,"last_update":"0001-01-01T00:00:00Z","name_a2s":"Uncletopia | São Paulo | 2 | Community","protocol":17,"map":"workshop/cp_sulfur_rc2.ugc619869471","folder":"tf","game":"Team Fortress","app_id":440,"player_count":2,"max_players":24,"Bots":0,"server_type":"Dedicated","server_os":"Linux","password":true,"vac":true,"version":"7961495","steam_id":85568392924485349,"keywords":["cp","nocrits","nodmgspread","uncletopia"],"game_id":440,"stv_port":27016,"stv_name":"Uncletopia | São Paulo | 2 | Community | STV","players":[{"user_id":29,"name":"Pablo gaming","steam_id":76561199032426095,"connected_time":2214000000000,"state":"connecting","ping":61},{"user_id":30,"name":"Goiba","steam_id":76561199043686694,"connected_time":2202000000000,"state":"connecting","ping":61}]},{"server_id":7,"name":"Uncletopia | Seattle | 1 | All Maps","name_short":"sea-1","host":"sea-1.us.uncletopia.com","port":27015,"enabled":true,"region":"us-west","cc":"us","latitude":47.608013,"longitude":-122.33517,"reserved":0,"last_update":"0001-01-01T00:00:00Z","name_a2s":"Uncletopia | Seattle | 1 | All Maps","protocol":17,"map":"pl_upward","folder":"tf","game":"Team Fortress","app_id":440,"player_count":24,"max_players":24,"Bots":0,"server_type":"Dedicated","server_os":"Linux","password":true,"vac":true,"version":"7961495","steam_id":85568392924469997,"keywords":["nocrits","nodmgspread","payload","uncletopia"],"game_id":440,"stv_port":27016,"stv_name":"Uncletopia | Seattle | 1 | All Maps | STV","players":[{"user_id":232,"name":"UnusualTofu","steam_id":76561198060103750,"connected_time":1610000000000,"state":"active","ping":84},{"user_id":251,"name":"Keamy","steam_id":76561199471434875,"connected_time":74000000000,"state":"active","ping":30},{"user_id":219,"name":"Tom Buckle","steam_id":76561198870649125,"connected_time":2966000000000,"state":"active","ping":84},{"user_id":228,"name":"Shit (REAL)","steam_id":76561198206490352,"connected_time":2007000000000,"state":"active","ping":81},{"user_id":247,"name":"Dimple","steam_id":76561198980324190,"connected_time":352000000000,"state":"active","ping":55},{"user_id":237,"name":"ORANGE","steam_id":76561198000401769,"connected_time":1500000000000,"state":"active","ping":50},{"user_id":246,"name":"E_Goat47","steam_id":76561198091877422,"connected_time":508000000000,"state":"active","ping":66},{"user_id":234,"name":"Hazel :3","steam_id":76561199247095754,"connected_time":1579000000000,"state":"active","ping":75},{"user_id":244,"name":"Statewide ballistic booty bandi","steam_id":76561199016837140,"connected_time":1061000000000,"state":"active","ping":74},{"user_id":208,"name":"Dosario","steam_id":76561198298095535,"connected_time":4250000000000,"state":"active","ping":57},{"user_id":231,"name":"-_-","steam_id":76561199190800520,"connected_time":1810000000000,"state":"active","ping":40},{"user_id":230,"name":"DaBigA","steam_id":76561198326492538,"connected_time":1845000000000,"state":"active","ping":47},{"user_id":182,"name":"Banana Man","steam_id":76561199012105803,"connected_time":7149000000000,"state":"active","ping":53},{"user_id":189,"name":"COOL master_9","steam_id":76561198073041151,"connected_time":6186000000000,"state":"active","ping":99},{"user_id":235,"name":"Imitation Caucasian","steam_id":76561198320536166,"connected_time":1577000000000,"state":"active","ping":88},{"user_id":250,"name":"hungry kibten","steam_id":76561198184099558,"connected_time":163000000000,"state":"active","ping":45},{"user_id":214,"name":"joaquiiiin:3","steam_id":76561199142911468,"connected_time":3965000000000,"state":"active","ping":90},{"user_id":242,"name":"Kebab","steam_id":76561198194449091,"connected_time":1270000000000,"state":"active","ping":133},{"user_id":199,"name":"FlexDaddy","steam_id":76561198039724086,"connected_time":5607000000000,"state":"active","ping":87},{"user_id":239,"name":"BLU3","steam_id":76561198059652670,"connected_time":1466000000000,"state":"active","ping":45},{"user_id":229,"name":"lukamine","steam_id":76561198166827208,"connected_time":1996000000000,"state":"active","ping":46},{"user_id":249,"name":"mega","steam_id":76561198089520959,"connected_time":324000000000,"state":"active","ping":77},{"user_id":245,"name":"The Shaq Attack","steam_id":76561198075285534,"connected_time":971000000000,"state":"active","ping":31},{"user_id":248,"name":"w","steam_id":76561197985136420,"connected_time":352000000000,"state":"active","ping":92}]},{"server_id":119,"name":"Uncletopia | Seattle | 2 | All Maps","name_short":"sea-2","host":"sea-1.us.uncletopia.com","port":27025,"enabled":true,"region":"us-west","cc":"us","latitude":47.608013,"longitude":-122.33517,"reserved":0,"last_update":"0001-01-01T00:00:00Z","name_a2s":"Uncletopia | Seattle | 2 | All Maps","protocol":17,"map":"plr_hightower","folder":"tf","game":"Team Fortress","app_id":440,"player_count":16,"max_players":24,"Bots":0,"server_type":"Dedicated","server_os":"Linux","password":true,"vac":true,"version":"7961495","steam_id":85568392924469998,"keywords":["nocrits","nodmgspread","payload","uncletopia"],"game_id":440,"stv_port":27026,"stv_name":"Uncletopia | Seattle | 2 | All Maps | STV","players":[{"user_id":31,"name":"Pyrano","steam_id":76561198841531936,"connected_time":1357000000000,"state":"active","ping":51},{"user_id":20,"name":"DeathcatThor","steam_id":76561199179982061,"connected_time":2056000000000,"state":"active","ping":52},{"user_id":29,"name":"0 Blood Pressure","steam_id":76561199037648021,"connected_time":1399000000000,"state":"active","ping":117},{"user_id":53,"name":"MegaBitmap","steam_id":76561198086027059,"connected_time":178000000000,"state":"active","ping":79},{"user_id":46,"name":"Jacob Deveau","steam_id":76561198997341499,"connected_time":445000000000,"state":"active","ping":107},{"user_id":55,"name":"bobby hill","steam_id":76561198037880530,"connected_time":14000000000,"state":"active","ping":67},{"user_id":45,"name":"EmotreX","steam_id":76561198366518989,"connected_time":510000000000,"state":"active","ping":104},{"user_id":34,"name":"Dog Evaporator","steam_id":76561199015890000,"connected_time":1323000000000,"state":"active","ping":54},{"user_id":36,"name":"bluesasha27","steam_id":76561199121184158,"connected_time":1135000000000,"state":"active","ping":39},{"user_id":37,"name":"purplerosie334","steam_id":76561199491020174,"connected_time":804000000000,"state":"active","ping":91},{"user_id":52,"name":"Muammar Gaddafi","steam_id":76561198137770520,"connected_time":287000000000,"state":"active","ping":46},{"user_id":54,"name":"Bobletoob","steam_id":76561199184464900,"connected_time":168000000000,"state":"active","ping":82},{"user_id":40,"name":"Cobalt-60","steam_id":76561199121908507,"connected_time":745000000000,"state":"active","ping":109},{"user_id":50,"name":"99dentay","steam_id":76561198135771720,"connected_time":325000000000,"state":"active","ping":58},{"user_id":42,"name":"Tautog","steam_id":76561198276310307,"connected_time":602000000000,"state":"active","ping":81},{"user_id":44,"name":"SkobeBeef","steam_id":76561198078638948,"connected_time":545000000000,"state":"active","ping":72}]},{"server_id":406,"name":"Uncletopia | Seattle | 3 | Stopwatch","name_short":"sea-3","host":"sea-1.us.uncletopia.com","port":27035,"enabled":true,"region":"us-west","cc":"us","latitude":47.608013,"longitude":-122.33517,"reserved":0,"last_update":"0001-01-01T00:00:00Z","name_a2s":"Uncletopia | Seattle | 3 | Stopwatch","protocol":17,"map":"cp_granary","folder":"tf","game":"Team Fortress","app_id":440,"player_count":0,"max_players":24,"Bots":0,"server_type":"Dedicated","server_os":"Linux","password":true,"vac":true,"version":"7961495","steam_id":85568392924515217,"keywords":["cp","nocrits","nodmgspread","uncletopia"],"game_id":440,"stv_port":27036,"stv_name":"Uncletopia | Seattle | 3 | Stopwatch | STV","players":null},{"server_id":17,"name":"Uncletopia | San Francisco | 1 | All Maps","name_short":"sfo-1","host":"sfo-1.us.uncletopia.com","port":27015,"enabled":true,"region":"us-west","cc":"us","latitude":37.77397,"longitude":-122.4313,"reserved":0,"last_update":"0001-01-01T00:00:00Z","name_a2s":"Uncletopia | San Francisco | 1 | All Maps","protocol":17,"map":"pl_frontier_final","folder":"tf","game":"Team Fortress","app_id":440,"player_count":0,"max_players":24,"Bots":0,"server_type":"Dedicated","server_os":"Linux","password":true,"vac":true,"version":"7961495","steam_id":85568392924469999,"keywords":["nocrits","nodmgspread","payload","uncletopia"],"game_id":440,"stv_port":27016,"stv_name":"Uncletopia | San Francisco | 1 | All Maps | STV","players":null},{"server_id":18,"name":"Uncletopia | San Francisco | 2 | All Maps","name_short":"sfo-2","host":"sfo-1.us.uncletopia.com","port":27025,"enabled":true,"region":"us-west","cc":"us","latitude":37.77397,"longitude":-122.4313,"reserved":0,"last_update":"0001-01-01T00:00:00Z","name_a2s":"Uncletopia | San Francisco | 2 | All Maps","protocol":17,"map":"cp_gorge","folder":"tf","game":"Team Fortress","app_id":440,"player_count":0,"max_players":24,"Bots":0,"server_type":"Dedicated","server_os":"Linux","password":true,"vac":true,"version":"7961495","steam_id":85568392924470000,"keywords":["cp","nocrits","nodmgspread","uncletopia"],"game_id":440,"stv_port":27026,"stv_name":"Uncletopia | San Francisco | 2 | All Maps | STV","players":null},{"server_id":19,"name":"Uncletopia | San Francisco | 3 | Stopwatch","name_short":"sfo-3","host":"sfo-1.us.uncletopia.com","port":27035,"enabled":true,"region":"us-west","cc":"us","latitude":37.77397,"longitude":-122.4313,"reserved":0,"last_update":"0001-01-01T00:00:00Z","name_a2s":"Uncletopia | San Francisco | 3 | Stopwatch","protocol":17,"map":"pl_swiftwater_final1","folder":"tf","game":"Team Fortress","app_id":440,"player_count":0,"max_players":24,"Bots":0,"server_type":"Dedicated","server_os":"Linux","password":true,"vac":true,"version":"7961495","steam_id":85568392924742824,"keywords":["nocrits","nodmgspread","payload","uncletopia"],"game_id":440,"stv_port":27036,"stv_name":"Uncletopia | San Francisco | 3 | Stopwatch | STV","players":null},{"server_id":20,"name":"Uncletopia | San Francisco | 4 | Community","name_short":"sfo-4","host":"sfo-1.us.uncletopia.com","port":27045,"enabled":true,"region":"us-west","cc":"us","latitude":37.77397,"longitude":-122.4313,"reserved":0,"last_update":"0001-01-01T00:00:00Z","name_a2s":"Uncletopia | San Francisco | 4 | Community","protocol":17,"map":"workshop/pl_fifthcurve_rc1.ugc648227046","folder":"tf","game":"Team Fortress","app_id":440,"player_count":0,"max_players":24,"Bots":0,"server_type":"Dedicated","server_os":"Linux","password":true,"vac":true,"version":"7961495","steam_id":85568392924742826,"keywords":["nocrits","nodmgspread","payload","uncletopia"],"game_id":440,"stv_port":27046,"stv_name":"Uncletopia | San Francisco | 4 | Community | STV","players":null},{"server_id":141,"name":"Uncletopia | Sydney | 1 | All Maps","name_short":"syd-1","host":"syd-1.au.uncletopia.com","port":27015,"enabled":true,"region":"au","cc":"au","latitude":-33.865143,"longitude":151.2099,"reserved":0,"last_update":"0001-01-01T00:00:00Z","name_a2s":"Uncletopia | Sydney | 1 | All Maps","protocol":17,"map":"koth_highpass","folder":"tf","game":"Team Fortress","app_id":440,"player_count":0,"max_players":24,"Bots":0,"server_type":"Dedicated","server_os":"Linux","password":true,"vac":true,"version":"7961495","steam_id":85568392924470001,"keywords":["cp","nocrits","nodmgspread","uncletopia"],"game_id":440,"stv_port":27016,"stv_name":"Uncletopia | Sydney | 1 | All Maps | STV","players":null},{"server_id":123,"name":"Uncletopia | Sydney | 2 | All Maps","name_short":"syd-2","host":"syd-1.au.uncletopia.com","port":27025,"enabled":true,"region":"au","cc":"au","latitude":-33.865143,"longitude":151.2099,"reserved":0,"last_update":"0001-01-01T00:00:00Z","name_a2s":"Uncletopia | Sydney | 2 | All Maps","protocol":17,"map":"cp_mercenarypark","folder":"tf","game":"Team Fortress","app_id":440,"player_count":0,"max_players":24,"Bots":0,"server_type":"Dedicated","server_os":"Linux","password":true,"vac":true,"version":"7961495","steam_id":85568392924470002,"keywords":["cp","nocrits","nodmgspread","uncletopia"],"game_id":440,"stv_port":27026,"stv_name":"Uncletopia | Sydney | 2 | All Maps | STV","players":null},{"server_id":395,"name":"Uncletopia | Sydney | 3 | All Maps","name_short":"syd-3","host":"syd-1.au.uncletopia.com","port":27035,"enabled":true,"region":"au","cc":"au","latitude":-33.865143,"longitude":151.2099,"reserved":0,"last_update":"0001-01-01T00:00:00Z","name_a2s":"Uncletopia | Sydney | 3 | All Maps","protocol":17,"map":"koth_brazil","folder":"tf","game":"Team Fortress","app_id":440,"player_count":0,"max_players":24,"Bots":0,"server_type":"Dedicated","server_os":"Linux","password":true,"vac":true,"version":"7961495","steam_id":85568392925194467,"keywords":["cp","nocrits","nodmgspread","uncletopia"],"game_id":440,"stv_port":27036,"stv_name":"Uncletopia | Sydney | 3 | All Maps | STV","players":null},{"server_id":396,"name":"Uncletopia | Sydney | 4 | All Maps","name_short":"syd-4","host":"syd-1.au.uncletopia.com","port":27045,"enabled":true,"region":"au","cc":"au","latitude":-33.865143,"longitude":151.2099,"reserved":0,"last_update":"0001-01-01T00:00:00Z","name_a2s":"Uncletopia | Sydney | 4 | All Maps","protocol":17,"map":"cp_standin_final","folder":"tf","game":"Team Fortress","app_id":440,"player_count":0,"max_players":24,"Bots":0,"server_type":"Dedicated","server_os":"Linux","password":true,"vac":true,"version":"7961495","steam_id":85568392925397958,"keywords":["cp","nocrits","nodmgspread","uncletopia"],"game_id":440,"stv_port":27046,"stv_name":"Uncletopia | Sydney | 4 | All Maps | STV","players":null},{"server_id":58,"name":"Uncletopia | Sydney | 5 | Stopwatch","name_short":"syd-5","host":"syd-1.au.uncletopia.com","port":27055,"enabled":true,"region":"au","cc":"au","latitude":-33.865143,"longitude":151.2099,"reserved":0,"last_update":"0001-01-01T00:00:00Z","name_a2s":"Uncletopia | Sydney | 5 | Stopwatch","protocol":17,"map":"koth_highpass","folder":"tf","game":"Team Fortress","app_id":440,"player_count":0,"max_players":24,"Bots":0,"server_type":"Dedicated","server_os":"Linux","password":true,"vac":true,"version":"7961495","steam_id":85568392925397959,"keywords":["cp","nocrits","nodmgspread","uncletopia"],"game_id":440,"stv_port":27056,"stv_name":"Uncletopia | Sydney | 5 | Stopwatch | STV","players":null},{"server_id":59,"name":"Uncletopia | Sydney | 6 | Community","name_short":"syd-6","host":"syd-1.au.uncletopia.com","port":27065,"enabled":true,"region":"au","cc":"au","latitude":-33.865143,"longitude":151.2099,"reserved":0,"last_update":"0001-01-01T00:00:00Z","name_a2s":"Uncletopia | Sydney | 6 | Community","protocol":17,"map":"workshop/koth_soot_final1.ugc2969540689","folder":"tf","game":"Team Fortress","app_id":440,"player_count":0,"max_players":24,"Bots":0,"server_type":"Dedicated","server_os":"Linux","password":true,"vac":true,"version":"7961495","steam_id":85568392925397960,"keywords":["cp","nocrits","nodmgspread","uncletopia"],"game_id":440,"stv_port":27066,"stv_name":"Uncletopia | Sydney | 6 | Community | STV","players":null},{"server_id":49,"name":"Uncletopia | Warsaw | 1 | One Thousand Uncles","name_short":"waw-1","host":"waw-1.pl.uncletopia.com","port":27015,"enabled":true,"region":"eu","cc":"pl","latitude":52.2297,"longitude":21.017532,"reserved":0,"last_update":"0001-01-01T00:00:00Z","name_a2s":"Uncletopia | Warsaw | 1 | One Thousand Uncles","protocol":17,"map":"pl_goldrush","folder":"tf","game":"Team Fortress","app_id":440,"player_count":24,"max_players":32,"Bots":20,"server_type":"Dedicated","server_os":"Linux","password":true,"vac":true,"version":"7961495","steam_id":85568392925397850,"keywords":["alltalk","bots","danepve","increased_maxplayers","norespawntime","payload","uncletopia"],"game_id":440,"stv_port":0,"stv_name":"","players":[{"user_id":522,"name":"JMJGAMING971","steam_id":76561199465588292,"connected_time":852000000000,"state":"active","ping":268},{"user_id":523,"name":"THE BIDENATOR","steam_id":76561199402970393,"connected_time":845000000000,"state":"active","ping":188},{"user_id":524,"name":"keybored13","steam_id":76561199124583416,"connected_time":841000000000,"state":"active","ping":174},{"user_id":545,"name":"tyroksi :D","steam_id":76561198103875245,"connected_time":377000000000,"state":"active","ping":116}]},{"server_id":50,"name":"Uncletopia | Warsaw | 2 | One Thousand Uncles","name_short":"waw-2","host":"waw-1.pl.uncletopia.com","port":27025,"enabled":true,"region":"eu","cc":"pl","latitude":52.2297,"longitude":21.017532,"reserved":0,"last_update":"0001-01-01T00:00:00Z","name_a2s":"Uncletopia | Warsaw | 2 | One Thousand Uncles","protocol":17,"map":"pl_barnblitz","folder":"tf","game":"Team Fortress","app_id":440,"player_count":0,"max_players":32,"Bots":0,"server_type":"Dedicated","server_os":"Linux","password":true,"vac":true,"version":"7961495","steam_id":85568392925397851,"keywords":["alltalk","danepve","increased_maxplayers","norespawntime","payload","uncletopia"],"game_id":440,"stv_port":0,"stv_name":"","players":null},{"server_id":51,"name":"Uncletopia | Warsaw | 3 | All Maps","name_short":"waw-3","host":"waw-1.pl.uncletopia.com","port":27035,"enabled":true,"region":"eu","cc":"pl","latitude":52.2297,"longitude":21.017532,"reserved":0,"last_update":"0001-01-01T00:00:00Z","name_a2s":"Uncletopia | Warsaw | 3 | All Maps","protocol":17,"map":"koth_viaduct","folder":"tf","game":"Team Fortress","app_id":440,"player_count":0,"max_players":24,"Bots":0,"server_type":"Dedicated","server_os":"Linux","password":true,"vac":true,"version":"7961495","steam_id":85568392925397852,"keywords":["cp","nocrits","nodmgspread","uncletopia"],"game_id":440,"stv_port":27036,"stv_name":"Uncletopia | Warsaw | 3 | All Maps | STV","players":null},{"server_id":52,"name":"Uncletopia | Warsaw | 4 | All Maps","name_short":"waw-4","host":"waw-1.pl.uncletopia.com","port":27045,"enabled":true,"region":"eu","cc":"pl","latitude":52.2297,"longitude":21.017532,"reserved":0,"last_update":"0001-01-01T00:00:00Z","name_a2s":"Uncletopia | Warsaw | 4 | All Maps","protocol":17,"map":"pl_upward","folder":"tf","game":"Team Fortress","app_id":440,"player_count":0,"max_players":24,"Bots":0,"server_type":"Dedicated","server_os":"Linux","password":true,"vac":true,"version":"7961495","steam_id":85568392925397853,"keywords":["nocrits","nodmgspread","payload","uncletopia"],"game_id":440,"stv_port":27046,"stv_name":"Uncletopia | Warsaw | 4 | All Maps | STV","players":null},{"server_id":53,"name":"Uncletopia | Warsaw | 5 | Stopwatch","name_short":"waw-5","host":"waw-1.pl.uncletopia.com","port":27055,"enabled":true,"region":"eu","cc":"pl","latitude":52.2297,"longitude":21.017532,"reserved":0,"last_update":"0001-01-01T00:00:00Z","name_a2s":"Uncletopia | Warsaw | 5 | Stopwatch","protocol":17,"map":"workshop/koth_product_final.ugc454272353","folder":"tf","game":"Team Fortress","app_id":440,"player_count":0,"max_players":24,"Bots":0,"server_type":"Dedicated","server_os":"Linux","password":true,"vac":true,"version":"7961495","steam_id":85568392925397854,"keywords":["cp","nocrits","nodmgspread","uncletopia"],"game_id":440,"stv_port":27056,"stv_name":"Uncletopia | Warsaw | 5 | Stopwatch | STV","players":null},{"server_id":54,"name":"Uncletopia | Warsaw | 6 | Community","name_short":"waw-6","host":"waw-1.pl.uncletopia.com","port":27065,"enabled":true,"region":"eu","cc":"pl","latitude":52.2297,"longitude":21.017532,"reserved":0,"last_update":"0001-01-01T00:00:00Z","name_a2s":"Uncletopia | Warsaw | 6 | Community","protocol":17,"map":"workshop/cp_fulgur_rc2a.ugc2068252300","folder":"tf","game":"Team Fortress","app_id":440,"player_count":0,"max_players":24,"Bots":0,"server_type":"Dedicated","server_os":"Linux","password":true,"vac":true,"version":"7961495","steam_id":85568392925397856,"keywords":["cp","nocrits","nodmgspread","uncletopia"],"game_id":440,"stv_port":27066,"stv_name":"Uncletopia | Warsaw | 6 | Community | STV","players":null}]}