{"status":true,"message":"","result":[{"server_id":9,"name":"Uncletopia | Atlanta | 1 | All Maps","name_short":"atl-1","host":"atl-1.us.uncletopia.com","port":27015,"enabled":true,"region":"us-east","cc":"us","latitude":33.753746,"longitude":-84.38633,"reserved":0,"last_update":"0001-01-01T00:00:00Z","name_a2s":"Uncletopia | Atlanta | 1 | All Maps","protocol":17,"map":"pl_barnblitz","folder":"tf","game":"Team Fortress","app_id":440,"player_count":24,"max_players":24,"Bots":0,"server_type":"Dedicated","server_os":"Linux","password":true,"vac":true,"version":"7723704","steam_id":85568392924469982,"keywords":["nocrits","nodmgspread","payload","uncletopia"],"game_id":440,"stv_port":27016,"stv_name":"Uncletopia | Atlanta | 1 | All Maps | STV","players":[{"user_id":334,"name":"Burilo","steam_id":76561198014445055,"connected_time":2696000000000,"state":"active","ping":166},{"user_id":360,"name":"Lusa","steam_id":76561199435564731,"connected_time":623000000000,"state":"active","ping":181},{"user_id":333,"name":"gh0st","steam_id":76561198078168885,"connected_time":2789000000000,"state":"active","ping":68},{"user_id":340,"name":"extremely used sock","steam_id":76561199104396911,"connected_time":2168000000000,"state":"active","ping":68},{"user_id":357,"name":"Pixler544","steam_id":76561198240575132,"connected_time":992000000000,"state":"active","ping":70},{"user_id":348,"name":"SeaBass","steam_id":76561198278914206,"connected_time":1511000000000,"state":"active","ping":72},{"user_id":355,"name":"RodWick","steam_id":76561198996652228,"connected_time":1025000000000,"state":"active","ping":80},{"user_id":362,"name":"Internetexplorer","steam_id":76561198405105664,"connected_time":398000000000,"state":"active","ping":92},{"user_id":339,"name":"Whizzo the Clown","steam_id":76561197995910627,"connected_time":2297000000000,"state":"active","ping":76},{"user_id":300,"name":"Cirno","steam_id":76561198283602302,"connected_time":5017000000000,"state":"active","ping":35},{"user_id":361,"name":"Marc G","steam_id":76561198062650363,"connected_time":477000000000,"state":"active","ping":76},{"user_id":139,"name":"Seru","steam_id":76561199219827214,"connected_time":8244000000000,"state":"active","ping":78},{"user_id":341,"name":"amagicowl","steam_id":76561199060487814,"connected_time":2159000000000,"state":"active","ping":95},{"user_id":344,"name":"Smuggs","steam_id":76561197999456003,"connected_time":2036000000000,"state":"active","ping":127},{"user_id":319,"name":"Ziggy","steam_id":76561198355577506,"connected_time":3706000000000,"state":"active","ping":55},{"user_id":330,"name":"Doot Doola Doot Doo","steam_id":76561198389823593,"connected_time":2990000000000,"state":"active","ping":61},{"user_id":365,"name":"jae are","steam_id":76561198027906463,"connected_time":346000000000,"state":"active","ping":69},{"user_id":347,"name":"VidzCMC","steam_id":76561198848142973,"connected_time":1791000000000,"state":"active","ping":64},{"user_id":336,"name":"Fishstall","steam_id":76561198038126034,"connected_time":2645000000000,"state":"active","ping":87},{"user_id":350,"name":"vid_","steam_id":76561198065159053,"connected_time":1120000000000,"state":"active","ping":48},{"user_id":123,"name":"Slowth","steam_id":76561198093849916,"connected_time":9652000000000,"state":"active","ping":84},{"user_id":364,"name":"crit","steam_id":76561198813574552,"connected_time":370000000000,"state":"active","ping":47},{"user_id":366,"name":"raphyy\"","steam_id":76561197997207768,"connected_time":345000000000,"state":"active","ping":135},{"user_id":270,"name":"Nyle","steam_id":76561198045652639,"connected_time":5688000000000,"state":"active","ping":119}]},{"server_id":400,"name":"Uncletopia | Atlanta | 3 | Stopwatch Beta","name_short":"atl-3","host":"atl-1.us.uncletopia.com","port":27035,"enabled":true,"region":"us-east","cc":"us","latitude":33.753746,"longitude":-84.38633,"reserved":0,"last_update":"0001-01-01T00:00:00Z","name_a2s":"Uncletopia | Atlanta | 3 | Stopwatch Beta","protocol":17,"map":"koth_cascade","folder":"tf","game":"Team Fortress","app_id":440,"player_count":0,"max_players":24,"Bots":0,"server_type":"Dedicated","server_os":"Linux","password":true,"vac":true,"version":"7723704","steam_id":85568392924515187,"keywords":["cp","nocrits","nodmgspread","uncletopia"],"game_id":440,"stv_port":27036,"stv_name":"Uncletopia | Atlanta | 3 | Stopwatch Beta | STV","players":null},{"server_id":401,"name":"Uncletopia | Atlanta | 4 | No Payload","name_short":"atl-4","host":"atl-1.us.uncletopia.com","port":27045,"enabled":true,"region":"us-east","cc":"us","latitude":33.753746,"longitude":-84.38633,"reserved":0,"last_update":"0001-01-01T00:00:00Z","name_a2s":"Uncletopia | Atlanta | 4 | No Payload","protocol":17,"map":"pl_pier","folder":"tf","game":"Team Fortress","app_id":440,"player_count":0,"max_players":24,"Bots":0,"server_type":"Dedicated","server_os":"Linux","password":true,"vac":true,"version":"7723704","steam_id":85568392924515188,"keywords":["nocrits","nodmgspread","payload","uncletopia"],"game_id":440,"stv_port":27046,"stv_name":"Uncletopia | Atlanta | 4 | No Payload | STV","players":null},{"server_id":2,"name":"Uncletopia | Chicago | 1 | All Maps","name_short":"chi-1","host":"chi-1.us.uncletopia.com","port":27015,"enabled":true,"region":"us-central","cc":"us","latitude":41.881832,"longitude":-87.62318,"reserved":0,"last_update":"0001-01-01T00:00:00Z","name_a2s":"Uncletopia | Chicago | 1 | All Maps","protocol":17,"map":"pl_upward","folder":"tf","game":"Team Fortress","app_id":440,"player_count":24,"max_players":24,"Bots":0,"server_type":"Dedicated","server_os":"Linux","password":true,"vac":true,"version":"7723704","steam_id":85568392924469984,"keywords":["nocrits","nodmgspread","payload","uncletopia"],"game_id":440,"stv_port":27016,"stv_name":"Uncletopia | Chicago | 1 | All Maps | STV","players":[{"user_id":64,"name":"✧･ﾟlovely!!","steam_id":76561198874149130,"connected_time":770000000000,"state":"active","ping":61},{"user_id":54,"name":"A Kawaii Dog Named Kenny","steam_id":76561198093246817,"connected_time":1377000000000,"state":"active","ping":49},{"user_id":41,"name":"footoftheday","steam_id":76561198052712449,"connected_time":3373000000000,"state":"active","ping":71},{"user_id":52,"name":"Slice","steam_id":76561198046508636,"connected_time":1393000000000,"state":"active","ping":52},{"user_id":59,"name":"Batman","steam_id":76561198202427509,"connected_time":1342000000000,"state":"active","ping":76},{"user_id":48,"name":"LividALX","steam_id":76561198145429015,"connected_time":2325000000000,"state":"active","ping":75},{"user_id":63,"name":"Admiral Angry","steam_id":76561198058199206,"connected_time":779000000000,"state":"active","ping":60},{"user_id":44,"name":"SuperJagops","steam_id":76561198034689716,"connected_time":2686000000000,"state":"active","ping":62},{"user_id":56,"name":"jao","steam_id":76561198408082822,"connected_time":1357000000000,"state":"active","ping":179},{"user_id":67,"name":"not shouleil btw","steam_id":76561198970370243,"connected_time":183000000000,"state":"active","ping":57},{"user_id":28,"name":"wes","steam_id":76561198273536400,"connected_time":3808000000000,"state":"active","ping":71},{"user_id":19,"name":"motorized bar of soap","steam_id":76561198882404753,"connected_time":4134000000000,"state":"active","ping":82},{"user_id":42,"name":"Incel","steam_id":76561198176618461,"connected_time":3370000000000,"state":"active","ping":87},{"user_id":60,"name":"Kiri","steam_id":76561198420723663,"connected_time":1126000000000,"state":"active","ping":169},{"user_id":26,"name":"Tevo","steam_id":76561198375502931,"connected_time":3880000000000,"state":"active","ping":66},{"user_id":66,"name":"recycle","steam_id":76561198819562111,"connected_time":186000000000,"state":"active","ping":60},{"user_id":39,"name":"CoconutRice","steam_id":76561198114909164,"connected_time":3447000000000,"state":"active","ping":53},{"user_id":61,"name":"Young-OG","steam_id":76561198058800479,"connected_time":1125000000000,"state":"active","ping":77},{"user_id":31,"name":"Deformed Gnome","steam_id":76561198152973879,"connected_time":3773000000000,"state":"active","ping":95},{"user_id":49,"name":"CassandraRC7 (She/her)","steam_id":76561198094123940,"connected_time":1921000000000,"state":"active","ping":66},{"user_id":62,"name":"Little Baby Burrito","steam_id":76561198334459968,"connected_time":938000000000,"state":"active","ping":68},{"user_id":58,"name":"Old Saint NicoPiss","steam_id":76561198038832034,"connected_time":1345000000000,"state":"active","ping":96},{"user_id":68,"name":"Errrmmett","steam_id":76561198041314051,"connected_time":182000000000,"state":"active","ping":58},{"user_id":69,"name":"[㏈] Bumpercars","steam_id":76561198061591743,"connected_time":180000000000,"state":"active","ping":67}]},{"server_id":106,"name":"Uncletopia | Chicago | 2 | All Maps","name_short":"chi-2","host":"chi-1.us.uncletopia.com","port":27025,"enabled":true,"region":"us-central","cc":"us","latitude":41.881832,"longitude":-87.62318,"reserved":0,"last_update":"0001-01-01T00:00:00Z","name_a2s":"Uncletopia | Chicago | 2 | All Maps","protocol":17,"map":"koth_highpass","folder":"tf","game":"Team Fortress","app_id":440,"player_count":0,"max_players":24,"Bots":0,"server_type":"Dedicated","server_os":"Linux","password":true,"vac":true,"version":"7723704","steam_id":85568392924469985,"keywords":["cp","nocrits","nodmgspread","uncletopia"],"game_id":440,"stv_port":27026,"stv_name":"Uncletopia | Chicago | 2 | All Maps | STV","players":null},{"server_id":402,"name":"Uncletopia | Chicago | 3 | All Maps","name_short":"chi-3","host":"chi-1.us.uncletopia.com","port":27035,"enabled":true,"region":"us-central","cc":"us","latitude":41.881832,"longitude":-87.62318,"reserved":0,"last_update":"0001-01-01T00:00:00Z","name_a2s":"Uncletopia | Chicago | 3 | All Maps","protocol":17,"map":"cp_mountainlab","folder":"tf","game":"Team Fortress","app_id":440,"player_count":0,"max_players":24,"Bots":0,"server_type":"Dedicated","server_os":"Linux","password":true,"vac":true,"version":"7723704","steam_id":85568392924515191,"keywords":["cp","nocrits","nodmgspread","uncletopia"],"game_id":440,"stv_port":27036,"stv_name":"Uncletopia | Chicago | 3 | All Maps | STV","players":null},{"server_id":403,"name":"Uncletopia | Chicago | 4 | All Maps","name_short":"chi-4","host":"chi-1.us.uncletopia.com","port":27045,"enabled":true,"region":"us-central","cc":"us","latitude":41.881832,"longitude":-87.62318,"reserved":0,"last_update":"0001-01-01T00:00:00Z","name_a2s":"Uncletopia | Chicago | 4 | All Maps","protocol":17,"map":"pl_borneo","folder":"tf","game":"Team Fortress","app_id":440,"player_count":0,"max_players":24,"Bots":0,"server_type":"Dedicated","server_os":"Linux","password":true,"vac":true,"version":"7723704","steam_id":85568392924515193,"keywords":["nocrits","nodmgspread","payload","uncletopia"],"game_id":440,"stv_port":27046,"stv_name":"Uncletopia | Chicago | 4 | All Maps | STV","players":null},{"server_id":36,"name":"Uncletopia | Chicago | 5 | All Maps","name_short":"chi-5","host":"chi-2.us.uncletopia.com","port":27015,"enabled":true,"region":"us-central","cc":"us","latitude":41.881832,"longitude":-87.62318,"reserved":0,"last_update":"0001-01-01T00:00:00Z","name_a2s":"Uncletopia | Chicago | 5 | All Maps","protocol":17,"map":"cp_altitude","folder":"tf","game":"Team Fortress","app_id":440,"player_count":0,"max_players":24,"Bots":0,"server_type":"Dedicated","server_os":"Linux","password":true,"vac":true,"version":"7723704","steam_id":85568392924866362,"keywords":["cp","nocrits","nodmgspread","uncletopia"],"game_id":440,"stv_port":27016,"stv_name":"Uncletopia | Chicago | 5 | All Maps | STV","players":null},{"server_id":37,"name":"Uncletopia | Chicago | 6 | All Maps","name_short":"chi-6","host":"chi-2.us.uncletopia.com","port":27025,"enabled":true,"region":"us-central","cc":"us","latitude":41.881832,"longitude":-87.62318,"reserved":0,"last_update":"0001-01-01T00:00:00Z","name_a2s":"Uncletopia | Chicago | 6 | All Maps","protocol":17,"map":"pl_swiftwater_final1","folder":"tf","game":"Team Fortress","app_id":440,"player_count":0,"max_players":24,"Bots":0,"server_type":"Dedicated","server_os":"Linux","password":true,"vac":true,"version":"7723704","steam_id":85568392924866363,"keywords":["nocrits","nodmgspread","payload","uncletopia"],"game_id":440,"stv_port":27026,"stv_name":"Uncletopia | Chicago | 6 | All Maps | STV","players":null},{"server_id":38,"name":"Uncletopia | Chicago | 7 | Stopwatch Beta","name_short":"chi-7","host":"chi-2.us.uncletopia.com","port":27035,"enabled":true,"region":"us-central","cc":"us","latitude":41.881832,"longitude":-87.62318,"reserved":0,"last_update":"0001-01-01T00:00:00Z","name_a2s":"Uncletopia | Chicago | 7 | Stopwatch Beta","protocol":17,"map":"pl_upward","folder":"tf","game":"Team Fortress","app_id":440,"player_count":24,"max_players":24,"Bots":0,"server_type":"Dedicated","server_os":"Linux","password":true,"vac":true,"version":"7723704","steam_id":85568392924866364,"keywords":["nocrits","nodmgspread","payload","uncletopia"],"game_id":440,"stv_port":27036,"stv_name":"Uncletopia | Chicago | 7 | Stopwatch Beta | STV","players":[{"user_id":36,"name":"Solstrom","steam_id":76561198313364985,"connected_time":140000000000,"state":"active","ping":71},{"user_id":21,"name":"Driffter","steam_id":76561199122194221,"connected_time":658000000000,"state":"active","ping":78},{"user_id":6,"name":"raspy","steam_id":76561198027298961,"connected_time":1424000000000,"state":"active","ping":59},{"user_id":7,"name":"George Washington","steam_id":76561197993295656,"connected_time":1286000000000,"state":"active","ping":46},{"user_id":9,"name":"willywanka9112twitchtv","steam_id":76561199140797407,"connected_time":1240000000000,"state":"active","ping":102},{"user_id":14,"name":"hoOmIN","steam_id":76561198334947079,"connected_time":949000000000,"state":"active","ping":90},{"user_id":28,"name":"Morefun8","steam_id":76561198274524278,"connected_time":564000000000,"state":"active","ping":52},{"user_id":32,"name":"kaedris","steam_id":76561198137465310,"connected_time":421000000000,"state":"active","ping":62},{"user_id":16,"name":"alexiotron","steam_id":76561199082573729,"connected_time":845000000000,"state":"active","ping":77},{"user_id":29,"name":"goblin appreciator","steam_id":76561198094386205,"connected_time":511000000000,"state":"active","ping":152},{"user_id":22,"name":"ThatOneNerdOnline","steam_id":76561198325823407,"connected_time":656000000000,"state":"active","ping":65},{"user_id":20,"name":"sock","steam_id":76561199117597830,"connected_time":689000000000,"state":"active","ping":63},{"user_id":27,"name":"Hobocop","steam_id":76561198076321907,"connected_time":587000000000,"state":"active","ping":86},{"user_id":31,"name":"Gibby","steam_id":76561198162912439,"connected_time":480000000000,"state":"active","ping":62},{"user_id":33,"name":"Rifleman","steam_id":76561199187820690,"connected_time":400000000000,"state":"active","ping":85},{"user_id":34,"name":"✧Ⓒⓘⓒⓘ✧","steam_id":76561198090077268,"connected_time":256000000000,"state":"active","ping":78},{"user_id":35,"name":"Scout.tf","steam_id":76561199241807676,"connected_time":235000000000,"state":"active","ping":90},{"user_id":37,"name":"RONCHICOX1030","steam_id":76561198063086116,"connected_time":128000000000,"state":"active","ping":59},{"user_id":38,"name":"SuperaMach","steam_id":76561198284436011,"connected_time":127000000000,"state":"active","ping":60},{"user_id":39,"name":"Cogsworth","steam_id":76561198101859889,"connected_time":108000000000,"state":"active","ping":79},{"user_id":40,"name":"Lizbeth!","steam_id":76561198134418839,"connected_time":88000000000,"state":"active","ping":80},{"user_id":41,"name":"fablemay","steam_id":76561198445016236,"connected_time":59000000000,"state":"active","ping":76},{"user_id":42,"name":"PirateKing12","steam_id":76561198992193468,"connected_time":55000000000,"state":"active","ping":82},{"user_id":43,"name":"koolslayer5","steam_id":76561198080349291,"connected_time":53000000000,"state":"spawning","ping":60}]},{"server_id":39,"name":"Uncletopia | Chicago | 8 | Community","name_short":"chi-8","host":"chi-2.us.uncletopia.com","port":27045,"enabled":true,"region":"us-central","cc":"us","latitude":41.881832,"longitude":-87.62318,"reserved":0,"last_update":"0001-01-01T00:00:00Z","name_a2s":"Uncletopia | Chicago | 8 | Community","protocol":17,"map":"pl_frontier_final","folder":"tf","game":"Team Fortress","app_id":440,"player_count":0,"max_players":24,"Bots":0,"server_type":"Dedicated","server_os":"Linux","password":true,"vac":true,"version":"7723704","steam_id":85568392924866365,"keywords":["nocrits","nodmgspread","payload","uncletopia"],"game_id":440,"stv_port":27046,"stv_name":"Uncletopia | Chicago | 8 | Community | STV","players":null},{"server_id":8,"name":"Uncletopia | Dallas | 1 | All Maps","name_short":"dal-1","host":"dal-1.us.uncletopia.com","port":27015,"enabled":true,"region":"us-central","cc":"us","latitude":32.779167,"longitude":-96.80889,"reserved":0,"last_update":"0001-01-01T00:00:00Z","name_a2s":"Uncletopia | Dallas | 1 | All Maps","protocol":17,"map":"cp_sunshine","folder":"tf","game":"Team Fortress","app_id":440,"player_count":0,"max_players":24,"Bots":0,"server_type":"Dedicated","server_os":"Linux","password":true,"vac":true,"version":"7723704","steam_id":85568392924469986,"keywords":["cp","nocrits","nodmgspread","uncletopia"],"game_id":440,"stv_port":27016,"stv_name":"Uncletopia | Dallas | 1 | All Maps | STV","players":null},{"server_id":108,"name":"Uncletopia | Dallas | 2 | All Maps","name_short":"dal-2","host":"dal-1.us.uncletopia.com","port":27025,"enabled":true,"region":"us-central","cc":"us","latitude":32.779167,"longitude":-96.80889,"reserved":0,"last_update":"0001-01-01T00:00:00Z","name_a2s":"Uncletopia | Dallas | 2 | All Maps","protocol":17,"map":"pl_borneo","folder":"tf","game":"Team Fortress","app_id":440,"player_count":0,"max_players":24,"Bots":0,"server_type":"Dedicated","server_os":"Linux","password":true,"vac":true,"version":"7723704","steam_id":85568392924469988,"keywords":["nocrits","nodmgspread","payload","uncletopia"],"game_id":440,"stv_port":27026,"stv_name":"Uncletopia | Dallas | 2 | All Maps | STV","players":null},{"server_id":5,"name":"Uncletopia | Frankfurt | 1 | All Maps","name_short":"frk-1","host":"frk-1.de.uncletopia.com","port":27015,"enabled":true,"region":"eu","cc":"de","latitude":50.110924,"longitude":8.682127,"reserved":0,"last_update":"0001-01-01T00:00:00Z","name_a2s":"Uncletopia | Frankfurt | 1 | All Maps","protocol":17,"map":"pl_pier","folder":"tf","game":"Team Fortress","app_id":440,"player_count":20,"max_players":24,"Bots":0,"server_type":"Dedicated","server_os":"Linux","password":true,"vac":true,"version":"7723704","steam_id":85568392924469989,"keywords":["nocrits","nodmgspread","payload","uncletopia"],"game_id":440,"stv_port":27016,"stv_name":"Uncletopia | Frankfurt | 1 | All Maps | STV","players":[{"user_id":110,"name":"The Wolf Leader","steam_id":76561198038007462,"connected_time":2238000000000,"state":"active","ping":56},{"user_id":140,"name":"drama606","steam_id":76561199436213204,"connected_time":1143000000000,"state":"active","ping":58},{"user_id":144,"name":"Alich","steam_id":76561198054110232,"connected_time":819000000000,"state":"active","ping":78},{"user_id":114,"name":".EXE","steam_id":76561198197246753,"connected_time":2105000000000,"state":"active","ping":69},{"user_id":149,"name":"Roon","steam_id":76561198191983045,"connected_time":175000000000,"state":"active","ping":44},{"user_id":14,"name":"Djarlem","steam_id":76561198080968386,"connected_time":10921000000000,"state":"active","ping":47},{"user_id":147,"name":"Lindbergan","steam_id":76561198226613312,"connected_time":779000000000,"state":"active","ping":77},{"user_id":118,"name":"Phowa","steam_id":76561198882547659,"connected_time":2054000000000,"state":"active","ping":94},{"user_id":146,"name":"Knösta","steam_id":76561198143422139,"connected_time":798000000000,"state":"active","ping":393},{"user_id":150,"name":"Jahusi!*","steam_id":76561197992445165,"connected_time":146000000000,"state":"active","ping":45},{"user_id":104,"name":"citronous","steam_id":76561198093290934,"connected_time":2963000000000,"state":"active","ping":56},{"user_id":151,"name":"freemantel30","steam_id":76561198065669800,"connected_time":89000000000,"state":"active","ping":43},{"user_id":121,"name":"Andreus","steam_id":76561199403926001,"connected_time":1990000000000,"state":"active","ping":58},{"user_id":139,"name":"WHO","steam_id":76561198380484033,"connected_time":1173000000000,"state":"active","ping":49},{"user_id":122,"name":"dustee","steam_id":76561198023486582,"connected_time":1985000000000,"state":"active","ping":66},{"user_id":123,"name":"Keelan","steam_id":76561198013665543,"connected_time":1961000000000,"state":"active","ping":73},{"user_id":128,"name":"BrownBreadMan","steam_id":76561199092834214,"connected_time":1666000000000,"state":"active","ping":60},{"user_id":125,"name":"Miton","steam_id":76561197970323209,"connected_time":1943000000000,"state":"active","ping":75},{"user_id":129,"name":"Dreamhunter1","steam_id":76561198044880496,"connected_time":1541000000000,"state":"active","ping":52},{"user_id":142,"name":"A M E N O","steam_id":76561198158845619,"connected_time":980000000000,"state":"active","ping":84}]},{"server_id":110,"name":"Uncletopia | Frankfurt | 2 | All Maps","name_short":"frk-2","host":"frk-1.de.uncletopia.com","port":27025,"enabled":true,"region":"eu","cc":"de","latitude":50.110924,"longitude":8.682127,"reserved":0,"last_update":"0001-01-01T00:00:00Z","name_a2s":"Uncletopia | Frankfurt | 2 | All Maps","protocol":17,"map":"pl_wutville_event","folder":"tf","game":"Team Fortress","app_id":440,"player_count":22,"max_players":24,"Bots":0,"server_type":"Dedicated","server_os":"Linux","password":true,"vac":true,"version":"7723704","steam_id":85568392924469990,"keywords":["nocrits","nodmgspread","payload","uncletopia"],"game_id":440,"stv_port":27026,"stv_name":"Uncletopia | Frankfurt | 2 | All Maps | STV","players":[{"user_id":142,"name":"Michael","steam_id":76561198317273294,"connected_time":555000000000,"state":"active","ping":59},{"user_id":128,"name":"hulluheppu1","steam_id":76561198093458326,"connected_time":876000000000,"state":"active","ping":64},{"user_id":129,"name":"SisuUkko","steam_id":76561198321850428,"connected_time":855000000000,"state":"active","ping":87},{"user_id":123,"name":"gaming","steam_id":76561199015038728,"connected_time":1238000000000,"state":"active","ping":65},{"user_id":130,"name":"dansci","steam_id":76561198269530717,"connected_time":833000000000,"state":"active","ping":152},{"user_id":145,"name":"Schaufelkrieger","steam_id":76561198018056171,"connected_time":204000000000,"state":"active","ping":76},{"user_id":124,"name":"Mixthing","steam_id":76561198117187462,"connected_time":1116000000000,"state":"active","ping":91},{"user_id":83,"name":"Edla","steam_id":76561198062815315,"connected_time":3360000000000,"state":"active","ping":107},{"user_id":96,"name":"Fixer","steam_id":76561198957722125,"connected_time":2440000000000,"state":"active","ping":74},{"user_id":136,"name":"varjeniks viena gabala","steam_id":76561198117322354,"connected_time":640000000000,"state":"active","ping":81},{"user_id":139,"name":"Fayden","steam_id":76561199088873813,"connected_time":619000000000,"state":"active","ping":52},{"user_id":133,"name":"VioBeeyo","steam_id":76561198066258544,"connected_time":770000000000,"state":"active","ping":46},{"user_id":140,"name":"desu","steam_id":76561198052878585,"connected_time":585000000000,"state":"active","ping":127},{"user_id":143,"name":"Kaiko (Trans Rights)","steam_id":76561198089031574,"connected_time":357000000000,"state":"active","ping":72},{"user_id":137,"name":"VBNM","steam_id":76561198316509516,"connected_time":632000000000,"state":"active","ping":64},{"user_id":91,"name":"KFC Enjoyer","steam_id":76561198840259819,"connected_time":3009000000000,"state":"active","ping":45},{"user_id":138,"name":"SCRAMMMBLED","steam_id":76561197998307746,"connected_time":629000000000,"state":"active","ping":65},{"user_id":41,"name":"Meat Prince","steam_id":76561198836130113,"connected_time":6309000000000,"state":"active","ping":159},{"user_id":44,"name":"ViktorYoshi","steam_id":76561199157555246,"connected_time":6197000000000,"state":"active","ping":60},{"user_id":141,"name":"Kolmannen","steam_id":76561198288826376,"connected_time":578000000000,"state":"active","ping":76},{"user_id":117,"name":"Qwynt","steam_id":76561198365883029,"connected_time":1595000000000,"state":"active","ping":63},{"user_id":86,"name":"gaming hard rn","steam_id":76561198405291408,"connected_time":3110000000000,"state":"active","ping":64}]},{"server_id":308,"name":"Uncletopia | Frankfurt | 3 | All Maps","name_short":"frk-3","host":"frk-1.de.uncletopia.com","port":27035,"enabled":true,"region":"eu","cc":"de","latitude":50.110924,"longitude":8.682127,"reserved":0,"last_update":"0001-01-01T00:00:00Z","name_a2s":"Uncletopia | Frankfurt | 3 | All Maps","protocol":17,"map":"koth_harvest_final","folder":"tf","game":"Team Fortress","app_id":440,"player_count":18,"max_players":24,"Bots":0,"server_type":"Dedicated","server_os":"Linux","password":true,"vac":true,"version":"7723704","steam_id":85568392924504274,"keywords":["cp","nocrits","nodmgspread","uncletopia"],"game_id":440,"stv_port":27036,"stv_name":"Uncletopia | Frankfurt | 3 | All Maps | STV","players":[{"user_id":248,"name":"ribs","steam_id":76561198354735240,"connected_time":4166000000000,"state":"active","ping":61},{"user_id":306,"name":"FeeXy","steam_id":76561198028633251,"connected_time":1141000000000,"state":"active","ping":44},{"user_id":277,"name":"Hoshungen","steam_id":76561198064498861,"connected_time":2855000000000,"state":"active","ping":109},{"user_id":320,"name":"chemistry teacher","steam_id":76561198101603592,"connected_time":135000000000,"state":"active","ping":91},{"user_id":291,"name":"Incoming","steam_id":76561199062581310,"connected_time":2165000000000,"state":"active","ping":161},{"user_id":283,"name":"Will","steam_id":76561198088266191,"connected_time":2538000000000,"state":"active","ping":119},{"user_id":312,"name":"Taпgen","steam_id":76561198120329367,"connected_time":853000000000,"state":"active","ping":86},{"user_id":261,"name":"chubby little looser","steam_id":76561198062107879,"connected_time":3418000000000,"state":"active","ping":75},{"user_id":321,"name":"V1CC V1NEGAR","steam_id":76561198154942431,"connected_time":124000000000,"state":"active","ping":147},{"user_id":326,"name":"Pain in a Box","steam_id":76561197990777173,"connected_time":22000000000,"state":"active","ping":236},{"user_id":281,"name":"kilo","steam_id":76561198015641339,"connected_time":2605000000000,"state":"active","ping":71},{"user_id":300,"name":"Pabs :D","steam_id":76561198000016962,"connected_time":1454000000000,"state":"active","ping":54},{"user_id":295,"name":"Papa sniper","steam_id":76561198941117244,"connected_time":1798000000000,"state":"active","ping":105},{"user_id":286,"name":"Spageti","steam_id":76561198074122906,"connected_time":2485000000000,"state":"active","ping":77},{"user_id":319,"name":"Rad Brad","steam_id":76561198972060765,"connected_time":262000000000,"state":"active","ping":59},{"user_id":304,"name":"тукку ирма","steam_id":76561197998715016,"connected_time":1259000000000,"state":"active","ping":51},{"user_id":316,"name":"AdgaroS","steam_id":76561198969373800,"connected_time":373000000000,"state":"active","ping":62},{"user_id":268,"name":"Sloppy polish handyman","steam_id":76561198126398022,"connected_time":3245000000000,"state":"active","ping":69}]},{"server_id":309,"name":"Uncletopia | Frankfurt | 4 | All Maps","name_short":"frk-4","host":"frk-1.de.uncletopia.com","port":27045,"enabled":true,"region":"eu","cc":"de","latitude":50.110924,"longitude":8.682127,"reserved":0,"last_update":"0001-01-01T00:00:00Z","name_a2s":"Uncletopia | Frankfurt | 4 | All Maps","protocol":17,"map":"pl_badwater","folder":"tf","game":"Team Fortress","app_id":440,"player_count":24,"max_players":24,"Bots":0,"server_type":"Dedicated","server_os":"Linux","password":true,"vac":true,"version":"7723704","steam_id":85568392924504275,"keywords":["nocrits","nodmgspread","payload","uncletopia"],"game_id":440,"stv_port":27046,"stv_name":"Uncletopia | Frankfurt | 4 | All Maps | STV","players":[{"user_id":33,"name":"Newax","steam_id":76561198020758511,"connected_time":3313000000000,"state":"active","ping":61},{"user_id":81,"name":"-TA- skai","steam_id":76561198184881255,"connected_time":270000000000,"state":"active","ping":71},{"user_id":84,"name":"Waffle Wannabe","steam_id":76561198064510650,"connected_time":22000000000,"state":"spawning","ping":147},{"user_id":50,"name":"æ habakuk","steam_id":76561197998623464,"connected_time":2241000000000,"state":"active","ping":82},{"user_id":83,"name":"socaramel","steam_id":76561197984480336,"connected_time":113000000000,"state":"active","ping":80},{"user_id":77,"name":"trga","steam_id":76561198160640351,"connected_time":405000000000,"state":"active","ping":40},{"user_id":62,"name":"Bastard'Nick","steam_id":76561198044044651,"connected_time":1312000000000,"state":"active","ping":72},{"user_id":75,"name":"Midir","steam_id":76561198908903675,"connected_time":445000000000,"state":"active","ping":70},{"user_id":20,"name":"r4s0","steam_id":76561198033661665,"connected_time":3589000000000,"state":"active","ping":63},{"user_id":85,"name":"OrangeBanana","steam_id":76561199230233875,"connected_time":15000000000,"state":"active","ping":70},{"user_id":61,"name":"Kolar","steam_id":76561198108583895,"connected_time":1640000000000,"state":"active","ping":47},{"user_id":56,"name":"JeanCorben","steam_id":76561197965133561,"connected_time":2015000000000,"state":"active","ping":46},{"user_id":69,"name":"Huzd","steam_id":76561198329617950,"connected_time":752000000000,"state":"active","ping":70},{"user_id":70,"name":"snsmac","steam_id":76561198082821185,"connected_time":740000000000,"state":"active","ping":42},{"user_id":59,"name":"NatP","steam_id":76561198012083811,"connected_time":1854000000000,"state":"active","ping":76},{"user_id":68,"name":"avewszystkim","steam_id":76561199382492530,"connected_time":955000000000,"state":"active","ping":71},{"user_id":74,"name":"Fedesgraz","steam_id":76561198324178619,"connected_time":670000000000,"state":"active","ping":66},{"user_id":29,"name":"mondocane","steam_id":76561199233979726,"connected_time":3350000000000,"state":"active","ping":88},{"user_id":63,"name":"snoowbrigade","steam_id":76561197989507394,"connected_time":1312000000000,"state":"active","ping":75},{"user_id":65,"name":"Princess Fuzz","steam_id":76561198025783000,"connected_time":1271000000000,"state":"active","ping":48},{"user_id":42,"name":"早上好中国","steam_id":76561198033205384,"connected_time":3122000000000,"state":"active","ping":64},{"user_id":60,"name":"MacMillian","steam_id":76561198057370944,"connected_time":1811000000000,"state":"active","ping":87},{"user_id":78,"name":"Bassam","steam_id":76561198231239500,"connected_time":402000000000,"state":"active","ping":83},{"user_id":37,"name":"DeepBlue","steam_id":76561198140075795,"connected_time":3277000000000,"state":"active","ping":59}]},{"server_id":310,"name":"Uncletopia | Frankfurt | 5 | All Maps","name_short":"frk-5","host":"frk-1.de.uncletopia.com","port":27055,"enabled":true,"region":"eu","cc":"de","latitude":50.110924,"longitude":8.682127,"reserved":0,"last_update":"0001-01-01T00:00:00Z","name_a2s":"Uncletopia | Frankfurt | 5 | All Maps","protocol":17,"map":"pl_pier","folder":"tf","game":"Team Fortress","app_id":440,"player_count":24,"max_players":24,"Bots":0,"server_type":"Dedicated","server_os":"Linux","password":true,"vac":true,"version":"7723704","steam_id":85568392924504277,"keywords":["nocrits","nodmgspread","payload","uncletopia"],"game_id":440,"stv_port":27056,"stv_name":"Uncletopia | Frankfurt | 5 | All Maps | STV","players":[{"user_id":90,"name":"Ben Dover","steam_id":76561198034264020,"connected_time":5998000000000,"state":"active","ping":112},{"user_id":174,"name":"Vollys","steam_id":76561198018077773,"connected_time":424000000000,"state":"active","ping":51},{"user_id":109,"name":"jorj3821","steam_id":76561198844794367,"connected_time":4391000000000,"state":"active","ping":75},{"user_id":164,"name":"Brinier","steam_id":76561199012604288,"connected_time":1315000000000,"state":"active","ping":63},{"user_id":139,"name":"wickEd_","steam_id":76561198048068999,"connected_time":2702000000000,"state":"active","ping":158},{"user_id":140,"name":"nyx","steam_id":76561197983889333,"connected_time":2701000000000,"state":"active","ping":56},{"user_id":106,"name":"Dunboi","steam_id":76561198120949216,"connected_time":4545000000000,"state":"active","ping":61},{"user_id":172,"name":"Инспектор Атас","steam_id":76561199175688390,"connected_time":596000000000,"state":"active","ping":75},{"user_id":167,"name":"Diamhair","steam_id":76561198109020178,"connected_time":1188000000000,"state":"active","ping":72},{"user_id":153,"name":"Mark","steam_id":76561198808819694,"connected_time":2292000000000,"state":"active","ping":50},{"user_id":151,"name":"lego napoleon movie","steam_id":76561198153796107,"connected_time":2334000000000,"state":"active","ping":73},{"user_id":175,"name":"b","steam_id":76561198101292843,"connected_time":404000000000,"state":"active","ping":58},{"user_id":154,"name":"beef estrogenoff","steam_id":76561198106455841,"connected_time":2275000000000,"state":"active","ping":77},{"user_id":158,"name":"ivanmixo","steam_id":76561198160213989,"connected_time":1969000000000,"state":"active","ping":72},{"user_id":156,"name":"sweeterthy","steam_id":76561198356325792,"connected_time":2213000000000,"state":"active","ping":119},{"user_id":132,"name":"patrick","steam_id":76561198125038506,"connected_time":3145000000000,"state":"active","ping":56},{"user_id":173,"name":"If I TopScoreMyTeamSucks","steam_id":76561198147668373,"connected_time":576000000000,"state":"active","ping":58},{"user_id":162,"name":"Yatsuzume","steam_id":76561198059762108,"connected_time":1336000000000,"state":"active","ping":51},{"user_id":160,"name":"hushhx","steam_id":76561198216200092,"connected_time":1778000000000,"state":"active","ping":65},{"user_id":134,"name":"Proto-arc","steam_id":76561198012776747,"connected_time":3122000000000,"state":"active","ping":63},{"user_id":177,"name":"simn","steam_id":76561198159182269,"connected_time":166000000000,"state":"active","ping":51},{"user_id":171,"name":"Bakiiiiiiii","steam_id":76561198205121276,"connected_time":933000000000,"state":"active","ping":81},{"user_id":136,"name":"►hAppser◄","steam_id":76561198255221005,"connected_time":3012000000000,"state":"active","ping":77},{"user_id":163,"name":"Zwphyr | TourBot.TF","steam_id":76561198160772793,"connected_time":1335000000000,"state":"active","ping":68}]},{"server_id":311,"name":"Uncletopia | Frankfurt | 6 | All Maps","name_short":"frk-6","host":"frk-1.de.uncletopia.com","port":27065,"enabled":true,"region":"eu","cc":"de","latitude":50.110924,"longitude":8.682127,"reserved":0,"last_update":"0001-01-01T00:00:00Z","name_a2s":"Uncletopia | Frankfurt | 6 | All Maps","protocol":17,"map":"koth_highpass","folder":"tf","game":"Team Fortress","app_id":440,"player_count":24,"max_players":24,"Bots":0,"server_type":"Dedicated","server_os":"Linux","password":true,"vac":true,"version":"7723704","steam_id":85568392924504278,"keywords":["cp","nocrits","nodmgspread","uncletopia"],"game_id":440,"stv_port":27066,"stv_name":"Uncletopia | Frankfurt | 6 | All Maps | STV","players":[{"user_id":336,"name":"disco 2","steam_id":76561198097381936,"connected_time":1796000000000,"state":"active","ping":54},{"user_id":337,"name":"Log","steam_id":76561198439616085,"connected_time":1766000000000,"state":"active","ping":67},{"user_id":371,"name":"Shezza","steam_id":76561198903969123,"connected_time":232000000000,"state":"active","ping":68},{"user_id":362,"name":"Garden Freeman","steam_id":76561199073314677,"connected_time":1184000000000,"state":"active","ping":64},{"user_id":363,"name":"Redmailbox","steam_id":76561198042930322,"connected_time":1163000000000,"state":"active","ping":62},{"user_id":335,"name":"Hÿlkje","steam_id":76561198998581449,"connected_time":1871000000000,"state":"active","ping":80},{"user_id":338,"name":"tealoverr.190","steam_id":76561199028497703,"connected_time":1742000000000,"state":"active","ping":103},{"user_id":374,"name":"[Insert Oneshot refrence]","steam_id":76561198951206047,"connected_time":29000000000,"state":"active","ping":81},{"user_id":370,"name":"guarda-chuva","steam_id":76561198078694330,"connected_time":269000000000,"state":"active","ping":53},{"user_id":341,"name":"Lady Maria","steam_id":76561198953210459,"connected_time":1705000000000,"state":"active","ping":89},{"user_id":342,"name":"Kanade♥転生","steam_id":76561198093289042,"connected_time":1704000000000,"state":"active","ping":71},{"user_id":320,"name":"F2P gameing","steam_id":76561198834713682,"connected_time":2849000000000,"state":"active","ping":75},{"user_id":343,"name":"Avoonix","steam_id":76561198186954897,"connected_time":1698000000000,"state":"active","ping":59},{"user_id":344,"name":"clems17","steam_id":76561199420685482,"connected_time":1697000000000,"state":"active","ping":45},{"user_id":368,"name":"Kamikrazy","steam_id":76561198044254918,"connected_time":889000000000,"state":"active","ping":66},{"user_id":331,"name":"Artock","steam_id":76561198808599713,"connected_time":2053000000000,"state":"active","ping":82},{"user_id":346,"name":"rainy","steam_id":76561198042085959,"connected_time":1691000000000,"state":"active","ping":102},{"user_id":347,"name":"Peat","steam_id":76561197992168067,"connected_time":1684000000000,"state":"active","ping":73},{"user_id":354,"name":"SirNeeco \u003c3","steam_id":76561198103014203,"connected_time":1555000000000,"state":"active","ping":78},{"user_id":349,"name":"average fungus","steam_id":76561198199993741,"connected_time":1651000000000,"state":"active","ping":53},{"user_id":367,"name":"Am37000","steam_id":76561198872232094,"connected_time":960000000000,"state":"active","ping":174},{"user_id":350,"name":"Zenos","steam_id":76561198212366199,"connected_time":1642000000000,"state":"active","ping":61},{"user_id":373,"name":"Cocsam","steam_id":76561198050827179,"connected_time":156000000000,"state":"active","ping":63},{"user_id":353,"name":"Khoa_Vu","steam_id":76561198977912375,"connected_time":1613000000000,"state":"active","ping":147}]},{"server_id":23,"name":"Uncletopia | Frankfurt | 7 | Stopwatch Beta","name_short":"frk-7","host":"frk-1.de.uncletopia.com","port":27075,"enabled":true,"region":"eu","cc":"de","latitude":50.110924,"longitude":8.682127,"reserved":0,"last_update":"0001-01-01T00:00:00Z","name_a2s":"Uncletopia | Frankfurt | 7 | Stopwatch Beta","protocol":17,"map":"workshop/pl_barnblitz_pro7.ugc582280235","folder":"tf","game":"Team Fortress","app_id":440,"player_count":0,"max_players":24,"Bots":0,"server_type":"Dedicated","server_os":"Linux","password":true,"vac":true,"version":"7723704","steam_id":85568392924742827,"keywords":["nocrits","nodmgspread","payload","uncletopia"],"game_id":440,"stv_port":27076,"stv_name":"Uncletopia | Frankfurt | 7 | Stopwatch Beta | STV","players":null},{"server_id":24,"name":"Uncletopia | Frankfurt | 8 | Community","name_short":"frk-8","host":"frk-1.de.uncletopia.com","port":27085,"enabled":true,"region":"eu","cc":"de","latitude":50.110924,"longitude":8.682127,"reserved":0,"last_update":"0001-01-01T00:00:00Z","name_a2s":"Uncletopia | Frankfurt | 8 | Community","protocol":17,"map":"pl_frontier_final","folder":"tf","game":"Team Fortress","app_id":440,"player_count":0,"max_players":24,"Bots":0,"server_type":"Dedicated","server_os":"Linux","password":true,"vac":true,"version":"7723704","steam_id":85568392924742828,"keywords":["nocrits","nodmgspread","payload","uncletopia"],"game_id":440,"stv_port":27086,"stv_name":"Uncletopia | Frankfurt | 8 | Community | STV","players":null},{"server_id":202,"name":"Uncletopia | Hong Kong | 1 | All Maps","name_short":"hgk-1","host":"hgk-1.hk.uncletopia.com","port":27015,"enabled":true,"region":"asia","cc":"hk","latitude":22.302711,"longitude":114.177216,"reserved":0,"last_update":"0001-01-01T00:00:00Z","name_a2s":"Uncletopia | Hong Kong | 1 | All Maps","protocol":17,"map":"pl_badwater","folder":"tf","game":"Team Fortress","app_id":440,"player_count":15,"max_players":24,"Bots":0,"server_type":"Dedicated","server_os":"Linux","password":true,"vac":true,"version":"7723704","steam_id":85568392924494504,"keywords":["nocrits","nodmgspread","payload","uncletopia"],"game_id":440,"stv_port":27016,"stv_name":"Uncletopia | Hong Kong | 1 | All Maps | STV","players":[{"user_id":561,"name":"salmon500","steam_id":76561199365876849,"connected_time":249000000000,"state":"active","ping":341},{"user_id":562,"name":"FoxyMazin","steam_id":76561199215481617,"connected_time":166000000000,"state":"active","ping":392},{"user_id":507,"name":"母の肉団子","steam_id":76561198069561896,"connected_time":8033000000000,"state":"active","ping":23},{"user_id":550,"name":"wombraider","steam_id":76561199375834537,"connected_time":661000000000,"state":"active","ping":76},{"user_id":527,"name":"AmaiToxic","steam_id":76561199122491157,"connected_time":4168000000000,"state":"active","ping":70},{"user_id":563,"name":"Grasswall","steam_id":76561198162612279,"connected_time":153000000000,"state":"active","ping":34},{"user_id":530,"name":"Infra","steam_id":76561198924576271,"connected_time":2458000000000,"state":"active","ping":93},{"user_id":564,"name":"frank","steam_id":76561199222783153,"connected_time":62000000000,"state":"active","ping":251},{"user_id":514,"name":"Tin-Tin \u003c3","steam_id":76561199247983065,"connected_time":6161000000000,"state":"active","ping":71},{"user_id":523,"name":"screaming sniper","steam_id":76561199085568674,"connected_time":4212000000000,"state":"active","ping":61},{"user_id":532,"name":"Playwalk","steam_id":76561199016341620,"connected_time":2024000000000,"state":"active","ping":76},{"user_id":537,"name":"DresatCouchonion","steam_id":76561199388364553,"connected_time":1805000000000,"state":"active","ping":112},{"user_id":496,"name":"Kurtie","steam_id":76561198144737876,"connected_time":9953000000000,"state":"active","ping":60},{"user_id":542,"name":"zxcvbnm","steam_id":76561198866884809,"connected_time":1562000000000,"state":"active","ping":66},{"user_id":441,"name":"deadass sleepless","steam_id":76561198255521007,"connected_time":15521000000000,"state":"active","ping":45}]},{"server_id":1,"name":"Uncletopia | Los Angeles | 1 | All Maps","name_short":"lax-1","host":"lax-1.us.uncletopia.com","port":27015,"enabled":true,"region":"us-west","cc":"us","latitude":33.94279,"longitude":-118.41004,"reserved":0,"last_update":"0001-01-01T00:00:00Z","name_a2s":"Uncletopia | Los Angeles | 1 | All Maps","protocol":17,"map":"pl_pier","folder":"tf","game":"Team Fortress","app_id":440,"player_count":0,"max_players":24,"Bots":0,"server_type":"Dedicated","server_os":"Linux","password":true,"vac":true,"version":"7723704","steam_id":85568392924469991,"keywords":["nocrits","nodmgspread","payload","uncletopia"],"game_id":440,"stv_port":27016,"stv_name":"Uncletopia | Los Angeles | 1 | All Maps | STV","players":null},{"server_id":112,"name":"Uncletopia | Los Angeles | 2 | All Maps","name_short":"lax-2","host":"lax-1.us.uncletopia.com","port":27025,"enabled":true,"region":"us-west","cc":"us","latitude":33.94279,"longitude":-118.41004,"reserved":0,"last_update":"0001-01-01T00:00:00Z","name_a2s":"Uncletopia | Los Angeles | 2 | All Maps","protocol":17,"map":"koth_viaduct","folder":"tf","game":"Team Fortress","app_id":440,"player_count":0,"max_players":24,"Bots":0,"server_type":"Dedicated","server_os":"Linux","password":true,"vac":true,"version":"7723704","steam_id":85568392924469992,"keywords":["cp","nocrits","nodmgspread","uncletopia"],"game_id":440,"stv_port":27026,"stv_name":"Uncletopia | Los Angeles | 2 | All Maps | STV","players":null},{"server_id":324,"name":"Uncletopia | Los Angeles | 3 | All Maps","name_short":"lax-3","host":"lax-1.us.uncletopia.com","port":27035,"enabled":true,"region":"us-west","cc":"us","latitude":33.94279,"longitude":-118.41004,"reserved":0,"last_update":"0001-01-01T00:00:00Z","name_a2s":"Uncletopia | Los Angeles | 3 | All Maps","protocol":17,"map":"koth_viaduct","folder":"tf","game":"Team Fortress","app_id":440,"player_count":0,"max_players":24,"Bots":0,"server_type":"Dedicated","server_os":"Linux","password":true,"vac":true,"version":"7723704","steam_id":85568392924510198,"keywords":["cp","nocrits","nodmgspread","uncletopia"],"game_id":440,"stv_port":27036,"stv_name":"Uncletopia | Los Angeles | 3 | All Maps | STV","players":null},{"server_id":25,"name":"Uncletopia | Los Angeles | 4 | Stopwatch Beta","name_short":"lax-4","host":"lax-1.us.uncletopia.com","port":27045,"enabled":true,"region":"us-west","cc":"us","latitude":33.94279,"longitude":-118.41004,"reserved":0,"last_update":"0001-01-01T00:00:00Z","name_a2s":"Uncletopia | Los Angeles | 4 | Stopwatch Beta","protocol":17,"map":"cp_sunshine","folder":"tf","game":"Team Fortress","app_id":440,"player_count":0,"max_players":24,"Bots":0,"server_type":"Dedicated","server_os":"Linux","password":true,"vac":true,"version":"7723704","steam_id":85568392924510199,"keywords":["cp","nocrits","nodmgspread","uncletopia"],"game_id":440,"stv_port":27046,"stv_name":"Uncletopia | Los Angeles | 4 | Stopwatch Beta | STV","players":null},{"server_id":11,"name":"Uncletopia | London | 1 | All Maps","name_short":"lon-1","host":"lon-1.uk.uncletopia.com","port":27015,"enabled":true,"region":"eu","cc":"gb","latitude":51.509865,"longitude":-0.118092,"reserved":0,"last_update":"0001-01-01T00:00:00Z","name_a2s":"Uncletopia | London | 1 | All Maps","protocol":17,"map":"cp_steel","folder":"tf","game":"Team Fortress","app_id":440,"player_count":23,"max_players":24,"Bots":0,"server_type":"Dedicated","server_os":"Linux","password":true,"vac":true,"version":"7723704","steam_id":85568392924367362,"keywords":["cp","nocrits","nodmgspread","uncletopia"],"game_id":440,"stv_port":27016,"stv_name":"Uncletopia | London | 1 | All Maps | STV","players":[{"user_id":289,"name":"BroHood(active only in weekends","steam_id":76561198044766151,"connected_time":14874000000000,"state":"active","ping":99},{"user_id":436,"name":"Equinox","steam_id":76561199055592635,"connected_time":1999000000000,"state":"active","ping":45},{"user_id":464,"name":"li","steam_id":76561198145465595,"connected_time":519000000000,"state":"active","ping":40},{"user_id":421,"name":"JohnTraveltime","steam_id":76561199244281754,"connected_time":2718000000000,"state":"active","ping":75},{"user_id":470,"name":"daanvanliempt05","steam_id":76561198355398948,"connected_time":61000000000,"state":"active","ping":50},{"user_id":437,"name":"Smag","steam_id":76561198153675141,"connected_time":1991000000000,"state":"active","ping":56},{"user_id":468,"name":"Tobi","steam_id":76561198049890080,"connected_time":272000000000,"state":"active","ping":46},{"user_id":440,"name":"Ross from F.R.I.E.N.D.S.","steam_id":76561198008511665,"connected_time":1883000000000,"state":"active","ping":57},{"user_id":422,"name":"Posho","steam_id":76561198062396436,"connected_time":2694000000000,"state":"active","ping":45},{"user_id":465,"name":"British Disapproval","steam_id":76561198001375260,"connected_time":518000000000,"state":"active","ping":54},{"user_id":467,"name":"Cryo","steam_id":76561198324132940,"connected_time":358000000000,"state":"active","ping":58},{"user_id":441,"name":"Dizzyformula","steam_id":76561198177347521,"connected_time":1866000000000,"state":"active","ping":45},{"user_id":461,"name":"TK","steam_id":76561199384193338,"connected_time":991000000000,"state":"active","ping":60},{"user_id":460,"name":"Florua","steam_id":76561198182297846,"connected_time":1014000000000,"state":"active","ping":68},{"user_id":462,"name":"GlassesMode","steam_id":76561199142786677,"connected_time":987000000000,"state":"active","ping":65},{"user_id":412,"name":"Astrodion","steam_id":76561197996938388,"connected_time":3186000000000,"state":"active","ping":62},{"user_id":448,"name":"Healing bullet","steam_id":76561198138060189,"connected_time":1730000000000,"state":"active","ping":67},{"user_id":420,"name":"Wyro","steam_id":76561199176835169,"connected_time":2775000000000,"state":"active","ping":52},{"user_id":418,"name":"KarlRanzeier","steam_id":76561198066281337,"connected_time":3104000000000,"state":"active","ping":61},{"user_id":469,"name":"heydaddy@aol.com","steam_id":76561198000548666,"connected_time":270000000000,"state":"active","ping":119},{"user_id":449,"name":"ChilledIron | Twitch","steam_id":76561198122669215,"connected_time":1727000000000,"state":"active","ping":169},{"user_id":443,"name":"Jar","steam_id":76561198156384007,"connected_time":1844000000000,"state":"active","ping":56},{"user_id":444,"name":"naleksi","steam_id":76561198018391055,"connected_time":1823000000000,"state":"active","ping":93}]},{"server_id":114,"name":"Uncletopia | London | 2 | All Maps","name_short":"lon-2","host":"lon-1.uk.uncletopia.com","port":27025,"enabled":true,"region":"eu","cc":"gb","latitude":51.509865,"longitude":-0.118092,"reserved":0,"last_update":"0001-01-01T00:00:00Z","name_a2s":"Uncletopia | London | 2 | All Maps","protocol":17,"map":"pl_borneo","folder":"tf","game":"Team Fortress","app_id":440,"player_count":24,"max_players":24,"Bots":0,"server_type":"Dedicated","server_os":"Linux","password":true,"vac":true,"version":"7723704","steam_id":85568392924470941,"keywords":["nocrits","nodmgspread","payload","uncletopia"],"game_id":440,"stv_port":27026,"stv_name":"Uncletopia | London | 2 | All Maps | STV","players":[{"user_id":352,"name":"himbolover","steam_id":76561199052017231,"connected_time":1152000000000,"state":"active","ping":50},{"user_id":370,"name":"sentry man","steam_id":76561197993103138,"connected_time":111000000000,"state":"active","ping":50},{"user_id":335,"name":"ghost","steam_id":76561198189940229,"connected_time":1933000000000,"state":"active","ping":51},{"user_id":353,"name":"NALA","steam_id":76561198039806469,"connected_time":1145000000000,"state":"active","ping":77},{"user_id":364,"name":"soar","steam_id":76561198010662796,"connected_time":558000000000,"state":"active","ping":45},{"user_id":363,"name":"FemKastely","steam_id":76561198164079439,"connected_time":647000000000,"state":"active","ping":83},{"user_id":285,"name":"Thesis","steam_id":76561199308784371,"connected_time":4623000000000,"state":"active","ping":87},{"user_id":365,"name":"F","steam_id":76561199149462792,"connected_time":553000000000,"state":"active","ping":55},{"user_id":322,"name":"Oak","steam_id":76561198067315672,"connected_time":3200000000000,"state":"active","ping":45},{"user_id":247,"name":"big al","steam_id":76561198800662675,"connected_time":7513000000000,"state":"active","ping":59},{"user_id":331,"name":"Dr Kreekenstine","steam_id":76561198170168039,"connected_time":1953000000000,"state":"active","ping":54},{"user_id":357,"name":"KeithStone","steam_id":76561197986083582,"connected_time":1069000000000,"state":"active","ping":162},{"user_id":371,"name":"ball sniffa","steam_id":76561199022705805,"connected_time":41000000000,"state":"active","ping":42},{"user_id":372,"name":"lugi","steam_id":76561199020785925,"connected_time":29000000000,"state":"spawning","ping":98},{"user_id":367,"name":"OutOfDucks","steam_id":76561198166376227,"connected_time":529000000000,"state":"active","ping":69},{"user_id":344,"name":"Chocopenguin","steam_id":76561198247470284,"connected_time":1800000000000,"state":"active","ping":51},{"user_id":95,"name":"wombat","steam_id":76561198076219289,"connected_time":17310000000000,"state":"active","ping":58},{"user_id":369,"name":"Skuth","steam_id":76561198041470939,"connected_time":214000000000,"state":"active","ping":119},{"user_id":346,"name":"Lovedaddy","steam_id":76561198006569710,"connected_time":1643000000000,"state":"active","ping":145},{"user_id":358,"name":"Honey_Darlin","steam_id":76561199437522058,"connected_time":1067000000000,"state":"active","ping":153},{"user_id":359,"name":"poo brain","steam_id":76561198064785024,"connected_time":950000000000,"state":"active","ping":84},{"user_id":328,"name":"ciliorkun18","steam_id":76561198228942500,"connected_time":2124000000000,"state":"active","ping":91},{"user_id":330,"name":"raccoon toddler","steam_id":76561198015876799,"connected_time":2107000000000,"state":"active","ping":73},{"user_id":362,"name":"supermariogrows","steam_id":76561198200238915,"connected_time":735000000000,"state":"active","ping":47}]},{"server_id":320,"name":"Uncletopia | London | 3 | All Maps","name_short":"lon-3","host":"lon-1.uk.uncletopia.com","port":27035,"enabled":true,"region":"eu","cc":"gb","latitude":51.509865,"longitude":-0.118092,"reserved":0,"last_update":"0001-01-01T00:00:00Z","name_a2s":"Uncletopia | London | 3 | All Maps","protocol":17,"map":"cp_mountainlab","folder":"tf","game":"Team Fortress","app_id":440,"player_count":24,"max_players":24,"Bots":0,"server_type":"Dedicated","server_os":"Linux","password":true,"vac":true,"version":"7723704","steam_id":85568392924510192,"keywords":["cp","nocrits","nodmgspread","uncletopia"],"game_id":440,"stv_port":27036,"stv_name":"Uncletopia | London | 3 | All Maps | STV","players":[{"user_id":252,"name":"why rum gone","steam_id":76561198158484784,"connected_time":343000000000,"state":"active","ping":61},{"user_id":249,"name":"Shawty","steam_id":76561198256704286,"connected_time":391000000000,"state":"active","ping":60},{"user_id":244,"name":"Milosz52","steam_id":76561199060940204,"connected_time":1178000000000,"state":"active","ping":78},{"user_id":208,"name":"goofy goober","steam_id":76561198013237629,"connected_time":4503000000000,"state":"active","ping":90},{"user_id":261,"name":"Liver","steam_id":76561198050843554,"connected_time":229000000000,"state":"active","ping":36},{"user_id":245,"name":"CheekiBreekiBoi","steam_id":76561198089977062,"connected_time":1108000000000,"state":"active","ping":52},{"user_id":253,"name":"Estamie","steam_id":76561198058527691,"connected_time":337000000000,"state":"active","ping":75},{"user_id":251,"name":"christmas gift","steam_id":76561199121500006,"connected_time":372000000000,"state":"active","ping":97},{"user_id":241,"name":"JIMMY POHUISON","steam_id":76561198412980333,"connected_time":1252000000000,"state":"active","ping":82},{"user_id":227,"name":"Skinny101","steam_id":76561197985599360,"connected_time":3137000000000,"state":"active","ping":46},{"user_id":262,"name":"Flying Eagle","steam_id":76561198925681565,"connected_time":175000000000,"state":"active","ping":105},{"user_id":254,"name":"guy who snores hooonk mimimi","steam_id":76561198156394435,"connected_time":332000000000,"state":"active","ping":43},{"user_id":225,"name":"ran is running","steam_id":76561199443185667,"connected_time":3274000000000,"state":"active","ping":125},{"user_id":258,"name":"Arcticpyro","steam_id":76561198010708923,"connected_time":295000000000,"state":"active","ping":45},{"user_id":256,"name":"CampMaster49","steam_id":76561198353096926,"connected_time":332000000000,"state":"active","ping":92},{"user_id":246,"name":"Toppem","steam_id":76561198091734693,"connected_time":943000000000,"state":"active","ping":60},{"user_id":259,"name":"steve","steam_id":76561198335143890,"connected_time":281000000000,"state":"active","ping":53},{"user_id":260,"name":"LOBZIK","steam_id":76561198114830120,"connected_time":276000000000,"state":"active","ping":76},{"user_id":263,"name":"Fischer","steam_id":76561198301481739,"connected_time":162000000000,"state":"active","ping":59},{"user_id":264,"name":"fmdi","steam_id":76561199433879329,"connected_time":154000000000,"state":"active","ping":77},{"user_id":174,"name":"arcticcu the croc","steam_id":76561198002435882,"connected_time":7421000000000,"state":"active","ping":93},{"user_id":181,"name":"Meff","steam_id":76561197970610839,"connected_time":6745000000000,"state":"active","ping":45},{"user_id":248,"name":"Kralian","steam_id":76561198826960955,"connected_time":457000000000,"state":"active","ping":77},{"user_id":265,"name":"Binky Den","steam_id":76561198164035863,"connected_time":4000000000,"state":"spawning","ping":126}]},{"server_id":321,"name":"Uncletopia | London | 4 | All Maps","name_short":"lon-4","host":"lon-1.uk.uncletopia.com","port":27045,"enabled":true,"region":"eu","cc":"gb","latitude":51.509865,"longitude":-0.118092,"reserved":0,"last_update":"0001-01-01T00:00:00Z","name_a2s":"Uncletopia | London | 4 | All Maps","protocol":17,"map":"pl_barnblitz","folder":"tf","game":"Team Fortress","app_id":440,"player_count":0,"max_players":24,"Bots":0,"server_type":"Dedicated","server_os":"Linux","password":true,"vac":true,"version":"7723704","steam_id":85568392924510193,"keywords":["nocrits","nodmgspread","payload","uncletopia"],"game_id":440,"stv_port":27046,"stv_name":"Uncletopia | London | 4 | All Maps | STV","players":null},{"server_id":21,"name":"Uncletopia | London | 5 | All Maps","name_short":"lon-5","host":"lon-1.uk.uncletopia.com","port":27055,"enabled":true,"region":"eu","cc":"gb","latitude":51.509865,"longitude":-0.118092,"reserved":0,"last_update":"0001-01-01T00:00:00Z","name_a2s":"Uncletopia | London | 5 | All Maps","protocol":17,"map":"pl_snowycoast","folder":"tf","game":"Team Fortress","app_id":440,"player_count":0,"max_players":24,"Bots":0,"server_type":"Dedicated","server_os":"Linux","password":true,"vac":true,"version":"7723704","steam_id":85568392924742829,"keywords":["nocrits","nodmgspread","payload","uncletopia"],"game_id":440,"stv_port":27056,"stv_name":"Uncletopia | London | 5 | All Maps | STV","players":null},{"server_id":22,"name":"Uncletopia | London | 6 | All Maps","name_short":"lon-6","host":"lon-1.uk.uncletopia.com","port":27065,"enabled":true,"region":"eu","cc":"gb","latitude":51.509865,"longitude":-0.118092,"reserved":0,"last_update":"0001-01-01T00:00:00Z","name_a2s":"Uncletopia | London | 6 | All Maps","protocol":17,"map":"koth_lakeside_final","folder":"tf","game":"Team Fortress","app_id":440,"player_count":0,"max_players":24,"Bots":0,"server_type":"Dedicated","server_os":"Linux","password":true,"vac":true,"version":"7723704","steam_id":85568392924742830,"keywords":["cp","nocrits","nodmgspread","uncletopia"],"game_id":440,"stv_port":27066,"stv_name":"Uncletopia | London | 6 | All Maps | STV","players":null},{"server_id":40,"name":"Uncletopia | London | 7 | No Payload","name_short":"lon-7","host":"lon-1.uk.uncletopia.com","port":27075,"enabled":true,"region":"eu","cc":"gb","latitude":51.509865,"longitude":-0.118092,"reserved":0,"last_update":"0001-01-01T00:00:00Z","name_a2s":"Uncletopia | London | 7 | No Payload","protocol":17,"map":"koth_viaduct","folder":"tf","game":"Team Fortress","app_id":440,"player_count":0,"max_players":24,"Bots":0,"server_type":"Dedicated","server_os":"Linux","password":true,"vac":true,"version":"7723704","steam_id":85568392924964314,"keywords":["cp","nocrits","nodmgspread","uncletopia"],"game_id":440,"stv_port":27076,"stv_name":"Uncletopia | London | 7 | No Payload | STV","players":null},{"server_id":41,"name":"Uncletopia | London | 8 | Community","name_short":"lon-8","host":"lon-1.uk.uncletopia.com","port":27085,"enabled":true,"region":"eu","cc":"gb","latitude":51.509865,"longitude":-0.118092,"reserved":0,"last_update":"0001-01-01T00:00:00Z","name_a2s":"Uncletopia | London | 8 | Community","protocol":17,"map":"koth_highpass","folder":"tf","game":"Team Fortress","app_id":440,"player_count":0,"max_players":24,"Bots":0,"server_type":"Dedicated","server_os":"Linux","password":true,"vac":true,"version":"7723704","steam_id":85568392924964315,"keywords":["cp","nocrits","nodmgspread","uncletopia"],"game_id":440,"stv_port":27086,"stv_name":"Uncletopia | London | 8 | Community | STV","players":null},{"server_id":300,"name":"Uncletopia | Montréal | 1 | All Maps","name_short":"mtl-1","host":"mtl-1.ca.uncletopia.com","port":27015,"enabled":true,"region":"us-east","cc":"ca","latitude":45.50889,"longitude":-73.56167,"reserved":0,"last_update":"0001-01-01T00:00:00Z","name_a2s":"Uncletopia | Montréal | 1 | All Maps","protocol":17,"map":"pl_snowycoast","folder":"tf","game":"Team Fortress","app_id":440,"player_count":0,"max_players":24,"Bots":0,"server_type":"Dedicated","server_os":"Linux","password":true,"vac":true,"version":"7723704","steam_id":85568392924500087,"keywords":["nocrits","nodmgspread","payload","uncletopia"],"game_id":440,"stv_port":27016,"stv_name":"Uncletopia | Montréal | 1 | All Maps | STV","players":null},{"server_id":301,"name":"Uncletopia | Montréal | 2 | All Maps","name_short":"mtl-2","host":"mtl-1.ca.uncletopia.com","port":27025,"enabled":true,"region":"us-east","cc":"ca","latitude":45.50889,"longitude":-73.56167,"reserved":0,"last_update":"0001-01-01T00:00:00Z","name_a2s":"Uncletopia | Montréal | 2 | All Maps","protocol":17,"map":"cp_process_final","folder":"tf","game":"Team Fortress","app_id":440,"player_count":0,"max_players":24,"Bots":0,"server_type":"Dedicated","server_os":"Linux","password":true,"vac":true,"version":"7723704","steam_id":85568392924500088,"keywords":["cp","nocrits","nodmgspread","uncletopia"],"game_id":440,"stv_port":27026,"stv_name":"Uncletopia | Montréal | 2 | All Maps | STV","players":null},{"server_id":302,"name":"Uncletopia | Montréal | 3 | All Maps","name_short":"mtl-3","host":"mtl-1.ca.uncletopia.com","port":27035,"enabled":true,"region":"us-east","cc":"ca","latitude":45.50889,"longitude":-73.56167,"reserved":0,"last_update":"0001-01-01T00:00:00Z","name_a2s":"Uncletopia | Montréal | 3 | All Maps","protocol":17,"map":"pl_barnblitz","folder":"tf","game":"Team Fortress","app_id":440,"player_count":0,"max_players":24,"Bots":0,"server_type":"Dedicated","server_os":"Linux","password":true,"vac":true,"version":"7723704","steam_id":85568392924500089,"keywords":["nocrits","nodmgspread","payload","uncletopia"],"game_id":440,"stv_port":27036,"stv_name":"Uncletopia | Montréal | 3 | All Maps | STV","players":null},{"server_id":303,"name":"Uncletopia | Montréal | 4 | No Payload","name_short":"mtl-4","host":"mtl-1.ca.uncletopia.com","port":27045,"enabled":true,"region":"us-east","cc":"ca","latitude":45.50889,"longitude":-73.56167,"reserved":0,"last_update":"0001-01-01T00:00:00Z","name_a2s":"Uncletopia | Montréal | 4 | No Payload","protocol":17,"map":"koth_cascade","folder":"tf","game":"Team Fortress","app_id":440,"player_count":0,"max_players":24,"Bots":0,"server_type":"Dedicated","server_os":"Linux","password":true,"vac":true,"version":"7723704","steam_id":85568392924500090,"keywords":["cp","nocrits","nodmgspread","uncletopia"],"game_id":440,"stv_port":27046,"stv_name":"Uncletopia | Montréal | 4 | No Payload | STV","players":null},{"server_id":13,"name":"Uncletopia | New York City | 1 | All Maps","name_short":"nyc-1","host":"nyc-1.us.uncletopia.com","port":27015,"enabled":true,"region":"us-east","cc":"us","latitude":40.73061,"longitude":-73.93524,"reserved":0,"last_update":"0001-01-01T00:00:00Z","name_a2s":"Uncletopia | New York City | 1 | All Maps","protocol":17,"map":"koth_highpass","folder":"tf","game":"Team Fortress","app_id":440,"player_count":0,"max_players":24,"Bots":0,"server_type":"Dedicated","server_os":"Linux","password":true,"vac":true,"version":"7723704","steam_id":85568392924469993,"keywords":["cp","nocrits","nodmgspread","uncletopia"],"game_id":440,"stv_port":27016,"stv_name":"Uncletopia | New York City | 1 | All Maps | STV","players":null},{"server_id":14,"name":"Uncletopia | New York City | 2 | All Maps","name_short":"nyc-2","host":"nyc-1.us.uncletopia.com","port":27025,"enabled":true,"region":"us-east","cc":"us","latitude":40.73061,"longitude":-73.93524,"reserved":0,"last_update":"0001-01-01T00:00:00Z","name_a2s":"Uncletopia | New York City | 2 | All Maps","protocol":17,"map":"pl_pier","folder":"tf","game":"Team Fortress","app_id":440,"player_count":0,"max_players":24,"Bots":0,"server_type":"Dedicated","server_os":"Linux","password":true,"vac":true,"version":"7723704","steam_id":85568392924469994,"keywords":["nocrits","nodmgspread","payload","uncletopia"],"game_id":440,"stv_port":27026,"stv_name":"Uncletopia | New York City | 2 | All Maps | STV","players":null},{"server_id":15,"name":"Uncletopia | New York City | 3 | Stopwatch Beta","name_short":"nyc-3","host":"nyc-1.us.uncletopia.com","port":27035,"enabled":true,"region":"us-east","cc":"us","latitude":40.73061,"longitude":-73.93524,"reserved":0,"last_update":"0001-01-01T00:00:00Z","name_a2s":"Uncletopia | New York City | 3 | Stopwatch Beta","protocol":17,"map":"cp_sunshine","folder":"tf","game":"Team Fortress","app_id":440,"player_count":0,"max_players":24,"Bots":0,"server_type":"Dedicated","server_os":"Linux","password":true,"vac":true,"version":"7723704","steam_id":85568392924742820,"keywords":["cp","nocrits","nodmgspread","uncletopia"],"game_id":440,"stv_port":27036,"stv_name":"Uncletopia | New York City | 3 | Stopwatch Beta | STV","players":null},{"server_id":16,"name":"Uncletopia | New York City | 4 | Community","name_short":"nyc-4","host":"nyc-1.us.uncletopia.com","port":27045,"enabled":true,"region":"us-east","cc":"us","latitude":40.73061,"longitude":-73.93524,"reserved":0,"last_update":"0001-01-01T00:00:00Z","name_a2s":"Uncletopia | New York City | 4 | Community","protocol":17,"map":"pl_frontier_final","folder":"tf","game":"Team Fortress","app_id":440,"player_count":0,"max_players":24,"Bots":0,"server_type":"Dedicated","server_os":"Linux","password":true,"vac":true,"version":"7723704","steam_id":85568392924742821,"keywords":["nocrits","nodmgspread","payload","uncletopia"],"game_id":440,"stv_port":27046,"stv_name":"Uncletopia | New York City | 4 | Community | STV","players":null},{"server_id":142,"name":"Uncletopia | São Paulo | 1 | All Maps","name_short":"sao-1","host":"sao-1.br.uncletopia.com","port":27015,"enabled":true,"region":"sa","cc":"br","latitude":-23.533773,"longitude":-46.62529,"reserved":0,"last_update":"0001-01-01T00:00:00Z","name_a2s":"Uncletopia | São Paulo | 1 | All Maps","protocol":17,"map":"koth_cascade","folder":"tf","game":"Team Fortress","app_id":440,"player_count":0,"max_players":24,"Bots":0,"server_type":"Dedicated","server_os":"Linux","password":true,"vac":true,"version":"7723704","steam_id":85568392924469996,"keywords":["cp","nocrits","nodmgspread","uncletopia"],"game_id":440,"stv_port":27016,"stv_name":"Uncletopia | São Paulo | 1 | All Maps | STV","players":null},{"server_id":143,"name":"Uncletopia | São Paulo | 2 | All Maps","name_short":"sao-2","host":"sao-2.br.uncletopia.com","port":27015,"enabled":true,"region":"sa","cc":"br","latitude":-23.533773,"longitude":-46.62529,"reserved":0,"last_update":"0001-01-01T00:00:00Z","name_a2s":"Uncletopia | São Paulo | 2 | All Maps","protocol":17,"map":"koth_viaduct","folder":"tf","game":"Team Fortress","app_id":440,"player_count":0,"max_players":24,"Bots":0,"server_type":"Dedicated","server_os":"Linux","password":true,"vac":true,"version":"7723704","steam_id":85568392924485349,"keywords":["cp","nocrits","nodmgspread","uncletopia"],"game_id":440,"stv_port":27016,"stv_name":"Uncletopia | São Paulo | 2 | All Maps | STV","players":null},{"server_id":7,"name":"Uncletopia | Seattle | 1 | All Maps","name_short":"sea-1","host":"sea-1.us.uncletopia.com","port":27015,"enabled":true,"region":"us-west","cc":"us","latitude":47.608013,"longitude":-122.33517,"reserved":0,"last_update":"0001-01-01T00:00:00Z","name_a2s":"Uncletopia | Seattle | 1 | All Maps","protocol":17,"map":"pl_barnblitz","folder":"tf","game":"Team Fortress","app_id":440,"player_count":24,"max_players":24,"Bots":0,"server_type":"Dedicated","server_os":"Linux","password":true,"vac":true,"version":"7723704","steam_id":85568392924469997,"keywords":["nocrits","nodmgspread","payload","uncletopia"],"game_id":440,"stv_port":27016,"stv_name":"Uncletopia | Seattle | 1 | All Maps | STV","players":[{"user_id":3,"name":"PoobMann6","steam_id":76561198411029238,"connected_time":8216000000000,"state":"active","ping":88},{"user_id":85,"name":"jade harley","steam_id":76561198044363630,"connected_time":3496000000000,"state":"active","ping":125},{"user_id":124,"name":"BIG HOG","steam_id":76561198079923652,"connected_time":416000000000,"state":"active","ping":106},{"user_id":119,"name":"Tyler\u0026Fingers","steam_id":76561198085154485,"connected_time":846000000000,"state":"active","ping":117},{"user_id":95,"name":"Goof","steam_id":76561198260113697,"connected_time":2461000000000,"state":"active","ping":43},{"user_id":82,"name":"pipeliner","steam_id":76561198210322871,"connected_time":3870000000000,"state":"active","ping":71},{"user_id":112,"name":"Brandino!","steam_id":76561198000446932,"connected_time":1424000000000,"state":"active","ping":106},{"user_id":125,"name":"Wilhelmktx","steam_id":76561198158102295,"connected_time":174000000000,"state":"active","ping":109},{"user_id":97,"name":"Tree","steam_id":76561198346382060,"connected_time":2150000000000,"state":"active","ping":59},{"user_id":126,"name":"General French","steam_id":76561198321617148,"connected_time":125000000000,"state":"active","ping":105},{"user_id":99,"name":"Rick Assley","steam_id":76561198365019199,"connected_time":2003000000000,"state":"active","ping":109},{"user_id":123,"name":"miles","steam_id":76561198006838401,"connected_time":569000000000,"state":"active","ping":128},{"user_id":48,"name":"Eleanor Skittle","steam_id":76561198116903554,"connected_time":5993000000000,"state":"active","ping":47},{"user_id":121,"name":"StayFrosty","steam_id":76561198212920705,"connected_time":766000000000,"state":"active","ping":119},{"user_id":69,"name":"catgirl giantess in heat","steam_id":76561198439042583,"connected_time":4944000000000,"state":"active","ping":114},{"user_id":122,"name":"Awesome Biscuit :0","steam_id":76561199123614910,"connected_time":628000000000,"state":"active","ping":83},{"user_id":102,"name":"Sir Loincloth","steam_id":76561198033073991,"connected_time":1988000000000,"state":"active","ping":61},{"user_id":115,"name":"Ham Fatty","steam_id":76561198071454198,"connected_time":1174000000000,"state":"active","ping":107},{"user_id":120,"name":"Zee❤","steam_id":76561198274550638,"connected_time":777000000000,"state":"active","ping":105},{"user_id":52,"name":"ermit the claus","steam_id":76561199230929836,"connected_time":5897000000000,"state":"active","ping":112},{"user_id":109,"name":"Themasterman75","steam_id":76561199385573293,"connected_time":1664000000000,"state":"active","ping":68},{"user_id":93,"name":"Cloud","steam_id":76561198272454184,"connected_time":2542000000000,"state":"active","ping":167},{"user_id":116,"name":"resting neutral face","steam_id":76561197999259502,"connected_time":1113000000000,"state":"active","ping":61},{"user_id":117,"name":"Dr. Anonymous","steam_id":76561198061654197,"connected_time":1068000000000,"state":"active","ping":99}]},{"server_id":119,"name":"Uncletopia | Seattle | 2 | All Maps","name_short":"sea-2","host":"sea-1.us.uncletopia.com","port":27025,"enabled":true,"region":"us-west","cc":"us","latitude":47.608013,"longitude":-122.33517,"reserved":0,"last_update":"0001-01-01T00:00:00Z","name_a2s":"Uncletopia | Seattle | 2 | All Maps","protocol":17,"map":"pl_barnblitz","folder":"tf","game":"Team Fortress","app_id":440,"player_count":0,"max_players":24,"Bots":0,"server_type":"Dedicated","server_os":"Linux","password":true,"vac":true,"version":"7723704","steam_id":85568392924469998,"keywords":["nocrits","nodmgspread","payload","uncletopia"],"game_id":440,"stv_port":27026,"stv_name":"Uncletopia | Seattle | 2 | All Maps | STV","players":null},{"server_id":406,"name":"Uncletopia | Seattle | 3 | Stopwatch Beta","name_short":"sea-3","host":"sea-1.us.uncletopia.com","port":27035,"enabled":true,"region":"us-west","cc":"us","latitude":47.608013,"longitude":-122.33517,"reserved":0,"last_update":"0001-01-01T00:00:00Z","name_a2s":"Uncletopia | Seattle | 3 | Stopwatch Beta","protocol":17,"map":"cp_altitude","folder":"tf","game":"Team Fortress","app_id":440,"player_count":0,"max_players":24,"Bots":0,"server_type":"Dedicated","server_os":"Linux","password":true,"vac":false,"version":"7723704","steam_id":0,"keywords":["cp","nocrits","nodmgspread","uncletopia"],"game_id":440,"stv_port":27036,"stv_name":"Uncletopia | Seattle | 3 | Stopwatch Beta | STV","players":null},{"server_id":17,"name":"Uncletopia | San Francisco | 1 | All Maps","name_short":"sfo-1","host":"sfo-1.us.uncletopia.com","port":27015,"enabled":true,"region":"us-west","cc":"us","latitude":37.77397,"longitude":-122.4313,"reserved":0,"last_update":"0001-01-01T00:00:00Z","name_a2s":"Uncletopia | San Francisco | 1 | All Maps","protocol":17,"map":"pl_swiftwater_final1","folder":"tf","game":"Team Fortress","app_id":440,"player_count":0,"max_players":24,"Bots":0,"server_type":"Dedicated","server_os":"Linux","password":true,"vac":true,"version":"7723704","steam_id":85568392924469999,"keywords":["nocrits","nodmgspread","payload","uncletopia"],"game_id":440,"stv_port":27016,"stv_name":"Uncletopia | San Francisco | 1 | All Maps | STV","players":null},{"server_id":18,"name":"Uncletopia | San Francisco | 2 | All Maps","name_short":"sfo-2","host":"sfo-1.us.uncletopia.com","port":27025,"enabled":true,"region":"us-west","cc":"us","latitude":37.77397,"longitude":-122.4313,"reserved":0,"last_update":"0001-01-01T00:00:00Z","name_a2s":"Uncletopia | San Francisco | 2 | All Maps","protocol":17,"map":"pl_upward","folder":"tf","game":"Team Fortress","app_id":440,"player_count":0,"max_players":24,"Bots":0,"server_type":"Dedicated","server_os":"Linux","password":true,"vac":true,"version":"7723704","steam_id":85568392924470000,"keywords":["nocrits","nodmgspread","payload","uncletopia"],"game_id":440,"stv_port":27026,"stv_name":"Uncletopia | San Francisco | 2 | All Maps | STV","players":null},{"server_id":19,"name":"Uncletopia | San Francisco | 3 | Stopwatch Beta","name_short":"sfo-3","host":"sfo-1.us.uncletopia.com","port":27035,"enabled":true,"region":"us-west","cc":"us","latitude":37.77397,"longitude":-122.4313,"reserved":0,"last_update":"0001-01-01T00:00:00Z","name_a2s":"Uncletopia | San Francisco | 3 | Stopwatch Beta","protocol":17,"map":"pl_pier","folder":"tf","game":"Team Fortress","app_id":440,"player_count":0,"max_players":24,"Bots":0,"server_type":"Dedicated","server_os":"Linux","password":true,"vac":true,"version":"7723704","steam_id":85568392924742824,"keywords":["nocrits","nodmgspread","payload","uncletopia"],"game_id":440,"stv_port":27036,"stv_name":"Uncletopia | San Francisco | 3 | Stopwatch Beta | STV","players":null},{"server_id":20,"name":"Uncletopia | San Francisco | 4 | Community","name_short":"sfo-4","host":"sfo-1.us.uncletopia.com","port":27045,"enabled":true,"region":"us-west","cc":"us","latitude":37.77397,"longitude":-122.4313,"reserved":0,"last_update":"0001-01-01T00:00:00Z","name_a2s":"Uncletopia | San Francisco | 4 | Community","protocol":17,"map":"koth_cascade","folder":"tf","game":"Team Fortress","app_id":440,"player_count":0,"max_players":24,"Bots":0,"server_type":"Dedicated","server_os":"Linux","password":true,"vac":true,"version":"7723704","steam_id":85568392924742826,"keywords":["cp","nocrits","nodmgspread","uncletopia"],"game_id":440,"stv_port":27046,"stv_name":"Uncletopia | San Francisco | 4 | Community | STV","players":null},{"server_id":141,"name":"Uncletopia | Sydney | 1 | All Maps","name_short":"syd-1","host":"syd-1.au.uncletopia.com","port":27015,"enabled":true,"region":"au","cc":"au","latitude":-33.865143,"longitude":151.2099,"reserved":0,"last_update":"0001-01-01T00:00:00Z","name_a2s":"Uncletopia | Sydney | 1 | All Maps","protocol":17,"map":"cp_altitude","folder":"tf","game":"Team Fortress","app_id":440,"player_count":0,"max_players":24,"Bots":0,"server_type":"Dedicated","server_os":"Linux","password":true,"vac":true,"version":"7723704","steam_id":85568392924470001,"keywords":["cp","nocrits","nodmgspread","uncletopia"],"game_id":440,"stv_port":27016,"stv_name":"Uncletopia | Sydney | 1 | All Maps | STV","players":null},{"server_id":123,"name":"Uncletopia | Sydney | 2 | All Maps","name_short":"syd-2","host":"syd-1.au.uncletopia.com","port":27025,"enabled":true,"region":"au","cc":"au","latitude":-33.865143,"longitude":151.2099,"reserved":0,"last_update":"0001-01-01T00:00:00Z","name_a2s":"Uncletopia | Sydney | 2 | All Maps","protocol":17,"map":"koth_king","folder":"tf","game":"Team Fortress","app_id":440,"player_count":0,"max_players":24,"Bots":0,"server_type":"Dedicated","server_os":"Linux","password":true,"vac":true,"version":"7723704","steam_id":85568392924470002,"keywords":["cp","nocrits","nodmgspread","uncletopia"],"game_id":440,"stv_port":27026,"stv_name":"Uncletopia | Sydney | 2 | All Maps | STV","players":null},{"server_id":395,"name":"Uncletopia | Sydney | 3 | All Maps","name_short":"syd-3","host":"syd-1.au.uncletopia.com","port":27035,"enabled":true,"region":"au","cc":"au","latitude":-33.865143,"longitude":151.2099,"reserved":0,"last_update":"0001-01-01T00:00:00Z","name_a2s":"Uncletopia | Sydney | 3 | All Maps","protocol":17,"map":"pl_borneo","folder":"tf","game":"Team Fortress","app_id":440,"player_count":0,"max_players":24,"Bots":0,"server_type":"Dedicated","server_os":"Linux","password":true,"vac":true,"version":"7723704","steam_id":85568392925194467,"keywords":["nocrits","nodmgspread","payload","uncletopia"],"game_id":440,"stv_port":27036,"stv_name":"Uncletopia | Sydney | 3 | All Maps | STV","players":null},{"server_id":396,"name":"Uncletopia | Sydney | 4 | All Maps","name_short":"syd-4","host":"syd-1.au.uncletopia.com","port":27045,"enabled":true,"region":"au","cc":"au","latitude":-33.865143,"longitude":151.2099,"reserved":0,"last_update":"0001-01-01T00:00:00Z","name_a2s":"Uncletopia | Sydney | 4 | All Maps","protocol":17,"map":"koth_viaduct","folder":"tf","game":"Team Fortress","app_id":440,"player_count":0,"max_players":24,"Bots":0,"server_type":"Dedicated","server_os":"Linux","password":true,"vac":true,"version":"7723704","steam_id":85568392925397958,"keywords":["cp","nocrits","nodmgspread","uncletopia"],"game_id":440,"stv_port":27046,"stv_name":"Uncletopia | Sydney | 4 | All Maps | STV","players":null},{"server_id":58,"name":"Uncletopia | Sydney | 5 | Stopwatch Beta","name_short":"syd-5","host":"syd-1.au.uncletopia.com","port":27055,"enabled":true,"region":"au","cc":"au","latitude":-33.865143,"longitude":151.2099,"reserved":0,"last_update":"0001-01-01T00:00:00Z","name_a2s":"Uncletopia | Sydney | 5 | Stopwatch Beta","protocol":17,"map":"cp_altitude","folder":"tf","game":"Team Fortress","app_id":440,"player_count":0,"max_players":24,"Bots":0,"server_type":"Dedicated","server_os":"Linux","password":true,"vac":true,"version":"7723704","steam_id":85568392925397959,"keywords":["cp","nocrits","nodmgspread","uncletopia"],"game_id":440,"stv_port":27056,"stv_name":"Uncletopia | Sydney | 5 | Stopwatch Beta | STV","players":null},{"server_id":59,"name":"Uncletopia | Sydney | 6 | Community","name_short":"syd-6","host":"syd-1.au.uncletopia.com","port":27065,"enabled":true,"region":"au","cc":"au","latitude":-33.865143,"longitude":151.2099,"reserved":0,"last_update":"0001-01-01T00:00:00Z","name_a2s":"Uncletopia | Sydney | 6 | Community","protocol":17,"map":"workshop/koth_ramjam_v2_b2.ugc2865676487","folder":"tf","game":"Team Fortress","app_id":440,"player_count":0,"max_players":24,"Bots":0,"server_type":"Dedicated","server_os":"Linux","password":true,"vac":true,"version":"7723704","steam_id":85568392925397960,"keywords":["cp","nocrits","nodmgspread","uncletopia"],"game_id":440,"stv_port":27066,"stv_name":"Uncletopia | Sydney | 6 | Community | STV","players":null},{"server_id":49,"name":"Uncletopia | Warsaw | 1 | All Maps","name_short":"waw-1","host":"waw-1.pl.uncletopia.com","port":27015,"enabled":true,"region":"eu","cc":"pl","latitude":52.2297,"longitude":21.017532,"reserved":0,"last_update":"0001-01-01T00:00:00Z","name_a2s":"Uncletopia | Warsaw | 1 | All Maps","protocol":17,"map":"koth_cascade","folder":"tf","game":"Team Fortress","app_id":440,"player_count":0,"max_players":24,"Bots":0,"server_type":"Dedicated","server_os":"Linux","password":true,"vac":true,"version":"7723704","steam_id":85568392925397850,"keywords":["cp","nocrits","nodmgspread","uncletopia"],"game_id":440,"stv_port":27016,"stv_name":"Uncletopia | Warsaw | 1 | All Maps | STV","players":null},{"server_id":50,"name":"Uncletopia | Warsaw | 2 | All Maps","name_short":"waw-2","host":"waw-1.pl.uncletopia.com","port":27025,"enabled":true,"region":"eu","cc":"pl","latitude":52.2297,"longitude":21.017532,"reserved":0,"last_update":"0001-01-01T00:00:00Z","name_a2s":"Uncletopia | Warsaw | 2 | All Maps","protocol":17,"map":"cp_mountainlab","folder":"tf","game":"Team Fortress","app_id":440,"player_count":0,"max_players":24,"Bots":0,"server_type":"Dedicated","server_os":"Linux","password":true,"vac":true,"version":"7723704","steam_id":85568392925397851,"keywords":["cp","nocrits","nodmgspread","uncletopia"],"game_id":440,"stv_port":27026,"stv_name":"Uncletopia | Warsaw | 2 | All Maps | STV","players":null},{"server_id":51,"name":"Uncletopia | Warsaw | 3 | All Maps","name_short":"waw-3","host":"waw-1.pl.uncletopia.com","port":27035,"enabled":true,"region":"eu","cc":"pl","latitude":52.2297,"longitude":21.017532,"reserved":0,"last_update":"0001-01-01T00:00:00Z","name_a2s":"Uncletopia | Warsaw | 3 | All Maps","protocol":17,"map":"cp_sunshine","folder":"tf","game":"Team Fortress","app_id":440,"player_count":0,"max_players":24,"Bots":0,"server_type":"Dedicated","server_os":"Linux","password":true,"vac":true,"version":"7723704","steam_id":85568392925397852,"keywords":["cp","nocrits","nodmgspread","uncletopia"],"game_id":440,"stv_port":27036,"stv_name":"Uncletopia | Warsaw | 3 | All Maps | STV","players":null},{"server_id":52,"name":"Uncletopia | Warsaw | 4 | All Maps","name_short":"waw-4","host":"waw-1.pl.uncletopia.com","port":27045,"enabled":true,"region":"eu","cc":"pl","latitude":52.2297,"longitude":21.017532,"reserved":0,"last_update":"0001-01-01T00:00:00Z","name_a2s":"Uncletopia | Warsaw | 4 | All Maps","protocol":17,"map":"koth_lakeside_final","folder":"tf","game":"Team Fortress","app_id":440,"player_count":0,"max_players":24,"Bots":0,"server_type":"Dedicated","server_os":"Linux","password":true,"vac":true,"version":"7723704","steam_id":85568392925397853,"keywords":["cp","nocrits","nodmgspread","uncletopia"],"game_id":440,"stv_port":27046,"stv_name":"Uncletopia | Warsaw | 4 | All Maps | STV","players":null},{"server_id":53,"name":"Uncletopia | Warsaw | 5 | Stopwatch Beta","name_short":"waw-5","host":"waw-1.pl.uncletopia.com","port":27055,"enabled":true,"region":"eu","cc":"pl","latitude":52.2297,"longitude":21.017532,"reserved":0,"last_update":"0001-01-01T00:00:00Z","name_a2s":"Uncletopia | Warsaw | 5 | Stopwatch Beta","protocol":17,"map":"cp_sunshine","folder":"tf","game":"Team Fortress","app_id":440,"player_count":0,"max_players":24,"Bots":0,"server_type":"Dedicated","server_os":"Linux","password":true,"vac":true,"version":"7723704","steam_id":85568392925397854,"keywords":["cp","nocrits","nodmgspread","uncletopia"],"game_id":440,"stv_port":27056,"stv_name":"Uncletopia | Warsaw | 5 | Stopwatch Beta | STV","players":null},{"server_id":54,"name":"Uncletopia | Warsaw | 6 | Community","name_short":"waw-6","host":"waw-1.pl.uncletopia.com","port":27065,"enabled":true,"region":"eu","cc":"pl","latitude":52.2297,"longitude":21.017532,"reserved":0,"last_update":"0001-01-01T00:00:00Z","name_a2s":"Uncletopia | Warsaw | 6 | Community","protocol":17,"map":"workshop/koth_slaughter_rc1.ugc1712845210","folder":"tf","game":"Team Fortress","app_id":440,"player_count":0,"max_players":24,"Bots":0,"server_type":"Dedicated","server_os":"Linux","password":true,"vac":true,"version":"7723704","steam_id":85568392925397856,"keywords":["cp","nocrits","nodmgspread","uncletopia"],"game_id":440,"stv_port":27066,"stv_name":"Uncletopia | Warsaw | 6 | Community | STV","players":null}]}