{"status":true,"message":"","result":[{"server_id":9,"name":"Uncletopia | Atlanta | 1 | All Maps","name_short":"atl-1","host":"atl-1.us.uncletopia.com","port":27015,"enabled":true,"region":"us-east","cc":"us","latitude":33.753746,"longitude":-84.38633,"reserved":0,"last_update":"0001-01-01T00:00:00Z","name_a2s":"Uncletopia | Atlanta | 1 | All Maps","protocol":17,"map":"ctf_turbine","folder":"tf","game":"Team Fortress","app_id":440,"player_count":16,"max_players":24,"Bots":0,"server_type":"Dedicated","server_os":"Linux","password":true,"vac":true,"version":"7708610","steam_id":85568392924469982,"keywords":["ctf","nocrits","nodmgspread","uncletopia"],"game_id":440,"stv_port":27016,"stv_name":"Uncletopia | Atlanta | 1 | All Maps | STV","players":[{"user_id":656,"name":"Smoky","steam_id":76561198418262145,"connected_time":149000000000,"state":"active","ping":102},{"user_id":611,"name":"B. Comet","steam_id":76561198058235498,"connected_time":1998000000000,"state":"active","ping":167},{"user_id":614,"name":"Honda Element","steam_id":76561198086907573,"connected_time":1904000000000,"state":"active","ping":63},{"user_id":658,"name":"Dark","steam_id":76561198329194526,"connected_time":117000000000,"state":"active","ping":191},{"user_id":651,"name":"Michaelpc1","steam_id":76561198088365519,"connected_time":907000000000,"state":"active","ping":72},{"user_id":615,"name":"Snow","steam_id":76561198151556270,"connected_time":1897000000000,"state":"active","ping":105},{"user_id":653,"name":"Alfonso Molestro","steam_id":76561197998677099,"connected_time":507000000000,"state":"active","ping":93},{"user_id":652,"name":"hop","steam_id":76561198039914843,"connected_time":825000000000,"state":"active","ping":45},{"user_id":633,"name":"Zanna","steam_id":76561198015996590,"connected_time":1393000000000,"state":"active","ping":106},{"user_id":618,"name":"Zeetch","steam_id":76561198110579765,"connected_time":1812000000000,"state":"active","ping":75},{"user_id":616,"name":"Bunt","steam_id":76561198124477567,"connected_time":1849000000000,"state":"active","ping":31},{"user_id":650,"name":"gasparmx","steam_id":76561197998611994,"connected_time":1137000000000,"state":"active","ping":104},{"user_id":542,"name":"groda_spel","steam_id":76561198121349387,"connected_time":8973000000000,"state":"active","ping":58},{"user_id":622,"name":"Shmoopy","steam_id":76561198030459152,"connected_time":1630000000000,"state":"active","ping":59},{"user_id":582,"name":"Avo","steam_id":76561197993340494,"connected_time":3981000000000,"state":"active","ping":51},{"user_id":584,"name":"Amaretto Sour","steam_id":76561198063112844,"connected_time":3908000000000,"state":"active","ping":80}]},{"server_id":400,"name":"Uncletopia | Atlanta | 3 | All Maps","name_short":"atl-3","host":"atl-1.us.uncletopia.com","port":27035,"enabled":true,"region":"us-east","cc":"us","latitude":33.753746,"longitude":-84.38633,"reserved":0,"last_update":"0001-01-01T00:00:00Z","name_a2s":"Uncletopia | Atlanta | 3 | All Maps","protocol":17,"map":"pl_badwater","folder":"tf","game":"Team Fortress","app_id":440,"player_count":24,"max_players":24,"Bots":0,"server_type":"Dedicated","server_os":"Linux","password":true,"vac":true,"version":"7708610","steam_id":85568392924515187,"keywords":["nocrits","nodmgspread","payload","uncletopia"],"game_id":440,"stv_port":27036,"stv_name":"Uncletopia | Atlanta | 3 | All Maps | STV","players":[{"user_id":428,"name":"Babushka with Skillet","steam_id":76561198092409181,"connected_time":1196000000000,"state":"active","ping":102},{"user_id":344,"name":"Styx","steam_id":76561198104657428,"connected_time":9702000000000,"state":"active","ping":61},{"user_id":446,"name":"clev","steam_id":76561198062739295,"connected_time":622000000000,"state":"active","ping":57},{"user_id":430,"name":"SquishyDJ ¬°Caliente Culeros!","steam_id":76561198021718979,"connected_time":1147000000000,"state":"active","ping":120},{"user_id":407,"name":"kornetov.vitalya","steam_id":76561199286034833,"connected_time":2493000000000,"state":"active","ping":180},{"user_id":429,"name":"Laa-Laa","steam_id":76561198104943072,"connected_time":1191000000000,"state":"active","ping":90},{"user_id":438,"name":"I am a mooshroom","steam_id":76561198104198295,"connected_time":911000000000,"state":"active","ping":82},{"user_id":431,"name":"Shadu","steam_id":76561198122663977,"connected_time":1132000000000,"state":"active","ping":177},{"user_id":442,"name":"maArk","steam_id":76561198200380143,"connected_time":816000000000,"state":"active","ping":150},{"user_id":411,"name":"ÁÅ´Êòü | Marsy","steam_id":76561198014979892,"connected_time":2381000000000,"state":"active","ping":72},{"user_id":450,"name":"modyfrys6475","steam_id":76561198345111741,"connected_time":131000000000,"state":"active","ping":73},{"user_id":445,"name":"flatts","steam_id":76561198094127177,"connected_time":647000000000,"state":"active","ping":46},{"user_id":433,"name":"M X","steam_id":76561198074667742,"connected_time":1112000000000,"state":"active","ping":187},{"user_id":427,"name":"coolkid #sextf2","steam_id":76561198072600034,"connected_time":1212000000000,"state":"active","ping":103},{"user_id":211,"name":"Snazzi","steam_id":76561198085208276,"connected_time":20852000000000,"state":"active","ping":72},{"user_id":412,"name":"FemboyNate","steam_id":76561198146636410,"connected_time":2345000000000,"state":"active","ping":61},{"user_id":447,"name":"Splash Bandicoot","steam_id":76561198084469855,"connected_time":567000000000,"state":"active","ping":81},{"user_id":439,"name":"OPA CloakDuskky","steam_id":76561198201500759,"connected_time":880000000000,"state":"active","ping":72},{"user_id":448,"name":"Hey","steam_id":76561198447517893,"connected_time":563000000000,"state":"active","ping":58},{"user_id":403,"name":"RelativeToZero","steam_id":76561198175875733,"connected_time":2659000000000,"state":"active","ping":111},{"user_id":449,"name":"plutonium isotope","steam_id":76561198319442494,"connected_time":350000000000,"state":"active","ping":103},{"user_id":421,"name":"lauren/","steam_id":76561198048745798,"connected_time":1946000000000,"state":"active","ping":60},{"user_id":422,"name":"Paladin Roselia","steam_id":76561198001584041,"connected_time":1889000000000,"state":"active","ping":56},{"user_id":444,"name":"CIDVONDRAX","steam_id":76561198330855481,"connected_time":763000000000,"state":"active","ping":98}]},{"server_id":401,"name":"Uncletopia | Atlanta | 4 | No Payload","name_short":"atl-4","host":"atl-1.us.uncletopia.com","port":27045,"enabled":true,"region":"us-east","cc":"us","latitude":33.753746,"longitude":-84.38633,"reserved":0,"last_update":"0001-01-01T00:00:00Z","name_a2s":"Uncletopia | Atlanta | 4 | No Payload","protocol":17,"map":"plr_pipeline","folder":"tf","game":"Team Fortress","app_id":440,"player_count":0,"max_players":24,"Bots":0,"server_type":"Dedicated","server_os":"Linux","password":true,"vac":true,"version":"7708610","steam_id":85568392924515188,"keywords":["nocrits","nodmgspread","payload","uncletopia"],"game_id":440,"stv_port":27046,"stv_name":"Uncletopia | Atlanta | 4 | No Payload | STV","players":null},{"server_id":2,"name":"Uncletopia | Chicago | 1 | All Maps","name_short":"chi-1","host":"chi-1.us.uncletopia.com","port":27015,"enabled":true,"region":"us-central","cc":"us","latitude":41.881832,"longitude":-87.62318,"reserved":0,"last_update":"0001-01-01T00:00:00Z","name_a2s":"Uncletopia | Chicago | 1 | All Maps","protocol":17,"map":"koth_lakeside_final","folder":"tf","game":"Team Fortress","app_id":440,"player_count":24,"max_players":24,"Bots":0,"server_type":"Dedicated","server_os":"Linux","password":true,"vac":true,"version":"7708610","steam_id":85568392924469984,"keywords":["cp","nocrits","nodmgspread","uncletopia"],"game_id":440,"stv_port":27016,"stv_name":"Uncletopia | Chicago | 1 | All Maps | STV","players":[{"user_id":834,"name":"khalewbrito","steam_id":76561198799936369,"connected_time":365000000000,"state":"active","ping":173},{"user_id":835,"name":"Lohskyl","steam_id":76561199193237621,"connected_time":326000000000,"state":"active","ping":47},{"user_id":827,"name":"Hamster","steam_id":76561198079599992,"connected_time":1489000000000,"state":"active","ping":33},{"user_id":800,"name":"Demonfax04","steam_id":76561198243551652,"connected_time":2607000000000,"state":"active","ping":93},{"user_id":764,"name":"√íw√ì","steam_id":76561197997304387,"connected_time":5135000000000,"state":"active","ping":66},{"user_id":765,"name":"Halcyon","steam_id":76561197999409268,"connected_time":5092000000000,"state":"active","ping":74},{"user_id":836,"name":"fig newton enjoyer","steam_id":76561198110046630,"connected_time":313000000000,"state":"active","ping":46},{"user_id":837,"name":"murderous deer","steam_id":76561198350832152,"connected_time":252000000000,"state":"active","ping":69},{"user_id":817,"name":"Probably Aleks","steam_id":76561199106731358,"connected_time":1800000000000,"state":"active","ping":61},{"user_id":838,"name":"stitchu27","steam_id":76561199087081376,"connected_time":236000000000,"state":"active","ping":73},{"user_id":839,"name":"Mommy Cloud Audios Gaming","steam_id":76561198880304614,"connected_time":155000000000,"state":"active","ping":66},{"user_id":798,"name":"Nick","steam_id":76561198144448144,"connected_time":2728000000000,"state":"active","ping":58},{"user_id":831,"name":"Koffie ‡∂û","steam_id":76561198065176679,"connected_time":1167000000000,"state":"active","ping":51},{"user_id":832,"name":"MazapanCabon28","steam_id":76561199243339919,"connected_time":1054000000000,"state":"active","ping":107},{"user_id":780,"name":"„ÄéHazon„Äè","steam_id":76561198119852107,"connected_time":4502000000000,"state":"active","ping":63},{"user_id":770,"name":"Dr Smeggman","steam_id":76561197966614845,"connected_time":4809000000000,"state":"active","ping":134},{"user_id":729,"name":"River Rat","steam_id":76561198116383976,"connected_time":8462000000000,"state":"active","ping":98},{"user_id":820,"name":"Kamin","steam_id":76561198255299559,"connected_time":1706000000000,"state":"active","ping":84},{"user_id":785,"name":"Eightoneto","steam_id":76561198204106991,"connected_time":4453000000000,"state":"active","ping":62},{"user_id":824,"name":"Enderneer","steam_id":76561198012136653,"connected_time":1596000000000,"state":"active","ping":55},{"user_id":841,"name":"Skbonesin","steam_id":76561198180513878,"connected_time":61000000000,"state":"active","ping":101},{"user_id":842,"name":"your mom misses me","steam_id":76561198017748754,"connected_time":53000000000,"state":"active","ping":44},{"user_id":791,"name":"Devious Wink","steam_id":76561198043571022,"connected_time":4194000000000,"state":"active","ping":61},{"user_id":844,"name":"LeatherFace","steam_id":76561198011947334,"connected_time":43000000000,"state":"spawning","ping":62}]},{"server_id":106,"name":"Uncletopia | Chicago | 2 | All Maps","name_short":"chi-2","host":"chi-1.us.uncletopia.com","port":27025,"enabled":true,"region":"us-central","cc":"us","latitude":41.881832,"longitude":-87.62318,"reserved":0,"last_update":"0001-01-01T00:00:00Z","name_a2s":"Uncletopia | Chicago | 2 | All Maps","protocol":17,"map":"koth_highpass","folder":"tf","game":"Team Fortress","app_id":440,"player_count":0,"max_players":24,"Bots":0,"server_type":"Dedicated","server_os":"Linux","password":true,"vac":true,"version":"7708610","steam_id":85568392924469985,"keywords":["cp","nocrits","nodmgspread","uncletopia"],"game_id":440,"stv_port":27026,"stv_name":"Uncletopia | Chicago | 2 | All Maps | STV","players":null},{"server_id":402,"name":"Uncletopia | Chicago | 3 | All Maps","name_short":"chi-3","host":"chi-1.us.uncletopia.com","port":27035,"enabled":true,"region":"us-central","cc":"us","latitude":41.881832,"longitude":-87.62318,"reserved":0,"last_update":"0001-01-01T00:00:00Z","name_a2s":"Uncletopia | Chicago | 3 | All Maps","protocol":17,"map":"pl_upward","folder":"tf","game":"Team Fortress","app_id":440,"player_count":24,"max_players":24,"Bots":0,"server_type":"Dedicated","server_os":"Linux","password":true,"vac":true,"version":"7708610","steam_id":85568392924515191,"keywords":["nocrits","nodmgspread","payload","uncletopia"],"game_id":440,"stv_port":27036,"stv_name":"Uncletopia | Chicago | 3 | All Maps | STV","players":[{"user_id":381,"name":"A tree","steam_id":76561198309065247,"connected_time":2924000000000,"state":"active","ping":62},{"user_id":415,"name":"D1mensi0N #savetf2","steam_id":76561198430677972,"connected_time":477000000000,"state":"active","ping":46},{"user_id":355,"name":"NotEngineer","steam_id":76561198040138739,"connected_time":4096000000000,"state":"active","ping":53},{"user_id":359,"name":"B O O M   P O P","steam_id":76561198116106967,"connected_time":3982000000000,"state":"active","ping":72},{"user_id":417,"name":"Ricola102","steam_id":76561198119692259,"connected_time":439000000000,"state":"active","ping":66},{"user_id":362,"name":"The Goofiest Goober","steam_id":76561198289690437,"connected_time":3625000000000,"state":"active","ping":73},{"user_id":405,"name":"egirl","steam_id":76561198025289549,"connected_time":2015000000000,"state":"active","ping":94},{"user_id":418,"name":"looloopaa","steam_id":76561198048179242,"connected_time":437000000000,"state":"active","ping":52},{"user_id":420,"name":"BadQualityFrog","steam_id":76561198297292288,"connected_time":180000000000,"state":"active","ping":67},{"user_id":411,"name":"werf234","steam_id":76561198035793108,"connected_time":658000000000,"state":"active","ping":81},{"user_id":422,"name":"2 Amps","steam_id":76561198439410410,"connected_time":48000000000,"state":"active","ping":77},{"user_id":404,"name":"Alpha Llama","steam_id":76561198047840717,"connected_time":2062000000000,"state":"active","ping":39},{"user_id":402,"name":"OneTrueCorvid","steam_id":76561199012953221,"connected_time":2178000000000,"state":"active","ping":83},{"user_id":423,"name":"macaroni zamboni","steam_id":76561198127149121,"connected_time":30000000000,"state":"active","ping":67},{"user_id":351,"name":"lvl 10 mage","steam_id":76561198054544579,"connected_time":4648000000000,"state":"active","ping":70},{"user_id":383,"name":"Tangents","steam_id":76561198041705809,"connected_time":2879000000000,"state":"active","ping":66},{"user_id":421,"name":"DolphiN | RGL.gg","steam_id":76561198048614515,"connected_time":119000000000,"state":"active","ping":49},{"user_id":369,"name":"$200 Shirt","steam_id":76561197977329534,"connected_time":3205000000000,"state":"active","ping":56},{"user_id":338,"name":"amity‚úø","steam_id":76561198039506482,"connected_time":5074000000000,"state":"active","ping":53},{"user_id":412,"name":"Rari","steam_id":76561198128537564,"connected_time":546000000000,"state":"active","ping":48},{"user_id":341,"name":"Alex","steam_id":76561198135553277,"connected_time":5062000000000,"state":"active","ping":58},{"user_id":360,"name":"a Karamel her/she","steam_id":76561198076467775,"connected_time":3938000000000,"state":"active","ping":64},{"user_id":409,"name":"S0Rcius","steam_id":76561198052901018,"connected_time":1737000000000,"state":"active","ping":148},{"user_id":416,"name":"kermitcreeper(ZAZA)","steam_id":76561199222829972,"connected_time":477000000000,"state":"active","ping":46}]},{"server_id":403,"name":"Uncletopia | Chicago | 4 | All Maps","name_short":"chi-4","host":"chi-1.us.uncletopia.com","port":27045,"enabled":true,"region":"us-central","cc":"us","latitude":41.881832,"longitude":-87.62318,"reserved":0,"last_update":"0001-01-01T00:00:00Z","name_a2s":"Uncletopia | Chicago | 4 | All Maps","protocol":17,"map":"koth_viaduct","folder":"tf","game":"Team Fortress","app_id":440,"player_count":0,"max_players":24,"Bots":0,"server_type":"Dedicated","server_os":"Linux","password":true,"vac":true,"version":"7708610","steam_id":85568392924515193,"keywords":["cp","nocrits","nodmgspread","uncletopia"],"game_id":440,"stv_port":27046,"stv_name":"Uncletopia | Chicago | 4 | All Maps | STV","players":null},{"server_id":36,"name":"Uncletopia | Chicago | 5 | All Maps","name_short":"chi-5","host":"chi-2.us.uncletopia.com","port":27015,"enabled":true,"region":"us-central","cc":"us","latitude":41.881832,"longitude":-87.62318,"reserved":0,"last_update":"0001-01-01T00:00:00Z","name_a2s":"Uncletopia | Chicago | 5 | All Maps","protocol":17,"map":"koth_cascade","folder":"tf","game":"Team Fortress","app_id":440,"player_count":0,"max_players":24,"Bots":0,"server_type":"Dedicated","server_os":"Linux","password":true,"vac":true,"version":"7708610","steam_id":85568392924866362,"keywords":["cp","nocrits","nodmgspread","uncletopia"],"game_id":440,"stv_port":27016,"stv_name":"Uncletopia | Chicago | 5 | All Maps | STV","players":null},{"server_id":37,"name":"Uncletopia | Chicago | 6 | All Maps","name_short":"chi-6","host":"chi-2.us.uncletopia.com","port":27025,"enabled":true,"region":"us-central","cc":"us","latitude":41.881832,"longitude":-87.62318,"reserved":0,"last_update":"0001-01-01T00:00:00Z","name_a2s":"Uncletopia | Chicago | 6 | All Maps","protocol":17,"map":"cp_steel","folder":"tf","game":"Team Fortress","app_id":440,"player_count":24,"max_players":24,"Bots":0,"server_type":"Dedicated","server_os":"Linux","password":true,"vac":true,"version":"7708610","steam_id":85568392924866363,"keywords":["cp","nocrits","nodmgspread","uncletopia"],"game_id":440,"stv_port":27026,"stv_name":"Uncletopia | Chicago | 6 | All Maps | STV","players":[{"user_id":231,"name":"KevCraft","steam_id":76561199000622939,"connected_time":2142000000000,"state":"active","ping":67},{"user_id":194,"name":"demo main","steam_id":76561199043827112,"connected_time":4059000000000,"state":"active","ping":57},{"user_id":140,"name":"Jiggie","steam_id":76561198018134884,"connected_time":5569000000000,"state":"active","ping":143},{"user_id":246,"name":"Huge","steam_id":76561199030987614,"connected_time":445000000000,"state":"active","ping":72},{"user_id":239,"name":"The Burglar","steam_id":76561198325685937,"connected_time":906000000000,"state":"active","ping":57},{"user_id":253,"name":"Loneie","steam_id":76561198270957843,"connected_time":239000000000,"state":"active","ping":57},{"user_id":247,"name":"t13trevor","steam_id":76561199091633736,"connected_time":381000000000,"state":"active","ping":88},{"user_id":256,"name":"sliccbicc","steam_id":76561198203861284,"connected_time":80000000000,"state":"active","ping":85},{"user_id":228,"name":"Geraldo","steam_id":76561198046596619,"connected_time":2413000000000,"state":"active","ping":192},{"user_id":252,"name":"mothsprings","steam_id":76561198928604937,"connected_time":254000000000,"state":"active","ping":72},{"user_id":232,"name":"bad spy player","steam_id":76561198873699671,"connected_time":2140000000000,"state":"active","ping":92},{"user_id":249,"name":"Willy","steam_id":76561199240618325,"connected_time":330000000000,"state":"active","ping":62},{"user_id":240,"name":"GuyGoom","steam_id":76561198254522178,"connected_time":899000000000,"state":"active","ping":49},{"user_id":243,"name":"SUFFERING","steam_id":76561198094801861,"connected_time":870000000000,"state":"active","ping":61},{"user_id":224,"name":"Chol","steam_id":76561198122054259,"connected_time":2803000000000,"state":"active","ping":63},{"user_id":222,"name":"Verathragna","steam_id":76561198067215453,"connected_time":3193000000000,"state":"active","ping":61},{"user_id":199,"name":"rebel gives you wings","steam_id":76561198056377621,"connected_time":3955000000000,"state":"active","ping":65},{"user_id":250,"name":"rainwarden","steam_id":76561198085183458,"connected_time":330000000000,"state":"active","ping":65},{"user_id":251,"name":"the inventor of sex","steam_id":76561198074624639,"connected_time":273000000000,"state":"active","ping":62},{"user_id":254,"name":"Aristotle Voulton","steam_id":76561198100174923,"connected_time":171000000000,"state":"active","ping":80},{"user_id":255,"name":"Jazzdaq","steam_id":76561198100910774,"connected_time":113000000000,"state":"active","ping":82},{"user_id":238,"name":"CFDv20","steam_id":76561198450073779,"connected_time":1024000000000,"state":"active","ping":97},{"user_id":257,"name":"Audiphon","steam_id":76561198051340300,"connected_time":74000000000,"state":"spawning","ping":385},{"user_id":178,"name":"Pimpin' Aint Easy","steam_id":76561198228972504,"connected_time":4519000000000,"state":"active","ping":67}]},{"server_id":38,"name":"Uncletopia | Chicago | 7 | No Payload","name_short":"chi-7","host":"chi-2.us.uncletopia.com","port":27035,"enabled":true,"region":"us-central","cc":"us","latitude":41.881832,"longitude":-87.62318,"reserved":0,"last_update":"0001-01-01T00:00:00Z","name_a2s":"Uncletopia | Chicago | 7 | No Payload","protocol":17,"map":"koth_lakeside_final","folder":"tf","game":"Team Fortress","app_id":440,"player_count":0,"max_players":24,"Bots":0,"server_type":"Dedicated","server_os":"Linux","password":true,"vac":true,"version":"7708610","steam_id":85568392924866364,"keywords":["cp","nocrits","nodmgspread","uncletopia"],"game_id":440,"stv_port":27036,"stv_name":"Uncletopia | Chicago | 7 | No Payload | STV","players":null},{"server_id":39,"name":"Uncletopia | Chicago | 8 | Community","name_short":"chi-8","host":"chi-2.us.uncletopia.com","port":27045,"enabled":true,"region":"us-central","cc":"us","latitude":41.881832,"longitude":-87.62318,"reserved":0,"last_update":"0001-01-01T00:00:00Z","name_a2s":"Uncletopia | Chicago | 8 | Community","protocol":17,"map":"workshop/cp_reckoner_rc6.ugc674719999","folder":"tf","game":"Team Fortress","app_id":440,"player_count":0,"max_players":24,"Bots":0,"server_type":"Dedicated","server_os":"Linux","password":true,"vac":true,"version":"7708610","steam_id":85568392924866365,"keywords":["cp","nocrits","nodmgspread","uncletopia"],"game_id":440,"stv_port":27046,"stv_name":"Uncletopia | Chicago | 8 | Community | STV","players":null},{"server_id":8,"name":"Uncletopia | Dallas | 1 | All Maps","name_short":"dal-1","host":"dal-1.us.uncletopia.com","port":27015,"enabled":true,"region":"us-central","cc":"us","latitude":32.779167,"longitude":-96.80889,"reserved":0,"last_update":"0001-01-01T00:00:00Z","name_a2s":"Uncletopia | Dallas | 1 | All Maps","protocol":17,"map":"cp_process_final","folder":"tf","game":"Team Fortress","app_id":440,"player_count":23,"max_players":24,"Bots":0,"server_type":"Dedicated","server_os":"Linux","password":true,"vac":true,"version":"7708610","steam_id":85568392924469986,"keywords":["cp","nocrits","nodmgspread","uncletopia"],"game_id":440,"stv_port":27016,"stv_name":"Uncletopia | Dallas | 1 | All Maps | STV","players":[{"user_id":715,"name":"b. „Éû„Çπ„ÇØ","steam_id":76561199058344175,"connected_time":117000000000,"state":"connecting","ping":117},{"user_id":682,"name":"Furious George","steam_id":76561198405111646,"connected_time":2360000000000,"state":"connecting","ping":78},{"user_id":697,"name":"BIG HOG","steam_id":76561198079923652,"connected_time":1144000000000,"state":"connecting","ping":61},{"user_id":698,"name":"Robbie Rotten","steam_id":76561198426759305,"connected_time":1135000000000,"state":"connecting","ping":100},{"user_id":709,"name":"ShiddyKong","steam_id":76561198189742189,"connected_time":816000000000,"state":"connecting","ping":56},{"user_id":677,"name":"177013","steam_id":76561198072303290,"connected_time":2492000000000,"state":"connecting","ping":103},{"user_id":692,"name":"The Engie","steam_id":76561198049418537,"connected_time":1444000000000,"state":"connecting","ping":66},{"user_id":667,"name":"+","steam_id":76561198262422184,"connected_time":2891000000000,"state":"connecting","ping":66},{"user_id":711,"name":"Yuhh","steam_id":76561199112894955,"connected_time":592000000000,"state":"connecting","ping":82},{"user_id":693,"name":"Analander","steam_id":76561198051970128,"connected_time":1387000000000,"state":"connecting","ping":81},{"user_id":665,"name":"minion from minions","steam_id":76561199001464827,"connected_time":2916000000000,"state":"connecting","ping":78},{"user_id":696,"name":"WillsJit","steam_id":76561198064191759,"connected_time":1196000000000,"state":"connecting","ping":46},{"user_id":680,"name":"garuda","steam_id":76561198074722858,"connected_time":2391000000000,"state":"connecting","ping":65},{"user_id":710,"name":"I Swallowed Shampoo","steam_id":76561198075130050,"connected_time":631000000000,"state":"connecting","ping":87},{"user_id":712,"name":"why","steam_id":76561199059732212,"connected_time":504000000000,"state":"connecting","ping":81},{"user_id":702,"name":"JoshIsABot4168","steam_id":76561198452047234,"connected_time":1000000000000,"state":"connecting","ping":78},{"user_id":708,"name":"indec","steam_id":76561198978404397,"connected_time":867000000000,"state":"connecting","ping":112},{"user_id":704,"name":"Stillkill","steam_id":76561198065069057,"connected_time":990000000000,"state":"connecting","ping":47},{"user_id":705,"name":"CACTUS","steam_id":76561198327863229,"connected_time":985000000000,"state":"connecting","ping":95},{"user_id":672,"name":"sylerrr","steam_id":76561198191198866,"connected_time":2809000000000,"state":"connecting","ping":95},{"user_id":706,"name":"Tonyyo45","steam_id":76561199146907104,"connected_time":974000000000,"state":"connecting","ping":109},{"user_id":674,"name":"Lore","steam_id":76561198098407538,"connected_time":2808000000000,"state":"connecting","ping":98}]},{"server_id":108,"name":"Uncletopia | Dallas | 2 | All Maps","name_short":"dal-2","host":"dal-1.us.uncletopia.com","port":27025,"enabled":true,"region":"us-central","cc":"us","latitude":32.779167,"longitude":-96.80889,"reserved":0,"last_update":"0001-01-01T00:00:00Z","name_a2s":"Uncletopia | Dallas | 2 | All Maps","protocol":17,"map":"cp_sunshine","folder":"tf","game":"Team Fortress","app_id":440,"player_count":23,"max_players":24,"Bots":0,"server_type":"Dedicated","server_os":"Linux","password":true,"vac":true,"version":"7708610","steam_id":85568392924469988,"keywords":["cp","nocrits","nodmgspread","uncletopia"],"game_id":440,"stv_port":27026,"stv_name":"Uncletopia | Dallas | 2 | All Maps | STV","players":[{"user_id":150,"name":"Harold","steam_id":76561198057317770,"connected_time":764000000000,"state":"active","ping":74},{"user_id":126,"name":"Ownniceguy","steam_id":76561199216772555,"connected_time":2677000000000,"state":"active","ping":84},{"user_id":103,"name":"Krow","steam_id":76561198010392099,"connected_time":4440000000000,"state":"active","ping":52},{"user_id":96,"name":"Gelliterate","steam_id":76561198107233070,"connected_time":4735000000000,"state":"active","ping":50},{"user_id":130,"name":"Moz","steam_id":76561198027171160,"connected_time":2491000000000,"state":"active","ping":63},{"user_id":131,"name":"Sugercrash","steam_id":76561199187685119,"connected_time":2478000000000,"state":"active","ping":69},{"user_id":149,"name":"CloverOverDoverüçÄ","steam_id":76561198354292689,"connected_time":775000000000,"state":"active","ping":43},{"user_id":132,"name":"bryan","steam_id":76561197995189979,"connected_time":2431000000000,"state":"active","ping":42},{"user_id":141,"name":"Satori Komeiji","steam_id":76561198158211423,"connected_time":2159000000000,"state":"active","ping":67},{"user_id":153,"name":"Dzhoshua","steam_id":76561198071915251,"connected_time":611000000000,"state":"active","ping":80},{"user_id":51,"name":"Vero","steam_id":76561198183369559,"connected_time":7430000000000,"state":"active","ping":73},{"user_id":164,"name":"LogicalFurret","steam_id":76561198350604657,"connected_time":96000000000,"state":"active","ping":78},{"user_id":165,"name":"harmless","steam_id":76561197990799645,"connected_time":90000000000,"state":"active","ping":59},{"user_id":166,"name":"konkon","steam_id":76561198166827208,"connected_time":37000000000,"state":"active","ping":100},{"user_id":155,"name":"LightBulbGlue #SaveTF2","steam_id":76561198329573529,"connected_time":458000000000,"state":"active","ping":84},{"user_id":157,"name":"B H","steam_id":76561199387444853,"connected_time":451000000000,"state":"active","ping":117},{"user_id":168,"name":"Large Man","steam_id":76561198880396651,"connected_time":22000000000,"state":"active","ping":107},{"user_id":138,"name":"big dog","steam_id":76561198243918128,"connected_time":2290000000000,"state":"active","ping":69},{"user_id":169,"name":"N00BT00B","steam_id":76561198135592074,"connected_time":12000000000,"state":"spawning","ping":71},{"user_id":159,"name":"Goldy","steam_id":76561198386274766,"connected_time":416000000000,"state":"active","ping":57},{"user_id":160,"name":"insert_edgelordname","steam_id":76561198224396224,"connected_time":407000000000,"state":"active","ping":66},{"user_id":161,"name":"gummie","steam_id":76561198998340318,"connected_time":398000000000,"state":"active","ping":142},{"user_id":162,"name":"Meatball1106","steam_id":76561199008238301,"connected_time":376000000000,"state":"active","ping":59}]},{"server_id":5,"name":"Uncletopia | Frankfurt | 1 | All Maps","name_short":"frk-1","host":"frk-1.de.uncletopia.com","port":27015,"enabled":true,"region":"eu","cc":"de","latitude":50.110924,"longitude":8.682127,"reserved":0,"last_update":"0001-01-01T00:00:00Z","name_a2s":"Uncletopia | Frankfurt | 1 | All Maps","protocol":17,"map":"pl_swiftwater_final1","folder":"tf","game":"Team Fortress","app_id":440,"player_count":0,"max_players":24,"Bots":0,"server_type":"Dedicated","server_os":"Linux","password":true,"vac":true,"version":"7708610","steam_id":85568392924469989,"keywords":["nocrits","nodmgspread","payload","uncletopia"],"game_id":440,"stv_port":27016,"stv_name":"Uncletopia | Frankfurt | 1 | All Maps | STV","players":null},{"server_id":110,"name":"Uncletopia | Frankfurt | 2 | All Maps","name_short":"frk-2","host":"frk-1.de.uncletopia.com","port":27025,"enabled":true,"region":"eu","cc":"de","latitude":50.110924,"longitude":8.682127,"reserved":0,"last_update":"0001-01-01T00:00:00Z","name_a2s":"Uncletopia | Frankfurt | 2 | All Maps","protocol":17,"map":"pl_pier","folder":"tf","game":"Team Fortress","app_id":440,"player_count":0,"max_players":24,"Bots":0,"server_type":"Dedicated","server_os":"Linux","password":true,"vac":true,"version":"7708610","steam_id":85568392924469990,"keywords":["nocrits","nodmgspread","payload","uncletopia"],"game_id":440,"stv_port":0,"stv_name":"","players":null},{"server_id":308,"name":"Uncletopia | Frankfurt | 3 | All Maps","name_short":"frk-3","host":"frk-1.de.uncletopia.com","port":27035,"enabled":true,"region":"eu","cc":"de","latitude":50.110924,"longitude":8.682127,"reserved":0,"last_update":"0001-01-01T00:00:00Z","name_a2s":"Uncletopia | Frankfurt | 3 | All Maps","protocol":17,"map":"koth_cascade","folder":"tf","game":"Team Fortress","app_id":440,"player_count":0,"max_players":24,"Bots":0,"server_type":"Dedicated","server_os":"Linux","password":true,"vac":true,"version":"7708610","steam_id":85568392924504274,"keywords":["cp","nocrits","nodmgspread","uncletopia"],"game_id":440,"stv_port":0,"stv_name":"","players":null},{"server_id":309,"name":"Uncletopia | Frankfurt | 4 | All Maps","name_short":"frk-4","host":"frk-1.de.uncletopia.com","port":27045,"enabled":true,"region":"eu","cc":"de","latitude":50.110924,"longitude":8.682127,"reserved":0,"last_update":"0001-01-01T00:00:00Z","name_a2s":"Uncletopia | Frankfurt | 4 | All Maps","protocol":17,"map":"pl_swiftwater_final1","folder":"tf","game":"Team Fortress","app_id":440,"player_count":0,"max_players":24,"Bots":0,"server_type":"Dedicated","server_os":"Linux","password":true,"vac":true,"version":"7708610","steam_id":85568392924504275,"keywords":["nocrits","nodmgspread","payload","uncletopia"],"game_id":440,"stv_port":0,"stv_name":"","players":null},{"server_id":310,"name":"Uncletopia | Frankfurt | 5 | All Maps","name_short":"frk-5","host":"frk-1.de.uncletopia.com","port":27055,"enabled":true,"region":"eu","cc":"de","latitude":50.110924,"longitude":8.682127,"reserved":0,"last_update":"0001-01-01T00:00:00Z","name_a2s":"Uncletopia | Frankfurt | 5 | All Maps","protocol":17,"map":"koth_cascade","folder":"tf","game":"Team Fortress","app_id":440,"player_count":0,"max_players":24,"Bots":0,"server_type":"Dedicated","server_os":"Linux","password":true,"vac":true,"version":"7708610","steam_id":85568392924504277,"keywords":["cp","nocrits","nodmgspread","uncletopia"],"game_id":440,"stv_port":0,"stv_name":"","players":null},{"server_id":311,"name":"Uncletopia | Frankfurt | 6 | All Maps","name_short":"frk-6","host":"frk-1.de.uncletopia.com","port":27065,"enabled":true,"region":"eu","cc":"de","latitude":50.110924,"longitude":8.682127,"reserved":0,"last_update":"0001-01-01T00:00:00Z","name_a2s":"Uncletopia | Frankfurt | 6 | All Maps","protocol":17,"map":"koth_lakeside_final","folder":"tf","game":"Team Fortress","app_id":440,"player_count":0,"max_players":24,"Bots":0,"server_type":"Dedicated","server_os":"Linux","password":true,"vac":true,"version":"7708610","steam_id":85568392924504278,"keywords":["cp","nocrits","nodmgspread","uncletopia"],"game_id":440,"stv_port":0,"stv_name":"","players":null},{"server_id":23,"name":"Uncletopia | Frankfurt | 7 | No Payload","name_short":"frk-7","host":"frk-1.de.uncletopia.com","port":27075,"enabled":true,"region":"eu","cc":"de","latitude":50.110924,"longitude":8.682127,"reserved":0,"last_update":"0001-01-01T00:00:00Z","name_a2s":"Uncletopia | Frankfurt | 7 | No Payload","protocol":17,"map":"pl_frontier_final","folder":"tf","game":"Team Fortress","app_id":440,"player_count":0,"max_players":24,"Bots":0,"server_type":"Dedicated","server_os":"Linux","password":true,"vac":true,"version":"7708610","steam_id":85568392924742827,"keywords":["nocrits","nodmgspread","payload","uncletopia"],"game_id":440,"stv_port":0,"stv_name":"","players":null},{"server_id":24,"name":"Uncletopia | Frankfurt | 8 | Community","name_short":"frk-8","host":"frk-1.de.uncletopia.com","port":27085,"enabled":true,"region":"eu","cc":"de","latitude":50.110924,"longitude":8.682127,"reserved":0,"last_update":"0001-01-01T00:00:00Z","name_a2s":"Uncletopia | Frankfurt | 8 | Community","protocol":17,"map":"cp_mountainlab","folder":"tf","game":"Team Fortress","app_id":440,"player_count":0,"max_players":24,"Bots":0,"server_type":"Dedicated","server_os":"Linux","password":true,"vac":true,"version":"7708610","steam_id":85568392924742828,"keywords":["cp","nocrits","nodmgspread","uncletopia"],"game_id":440,"stv_port":0,"stv_name":"","players":null},{"server_id":202,"name":"Uncletopia | Hong Kong | 1 | All Maps","name_short":"hgk-1","host":"hgk-1.hk.uncletopia.com","port":27015,"enabled":true,"region":"asia","cc":"hk","latitude":22.302711,"longitude":114.177216,"reserved":0,"last_update":"0001-01-01T00:00:00Z","name_a2s":"Uncletopia | Hong Kong | 1 | All Maps","protocol":17,"map":"plr_hightower","folder":"tf","game":"Team Fortress","app_id":440,"player_count":24,"max_players":24,"Bots":0,"server_type":"Dedicated","server_os":"Linux","password":true,"vac":true,"version":"7708610","steam_id":85568392924494504,"keywords":["nocrits","nodmgspread","payload","uncletopia"],"game_id":440,"stv_port":27016,"stv_name":"Uncletopia | Hong Kong | 1 | All Maps | STV","players":[{"user_id":170,"name":"This is Elon Musk","steam_id":76561198429235506,"connected_time":5965000000000,"state":"active","ping":81},{"user_id":187,"name":"bonito borzoi","steam_id":76561198230213828,"connected_time":4293000000000,"state":"active","ping":66},{"user_id":176,"name":"cjjakeypaul","steam_id":76561199126245431,"connected_time":5409000000000,"state":"active","ping":66},{"user_id":222,"name":"L√∫d","steam_id":76561198828840546,"connected_time":1536000000000,"state":"active","ping":82},{"user_id":223,"name":"bakabazooka(merrychrismas)","steam_id":76561198061628689,"connected_time":1536000000000,"state":"active","ping":55},{"user_id":231,"name":"Michael Scott","steam_id":76561198023082794,"connected_time":1124000000000,"state":"active","ping":48},{"user_id":235,"name":"junbi OK","steam_id":76561198116387218,"connected_time":790000000000,"state":"active","ping":91},{"user_id":131,"name":"MS PowerPoint","steam_id":76561198369523192,"connected_time":7931000000000,"state":"active","ping":62},{"user_id":212,"name":"Ceatharlach","steam_id":76561198318126190,"connected_time":2627000000000,"state":"active","ping":99},{"user_id":178,"name":"Noyour","steam_id":76561198323259830,"connected_time":5164000000000,"state":"active","ping":117},{"user_id":206,"name":"cet","steam_id":76561198070892013,"connected_time":3053000000000,"state":"active","ping":64},{"user_id":233,"name":"the big guy","steam_id":76561198412329672,"connected_time":894000000000,"state":"active","ping":84},{"user_id":196,"name":"ogey","steam_id":76561198074339034,"connected_time":3949000000000,"state":"active","ping":77},{"user_id":225,"name":"SnakeOwl1","steam_id":76561198420073144,"connected_time":1473000000000,"state":"active","ping":93},{"user_id":217,"name":"Kiyomi","steam_id":76561198240627872,"connected_time":2307000000000,"state":"active","ping":53},{"user_id":232,"name":"Lu","steam_id":76561198320532821,"connected_time":1122000000000,"state":"active","ping":62},{"user_id":230,"name":"Dits","steam_id":76561198283833960,"connected_time":1324000000000,"state":"active","ping":37},{"user_id":234,"name":"Oral Cigarettes","steam_id":76561198347418251,"connected_time":817000000000,"state":"active","ping":70},{"user_id":238,"name":"ellz","steam_id":76561199216074568,"connected_time":510000000000,"state":"active","ping":72},{"user_id":221,"name":"„Éû„Ç∞„Éä„Çπ","steam_id":76561198208990721,"connected_time":1559000000000,"state":"active","ping":88},{"user_id":195,"name":"Lym0n","steam_id":76561199192420260,"connected_time":4101000000000,"state":"active","ping":111},{"user_id":205,"name":"Batbob","steam_id":76561198999413123,"connected_time":3105000000000,"state":"active","ping":70},{"user_id":182,"name":"LumpyMoose","steam_id":76561199109345936,"connected_time":5032000000000,"state":"active","ping":90},{"user_id":241,"name":"KillerKurt64(F2p)#SaveTf2","steam_id":76561199225224942,"connected_time":480000000000,"state":"active","ping":77}]},{"server_id":1,"name":"Uncletopia | Los Angeles | 1 | All Maps","name_short":"lax-1","host":"lax-1.us.uncletopia.com","port":27015,"enabled":true,"region":"us-west","cc":"us","latitude":33.94279,"longitude":-118.41004,"reserved":0,"last_update":"0001-01-01T00:00:00Z","name_a2s":"Uncletopia | Los Angeles | 1 | All Maps","protocol":17,"map":"cp_mountainlab","folder":"tf","game":"Team Fortress","app_id":440,"player_count":0,"max_players":24,"Bots":0,"server_type":"Dedicated","server_os":"Linux","password":true,"vac":true,"version":"7708610","steam_id":85568392924469991,"keywords":["cp","nocrits","nodmgspread","uncletopia"],"game_id":440,"stv_port":27016,"stv_name":"Uncletopia | Los Angeles | 1 | All Maps | STV","players":null},{"server_id":112,"name":"Uncletopia | Los Angeles | 2 | All Maps","name_short":"lax-2","host":"lax-1.us.uncletopia.com","port":27025,"enabled":true,"region":"us-west","cc":"us","latitude":33.94279,"longitude":-118.41004,"reserved":0,"last_update":"0001-01-01T00:00:00Z","name_a2s":"Uncletopia | Los Angeles | 2 | All Maps","protocol":17,"map":"cp_mountainlab","folder":"tf","game":"Team Fortress","app_id":440,"player_count":0,"max_players":24,"Bots":0,"server_type":"Dedicated","server_os":"Linux","password":true,"vac":true,"version":"7708610","steam_id":85568392924469992,"keywords":["cp","nocrits","nodmgspread","uncletopia"],"game_id":440,"stv_port":27026,"stv_name":"Uncletopia | Los Angeles | 2 | All Maps | STV","players":null},{"server_id":324,"name":"Uncletopia | Los Angeles | 3 | All Maps","name_short":"lax-3","host":"lax-1.us.uncletopia.com","port":27035,"enabled":true,"region":"us-west","cc":"us","latitude":33.94279,"longitude":-118.41004,"reserved":0,"last_update":"0001-01-01T00:00:00Z","name_a2s":"Uncletopia | Los Angeles | 3 | All Maps","protocol":17,"map":"koth_lakeside_final","folder":"tf","game":"Team Fortress","app_id":440,"player_count":19,"max_players":24,"Bots":0,"server_type":"Dedicated","server_os":"Linux","password":true,"vac":true,"version":"7708610","steam_id":85568392924510198,"keywords":["cp","nocrits","nodmgspread","uncletopia"],"game_id":440,"stv_port":27036,"stv_name":"Uncletopia | Los Angeles | 3 | All Maps | STV","players":[{"user_id":54,"name":"Humus","steam_id":76561198175286355,"connected_time":458000000000,"state":"active","ping":45},{"user_id":48,"name":"Seeker","steam_id":76561198046318796,"connected_time":850000000000,"state":"active","ping":142},{"user_id":34,"name":"chmilk","steam_id":76561198068783124,"connected_time":1427000000000,"state":"active","ping":39},{"user_id":55,"name":"Frongus","steam_id":76561197979056451,"connected_time":393000000000,"state":"active","ping":67},{"user_id":22,"name":"EggsAndBacon","steam_id":76561198031789082,"connected_time":2625000000000,"state":"active","ping":64},{"user_id":24,"name":"Mom","steam_id":76561198207936000,"connected_time":2414000000000,"state":"active","ping":47},{"user_id":58,"name":"Dragonova","steam_id":76561198080583119,"connected_time":67000000000,"state":"active","ping":47},{"user_id":50,"name":"Trips","steam_id":76561198054581597,"connected_time":628000000000,"state":"active","ping":39},{"user_id":45,"name":"Bedboy","steam_id":76561198060237818,"connected_time":970000000000,"state":"active","ping":62},{"user_id":36,"name":"sniffy","steam_id":76561198184933255,"connected_time":1262000000000,"state":"active","ping":41},{"user_id":37,"name":"Jovi Boy","steam_id":76561198046605691,"connected_time":1242000000000,"state":"active","ping":53},{"user_id":49,"name":"[Bandit]","steam_id":76561197986919852,"connected_time":723000000000,"state":"active","ping":73},{"user_id":39,"name":"Klip","steam_id":76561198316254429,"connected_time":1205000000000,"state":"active","ping":85},{"user_id":41,"name":"lgbtq rights","steam_id":76561198022967929,"connected_time":1156000000000,"state":"active","ping":51},{"user_id":42,"name":"moe","steam_id":76561198929586245,"connected_time":1150000000000,"state":"active","ping":45},{"user_id":57,"name":"gamer (derogatory)","steam_id":76561198334059206,"connected_time":228000000000,"state":"active","ping":58},{"user_id":46,"name":"friendly on uncletopia :)","steam_id":76561198064194222,"connected_time":943000000000,"state":"active","ping":66},{"user_id":47,"name":"Sharc","steam_id":76561197994871406,"connected_time":931000000000,"state":"active","ping":70}]},{"server_id":25,"name":"Uncletopia | Los Angeles | 4 | No Payload","name_short":"lax-4","host":"lax-1.us.uncletopia.com","port":27045,"enabled":true,"region":"us-west","cc":"us","latitude":33.94279,"longitude":-118.41004,"reserved":0,"last_update":"0001-01-01T00:00:00Z","name_a2s":"Uncletopia | Los Angeles | 4 | No Payload","protocol":17,"map":"koth_suijin","folder":"tf","game":"Team Fortress","app_id":440,"player_count":0,"max_players":24,"Bots":0,"server_type":"Dedicated","server_os":"Linux","password":true,"vac":true,"version":"7708610","steam_id":85568392924510199,"keywords":["cp","nocrits","nodmgspread","uncletopia"],"game_id":440,"stv_port":27046,"stv_name":"Uncletopia | Los Angeles | 4 | No Payload | STV","players":null},{"server_id":11,"name":"Uncletopia | London | 1 | All Maps","name_short":"lon-1","host":"lon-1.uk.uncletopia.com","port":27015,"enabled":true,"region":"eu","cc":"gb","latitude":51.509865,"longitude":-0.118092,"reserved":0,"last_update":"0001-01-01T00:00:00Z","name_a2s":"Uncletopia | London | 1 | All Maps","protocol":17,"map":"koth_harvest_final","folder":"tf","game":"Team Fortress","app_id":440,"player_count":1,"max_players":24,"Bots":0,"server_type":"Dedicated","server_os":"Linux","password":true,"vac":true,"version":"7708610","steam_id":85568392924367362,"keywords":["cp","nocrits","nodmgspread","uncletopia"],"game_id":440,"stv_port":27016,"stv_name":"Uncletopia | London | 1 | All Maps | STV","players":[{"user_id":387,"name":"MrPeanutHoovy","steam_id":76561199149697526,"connected_time":538000000000,"state":"active","ping":203}]},{"server_id":114,"name":"Uncletopia | London | 2 | All Maps","name_short":"lon-2","host":"lon-1.uk.uncletopia.com","port":27025,"enabled":true,"region":"eu","cc":"gb","latitude":51.509865,"longitude":-0.118092,"reserved":0,"last_update":"0001-01-01T00:00:00Z","name_a2s":"Uncletopia | London | 2 | All Maps","protocol":17,"map":"koth_lakeside_final","folder":"tf","game":"Team Fortress","app_id":440,"player_count":0,"max_players":24,"Bots":0,"server_type":"Dedicated","server_os":"Linux","password":true,"vac":true,"version":"7708610","steam_id":85568392924470941,"keywords":["cp","nocrits","nodmgspread","uncletopia"],"game_id":440,"stv_port":27026,"stv_name":"Uncletopia | London | 2 | All Maps | STV","players":null},{"server_id":320,"name":"Uncletopia | London | 3 | All Maps","name_short":"lon-3","host":"lon-1.uk.uncletopia.com","port":27035,"enabled":true,"region":"eu","cc":"gb","latitude":51.509865,"longitude":-0.118092,"reserved":0,"last_update":"0001-01-01T00:00:00Z","name_a2s":"Uncletopia | London | 3 | All Maps","protocol":17,"map":"pl_pier","folder":"tf","game":"Team Fortress","app_id":440,"player_count":0,"max_players":24,"Bots":0,"server_type":"Dedicated","server_os":"Linux","password":true,"vac":true,"version":"7708610","steam_id":85568392924510192,"keywords":["nocrits","nodmgspread","payload","uncletopia"],"game_id":440,"stv_port":27036,"stv_name":"Uncletopia | London | 3 | All Maps | STV","players":null},{"server_id":321,"name":"Uncletopia | London | 4 | All Maps","name_short":"lon-4","host":"lon-1.uk.uncletopia.com","port":27045,"enabled":true,"region":"eu","cc":"gb","latitude":51.509865,"longitude":-0.118092,"reserved":0,"last_update":"0001-01-01T00:00:00Z","name_a2s":"Uncletopia | London | 4 | All Maps","protocol":17,"map":"cp_dustbowl","folder":"tf","game":"Team Fortress","app_id":440,"player_count":0,"max_players":24,"Bots":0,"server_type":"Dedicated","server_os":"Linux","password":true,"vac":true,"version":"7708610","steam_id":85568392924510193,"keywords":["cp","nocrits","nodmgspread","uncletopia"],"game_id":440,"stv_port":27046,"stv_name":"Uncletopia | London | 4 | All Maps | STV","players":null},{"server_id":21,"name":"Uncletopia | London | 5 | All Maps","name_short":"lon-5","host":"lon-1.uk.uncletopia.com","port":27055,"enabled":true,"region":"eu","cc":"gb","latitude":51.509865,"longitude":-0.118092,"reserved":0,"last_update":"0001-01-01T00:00:00Z","name_a2s":"Uncletopia | London | 5 | All Maps","protocol":17,"map":"koth_viaduct","folder":"tf","game":"Team Fortress","app_id":440,"player_count":0,"max_players":24,"Bots":0,"server_type":"Dedicated","server_os":"Linux","password":true,"vac":true,"version":"7708610","steam_id":85568392924742829,"keywords":["cp","nocrits","nodmgspread","uncletopia"],"game_id":440,"stv_port":27056,"stv_name":"Uncletopia | London | 5 | All Maps | STV","players":null},{"server_id":22,"name":"Uncletopia | London | 6 | All Maps","name_short":"lon-6","host":"lon-1.uk.uncletopia.com","port":27065,"enabled":true,"region":"eu","cc":"gb","latitude":51.509865,"longitude":-0.118092,"reserved":0,"last_update":"0001-01-01T00:00:00Z","name_a2s":"Uncletopia | London | 6 | All Maps","protocol":17,"map":"koth_highpass","folder":"tf","game":"Team Fortress","app_id":440,"player_count":0,"max_players":24,"Bots":0,"server_type":"Dedicated","server_os":"Linux","password":true,"vac":true,"version":"7708610","steam_id":85568392924742830,"keywords":["cp","nocrits","nodmgspread","uncletopia"],"game_id":440,"stv_port":27066,"stv_name":"Uncletopia | London | 6 | All Maps | STV","players":null},{"server_id":40,"name":"Uncletopia | London | 7 | No Payload","name_short":"lon-7","host":"lon-1.uk.uncletopia.com","port":27075,"enabled":true,"region":"eu","cc":"gb","latitude":51.509865,"longitude":-0.118092,"reserved":0,"last_update":"0001-01-01T00:00:00Z","name_a2s":"Uncletopia | London | 7 | No Payload","protocol":17,"map":"koth_brazil","folder":"tf","game":"Team Fortress","app_id":440,"player_count":0,"max_players":24,"Bots":0,"server_type":"Dedicated","server_os":"Linux","password":true,"vac":true,"version":"7708610","steam_id":85568392924964314,"keywords":["cp","nocrits","nodmgspread","uncletopia"],"game_id":440,"stv_port":27076,"stv_name":"Uncletopia | London | 7 | No Payload | STV","players":null},{"server_id":41,"name":"Uncletopia | London | 8 | Community","name_short":"lon-8","host":"lon-1.uk.uncletopia.com","port":27085,"enabled":true,"region":"eu","cc":"gb","latitude":51.509865,"longitude":-0.118092,"reserved":0,"last_update":"0001-01-01T00:00:00Z","name_a2s":"Uncletopia | London | 8 | Community","protocol":17,"map":"workshop/koth_product_final.ugc454272353","folder":"tf","game":"Team Fortress","app_id":440,"player_count":0,"max_players":24,"Bots":0,"server_type":"Dedicated","server_os":"Linux","password":true,"vac":true,"version":"7708610","steam_id":85568392924964315,"keywords":["cp","nocrits","nodmgspread","uncletopia"],"game_id":440,"stv_port":27086,"stv_name":"Uncletopia | London | 8 | Community | STV","players":null},{"server_id":300,"name":"Uncletopia | Montr√©al | 1 | All Maps","name_short":"mtl-1","host":"mtl-1.ca.uncletopia.com","port":27015,"enabled":true,"region":"us-east","cc":"ca","latitude":45.50889,"longitude":-73.56167,"reserved":0,"last_update":"0001-01-01T00:00:00Z","name_a2s":"Uncletopia | Montr√©al | 1 | All Maps","protocol":17,"map":"koth_cascade","folder":"tf","game":"Team Fortress","app_id":440,"player_count":0,"max_players":24,"Bots":0,"server_type":"Dedicated","server_os":"Linux","password":true,"vac":true,"version":"7708610","steam_id":85568392924500087,"keywords":["cp","nocrits","nodmgspread","uncletopia"],"game_id":440,"stv_port":27016,"stv_name":"Uncletopia | Montr√©al | 1 | All Maps | STV","players":null},{"server_id":301,"name":"Uncletopia | Montr√©al | 2 | All Maps","name_short":"mtl-2","host":"mtl-1.ca.uncletopia.com","port":27025,"enabled":true,"region":"us-east","cc":"ca","latitude":45.50889,"longitude":-73.56167,"reserved":0,"last_update":"0001-01-01T00:00:00Z","name_a2s":"Uncletopia | Montr√©al | 2 | All Maps","protocol":17,"map":"koth_viaduct","folder":"tf","game":"Team Fortress","app_id":440,"player_count":0,"max_players":24,"Bots":0,"server_type":"Dedicated","server_os":"Linux","password":true,"vac":true,"version":"7708610","steam_id":85568392924500088,"keywords":["cp","nocrits","nodmgspread","uncletopia"],"game_id":440,"stv_port":27026,"stv_name":"Uncletopia | Montr√©al | 2 | All Maps | STV","players":null},{"server_id":302,"name":"Uncletopia | Montr√©al | 3 | All Maps","name_short":"mtl-3","host":"mtl-1.ca.uncletopia.com","port":27035,"enabled":true,"region":"us-east","cc":"ca","latitude":45.50889,"longitude":-73.56167,"reserved":0,"last_update":"0001-01-01T00:00:00Z","name_a2s":"Uncletopia | Montr√©al | 3 | All Maps","protocol":17,"map":"koth_cascade","folder":"tf","game":"Team Fortress","app_id":440,"player_count":0,"max_players":24,"Bots":0,"server_type":"Dedicated","server_os":"Linux","password":true,"vac":true,"version":"7708610","steam_id":85568392924500089,"keywords":["cp","nocrits","nodmgspread","uncletopia"],"game_id":440,"stv_port":27036,"stv_name":"Uncletopia | Montr√©al | 3 | All Maps | STV","players":null},{"server_id":303,"name":"Uncletopia | Montr√©al | 4 | No Payload","name_short":"mtl-4","host":"mtl-1.ca.uncletopia.com","port":27045,"enabled":true,"region":"us-east","cc":"ca","latitude":45.50889,"longitude":-73.56167,"reserved":0,"last_update":"0001-01-01T00:00:00Z","name_a2s":"Uncletopia | Montr√©al | 4 | No Payload","protocol":17,"map":"pl_frontier_final","folder":"tf","game":"Team Fortress","app_id":440,"player_count":0,"max_players":24,"Bots":0,"server_type":"Dedicated","server_os":"Linux","password":true,"vac":true,"version":"7708610","steam_id":85568392924500090,"keywords":["nocrits","nodmgspread","payload","uncletopia"],"game_id":440,"stv_port":0,"stv_name":"","players":null},{"server_id":13,"name":"Uncletopia | New York City | 1 | All Maps","name_short":"nyc-1","host":"nyc-1.us.uncletopia.com","port":27015,"enabled":true,"region":"us-east","cc":"us","latitude":40.73061,"longitude":-73.93524,"reserved":0,"last_update":"0001-01-01T00:00:00Z","name_a2s":"Uncletopia | New York City | 1 | All Maps","protocol":17,"map":"pl_barnblitz","folder":"tf","game":"Team Fortress","app_id":440,"player_count":24,"max_players":24,"Bots":0,"server_type":"Dedicated","server_os":"Linux","password":true,"vac":true,"version":"7708610","steam_id":85568392924469993,"keywords":["nocrits","nodmgspread","payload","uncletopia"],"game_id":440,"stv_port":27016,"stv_name":"Uncletopia | New York City | 1 | All Maps | STV","players":[{"user_id":627,"name":"the senate","steam_id":76561198353542913,"connected_time":875000000000,"state":"active","ping":99},{"user_id":589,"name":"brerbo","steam_id":76561198080875862,"connected_time":4189000000000,"state":"active","ping":51},{"user_id":602,"name":"hugs for noob","steam_id":76561198063116291,"connected_time":3777000000000,"state":"active","ping":65},{"user_id":620,"name":"Flexnuts","steam_id":76561198011140759,"connected_time":2398000000000,"state":"active","ping":63},{"user_id":614,"name":"ApertureCity","steam_id":76561198004153607,"connected_time":2697000000000,"state":"active","ping":67},{"user_id":567,"name":"a sleepy weeb","steam_id":76561198118111687,"connected_time":5386000000000,"state":"active","ping":58},{"user_id":635,"name":"CLAYDUCK","steam_id":76561197995221829,"connected_time":60000000000,"state":"active","ping":107},{"user_id":632,"name":"‚ö°Mr.Muff ·Éö‡πä","steam_id":76561198217103553,"connected_time":392000000000,"state":"active","ping":48},{"user_id":628,"name":"triple eco","steam_id":76561198079892116,"connected_time":819000000000,"state":"active","ping":61},{"user_id":631,"name":"hashmap","steam_id":76561198043794014,"connected_time":394000000000,"state":"active","ping":66},{"user_id":588,"name":"Shwartzy","steam_id":76561198073927139,"connected_time":4240000000000,"state":"active","ping":60},{"user_id":623,"name":"ailee","steam_id":76561198284326069,"connected_time":1509000000000,"state":"active","ping":60},{"user_id":613,"name":"Gian","steam_id":76561198041434512,"connected_time":2790000000000,"state":"active","ping":111},{"user_id":617,"name":"Fishum","steam_id":76561198148556559,"connected_time":2668000000000,"state":"active","ping":146},{"user_id":624,"name":"Loose Duke","steam_id":76561198992852018,"connected_time":1348000000000,"state":"active","ping":43},{"user_id":633,"name":"‚ô¶‚ô£Quadric‚ô•‚ô†","steam_id":76561198061003853,"connected_time":346000000000,"state":"active","ping":51},{"user_id":622,"name":"Parth Makeo","steam_id":76561198002516581,"connected_time":2275000000000,"state":"active","ping":54},{"user_id":594,"name":"Spiteful_Guru","steam_id":76561199227572419,"connected_time":4024000000000,"state":"active","ping":66},{"user_id":625,"name":"Miner2495","steam_id":76561198445904523,"connected_time":1334000000000,"state":"active","ping":62},{"user_id":634,"name":".didntnoagoodname.","steam_id":76561198031988564,"connected_time":315000000000,"state":"active","ping":54},{"user_id":601,"name":"Bonchiko","steam_id":76561198065133470,"connected_time":3805000000000,"state":"active","ping":72},{"user_id":609,"name":"awesomepossum1121","steam_id":76561199161193845,"connected_time":3166000000000,"state":"active","ping":109},{"user_id":626,"name":"Turnabout","steam_id":76561198883325162,"connected_time":1019000000000,"state":"active","ping":55},{"user_id":606,"name":"Infinity","steam_id":76561199134919099,"connected_time":3729000000000,"state":"active","ping":42}]},{"server_id":14,"name":"Uncletopia | New York City | 2 | All Maps","name_short":"nyc-2","host":"nyc-1.us.uncletopia.com","port":27025,"enabled":true,"region":"us-east","cc":"us","latitude":40.73061,"longitude":-73.93524,"reserved":0,"last_update":"0001-01-01T00:00:00Z","name_a2s":"Uncletopia | New York City | 2 | All Maps","protocol":17,"map":"koth_highpass","folder":"tf","game":"Team Fortress","app_id":440,"player_count":0,"max_players":24,"Bots":0,"server_type":"Dedicated","server_os":"Linux","password":true,"vac":true,"version":"7708610","steam_id":85568392924469994,"keywords":["cp","nocrits","nodmgspread","uncletopia"],"game_id":440,"stv_port":27026,"stv_name":"Uncletopia | New York City | 2 | All Maps | STV","players":null},{"server_id":15,"name":"Uncletopia | New York City | 3 | All Maps","name_short":"nyc-3","host":"nyc-1.us.uncletopia.com","port":27035,"enabled":true,"region":"us-east","cc":"us","latitude":40.73061,"longitude":-73.93524,"reserved":0,"last_update":"0001-01-01T00:00:00Z","name_a2s":"Uncletopia | New York City | 3 | All Maps","protocol":17,"map":"cp_snakewater_final1","folder":"tf","game":"Team Fortress","app_id":440,"player_count":24,"max_players":24,"Bots":0,"server_type":"Dedicated","server_os":"Linux","password":true,"vac":true,"version":"7708610","steam_id":85568392924742820,"keywords":["cp","nocrits","nodmgspread","uncletopia"],"game_id":440,"stv_port":27036,"stv_name":"Uncletopia | New York City | 3 | All Maps | STV","players":[{"user_id":283,"name":"A used self heating flesh-light","steam_id":76561198069918221,"connected_time":1655000000000,"state":"active","ping":48},{"user_id":284,"name":"Mischief of Rats","steam_id":76561198106307068,"connected_time":1576000000000,"state":"active","ping":65},{"user_id":301,"name":"layabout","steam_id":76561198130892117,"connected_time":236000000000,"state":"active","ping":49},{"user_id":299,"name":"Bliztank | RGL.gg","steam_id":76561198019252798,"connected_time":536000000000,"state":"active","ping":44},{"user_id":247,"name":"ndvr","steam_id":76561199379200102,"connected_time":4022000000000,"state":"active","ping":41},{"user_id":273,"name":"stewfat","steam_id":76561198084066964,"connected_time":2213000000000,"state":"active","ping":31},{"user_id":267,"name":"Mr.Clean(All Purpose Cleaner)","steam_id":76561198208014257,"connected_time":2688000000000,"state":"active","ping":64},{"user_id":178,"name":"CamoS1250","steam_id":76561198309917434,"connected_time":8432000000000,"state":"active","ping":77},{"user_id":285,"name":"Bazowick","steam_id":76561198055318418,"connected_time":1542000000000,"state":"active","ping":63},{"user_id":286,"name":"NiŒªiwiŒªi, ‚ñºiscount of ‚ñºio","steam_id":76561198009193777,"connected_time":1536000000000,"state":"active","ping":57},{"user_id":256,"name":"black fempyro mod installer","steam_id":76561198008455368,"connected_time":3465000000000,"state":"active","ping":66},{"user_id":287,"name":"MILK MAN","steam_id":76561199012860639,"connected_time":1491000000000,"state":"active","ping":72},{"user_id":288,"name":"LalitoTV","steam_id":76561198334302951,"connected_time":1472000000000,"state":"active","ping":125},{"user_id":289,"name":"Crashsune","steam_id":76561198030145876,"connected_time":1469000000000,"state":"active","ping":92},{"user_id":290,"name":"DeathToCats","steam_id":76561198092238353,"connected_time":1457000000000,"state":"active","ping":82},{"user_id":291,"name":"\"InsertWittyNameHere\"","steam_id":76561198273918841,"connected_time":1453000000000,"state":"active","ping":42},{"user_id":300,"name":"checkswing","steam_id":76561198999816132,"connected_time":397000000000,"state":"active","ping":86},{"user_id":302,"name":"Sicko Mode (Chris Pratt Cover)","steam_id":76561198315786174,"connected_time":234000000000,"state":"active","ping":50},{"user_id":292,"name":"Scorpsy","steam_id":76561198024477688,"connected_time":1452000000000,"state":"active","ping":60},{"user_id":280,"name":"AlexLovesYou","steam_id":76561199163263543,"connected_time":1703000000000,"state":"active","ping":94},{"user_id":203,"name":"Al Michaels","steam_id":76561198071217597,"connected_time":7474000000000,"state":"active","ping":61},{"user_id":293,"name":"moonage72","steam_id":76561199187008629,"connected_time":1394000000000,"state":"active","ping":71},{"user_id":173,"name":"Your Local Jester","steam_id":76561199120223717,"connected_time":8673000000000,"state":"active","ping":59},{"user_id":298,"name":"Shmuzy","steam_id":76561198252123826,"connected_time":970000000000,"state":"active","ping":144}]},{"server_id":16,"name":"Uncletopia | New York City | 4 | Community","name_short":"nyc-4","host":"nyc-1.us.uncletopia.com","port":27045,"enabled":true,"region":"us-east","cc":"us","latitude":40.73061,"longitude":-73.93524,"reserved":0,"last_update":"0001-01-01T00:00:00Z","name_a2s":"Uncletopia | New York City | 4 | Community","protocol":17,"map":"workshop/cp_logjam_rc12.ugc454812035","folder":"tf","game":"Team Fortress","app_id":440,"player_count":17,"max_players":24,"Bots":0,"server_type":"Dedicated","server_os":"Linux","password":true,"vac":true,"version":"7708610","steam_id":85568392924742821,"keywords":["cp","nocrits","nodmgspread","uncletopia"],"game_id":440,"stv_port":27046,"stv_name":"Uncletopia | New York City | 4 | Community | STV","players":[{"user_id":77,"name":"NootsyNootsy","steam_id":76561198020930829,"connected_time":325000000000,"state":"active","ping":45},{"user_id":78,"name":"|AG| Level","steam_id":76561198063633592,"connected_time":102000000000,"state":"active","ping":57},{"user_id":81,"name":"Will (becoming Enlightened)","steam_id":76561198397037834,"connected_time":51000000000,"state":"active","ping":109},{"user_id":19,"name":"ZylalyZ","steam_id":76561198050324378,"connected_time":3747000000000,"state":"active","ping":79},{"user_id":75,"name":"Bashirider","steam_id":76561198260522253,"connected_time":428000000000,"state":"active","ping":43},{"user_id":76,"name":"MichelangeloStark","steam_id":76561197976489900,"connected_time":360000000000,"state":"active","ping":73},{"user_id":79,"name":"Nolan (Femboy)","steam_id":76561198082534795,"connected_time":70000000000,"state":"active","ping":73},{"user_id":80,"name":"jfcc","steam_id":76561198043195127,"connected_time":55000000000,"state":"active","ping":74},{"user_id":52,"name":"Chair","steam_id":76561198011733914,"connected_time":1755000000000,"state":"active","ping":61},{"user_id":82,"name":"Zoembie","steam_id":76561198108007509,"connected_time":31000000000,"state":"active","ping":194},{"user_id":83,"name":"Weary","steam_id":76561198145767546,"connected_time":6000000000,"state":"spawning","ping":85},{"user_id":74,"name":"xZoroarkgaming","steam_id":76561199199302865,"connected_time":563000000000,"state":"active","ping":45},{"user_id":40,"name":"GiraffeMan","steam_id":76561198042104084,"connected_time":2659000000000,"state":"active","ping":47},{"user_id":71,"name":"alhaul01","steam_id":76561198976414436,"connected_time":680000000000,"state":"active","ping":94},{"user_id":50,"name":"champion  turkey","steam_id":76561198151338482,"connected_time":2054000000000,"state":"active","ping":46},{"user_id":72,"name":"billy","steam_id":76561198035087830,"connected_time":674000000000,"state":"active","ping":64},{"user_id":60,"name":"Turtleboi734","steam_id":76561199083027906,"connected_time":1377000000000,"state":"active","ping":69}]},{"server_id":142,"name":"Uncletopia | S√£o Paulo | 1 | All Maps","name_short":"sao-1","host":"sao-1.br.uncletopia.com","port":27015,"enabled":true,"region":"sa","cc":"br","latitude":-23.533773,"longitude":-46.62529,"reserved":0,"last_update":"0001-01-01T00:00:00Z","name_a2s":"Uncletopia | S√£o Paulo | 1 | All Maps","protocol":17,"map":"koth_cascade","folder":"tf","game":"Team Fortress","app_id":440,"player_count":0,"max_players":24,"Bots":0,"server_type":"Dedicated","server_os":"Linux","password":true,"vac":true,"version":"7708610","steam_id":85568392924469996,"keywords":["cp","nocrits","nodmgspread","uncletopia"],"game_id":440,"stv_port":27016,"stv_name":"Uncletopia | S√£o Paulo | 1 | All Maps | STV","players":null},{"server_id":143,"name":"Uncletopia | S√£o Paulo | 2 | All Maps","name_short":"sao-2","host":"sao-2.br.uncletopia.com","port":27015,"enabled":true,"region":"sa","cc":"br","latitude":-23.533773,"longitude":-46.62529,"reserved":0,"last_update":"0001-01-01T00:00:00Z","name_a2s":"Uncletopia | S√£o Paulo | 2 | All Maps","protocol":17,"map":"koth_viaduct","folder":"tf","game":"Team Fortress","app_id":440,"player_count":0,"max_players":24,"Bots":0,"server_type":"Dedicated","server_os":"Linux","password":true,"vac":true,"version":"7708610","steam_id":85568392924485349,"keywords":["cp","nocrits","nodmgspread","uncletopia"],"game_id":440,"stv_port":27016,"stv_name":"Uncletopia | S√£o Paulo | 2 | All Maps | STV","players":null},{"server_id":7,"name":"Uncletopia | Seattle | 1 | All Maps","name_short":"sea-1","host":"sea-1.us.uncletopia.com","port":27015,"enabled":true,"region":"us-west","cc":"us","latitude":47.608013,"longitude":-122.33517,"reserved":0,"last_update":"0001-01-01T00:00:00Z","name_a2s":"Uncletopia | Seattle | 1 | All Maps","protocol":17,"map":"pl_barnblitz","folder":"tf","game":"Team Fortress","app_id":440,"player_count":24,"max_players":24,"Bots":0,"server_type":"Dedicated","server_os":"Linux","password":true,"vac":true,"version":"7708610","steam_id":85568392924469997,"keywords":["nocrits","nodmgspread","payload","uncletopia"],"game_id":440,"stv_port":27016,"stv_name":"Uncletopia | Seattle | 1 | All Maps | STV","players":[{"user_id":436,"name":"lol","steam_id":76561198026491738,"connected_time":253000000000,"state":"active","ping":85},{"user_id":392,"name":"BoddhosDaughter","steam_id":76561198140202317,"connected_time":4054000000000,"state":"active","ping":104},{"user_id":437,"name":"Black Adam","steam_id":76561198066091050,"connected_time":249000000000,"state":"active","ping":45},{"user_id":425,"name":"ChickenManPhil","steam_id":76561199139508332,"connected_time":1533000000000,"state":"active","ping":134},{"user_id":414,"name":"Sniff","steam_id":76561198010270922,"connected_time":2297000000000,"state":"active","ping":46},{"user_id":434,"name":"chompmastr","steam_id":76561199121805899,"connected_time":395000000000,"state":"active","ping":53},{"user_id":426,"name":"Greskrendtregk","steam_id":76561197969553142,"connected_time":1531000000000,"state":"active","ping":58},{"user_id":388,"name":"Joy in A Box","steam_id":76561198156820753,"connected_time":4867000000000,"state":"active","ping":180},{"user_id":358,"name":"Sweets","steam_id":76561198998446307,"connected_time":6728000000000,"state":"active","ping":114},{"user_id":438,"name":"General Fisticuffs","steam_id":76561198255721392,"connected_time":244000000000,"state":"active","ping":105},{"user_id":339,"name":"bitmappu","steam_id":76561199000786530,"connected_time":7392000000000,"state":"active","ping":87},{"user_id":359,"name":"Luca","steam_id":76561198125087140,"connected_time":6724000000000,"state":"active","ping":48},{"user_id":430,"name":"SvicidalBug","steam_id":76561198221390504,"connected_time":1253000000000,"state":"active","ping":70},{"user_id":428,"name":"strange","steam_id":76561198396870470,"connected_time":1488000000000,"state":"active","ping":57},{"user_id":433,"name":"Tommy Pickles (Very Cool)","steam_id":76561198391261463,"connected_time":533000000000,"state":"active","ping":123},{"user_id":417,"name":"Brynkiwi","steam_id":76561198052177917,"connected_time":2235000000000,"state":"active","ping":90},{"user_id":439,"name":"s4lmon","steam_id":76561198055882807,"connected_time":115000000000,"state":"active","ping":52},{"user_id":368,"name":"Wormy Getting Coal","steam_id":76561198054539200,"connected_time":6144000000000,"state":"active","ping":55},{"user_id":431,"name":"M0T0BREATH  \\TG/","steam_id":76561197961205221,"connected_time":902000000000,"state":"active","ping":128},{"user_id":404,"name":"Dosario","steam_id":76561198298095535,"connected_time":3186000000000,"state":"active","ping":50},{"user_id":440,"name":"tingle shitmouth","steam_id":76561198055109192,"connected_time":100000000000,"state":"active","ping":122},{"user_id":424,"name":"Mouth Tea","steam_id":76561198285054047,"connected_time":1628000000000,"state":"active","ping":90},{"user_id":393,"name":"Lambchop","steam_id":76561198043900363,"connected_time":3892000000000,"state":"active","ping":85},{"user_id":441,"name":"Pyronautica","steam_id":76561198032490218,"connected_time":99000000000,"state":"active","ping":59}]},{"server_id":119,"name":"Uncletopia | Seattle | 2 | All Maps","name_short":"sea-2","host":"sea-1.us.uncletopia.com","port":27025,"enabled":true,"region":"us-west","cc":"us","latitude":47.608013,"longitude":-122.33517,"reserved":0,"last_update":"0001-01-01T00:00:00Z","name_a2s":"Uncletopia | Seattle | 2 | All Maps","protocol":17,"map":"cp_process_final","folder":"tf","game":"Team Fortress","app_id":440,"player_count":24,"max_players":24,"Bots":0,"server_type":"Dedicated","server_os":"Linux","password":true,"vac":true,"version":"7708610","steam_id":85568392924469998,"keywords":["cp","nocrits","nodmgspread","uncletopia"],"game_id":440,"stv_port":27026,"stv_name":"Uncletopia | Seattle | 2 | All Maps | STV","players":[{"user_id":417,"name":"oil","steam_id":76561198099980149,"connected_time":1217000000000,"state":"active","ping":75},{"user_id":408,"name":"exephur","steam_id":76561198135763234,"connected_time":2007000000000,"state":"active","ping":61},{"user_id":418,"name":"Evanb","steam_id":76561198042057792,"connected_time":1199000000000,"state":"active","ping":47},{"user_id":386,"name":"crumbles","steam_id":76561198168707036,"connected_time":3513000000000,"state":"active","ping":73},{"user_id":426,"name":"Sinn","steam_id":76561199013434543,"connected_time":904000000000,"state":"active","ping":71},{"user_id":419,"name":"JON","steam_id":76561198057971005,"connected_time":1194000000000,"state":"active","ping":36},{"user_id":434,"name":"SolarusD","steam_id":76561198029279861,"connected_time":498000000000,"state":"active","ping":61},{"user_id":420,"name":"SquirrelAway‚Ñ¢","steam_id":76561197998828619,"connected_time":1192000000000,"state":"active","ping":81},{"user_id":392,"name":"sockman","steam_id":76561198108408235,"connected_time":2805000000000,"state":"active","ping":92},{"user_id":409,"name":"Dogg wader","steam_id":76561199090314340,"connected_time":1834000000000,"state":"active","ping":62},{"user_id":427,"name":"brentonimo","steam_id":76561198035282062,"connected_time":884000000000,"state":"active","ping":67},{"user_id":424,"name":"–≥—Ä—É—Å—Ç–Ω—ã–π","steam_id":76561198274550638,"connected_time":988000000000,"state":"active","ping":117},{"user_id":430,"name":"BleuCan2","steam_id":76561198043556993,"connected_time":751000000000,"state":"active","ping":70},{"user_id":407,"name":"tosm-AA-","steam_id":76561198130032444,"connected_time":2167000000000,"state":"active","ping":51},{"user_id":429,"name":"Syrup","steam_id":76561198869174481,"connected_time":777000000000,"state":"active","ping":81},{"user_id":396,"name":"Cheeseoid","steam_id":76561198073836524,"connected_time":2762000000000,"state":"active","ping":101},{"user_id":414,"name":"Ch4rl33","steam_id":76561198037008621,"connected_time":1289000000000,"state":"active","ping":104},{"user_id":410,"name":"trackpad gaming | f2p","steam_id":76561198840414371,"connected_time":1425000000000,"state":"active","ping":103},{"user_id":433,"name":"GP-Stealth","steam_id":76561198142906368,"connected_time":608000000000,"state":"active","ping":76},{"user_id":416,"name":"sero","steam_id":76561198069317611,"connected_time":1274000000000,"state":"active","ping":103},{"user_id":421,"name":"wrost tf2 player ever","steam_id":76561199439477857,"connected_time":1183000000000,"state":"active","ping":106},{"user_id":425,"name":"Amogous Supreme","steam_id":76561198025476774,"connected_time":982000000000,"state":"active","ping":78},{"user_id":412,"name":"UV","steam_id":76561198083936918,"connected_time":1347000000000,"state":"active","ping":59},{"user_id":432,"name":"Gaming","steam_id":76561198327632113,"connected_time":681000000000,"state":"active","ping":51}]},{"server_id":17,"name":"Uncletopia | San Francisco | 1 | All Maps","name_short":"sfo-1","host":"sfo-1.us.uncletopia.com","port":27015,"enabled":true,"region":"us-west","cc":"us","latitude":37.77397,"longitude":-122.4313,"reserved":0,"last_update":"0001-01-01T00:00:00Z","name_a2s":"Uncletopia | San Francisco | 1 | All Maps","protocol":17,"map":"pl_upward","folder":"tf","game":"Team Fortress","app_id":440,"player_count":24,"max_players":24,"Bots":0,"server_type":"Dedicated","server_os":"Linux","password":true,"vac":true,"version":"7708610","steam_id":85568392924469999,"keywords":["nocrits","nodmgspread","payload","uncletopia"],"game_id":440,"stv_port":27016,"stv_name":"Uncletopia | San Francisco | 1 | All Maps | STV","players":[{"user_id":223,"name":"M4 Sherman","steam_id":76561198011096132,"connected_time":4151000000000,"state":"active","ping":45},{"user_id":257,"name":"W+M2","steam_id":76561198208996573,"connected_time":848000000000,"state":"active","ping":66},{"user_id":260,"name":"ninja fortnite","steam_id":76561198168114366,"connected_time":417000000000,"state":"active","ping":112},{"user_id":262,"name":"Livin' Like Larry","steam_id":76561198313360974,"connected_time":344000000000,"state":"active","ping":30},{"user_id":266,"name":"Murd is the Word","steam_id":76561198063991590,"connected_time":245000000000,"state":"active","ping":106},{"user_id":202,"name":"Perididdle","steam_id":76561198056864606,"connected_time":4853000000000,"state":"active","ping":76},{"user_id":256,"name":"SanitysEdge","steam_id":76561198130732813,"connected_time":1778000000000,"state":"active","ping":62},{"user_id":268,"name":"Jack from Jack in The Box","steam_id":76561199083594971,"connected_time":138000000000,"state":"active","ping":65},{"user_id":244,"name":"tkbeast","steam_id":76561198129003004,"connected_time":2598000000000,"state":"active","ping":50},{"user_id":237,"name":"Starbrew Coldbucks","steam_id":76561198281968441,"connected_time":2985000000000,"state":"active","ping":68},{"user_id":246,"name":"jennco","steam_id":76561198212421513,"connected_time":2590000000000,"state":"active","ping":54},{"user_id":269,"name":"Caesar Salad","steam_id":76561198167127580,"connected_time":107000000000,"state":"active","ping":64},{"user_id":258,"name":"facade","steam_id":76561199157009256,"connected_time":838000000000,"state":"active","ping":45},{"user_id":229,"name":"U LEE","steam_id":76561198008715362,"connected_time":3878000000000,"state":"active","ping":68},{"user_id":209,"name":"A UsedNom","steam_id":76561198402832756,"connected_time":4763000000000,"state":"active","ping":43},{"user_id":265,"name":"BernardBull","steam_id":76561198036138813,"connected_time":282000000000,"state":"active","ping":77},{"user_id":188,"name":"Jax O'Gaytor","steam_id":76561198288922168,"connected_time":6593000000000,"state":"active","ping":67},{"user_id":270,"name":"Iron Argus","steam_id":76561198181088245,"connected_time":107000000000,"state":"active","ping":130},{"user_id":254,"name":"Maj","steam_id":76561198128811267,"connected_time":1948000000000,"state":"active","ping":77},{"user_id":172,"name":"Marzbee115","steam_id":76561198095821025,"connected_time":7609000000000,"state":"active","ping":53},{"user_id":234,"name":"Sudo","steam_id":76561198123714026,"connected_time":3568000000000,"state":"active","ping":63},{"user_id":186,"name":"GameGuru the Green Gryphon","steam_id":76561198118495354,"connected_time":6949000000000,"state":"active","ping":60},{"user_id":189,"name":"Avem","steam_id":76561198058763710,"connected_time":6497000000000,"state":"active","ping":56},{"user_id":271,"name":"yoyo","steam_id":76561198285758098,"connected_time":82000000000,"state":"active","ping":58}]},{"server_id":18,"name":"Uncletopia | San Francisco | 2 | All Maps","name_short":"sfo-2","host":"sfo-1.us.uncletopia.com","port":27025,"enabled":true,"region":"us-west","cc":"us","latitude":37.77397,"longitude":-122.4313,"reserved":0,"last_update":"0001-01-01T00:00:00Z","name_a2s":"Uncletopia | San Francisco | 2 | All Maps","protocol":17,"map":"cp_altitude","folder":"tf","game":"Team Fortress","app_id":440,"player_count":1,"max_players":24,"Bots":0,"server_type":"Dedicated","server_os":"Linux","password":true,"vac":true,"version":"7708610","steam_id":85568392924470000,"keywords":["cp","nocrits","nodmgspread","uncletopia"],"game_id":440,"stv_port":27026,"stv_name":"Uncletopia | San Francisco | 2 | All Maps | STV","players":[{"user_id":31,"name":"Klopo","steam_id":76561198871108633,"connected_time":318000000000,"state":"active","ping":39}]},{"server_id":19,"name":"Uncletopia | San Francisco | 3 | No Payload","name_short":"sfo-3","host":"sfo-1.us.uncletopia.com","port":27035,"enabled":true,"region":"us-west","cc":"us","latitude":37.77397,"longitude":-122.4313,"reserved":0,"last_update":"0001-01-01T00:00:00Z","name_a2s":"Uncletopia | San Francisco | 3 | No Payload","protocol":17,"map":"cp_yukon_final","folder":"tf","game":"Team Fortress","app_id":440,"player_count":0,"max_players":24,"Bots":0,"server_type":"Dedicated","server_os":"Linux","password":true,"vac":true,"version":"7708610","steam_id":85568392924742824,"keywords":["cp","nocrits","nodmgspread","uncletopia"],"game_id":440,"stv_port":27036,"stv_name":"Uncletopia | San Francisco | 3 | No Payload | STV","players":null},{"server_id":20,"name":"Uncletopia | San Francisco | 4 | Community","name_short":"sfo-4","host":"sfo-1.us.uncletopia.com","port":27045,"enabled":true,"region":"us-west","cc":"us","latitude":37.77397,"longitude":-122.4313,"reserved":0,"last_update":"0001-01-01T00:00:00Z","name_a2s":"Uncletopia | San Francisco | 4 | Community","protocol":17,"map":"workshop/koth_synthetic_rc6a.ugc1549817316","folder":"tf","game":"Team Fortress","app_id":440,"player_count":0,"max_players":24,"Bots":0,"server_type":"Dedicated","server_os":"Linux","password":true,"vac":true,"version":"7708610","steam_id":85568392924742826,"keywords":["cp","nocrits","nodmgspread","uncletopia"],"game_id":440,"stv_port":27046,"stv_name":"Uncletopia | San Francisco | 4 | Community | STV","players":null},{"server_id":141,"name":"Uncletopia | Sydney | 1 | All Maps","name_short":"syd-1","host":"syd-1.au.uncletopia.com","port":27015,"enabled":true,"region":"au","cc":"au","latitude":-33.865143,"longitude":151.2099,"reserved":0,"last_update":"0001-01-01T00:00:00Z","name_a2s":"Uncletopia | Sydney | 1 | All Maps","protocol":17,"map":"koth_harvest_final","folder":"tf","game":"Team Fortress","app_id":440,"player_count":23,"max_players":24,"Bots":0,"server_type":"Dedicated","server_os":"Linux","password":true,"vac":true,"version":"7708610","steam_id":85568392924470001,"keywords":["cp","nocrits","nodmgspread","uncletopia"],"game_id":440,"stv_port":27016,"stv_name":"Uncletopia | Sydney | 1 | All Maps | STV","players":[{"user_id":434,"name":"Lateralus","steam_id":76561198007865860,"connected_time":1548000000000,"state":"active","ping":110},{"user_id":427,"name":"Headless","steam_id":76561198042423017,"connected_time":2170000000000,"state":"active","ping":30},{"user_id":428,"name":"KayGen","steam_id":76561198025787237,"connected_time":2129000000000,"state":"active","ping":47},{"user_id":435,"name":"Phlog enthusiast","steam_id":76561198344085093,"connected_time":1519000000000,"state":"active","ping":95},{"user_id":440,"name":"INTENTIONS","steam_id":76561198241303512,"connected_time":971000000000,"state":"active","ping":58},{"user_id":406,"name":"table","steam_id":76561199218095319,"connected_time":2988000000000,"state":"active","ping":51},{"user_id":374,"name":"‡∏∏bifcheg","steam_id":76561198319806610,"connected_time":5700000000000,"state":"active","ping":76},{"user_id":429,"name":"PRIMAL!!!!!!","steam_id":76561198083302811,"connected_time":2128000000000,"state":"active","ping":89},{"user_id":446,"name":"Gasoline","steam_id":76561198879023728,"connected_time":447000000000,"state":"active","ping":69},{"user_id":451,"name":"little raw meat boy","steam_id":76561199248254676,"connected_time":135000000000,"state":"active","ping":58},{"user_id":426,"name":"Fatass Yoshi","steam_id":76561198033784848,"connected_time":2296000000000,"state":"active","ping":50},{"user_id":430,"name":"cimpact","steam_id":76561198452258917,"connected_time":2109000000000,"state":"active","ping":141},{"user_id":419,"name":"Owlenstein‚Ñ¢","steam_id":76561198093983826,"connected_time":2531000000000,"state":"active","ping":107},{"user_id":418,"name":"Madison Ivy","steam_id":76561198074674290,"connected_time":2541000000000,"state":"active","ping":69},{"user_id":401,"name":"stevo","steam_id":76561198117749786,"connected_time":3325000000000,"state":"active","ping":79},{"user_id":439,"name":"verb","steam_id":76561198103206527,"connected_time":1086000000000,"state":"active","ping":45},{"user_id":443,"name":"Not A F2P","steam_id":76561198376756608,"connected_time":890000000000,"state":"active","ping":75},{"user_id":444,"name":"Saxk876","steam_id":76561198386450213,"connected_time":842000000000,"state":"active","ping":64},{"user_id":379,"name":"waffles","steam_id":76561199005815714,"connected_time":5583000000000,"state":"active","ping":44},{"user_id":452,"name":"TheCherry","steam_id":76561198062312012,"connected_time":95000000000,"state":"active","ping":56},{"user_id":433,"name":"booger violation","steam_id":76561198093006377,"connected_time":1950000000000,"state":"active","ping":73},{"user_id":431,"name":"Zort","steam_id":76561198056414289,"connected_time":2073000000000,"state":"active","ping":67},{"user_id":436,"name":"Eddie","steam_id":76561198081031350,"connected_time":1371000000000,"state":"active","ping":45}]},{"server_id":123,"name":"Uncletopia | Sydney | 2 | All Maps","name_short":"syd-2","host":"syd-1.au.uncletopia.com","port":27025,"enabled":true,"region":"au","cc":"au","latitude":-33.865143,"longitude":151.2099,"reserved":0,"last_update":"0001-01-01T00:00:00Z","name_a2s":"Uncletopia | Sydney | 2 | All Maps","protocol":17,"map":"koth_highpass","folder":"tf","game":"Team Fortress","app_id":440,"player_count":0,"max_players":24,"Bots":0,"server_type":"Dedicated","server_os":"Linux","password":true,"vac":true,"version":"7708610","steam_id":85568392924470002,"keywords":["cp","nocrits","nodmgspread","uncletopia"],"game_id":440,"stv_port":27026,"stv_name":"Uncletopia | Sydney | 2 | All Maps | STV","players":null},{"server_id":395,"name":"Uncletopia | Sydney | 3 | All Maps","name_short":"syd-3","host":"syd-1.au.uncletopia.com","port":27035,"enabled":true,"region":"au","cc":"au","latitude":-33.865143,"longitude":151.2099,"reserved":0,"last_update":"0001-01-01T00:00:00Z","name_a2s":"Uncletopia | Sydney | 3 | All Maps","protocol":17,"map":"pl_thundermountain","folder":"tf","game":"Team Fortress","app_id":440,"player_count":24,"max_players":24,"Bots":0,"server_type":"Dedicated","server_os":"Linux","password":true,"vac":true,"version":"7708610","steam_id":85568392925194467,"keywords":["nocrits","nodmgspread","payload","uncletopia"],"game_id":440,"stv_port":27036,"stv_name":"Uncletopia | Sydney | 3 | All Maps | STV","players":[{"user_id":101,"name":"jeff","steam_id":76561198327306842,"connected_time":2017000000000,"state":"active","ping":120},{"user_id":144,"name":"Fuzz","steam_id":76561198063077180,"connected_time":174000000000,"state":"active","ping":52},{"user_id":76,"name":"dumbvent","steam_id":76561198190062810,"connected_time":3463000000000,"state":"active","ping":59},{"user_id":114,"name":"danno!","steam_id":76561198091848946,"connected_time":1224000000000,"state":"active","ping":49},{"user_id":104,"name":"Teflon","steam_id":76561198001224301,"connected_time":1595000000000,"state":"active","ping":66},{"user_id":125,"name":"Bitcoin Gazillionare","steam_id":76561198411811796,"connected_time":1109000000000,"state":"active","ping":77},{"user_id":105,"name":"Ungstein","steam_id":76561197998374531,"connected_time":1569000000000,"state":"active","ping":60},{"user_id":130,"name":"Playermandan","steam_id":76561198007853564,"connected_time":692000000000,"state":"active","ping":44},{"user_id":116,"name":"GenVA","steam_id":76561198799842401,"connected_time":1208000000000,"state":"active","ping":111},{"user_id":148,"name":"dweeb.","steam_id":76561198300421633,"connected_time":17000000000,"state":"active","ping":48},{"user_id":91,"name":"vgames9","steam_id":76561198218803580,"connected_time":2759000000000,"state":"active","ping":161},{"user_id":67,"name":"AzureFox","steam_id":76561198108179408,"connected_time":3828000000000,"state":"active","ping":105},{"user_id":126,"name":"Pak'n'Save","steam_id":76561199199754055,"connected_time":1103000000000,"state":"active","ping":59},{"user_id":110,"name":"ItsSnakey","steam_id":76561199187623513,"connected_time":1440000000000,"state":"active","ping":62},{"user_id":113,"name":"LMAO xDDDDDDD","steam_id":76561198104864553,"connected_time":1303000000000,"state":"active","ping":49},{"user_id":127,"name":"Oski","steam_id":76561198018351614,"connected_time":1094000000000,"state":"active","ping":44},{"user_id":128,"name":"Maverik6464","steam_id":76561198049338974,"connected_time":952000000000,"state":"active","ping":38},{"user_id":118,"name":"evelyn (beanie fan)","steam_id":76561198107733201,"connected_time":1203000000000,"state":"active","ping":49},{"user_id":119,"name":"slime","steam_id":76561199176020333,"connected_time":1200000000000,"state":"active","ping":62},{"user_id":121,"name":"GoodoDarco","steam_id":76561198322623838,"connected_time":1190000000000,"state":"active","ping":52},{"user_id":122,"name":"vibez","steam_id":76561199065014226,"connected_time":1188000000000,"state":"active","ping":61},{"user_id":123,"name":"soccorsteven2011","steam_id":76561198128104473,"connected_time":1171000000000,"state":"active","ping":69},{"user_id":124,"name":"Locker633","steam_id":76561198132624042,"connected_time":1163000000000,"state":"active","ping":90},{"user_id":142,"name":"Atlas","steam_id":76561198069332870,"connected_time":298000000000,"state":"active","ping":49}]},{"server_id":396,"name":"Uncletopia | Sydney | 4 | All Maps","name_short":"syd-4","host":"syd-1.au.uncletopia.com","port":27045,"enabled":true,"region":"au","cc":"au","latitude":-33.865143,"longitude":151.2099,"reserved":0,"last_update":"0001-01-01T00:00:00Z","name_a2s":"Uncletopia | Sydney | 4 | All Maps","protocol":17,"map":"koth_lakeside_final","folder":"tf","game":"Team Fortress","app_id":440,"player_count":1,"max_players":24,"Bots":0,"server_type":"Dedicated","server_os":"Linux","password":true,"vac":true,"version":"7708610","steam_id":85568392925397958,"keywords":["cp","nocrits","nodmgspread","uncletopia"],"game_id":440,"stv_port":0,"stv_name":"","players":[{"user_id":13,"name":"Sammeyboi","steam_id":76561198137146721,"connected_time":791000000000,"state":"active","ping":87}]},{"server_id":58,"name":"Uncletopia | Sydney | 5 | No Payload","name_short":"syd-5","host":"syd-1.au.uncletopia.com","port":27055,"enabled":true,"region":"au","cc":"au","latitude":-33.865143,"longitude":151.2099,"reserved":0,"last_update":"0001-01-01T00:00:00Z","name_a2s":"Uncletopia | Sydney | 5 | No Payload","protocol":17,"map":"koth_cascade","folder":"tf","game":"Team Fortress","app_id":440,"player_count":0,"max_players":24,"Bots":0,"server_type":"Dedicated","server_os":"Linux","password":true,"vac":true,"version":"7708610","steam_id":85568392925397959,"keywords":["cp","nocrits","nodmgspread","uncletopia"],"game_id":440,"stv_port":0,"stv_name":"","players":null},{"server_id":59,"name":"Uncletopia | Sydney | 6 | Community","name_short":"syd-6","host":"syd-1.au.uncletopia.com","port":27065,"enabled":true,"region":"au","cc":"au","latitude":-33.865143,"longitude":151.2099,"reserved":0,"last_update":"0001-01-01T00:00:00Z","name_a2s":"Uncletopia | Sydney | 6 | Community","protocol":17,"map":"workshop/koth_synthetic_rc6a.ugc1549817316","folder":"tf","game":"Team Fortress","app_id":440,"player_count":0,"max_players":24,"Bots":0,"server_type":"Dedicated","server_os":"Linux","password":true,"vac":true,"version":"7708610","steam_id":85568392925397960,"keywords":["cp","nocrits","nodmgspread","uncletopia"],"game_id":440,"stv_port":27066,"stv_name":"Uncletopia | Sydney | 6 | Community | STV","players":null},{"server_id":49,"name":"Uncletopia | Warsaw | 1 | All Maps","name_short":"waw-1","host":"waw-1.pl.uncletopia.com","port":27015,"enabled":true,"region":"eu","cc":"pl","latitude":52.2297,"longitude":21.017532,"reserved":0,"last_update":"0001-01-01T00:00:00Z","name_a2s":"Uncletopia | Warsaw | 1 | All Maps","protocol":17,"map":"cp_mountainlab","folder":"tf","game":"Team Fortress","app_id":440,"player_count":0,"max_players":24,"Bots":0,"server_type":"Dedicated","server_os":"Linux","password":true,"vac":true,"version":"7708610","steam_id":85568392925397850,"keywords":["cp","nocrits","nodmgspread","uncletopia"],"game_id":440,"stv_port":0,"stv_name":"","players":null},{"server_id":50,"name":"Uncletopia | Warsaw | 2 | All Maps","name_short":"waw-2","host":"waw-1.pl.uncletopia.com","port":27025,"enabled":true,"region":"eu","cc":"pl","latitude":52.2297,"longitude":21.017532,"reserved":0,"last_update":"0001-01-01T00:00:00Z","name_a2s":"Uncletopia | Warsaw | 2 | All Maps","protocol":17,"map":"pl_badwater","folder":"tf","game":"Team Fortress","app_id":440,"player_count":0,"max_players":24,"Bots":0,"server_type":"Dedicated","server_os":"Linux","password":true,"vac":true,"version":"7708610","steam_id":85568392925397851,"keywords":["nocrits","nodmgspread","payload","uncletopia"],"game_id":440,"stv_port":0,"stv_name":"","players":null},{"server_id":51,"name":"Uncletopia | Warsaw | 3 | All Maps","name_short":"waw-3","host":"waw-1.pl.uncletopia.com","port":27035,"enabled":true,"region":"eu","cc":"pl","latitude":52.2297,"longitude":21.017532,"reserved":0,"last_update":"0001-01-01T00:00:00Z","name_a2s":"Uncletopia | Warsaw | 3 | All Maps","protocol":17,"map":"koth_cascade","folder":"tf","game":"Team Fortress","app_id":440,"player_count":0,"max_players":24,"Bots":0,"server_type":"Dedicated","server_os":"Linux","password":true,"vac":true,"version":"7708610","steam_id":85568392925397852,"keywords":["cp","nocrits","nodmgspread","uncletopia"],"game_id":440,"stv_port":0,"stv_name":"","players":null},{"server_id":52,"name":"Uncletopia | Warsaw | 4 | All Maps","name_short":"waw-4","host":"waw-1.pl.uncletopia.com","port":27045,"enabled":true,"region":"eu","cc":"pl","latitude":52.2297,"longitude":21.017532,"reserved":0,"last_update":"0001-01-01T00:00:00Z","name_a2s":"Uncletopia | Warsaw | 4 | All Maps","protocol":17,"map":"cp_mountainlab","folder":"tf","game":"Team Fortress","app_id":440,"player_count":0,"max_players":24,"Bots":0,"server_type":"Dedicated","server_os":"Linux","password":true,"vac":true,"version":"7708610","steam_id":85568392925397853,"keywords":["cp","nocrits","nodmgspread","uncletopia"],"game_id":440,"stv_port":0,"stv_name":"","players":null},{"server_id":53,"name":"Uncletopia | Warsaw | 5 | No Payload","name_short":"waw-5","host":"waw-1.pl.uncletopia.com","port":27055,"enabled":true,"region":"eu","cc":"pl","latitude":52.2297,"longitude":21.017532,"reserved":0,"last_update":"0001-01-01T00:00:00Z","name_a2s":"Uncletopia | Warsaw | 5 | No Payload","protocol":17,"map":"cp_dustbowl","folder":"tf","game":"Team Fortress","app_id":440,"player_count":0,"max_players":24,"Bots":0,"server_type":"Dedicated","server_os":"Linux","password":true,"vac":true,"version":"7708610","steam_id":85568392925397854,"keywords":["cp","nocrits","nodmgspread","uncletopia"],"game_id":440,"stv_port":0,"stv_name":"","players":null},{"server_id":54,"name":"Uncletopia | Warsaw | 6 | Community","name_short":"waw-6","host":"waw-1.pl.uncletopia.com","port":27065,"enabled":true,"region":"eu","cc":"pl","latitude":52.2297,"longitude":21.017532,"reserved":0,"last_update":"0001-01-01T00:00:00Z","name_a2s":"Uncletopia | Warsaw | 6 | Community","protocol":17,"map":"koth_highpass","folder":"tf","game":"Team Fortress","app_id":440,"player_count":0,"max_players":24,"Bots":0,"server_type":"Dedicated","server_os":"Linux","password":true,"vac":true,"version":"7708610","steam_id":85568392925397856,"keywords":["cp","nocrits","nodmgspread","uncletopia"],"game_id":440,"stv_port":0,"stv_name":"","players":null}]}