{"status":true,"message":"","result":[{"server_id":9,"name":"Uncletopia | Atlanta | 1 | All Maps","name_short":"atl-1","host":"atl-1.us.uncletopia.com","port":27015,"enabled":true,"region":"us-east","cc":"us","latitude":33.753746,"longitude":-84.38633,"reserved":0,"last_update":"0001-01-01T00:00:00Z","name_a2s":"Uncletopia | Atlanta | 1 | All Maps","protocol":17,"map":"ctf_2fort","folder":"tf","game":"Team Fortress","app_id":440,"player_count":19,"max_players":24,"Bots":0,"server_type":"Dedicated","server_os":"Linux","password":true,"vac":true,"version":"7932396","steam_id":85568392924469982,"keywords":["ctf","gravity","nocrits","nodmgspread","uncletopia"],"game_id":440,"stv_port":27016,"stv_name":"Uncletopia | Atlanta | 1 | All Maps | STV","players":[{"user_id":250,"name":"IZISOO","steam_id":76561198970380577,"connected_time":217000000000,"state":"active","ping":91},{"user_id":246,"name":"OttotheTomato","steam_id":76561198272610597,"connected_time":298000000000,"state":"active","ping":87},{"user_id":251,"name":"comet sooicidy","steam_id":76561198025173479,"connected_time":216000000000,"state":"active","ping":92},{"user_id":252,"name":"Huey","steam_id":76561198972816386,"connected_time":215000000000,"state":"active","ping":100},{"user_id":255,"name":"10KO!","steam_id":76561199134895220,"connected_time":67000000000,"state":"active","ping":83},{"user_id":253,"name":"Zeta","steam_id":76561198178693059,"connected_time":149000000000,"state":"active","ping":75},{"user_id":203,"name":"FinnGator","steam_id":76561198241766488,"connected_time":1663000000000,"state":"active","ping":89},{"user_id":231,"name":"Infantryfilms","steam_id":76561199304068543,"connected_time":744000000000,"state":"active","ping":143},{"user_id":204,"name":"‡ºò ‚ãÜÀöüéßCaffeine‚òï*Àñ¬∞","steam_id":76561199259309294,"connected_time":1559000000000,"state":"active","ping":96},{"user_id":205,"name":"Belmore","steam_id":76561198009355231,"connected_time":1513000000000,"state":"active","ping":119},{"user_id":254,"name":"hxui3506","steam_id":76561199148162329,"connected_time":119000000000,"state":"active","ping":127},{"user_id":211,"name":"chesterwnimitz","steam_id":76561198062664377,"connected_time":1170000000000,"state":"active","ping":115},{"user_id":256,"name":"mdharsy","steam_id":76561198065831053,"connected_time":49000000000,"state":"active","ping":104},{"user_id":248,"name":"Galaxy_42","steam_id":76561198845514831,"connected_time":256000000000,"state":"active","ping":64},{"user_id":242,"name":"FOrce of nature","steam_id":76561198390522839,"connected_time":410000000000,"state":"active","ping":99},{"user_id":257,"name":"HAT-WEARING‚Ñ¢ Maggot Gamer Cat","steam_id":76561197973992705,"connected_time":23000000000,"state":"spawning","ping":139},{"user_id":258,"name":"Golurk with some bitches","steam_id":76561198085888959,"connected_time":21000000000,"state":"spawning","ping":51},{"user_id":219,"name":"Gary Budussy","steam_id":76561197969793969,"connected_time":1067000000000,"state":"active","ping":77},{"user_id":227,"name":"bdlance","steam_id":76561198218846360,"connected_time":889000000000,"state":"active","ping":70}]},{"server_id":104,"name":"Uncletopia | Atlanta | 2 | All Maps","name_short":"atl-2","host":"atl-1.us.uncletopia.com","port":27025,"enabled":true,"region":"us-east","cc":"us","latitude":33.753746,"longitude":-84.38633,"reserved":0,"last_update":"0001-01-01T00:00:00Z","name_a2s":"Uncletopia | Atlanta | 2 | All Maps","protocol":17,"map":"koth_viaduct","folder":"tf","game":"Team Fortress","app_id":440,"player_count":0,"max_players":24,"Bots":0,"server_type":"Dedicated","server_os":"Linux","password":true,"vac":true,"version":"7932396","steam_id":85568392924469983,"keywords":["cp","nocrits","nodmgspread","uncletopia"],"game_id":440,"stv_port":27026,"stv_name":"Uncletopia | Atlanta | 2 | All Maps | STV","players":null},{"server_id":400,"name":"Uncletopia | Atlanta | 3 | Community","name_short":"atl-3","host":"atl-1.us.uncletopia.com","port":27035,"enabled":true,"region":"us-east","cc":"us","latitude":33.753746,"longitude":-84.38633,"reserved":0,"last_update":"0001-01-01T00:00:00Z","name_a2s":"Uncletopia | Atlanta | 3 | Community","protocol":17,"map":"workshop/cp_logjam_rc12.ugc454812035","folder":"tf","game":"Team Fortress","app_id":440,"player_count":0,"max_players":24,"Bots":0,"server_type":"Dedicated","server_os":"Linux","password":true,"vac":true,"version":"7932396","steam_id":85568392924515187,"keywords":["cp","nocrits","nodmgspread","uncletopia"],"game_id":440,"stv_port":27036,"stv_name":"Uncletopia | Atlanta | 3 | Community | STV","players":null},{"server_id":401,"name":"Uncletopia | Atlanta | 4 | No Payload","name_short":"atl-4","host":"atl-1.us.uncletopia.com","port":27045,"enabled":true,"region":"us-east","cc":"us","latitude":33.753746,"longitude":-84.38633,"reserved":0,"last_update":"0001-01-01T00:00:00Z","name_a2s":"","protocol":0,"map":"","folder":"","game":"","app_id":0,"player_count":0,"max_players":0,"Bots":0,"server_type":"","server_os":"","password":false,"vac":false,"version":"","steam_id":0,"keywords":null,"game_id":0,"stv_port":0,"stv_name":"","players":null},{"server_id":2,"name":"Uncletopia | Chicago | 1 | All Maps","name_short":"chi-1","host":"chi-1.us.uncletopia.com","port":27015,"enabled":true,"region":"us-central","cc":"us","latitude":41.881832,"longitude":-87.62318,"reserved":0,"last_update":"0001-01-01T00:00:00Z","name_a2s":"Uncletopia | Chicago | 1 | All Maps","protocol":17,"map":"pl_upward","folder":"tf","game":"Team Fortress","app_id":440,"player_count":24,"max_players":24,"Bots":0,"server_type":"Dedicated","server_os":"Linux","password":true,"vac":true,"version":"7932396","steam_id":85568392924469984,"keywords":["nocrits","nodmgspread","payload","uncletopia"],"game_id":440,"stv_port":27016,"stv_name":"Uncletopia | Chicago | 1 | All Maps | STV","players":[{"user_id":746,"name":"wakeupbdot","steam_id":76561198160786631,"connected_time":930000000000,"state":"active","ping":69},{"user_id":703,"name":"soft pp michael","steam_id":76561198234300396,"connected_time":5028000000000,"state":"active","ping":70},{"user_id":750,"name":"Catzs","steam_id":76561197996013572,"connected_time":507000000000,"state":"active","ping":95},{"user_id":724,"name":"Nox(She/They)Very eepy","steam_id":76561198141950842,"connected_time":3440000000000,"state":"active","ping":61},{"user_id":734,"name":"Real Kenny G","steam_id":76561198360620446,"connected_time":2787000000000,"state":"active","ping":94},{"user_id":709,"name":"Ket","steam_id":76561198241951244,"connected_time":4309000000000,"state":"active","ping":72},{"user_id":752,"name":"There is a hot muffler up my as","steam_id":76561198213863907,"connected_time":281000000000,"state":"active","ping":131},{"user_id":735,"name":"DarkHero","steam_id":76561198197125710,"connected_time":2217000000000,"state":"active","ping":58},{"user_id":696,"name":"Mr Sir Logan","steam_id":76561198088803891,"connected_time":5466000000000,"state":"active","ping":96},{"user_id":753,"name":"pill","steam_id":76561198051310816,"connected_time":236000000000,"state":"active","ping":65},{"user_id":754,"name":"linus","steam_id":76561198106196691,"connected_time":207000000000,"state":"active","ping":75},{"user_id":728,"name":"Siren","steam_id":76561198047395823,"connected_time":3233000000000,"state":"active","ping":88},{"user_id":706,"name":"Bodhi","steam_id":76561198103230995,"connected_time":4472000000000,"state":"active","ping":75},{"user_id":705,"name":"Fletch","steam_id":76561198163131734,"connected_time":4876000000000,"state":"active","ping":49},{"user_id":731,"name":"kaputon","steam_id":76561198146299782,"connected_time":2876000000000,"state":"active","ping":62},{"user_id":756,"name":"Kritzburgh","steam_id":76561198149466938,"connected_time":40000000000,"state":"spawning","ping":61},{"user_id":737,"name":"Mobius","steam_id":76561199121973450,"connected_time":2116000000000,"state":"active","ping":78},{"user_id":743,"name":"Voodo133","steam_id":76561198042670351,"connected_time":1487000000000,"state":"active","ping":90},{"user_id":751,"name":"Bonk Nickeltoon","steam_id":76561198027738883,"connected_time":499000000000,"state":"active","ping":53},{"user_id":686,"name":"Dr. Blair Chao","steam_id":76561198146027518,"connected_time":6742000000000,"state":"active","ping":64},{"user_id":755,"name":"noided","steam_id":76561198353924837,"connected_time":202000000000,"state":"active","ping":81},{"user_id":664,"name":"FancyBones","steam_id":76561198180198885,"connected_time":8961000000000,"state":"active","ping":86},{"user_id":665,"name":"Khaicchi","steam_id":76561198104454754,"connected_time":8957000000000,"state":"active","ping":175},{"user_id":671,"name":"More Gay Than U","steam_id":76561198043431819,"connected_time":8529000000000,"state":"active","ping":89}]},{"server_id":106,"name":"Uncletopia | Chicago | 2 | All Maps","name_short":"chi-2","host":"chi-1.us.uncletopia.com","port":27025,"enabled":true,"region":"us-central","cc":"us","latitude":41.881832,"longitude":-87.62318,"reserved":0,"last_update":"0001-01-01T00:00:00Z","name_a2s":"Uncletopia | Chicago | 2 | All Maps","protocol":17,"map":"pl_frontier_final","folder":"tf","game":"Team Fortress","app_id":440,"player_count":0,"max_players":24,"Bots":0,"server_type":"Dedicated","server_os":"Linux","password":true,"vac":true,"version":"7932396","steam_id":85568392924469985,"keywords":["nocrits","nodmgspread","payload","uncletopia"],"game_id":440,"stv_port":27026,"stv_name":"Uncletopia | Chicago | 2 | All Maps | STV","players":null},{"server_id":402,"name":"Uncletopia | Chicago | 3 | All Maps","name_short":"chi-3","host":"chi-1.us.uncletopia.com","port":27035,"enabled":true,"region":"us-central","cc":"us","latitude":41.881832,"longitude":-87.62318,"reserved":0,"last_update":"0001-01-01T00:00:00Z","name_a2s":"Uncletopia | Chicago | 3 | All Maps","protocol":17,"map":"pl_badwater","folder":"tf","game":"Team Fortress","app_id":440,"player_count":24,"max_players":24,"Bots":0,"server_type":"Dedicated","server_os":"Linux","password":true,"vac":true,"version":"7932396","steam_id":85568392924515191,"keywords":["nocrits","nodmgspread","payload","uncletopia"],"game_id":440,"stv_port":27036,"stv_name":"Uncletopia | Chicago | 3 | All Maps | STV","players":[{"user_id":822,"name":"Female Gamer","steam_id":76561199366482682,"connected_time":1193000000000,"state":"active","ping":99},{"user_id":830,"name":"coolplums","steam_id":76561198072154720,"connected_time":953000000000,"state":"active","ping":50},{"user_id":834,"name":"badboy6996","steam_id":76561197969386201,"connected_time":520000000000,"state":"active","ping":46},{"user_id":802,"name":"dryjack","steam_id":76561198102314418,"connected_time":2235000000000,"state":"active","ping":67},{"user_id":792,"name":"Missing Minus","steam_id":76561198120822928,"connected_time":3300000000000,"state":"active","ping":60},{"user_id":823,"name":"SirHipster0p","steam_id":76561198340315145,"connected_time":1190000000000,"state":"active","ping":57},{"user_id":824,"name":"Lil kernal","steam_id":76561199122097580,"connected_time":1166000000000,"state":"active","ping":115},{"user_id":801,"name":"4 Dabloons","steam_id":76561199004839490,"connected_time":2312000000000,"state":"active","ping":71},{"user_id":775,"name":"Not Giga Chad","steam_id":76561198059785363,"connected_time":4124000000000,"state":"active","ping":76},{"user_id":835,"name":"yomommasabitch","steam_id":76561198323217150,"connected_time":506000000000,"state":"active","ping":60},{"user_id":806,"name":"gamer rat","steam_id":76561199278864569,"connected_time":1982000000000,"state":"active","ping":113},{"user_id":837,"name":"Zippy","steam_id":76561198279229422,"connected_time":468000000000,"state":"active","ping":66},{"user_id":825,"name":"larguu","steam_id":76561197994336210,"connected_time":1161000000000,"state":"active","ping":59},{"user_id":818,"name":"Cy4nideCutie","steam_id":76561198126686695,"connected_time":1385000000000,"state":"active","ping":60},{"user_id":791,"name":"Epicdud42","steam_id":76561198358974675,"connected_time":3439000000000,"state":"active","ping":81},{"user_id":814,"name":"Landrow","steam_id":76561199156068210,"connected_time":1591000000000,"state":"active","ping":169},{"user_id":819,"name":"Discourse","steam_id":76561198984286678,"connected_time":1370000000000,"state":"active","ping":56},{"user_id":832,"name":"tobrehto","steam_id":76561198097544038,"connected_time":912000000000,"state":"active","ping":90},{"user_id":817,"name":"Freewave","steam_id":76561198156282541,"connected_time":1440000000000,"state":"active","ping":47},{"user_id":831,"name":"Yongle","steam_id":76561198068591156,"connected_time":947000000000,"state":"active","ping":55},{"user_id":827,"name":"Srattinee","steam_id":76561198199840395,"connected_time":1126000000000,"state":"active","ping":58},{"user_id":828,"name":"Shaw Han","steam_id":76561198204259015,"connected_time":1114000000000,"state":"active","ping":58},{"user_id":839,"name":"HUSH!","steam_id":76561198984768447,"connected_time":97000000000,"state":"active","ping":80},{"user_id":836,"name":"scrapheap","steam_id":76561198202407087,"connected_time":494000000000,"state":"active","ping":107}]},{"server_id":403,"name":"Uncletopia | Chicago | 4 | All Maps","name_short":"chi-4","host":"chi-1.us.uncletopia.com","port":27045,"enabled":true,"region":"us-central","cc":"us","latitude":41.881832,"longitude":-87.62318,"reserved":0,"last_update":"0001-01-01T00:00:00Z","name_a2s":"Uncletopia | Chicago | 4 | All Maps","protocol":17,"map":"cp_snakewater_final1","folder":"tf","game":"Team Fortress","app_id":440,"player_count":0,"max_players":24,"Bots":0,"server_type":"Dedicated","server_os":"Linux","password":true,"vac":true,"version":"7932396","steam_id":85568392924515193,"keywords":["cp","nocrits","nodmgspread","uncletopia"],"game_id":440,"stv_port":27046,"stv_name":"Uncletopia | Chicago | 4 | All Maps | STV","players":null},{"server_id":36,"name":"Uncletopia | Chicago | 5 | All Maps","name_short":"chi-5","host":"chi-2.us.uncletopia.com","port":27015,"enabled":true,"region":"us-central","cc":"us","latitude":41.881832,"longitude":-87.62318,"reserved":0,"last_update":"0001-01-01T00:00:00Z","name_a2s":"Uncletopia | Chicago | 5 | All Maps","protocol":17,"map":"pl_snowycoast","folder":"tf","game":"Team Fortress","app_id":440,"player_count":0,"max_players":24,"Bots":0,"server_type":"Dedicated","server_os":"Linux","password":true,"vac":true,"version":"7932396","steam_id":85568392924866362,"keywords":["nocrits","nodmgspread","payload","uncletopia"],"game_id":440,"stv_port":27016,"stv_name":"Uncletopia | Chicago | 5 | All Maps | STV","players":null},{"server_id":37,"name":"Uncletopia | Chicago | 6 | All Maps","name_short":"chi-6","host":"chi-2.us.uncletopia.com","port":27025,"enabled":true,"region":"us-central","cc":"us","latitude":41.881832,"longitude":-87.62318,"reserved":0,"last_update":"0001-01-01T00:00:00Z","name_a2s":"Uncletopia | Chicago | 6 | All Maps","protocol":17,"map":"cp_mountainlab","folder":"tf","game":"Team Fortress","app_id":440,"player_count":4,"max_players":24,"Bots":0,"server_type":"Dedicated","server_os":"Linux","password":true,"vac":true,"version":"7932396","steam_id":85568392924866363,"keywords":["cp","nocrits","nodmgspread","uncletopia"],"game_id":440,"stv_port":27026,"stv_name":"Uncletopia | Chicago | 6 | All Maps | STV","players":[{"user_id":628,"name":"wanye","steam_id":76561198216398577,"connected_time":4822000000000,"state":"active","ping":50},{"user_id":629,"name":"bagel sandwich","steam_id":76561198087971968,"connected_time":4798000000000,"state":"active","ping":64},{"user_id":632,"name":"A Large Side Salad","steam_id":76561198106937700,"connected_time":908000000000,"state":"active","ping":70},{"user_id":633,"name":"Xyverle","steam_id":76561198799726415,"connected_time":906000000000,"state":"active","ping":49}]},{"server_id":38,"name":"Uncletopia | Chicago | 7 | Stopwatch Beta","name_short":"chi-7","host":"chi-2.us.uncletopia.com","port":27035,"enabled":true,"region":"us-central","cc":"us","latitude":41.881832,"longitude":-87.62318,"reserved":0,"last_update":"0001-01-01T00:00:00Z","name_a2s":"Uncletopia | Chicago | 7 | Stopwatch Beta","protocol":17,"map":"workshop/koth_ramjam_rc1.ugc459778887","folder":"tf","game":"Team Fortress","app_id":440,"player_count":0,"max_players":24,"Bots":0,"server_type":"Dedicated","server_os":"Linux","password":true,"vac":true,"version":"7932396","steam_id":85568392924866364,"keywords":["cp","nocrits","nodmgspread","uncletopia"],"game_id":440,"stv_port":27036,"stv_name":"Uncletopia | Chicago | 7 | Stopwatch Beta | STV","players":null},{"server_id":39,"name":"Uncletopia | Chicago | 8 | Community","name_short":"chi-8","host":"chi-2.us.uncletopia.com","port":27045,"enabled":true,"region":"us-central","cc":"us","latitude":41.881832,"longitude":-87.62318,"reserved":0,"last_update":"0001-01-01T00:00:00Z","name_a2s":"Uncletopia | Chicago | 8 | Community","protocol":17,"map":"workshop/cp_caldera_rc2.ugc2834196889","folder":"tf","game":"Team Fortress","app_id":440,"player_count":0,"max_players":24,"Bots":0,"server_type":"Dedicated","server_os":"Linux","password":true,"vac":true,"version":"7932396","steam_id":85568392924866365,"keywords":["cp","nocrits","nodmgspread","uncletopia"],"game_id":440,"stv_port":27046,"stv_name":"Uncletopia | Chicago | 8 | Community | STV","players":null},{"server_id":8,"name":"Uncletopia | Dallas | 1 | All Maps","name_short":"dal-1","host":"dal-1.us.uncletopia.com","port":27015,"enabled":true,"region":"us-central","cc":"us","latitude":32.779167,"longitude":-96.80889,"reserved":0,"last_update":"0001-01-01T00:00:00Z","name_a2s":"Uncletopia | Dallas | 1 | All Maps","protocol":17,"map":"koth_cascade","folder":"tf","game":"Team Fortress","app_id":440,"player_count":0,"max_players":24,"Bots":0,"server_type":"Dedicated","server_os":"Linux","password":true,"vac":true,"version":"7932396","steam_id":85568392924469986,"keywords":["cp","nocrits","nodmgspread","uncletopia"],"game_id":440,"stv_port":27016,"stv_name":"Uncletopia | Dallas | 1 | All Maps | STV","players":null},{"server_id":108,"name":"Uncletopia | Dallas | 2 | All Maps","name_short":"dal-2","host":"dal-1.us.uncletopia.com","port":27025,"enabled":true,"region":"us-central","cc":"us","latitude":32.779167,"longitude":-96.80889,"reserved":0,"last_update":"0001-01-01T00:00:00Z","name_a2s":"Uncletopia | Dallas | 2 | All Maps","protocol":17,"map":"pl_badwater","folder":"tf","game":"Team Fortress","app_id":440,"player_count":24,"max_players":24,"Bots":0,"server_type":"Dedicated","server_os":"Linux","password":true,"vac":true,"version":"7932396","steam_id":85568392924469988,"keywords":["nocrits","nodmgspread","payload","uncletopia"],"game_id":440,"stv_port":27026,"stv_name":"Uncletopia | Dallas | 2 | All Maps | STV","players":[{"user_id":829,"name":"cypherzero","steam_id":76561199182960322,"connected_time":6788000000000,"state":"active","ping":51},{"user_id":892,"name":"Koobs","steam_id":76561197988588963,"connected_time":573000000000,"state":"active","ping":32},{"user_id":839,"name":"BADWOLF42","steam_id":76561198055447523,"connected_time":4705000000000,"state":"active","ping":55},{"user_id":889,"name":"Olipie","steam_id":76561198058481343,"connected_time":1118000000000,"state":"active","ping":161},{"user_id":893,"name":"banan team fortes","steam_id":76561199073621650,"connected_time":497000000000,"state":"active","ping":81},{"user_id":894,"name":"god's silliest puppygirl","steam_id":76561198128164970,"connected_time":444000000000,"state":"active","ping":76},{"user_id":887,"name":"Fibly","steam_id":76561198139522952,"connected_time":1497000000000,"state":"active","ping":45},{"user_id":895,"name":"Out Like a Light","steam_id":76561198410957728,"connected_time":439000000000,"state":"active","ping":69},{"user_id":808,"name":"McIncheese","steam_id":76561198000164926,"connected_time":8832000000000,"state":"active","ping":84},{"user_id":896,"name":"tenshi","steam_id":76561198439255228,"connected_time":431000000000,"state":"active","ping":161},{"user_id":871,"name":"basilberry","steam_id":76561198145275937,"connected_time":1990000000000,"state":"active","ping":63},{"user_id":903,"name":"thats free rizz","steam_id":76561198056186750,"connected_time":193000000000,"state":"active","ping":76},{"user_id":870,"name":"Manic","steam_id":76561198128149670,"connected_time":2164000000000,"state":"active","ping":45},{"user_id":897,"name":"peebs","steam_id":76561198261319753,"connected_time":414000000000,"state":"active","ping":53},{"user_id":846,"name":"spmsandor","steam_id":76561199487306397,"connected_time":4333000000000,"state":"active","ping":61},{"user_id":898,"name":"Viren","steam_id":76561198012636897,"connected_time":407000000000,"state":"active","ping":55},{"user_id":899,"name":"sergeant Adderall","steam_id":76561199010296481,"connected_time":405000000000,"state":"active","ping":106},{"user_id":902,"name":"Wigl","steam_id":76561198019324464,"connected_time":256000000000,"state":"active","ping":74},{"user_id":883,"name":"robo gushy","steam_id":76561198060334743,"connected_time":1707000000000,"state":"active","ping":75},{"user_id":810,"name":"Ocelot","steam_id":76561198002768179,"connected_time":8778000000000,"state":"active","ping":89},{"user_id":901,"name":"spiderguy","steam_id":76561198412074955,"connected_time":335000000000,"state":"active","ping":63},{"user_id":880,"name":"Atomik","steam_id":76561199070549800,"connected_time":1727000000000,"state":"active","ping":81},{"user_id":904,"name":"hayst","steam_id":76561198002533868,"connected_time":163000000000,"state":"active","ping":98},{"user_id":885,"name":"skegeton","steam_id":76561198095581099,"connected_time":1679000000000,"state":"active","ping":56}]},{"server_id":5,"name":"Uncletopia | Frankfurt | 1 | All Maps","name_short":"frk-1","host":"frk-1.de.uncletopia.com","port":27015,"enabled":true,"region":"eu","cc":"de","latitude":50.110924,"longitude":8.682127,"reserved":0,"last_update":"0001-01-01T00:00:00Z","name_a2s":"Uncletopia | Frankfurt | 1 | All Maps","protocol":17,"map":"pl_borneo","folder":"tf","game":"Team Fortress","app_id":440,"player_count":0,"max_players":24,"Bots":0,"server_type":"Dedicated","server_os":"Linux","password":true,"vac":true,"version":"7932396","steam_id":85568392924469989,"keywords":["nocrits","nodmgspread","payload","uncletopia"],"game_id":440,"stv_port":27016,"stv_name":"Uncletopia | Frankfurt | 1 | All Maps | STV","players":null},{"server_id":110,"name":"Uncletopia | Frankfurt | 2 | All Maps","name_short":"frk-2","host":"frk-1.de.uncletopia.com","port":27025,"enabled":true,"region":"eu","cc":"de","latitude":50.110924,"longitude":8.682127,"reserved":0,"last_update":"0001-01-01T00:00:00Z","name_a2s":"Uncletopia | Frankfurt | 2 | All Maps","protocol":17,"map":"cp_sunshine","folder":"tf","game":"Team Fortress","app_id":440,"player_count":0,"max_players":24,"Bots":0,"server_type":"Dedicated","server_os":"Linux","password":true,"vac":true,"version":"7932396","steam_id":85568392924469990,"keywords":["cp","nocrits","nodmgspread","uncletopia"],"game_id":440,"stv_port":27026,"stv_name":"Uncletopia | Frankfurt | 2 | All Maps | STV","players":null},{"server_id":308,"name":"Uncletopia | Frankfurt | 3 | All Maps","name_short":"frk-3","host":"frk-1.de.uncletopia.com","port":27035,"enabled":true,"region":"eu","cc":"de","latitude":50.110924,"longitude":8.682127,"reserved":0,"last_update":"0001-01-01T00:00:00Z","name_a2s":"Uncletopia | Frankfurt | 3 | All Maps","protocol":17,"map":"pl_upward","folder":"tf","game":"Team Fortress","app_id":440,"player_count":24,"max_players":24,"Bots":0,"server_type":"Dedicated","server_os":"Linux","password":true,"vac":true,"version":"7932396","steam_id":85568392924504274,"keywords":["nocrits","nodmgspread","payload","uncletopia"],"game_id":440,"stv_port":27036,"stv_name":"Uncletopia | Frankfurt | 3 | All Maps | STV","players":[{"user_id":37,"name":"Lyncurion","steam_id":76561199260022725,"connected_time":1107000000000,"state":"active","ping":73},{"user_id":53,"name":"Kenopsia","steam_id":76561198126750888,"connected_time":257000000000,"state":"active","ping":80},{"user_id":52,"name":"soup","steam_id":76561198386933065,"connected_time":469000000000,"state":"active","ping":60},{"user_id":23,"name":"Cookies and Bakies","steam_id":76561198017442928,"connected_time":1373000000000,"state":"active","ping":76},{"user_id":56,"name":"„ÅÆVaLocHe„ÅÆ","steam_id":76561197978660670,"connected_time":60000000000,"state":"active","ping":78},{"user_id":50,"name":"John0309","steam_id":76561198447428162,"connected_time":554000000000,"state":"active","ping":66},{"user_id":55,"name":"Coomer","steam_id":76561198186808027,"connected_time":144000000000,"state":"active","ping":52},{"user_id":54,"name":"iakozachek","steam_id":76561198421867219,"connected_time":151000000000,"state":"active","ping":123},{"user_id":48,"name":"–ñ–ê–ë–ê –ë–ï–ó –•–ò–î–ñ–ê–ë–ê","steam_id":76561198024296377,"connected_time":572000000000,"state":"active","ping":85},{"user_id":14,"name":"Romultra","steam_id":76561198354105082,"connected_time":1708000000000,"state":"active","ping":58},{"user_id":15,"name":"Very Original Name","steam_id":76561199159833013,"connected_time":1695000000000,"state":"active","ping":56},{"user_id":19,"name":"Asmodeus","steam_id":76561198283156425,"connected_time":1618000000000,"state":"active","ping":63},{"user_id":36,"name":"Barak93","steam_id":76561198044585705,"connected_time":1177000000000,"state":"active","ping":47},{"user_id":25,"name":"MyDoctorCalledMeACorpse","steam_id":76561199218184933,"connected_time":1306000000000,"state":"active","ping":87},{"user_id":26,"name":"Wujek Cacek","steam_id":76561198010267943,"connected_time":1304000000000,"state":"active","ping":67},{"user_id":30,"name":"DirtyFred","steam_id":76561198031814950,"connected_time":1255000000000,"state":"active","ping":80},{"user_id":45,"name":"√ÉNVS DR√ÉNVS","steam_id":76561198138733015,"connected_time":800000000000,"state":"active","ping":117},{"user_id":31,"name":"Rin-Nakaret","steam_id":76561197971051188,"connected_time":1252000000000,"state":"active","ping":70},{"user_id":46,"name":"big naked bruh","steam_id":76561199179040672,"connected_time":778000000000,"state":"active","ping":57},{"user_id":39,"name":"dunduu","steam_id":76561198875240717,"connected_time":1038000000000,"state":"active","ping":63},{"user_id":40,"name":"chess grandmaster","steam_id":76561198197807767,"connected_time":1029000000000,"state":"active","ping":79},{"user_id":41,"name":"GentleMEM (RUS)","steam_id":76561198298241517,"connected_time":1022000000000,"state":"active","ping":164},{"user_id":51,"name":"Kepucz","steam_id":76561197977634244,"connected_time":493000000000,"state":"active","ping":61},{"user_id":43,"name":"Added","steam_id":76561198095051272,"connected_time":889000000000,"state":"active","ping":138}]},{"server_id":309,"name":"Uncletopia | Frankfurt | 4 | All Maps","name_short":"frk-4","host":"frk-1.de.uncletopia.com","port":27045,"enabled":true,"region":"eu","cc":"de","latitude":50.110924,"longitude":8.682127,"reserved":0,"last_update":"0001-01-01T00:00:00Z","name_a2s":"Uncletopia | Frankfurt | 4 | All Maps","protocol":17,"map":"pl_upward","folder":"tf","game":"Team Fortress","app_id":440,"player_count":0,"max_players":24,"Bots":0,"server_type":"Dedicated","server_os":"Linux","password":true,"vac":true,"version":"7932396","steam_id":85568392924504275,"keywords":["nocrits","nodmgspread","payload","uncletopia"],"game_id":440,"stv_port":27046,"stv_name":"Uncletopia | Frankfurt | 4 | All Maps | STV","players":null},{"server_id":310,"name":"Uncletopia | Frankfurt | 5 | All Maps","name_short":"frk-5","host":"frk-1.de.uncletopia.com","port":27055,"enabled":true,"region":"eu","cc":"de","latitude":50.110924,"longitude":8.682127,"reserved":0,"last_update":"0001-01-01T00:00:00Z","name_a2s":"Uncletopia | Frankfurt | 5 | All Maps","protocol":17,"map":"pl_badwater","folder":"tf","game":"Team Fortress","app_id":440,"player_count":4,"max_players":24,"Bots":0,"server_type":"Dedicated","server_os":"Linux","password":true,"vac":true,"version":"7932396","steam_id":85568392924504277,"keywords":["nocrits","nodmgspread","payload","uncletopia"],"game_id":440,"stv_port":27056,"stv_name":"Uncletopia | Frankfurt | 5 | All Maps | STV","players":[{"user_id":13,"name":"stefanbejenari","steam_id":76561199466718294,"connected_time":0,"state":"spawning","ping":0},{"user_id":7,"name":"Truegr","steam_id":76561198811912339,"connected_time":1382000000000,"state":"active","ping":57},{"user_id":8,"name":"Name Not Needed","steam_id":76561199300534904,"connected_time":1371000000000,"state":"active","ping":135},{"user_id":12,"name":"Zelascelar","steam_id":76561197974628666,"connected_time":14000000000,"state":"spawning","ping":118}]},{"server_id":311,"name":"Uncletopia | Frankfurt | 6 | All Maps","name_short":"frk-6","host":"frk-1.de.uncletopia.com","port":27065,"enabled":true,"region":"eu","cc":"de","latitude":50.110924,"longitude":8.682127,"reserved":0,"last_update":"0001-01-01T00:00:00Z","name_a2s":"Uncletopia | Frankfurt | 6 | All Maps","protocol":17,"map":"koth_viaduct","folder":"tf","game":"Team Fortress","app_id":440,"player_count":0,"max_players":24,"Bots":0,"server_type":"Dedicated","server_os":"Linux","password":true,"vac":true,"version":"7932396","steam_id":85568392924504278,"keywords":["cp","nocrits","nodmgspread","uncletopia"],"game_id":440,"stv_port":27066,"stv_name":"Uncletopia | Frankfurt | 6 | All Maps | STV","players":null},{"server_id":23,"name":"Uncletopia | Frankfurt | 7 | Stopwatch Beta","name_short":"frk-7","host":"frk-1.de.uncletopia.com","port":27075,"enabled":true,"region":"eu","cc":"de","latitude":50.110924,"longitude":8.682127,"reserved":0,"last_update":"0001-01-01T00:00:00Z","name_a2s":"Uncletopia | Frankfurt | 7 | Stopwatch Beta","protocol":17,"map":"pl_snowycoast","folder":"tf","game":"Team Fortress","app_id":440,"player_count":0,"max_players":24,"Bots":0,"server_type":"Dedicated","server_os":"Linux","password":true,"vac":true,"version":"7932396","steam_id":85568392924742827,"keywords":["nocrits","nodmgspread","payload","uncletopia"],"game_id":440,"stv_port":27076,"stv_name":"Uncletopia | Frankfurt | 7 | Stopwatch Beta | STV","players":null},{"server_id":24,"name":"Uncletopia | Frankfurt | 8 | Community","name_short":"frk-8","host":"frk-1.de.uncletopia.com","port":27085,"enabled":true,"region":"eu","cc":"de","latitude":50.110924,"longitude":8.682127,"reserved":0,"last_update":"0001-01-01T00:00:00Z","name_a2s":"Uncletopia | Frankfurt | 8 | Community","protocol":17,"map":"pl_barnblitz","folder":"tf","game":"Team Fortress","app_id":440,"player_count":0,"max_players":24,"Bots":0,"server_type":"Dedicated","server_os":"Linux","password":true,"vac":true,"version":"7932396","steam_id":85568392924742828,"keywords":["nocrits","nodmgspread","payload","uncletopia"],"game_id":440,"stv_port":27086,"stv_name":"Uncletopia | Frankfurt | 8 | Community | STV","players":null},{"server_id":202,"name":"Uncletopia | Hong Kong | 1 | All Maps","name_short":"hgk-1","host":"hgk-1.hk.uncletopia.com","port":27015,"enabled":true,"region":"asia","cc":"hk","latitude":22.302711,"longitude":114.177216,"reserved":0,"last_update":"0001-01-01T00:00:00Z","name_a2s":"Uncletopia | Hong Kong | 1 | All Maps","protocol":17,"map":"cp_dustbowl","folder":"tf","game":"Team Fortress","app_id":440,"player_count":24,"max_players":24,"Bots":0,"server_type":"Dedicated","server_os":"Linux","password":true,"vac":true,"version":"7932396","steam_id":85568392924494504,"keywords":["cp","nocrits","nodmgspread","uncletopia"],"game_id":440,"stv_port":27016,"stv_name":"Uncletopia | Hong Kong | 1 | All Maps | STV","players":[{"user_id":178,"name":"Lym0n","steam_id":76561199192420260,"connected_time":2019000000000,"state":"active","ping":110},{"user_id":182,"name":"Maria Buena","steam_id":76561198320532821,"connected_time":1846000000000,"state":"active","ping":86},{"user_id":192,"name":"qb_r","steam_id":76561198412329672,"connected_time":138000000000,"state":"active","ping":161},{"user_id":184,"name":"Muerto","steam_id":76561198328718520,"connected_time":1646000000000,"state":"active","ping":89},{"user_id":108,"name":"something malicious is brewing ","steam_id":76561198074339034,"connected_time":9601000000000,"state":"active","ping":74},{"user_id":173,"name":"UZ","steam_id":76561198179320563,"connected_time":3268000000000,"state":"active","ping":83},{"user_id":188,"name":"Wx","steam_id":76561199217780897,"connected_time":1200000000000,"state":"active","ping":113},{"user_id":145,"name":"screaming sniper","steam_id":76561199085568674,"connected_time":5143000000000,"state":"active","ping":58},{"user_id":193,"name":"Lelouch","steam_id":76561198828840546,"connected_time":133000000000,"state":"active","ping":77},{"user_id":167,"name":"KHMaster","steam_id":76561199198453345,"connected_time":3686000000000,"state":"active","ping":86},{"user_id":135,"name":"Rephex","steam_id":76561198308185574,"connected_time":6511000000000,"state":"active","ping":82},{"user_id":166,"name":"7853","steam_id":76561199390507975,"connected_time":3690000000000,"state":"active","ping":48},{"user_id":160,"name":"vintage","steam_id":76561198230213828,"connected_time":4068000000000,"state":"active","ping":123},{"user_id":180,"name":"Gebel","steam_id":76561198256704004,"connected_time":1847000000000,"state":"active","ping":97},{"user_id":190,"name":"Michael Scott","steam_id":76561198023082794,"connected_time":502000000000,"state":"active","ping":55},{"user_id":183,"name":"Grim","steam_id":76561198268185596,"connected_time":1751000000000,"state":"active","ping":76},{"user_id":185,"name":"3rwynM","steam_id":76561198288311270,"connected_time":1644000000000,"state":"active","ping":90},{"user_id":194,"name":"TomProPlayer","steam_id":76561199223292521,"connected_time":130000000000,"state":"active","ping":71},{"user_id":191,"name":"Giorno Giovanna","steam_id":76561198117257758,"connected_time":275000000000,"state":"active","ping":104},{"user_id":196,"name":"gibus gaming (f2p)","steam_id":76561199044282228,"connected_time":15000000000,"state":"spawning","ping":70},{"user_id":169,"name":"DevAllen","steam_id":76561198830629355,"connected_time":3660000000000,"state":"active","ping":63},{"user_id":150,"name":"im_0ff","steam_id":76561198339346695,"connected_time":5079000000000,"state":"active","ping":127},{"user_id":172,"name":"Cinderhex","steam_id":76561198854397761,"connected_time":3513000000000,"state":"active","ping":87},{"user_id":187,"name":"Med","steam_id":76561199087727164,"connected_time":1315000000000,"state":"active","ping":91}]},{"server_id":1,"name":"Uncletopia | Los Angeles | 1 | All Maps","name_short":"lax-1","host":"lax-1.us.uncletopia.com","port":27015,"enabled":true,"region":"us-west","cc":"us","latitude":33.94279,"longitude":-118.41004,"reserved":0,"last_update":"0001-01-01T00:00:00Z","name_a2s":"Uncletopia | Los Angeles | 1 | All Maps","protocol":17,"map":"pl_barnblitz","folder":"tf","game":"Team Fortress","app_id":440,"player_count":23,"max_players":24,"Bots":0,"server_type":"Dedicated","server_os":"Linux","password":true,"vac":true,"version":"7932396","steam_id":85568392924469991,"keywords":["nocrits","nodmgspread","payload","uncletopia"],"game_id":440,"stv_port":27016,"stv_name":"Uncletopia | Los Angeles | 1 | All Maps | STV","players":[{"user_id":767,"name":"cannedgrass23","steam_id":76561199019693912,"connected_time":1845000000000,"state":"active","ping":55},{"user_id":790,"name":"Jokezonyu","steam_id":76561198213167893,"connected_time":949000000000,"state":"active","ping":57},{"user_id":771,"name":"selling rice","steam_id":76561198063357023,"connected_time":1466000000000,"state":"active","ping":59},{"user_id":749,"name":"chesterwnimitz","steam_id":76561198062664377,"connected_time":3041000000000,"state":"active","ping":78},{"user_id":772,"name":"Goose-8","steam_id":76561198795950093,"connected_time":1446000000000,"state":"active","ping":112},{"user_id":777,"name":"Honey Boo Boo","steam_id":76561198119340886,"connected_time":1353000000000,"state":"active","ping":103},{"user_id":773,"name":"[ƒ¥…∏”∫] Stinky","steam_id":76561198041147126,"connected_time":1429000000000,"state":"active","ping":49},{"user_id":774,"name":"sh√•dow","steam_id":76561197991380696,"connected_time":1402000000000,"state":"active","ping":59},{"user_id":776,"name":"[ƒ¥…∏”∫] Jin kun","steam_id":76561198038929010,"connected_time":1388000000000,"state":"active","ping":68},{"user_id":778,"name":"OA","steam_id":76561198342691339,"connected_time":1329000000000,"state":"active","ping":95},{"user_id":742,"name":"Literal Vampire Potbelly Goblin","steam_id":76561197970527356,"connected_time":3571000000000,"state":"active","ping":38},{"user_id":791,"name":"Jpzarde","steam_id":76561197978240364,"connected_time":520000000000,"state":"active","ping":103},{"user_id":787,"name":"nug nug","steam_id":76561198208573769,"connected_time":1212000000000,"state":"active","ping":84},{"user_id":769,"name":"HiddenEgg","steam_id":76561199045105518,"connected_time":1679000000000,"state":"active","ping":54},{"user_id":745,"name":"werolat","steam_id":76561197960544784,"connected_time":3263000000000,"state":"active","ping":48},{"user_id":779,"name":"the rat","steam_id":76561198442468979,"connected_time":1324000000000,"state":"active","ping":62},{"user_id":781,"name":"Grimra√ºst","steam_id":76561198004630905,"connected_time":1302000000000,"state":"active","ping":56},{"user_id":766,"name":"pope4tw","steam_id":76561199174282651,"connected_time":2036000000000,"state":"active","ping":85},{"user_id":782,"name":"Amogous Supreme","steam_id":76561198025476774,"connected_time":1300000000000,"state":"active","ping":69},{"user_id":754,"name":"HAT-WEARING‚Ñ¢ Maggot Gamer Cat","steam_id":76561197973992705,"connected_time":2867000000000,"state":"active","ping":69},{"user_id":792,"name":"Satan-2","steam_id":76561199231742764,"connected_time":373000000000,"state":"active","ping":125},{"user_id":784,"name":"Faefanger","steam_id":76561198201871002,"connected_time":1284000000000,"state":"active","ping":82},{"user_id":785,"name":"Misterwipeout","steam_id":76561198068900320,"connected_time":1254000000000,"state":"active","ping":85}]},{"server_id":112,"name":"Uncletopia | Los Angeles | 2 | All Maps","name_short":"lax-2","host":"lax-1.us.uncletopia.com","port":27025,"enabled":true,"region":"us-west","cc":"us","latitude":33.94279,"longitude":-118.41004,"reserved":0,"last_update":"0001-01-01T00:00:00Z","name_a2s":"Uncletopia | Los Angeles | 2 | All Maps","protocol":17,"map":"pl_upward","folder":"tf","game":"Team Fortress","app_id":440,"player_count":23,"max_players":24,"Bots":0,"server_type":"Dedicated","server_os":"Linux","password":true,"vac":true,"version":"7932396","steam_id":85568392924469992,"keywords":["nocrits","nodmgspread","payload","uncletopia"],"game_id":440,"stv_port":27026,"stv_name":"Uncletopia | Los Angeles | 2 | All Maps | STV","players":[{"user_id":584,"name":"donkeyballs2007","steam_id":76561199466298683,"connected_time":6774000000000,"state":"active","ping":42},{"user_id":668,"name":"kwetzal","steam_id":76561198845749671,"connected_time":245000000000,"state":"active","ping":68},{"user_id":585,"name":"CaiGaming","steam_id":76561198313023508,"connected_time":6769000000000,"state":"active","ping":71},{"user_id":649,"name":"level 7 firemancer","steam_id":76561198209571677,"connected_time":1240000000000,"state":"active","ping":98},{"user_id":645,"name":"June","steam_id":76561198141803658,"connected_time":1269000000000,"state":"active","ping":48},{"user_id":605,"name":"monkey squirts","steam_id":76561197983101644,"connected_time":4512000000000,"state":"active","ping":42},{"user_id":666,"name":"Poyloos","steam_id":76561198278441232,"connected_time":379000000000,"state":"active","ping":82},{"user_id":672,"name":"Squishy","steam_id":76561198066798426,"connected_time":164000000000,"state":"active","ping":80},{"user_id":646,"name":"that one Dark Souls mf","steam_id":76561198095821025,"connected_time":1268000000000,"state":"active","ping":45},{"user_id":651,"name":"pandoRA","steam_id":76561198075490385,"connected_time":1164000000000,"state":"active","ping":48},{"user_id":633,"name":"scamchez","steam_id":76561198447562701,"connected_time":3542000000000,"state":"active","ping":63},{"user_id":652,"name":"uhoh","steam_id":76561198136967934,"connected_time":1162000000000,"state":"active","ping":69},{"user_id":667,"name":"joyful07","steam_id":76561199440999022,"connected_time":353000000000,"state":"active","ping":161},{"user_id":669,"name":"flop","steam_id":76561199230528008,"connected_time":241000000000,"state":"active","ping":62},{"user_id":670,"name":"Interrobang","steam_id":76561198385044529,"connected_time":234000000000,"state":"active","ping":103},{"user_id":624,"name":"Talented","steam_id":76561198800259660,"connected_time":3692000000000,"state":"active","ping":98},{"user_id":661,"name":"C‚àÖRVUS","steam_id":76561198100640019,"connected_time":690000000000,"state":"active","ping":85},{"user_id":656,"name":"FI LO","steam_id":76561198976530881,"connected_time":1109000000000,"state":"active","ping":42},{"user_id":674,"name":"soupy","steam_id":76561197974283797,"connected_time":56000000000,"state":"active","ping":94},{"user_id":662,"name":"Quagsire Acquired","steam_id":76561198417169465,"connected_time":580000000000,"state":"active","ping":101},{"user_id":664,"name":"dddumb510","steam_id":76561198030793492,"connected_time":482000000000,"state":"active","ping":81},{"user_id":596,"name":"dinocoder","steam_id":76561198311038263,"connected_time":5469000000000,"state":"active","ping":57},{"user_id":627,"name":"Tech Deck","steam_id":76561199070437675,"connected_time":3660000000000,"state":"active","ping":59}]},{"server_id":324,"name":"Uncletopia | Los Angeles | 3 | All Maps","name_short":"lax-3","host":"lax-1.us.uncletopia.com","port":27035,"enabled":true,"region":"us-west","cc":"us","latitude":33.94279,"longitude":-118.41004,"reserved":0,"last_update":"0001-01-01T00:00:00Z","name_a2s":"Uncletopia | Los Angeles | 3 | All Maps","protocol":17,"map":"pl_pier","folder":"tf","game":"Team Fortress","app_id":440,"player_count":23,"max_players":24,"Bots":0,"server_type":"Dedicated","server_os":"Linux","password":true,"vac":true,"version":"7932396","steam_id":85568392924510198,"keywords":["nocrits","nodmgspread","payload","uncletopia"],"game_id":440,"stv_port":27036,"stv_name":"Uncletopia | Los Angeles | 3 | All Maps | STV","players":[{"user_id":301,"name":"DungeonMaster Van","steam_id":76561197981954308,"connected_time":4930000000000,"state":"active","ping":63},{"user_id":354,"name":"Windfall","steam_id":76561198046500859,"connected_time":1120000000000,"state":"active","ping":45},{"user_id":357,"name":"Daazed","steam_id":76561199174930132,"connected_time":926000000000,"state":"active","ping":66},{"user_id":356,"name":"shneez","steam_id":76561197962209814,"connected_time":1071000000000,"state":"active","ping":107},{"user_id":355,"name":"The Goblin!","steam_id":76561199015195397,"connected_time":1107000000000,"state":"active","ping":88},{"user_id":327,"name":"MelonMiner1","steam_id":76561198097200032,"connected_time":3544000000000,"state":"active","ping":83},{"user_id":297,"name":"Cook Jackie","steam_id":76561198051888880,"connected_time":5077000000000,"state":"active","ping":92},{"user_id":281,"name":"PyroTechno","steam_id":76561198060929872,"connected_time":6040000000000,"state":"active","ping":92},{"user_id":333,"name":"Zaiah","steam_id":76561198377588247,"connected_time":3344000000000,"state":"active","ping":75},{"user_id":371,"name":"exx","steam_id":76561198090552145,"connected_time":224000000000,"state":"active","ping":47},{"user_id":361,"name":"Scorpianswag","steam_id":76561198260651036,"connected_time":684000000000,"state":"active","ping":35},{"user_id":360,"name":"Casual Shitter #SaveTf2","steam_id":76561199126330009,"connected_time":773000000000,"state":"active","ping":125},{"user_id":349,"name":"mu","steam_id":76561197997530228,"connected_time":2169000000000,"state":"active","ping":89},{"user_id":362,"name":"Salty","steam_id":76561198044750949,"connected_time":662000000000,"state":"active","ping":81},{"user_id":352,"name":"Soviet Potato","steam_id":76561198068546113,"connected_time":1556000000000,"state":"active","ping":48},{"user_id":337,"name":"Alexx ‡ºº „Å§ ‚óï_‚óï ‡ºΩ„Å§","steam_id":76561198268005140,"connected_time":3199000000000,"state":"active","ping":73},{"user_id":343,"name":"Mango","steam_id":76561198919918920,"connected_time":2478000000000,"state":"active","ping":57},{"user_id":372,"name":"The Assistant Regional Manager","steam_id":76561199221484936,"connected_time":170000000000,"state":"active","ping":62},{"user_id":373,"name":"Mr. Chi City","steam_id":76561198131467867,"connected_time":88000000000,"state":"active","ping":45},{"user_id":365,"name":"bocaJ","steam_id":76561198374535092,"connected_time":535000000000,"state":"active","ping":30},{"user_id":366,"name":"soup bowl","steam_id":76561198126134338,"connected_time":511000000000,"state":"active","ping":47},{"user_id":346,"name":"selvhat","steam_id":76561198114225509,"connected_time":2350000000000,"state":"active","ping":51},{"user_id":368,"name":"s2000","steam_id":76561198012414439,"connected_time":433000000000,"state":"active","ping":105}]},{"server_id":25,"name":"Uncletopia | Los Angeles | 4 | Stopwatch Beta","name_short":"lax-4","host":"lax-1.us.uncletopia.com","port":27045,"enabled":true,"region":"us-west","cc":"us","latitude":33.94279,"longitude":-118.41004,"reserved":0,"last_update":"0001-01-01T00:00:00Z","name_a2s":"Uncletopia | Los Angeles | 4 | Stopwatch Beta","protocol":17,"map":"pl_swiftwater_final1","folder":"tf","game":"Team Fortress","app_id":440,"player_count":0,"max_players":24,"Bots":0,"server_type":"Dedicated","server_os":"Linux","password":true,"vac":true,"version":"7932396","steam_id":85568392924510199,"keywords":["nocrits","nodmgspread","payload","uncletopia"],"game_id":440,"stv_port":27046,"stv_name":"Uncletopia | Los Angeles | 4 | Stopwatch Beta | STV","players":null},{"server_id":11,"name":"Uncletopia | London | 1 | All Maps","name_short":"lon-1","host":"lon-1.uk.uncletopia.com","port":27015,"enabled":true,"region":"eu","cc":"gb","latitude":51.509865,"longitude":-0.118092,"reserved":0,"last_update":"0001-01-01T00:00:00Z","name_a2s":"Uncletopia | London | 1 | All Maps","protocol":17,"map":"pl_upward","folder":"tf","game":"Team Fortress","app_id":440,"player_count":0,"max_players":24,"Bots":0,"server_type":"Dedicated","server_os":"Linux","password":true,"vac":true,"version":"7932396","steam_id":85568392924367362,"keywords":["nocrits","nodmgspread","payload","uncletopia"],"game_id":440,"stv_port":27016,"stv_name":"Uncletopia | London | 1 | All Maps | STV","players":null},{"server_id":114,"name":"Uncletopia | London | 2 | All Maps","name_short":"lon-2","host":"lon-1.uk.uncletopia.com","port":27025,"enabled":true,"region":"eu","cc":"gb","latitude":51.509865,"longitude":-0.118092,"reserved":0,"last_update":"0001-01-01T00:00:00Z","name_a2s":"Uncletopia | London | 2 | All Maps","protocol":17,"map":"koth_highpass","folder":"tf","game":"Team Fortress","app_id":440,"player_count":4,"max_players":24,"Bots":0,"server_type":"Dedicated","server_os":"Linux","password":true,"vac":true,"version":"7932396","steam_id":85568392924470941,"keywords":["cp","nocrits","nodmgspread","uncletopia"],"game_id":440,"stv_port":27026,"stv_name":"Uncletopia | London | 2 | All Maps | STV","players":[{"user_id":14,"name":"Uncle Terry","steam_id":76561198396415736,"connected_time":1075000000000,"state":"active","ping":52},{"user_id":17,"name":"toomas2018(real)","steam_id":76561199105796083,"connected_time":429000000000,"state":"active","ping":77},{"user_id":18,"name":"Nyst","steam_id":76561198400998400,"connected_time":422000000000,"state":"active","ping":70},{"user_id":19,"name":"David Asura","steam_id":76561198017852330,"connected_time":375000000000,"state":"active","ping":77}]},{"server_id":320,"name":"Uncletopia | London | 3 | All Maps","name_short":"lon-3","host":"lon-1.uk.uncletopia.com","port":27035,"enabled":true,"region":"eu","cc":"gb","latitude":51.509865,"longitude":-0.118092,"reserved":0,"last_update":"0001-01-01T00:00:00Z","name_a2s":"Uncletopia | London | 3 | All Maps","protocol":17,"map":"cp_altitude","folder":"tf","game":"Team Fortress","app_id":440,"player_count":1,"max_players":24,"Bots":0,"server_type":"Dedicated","server_os":"Linux","password":true,"vac":true,"version":"7932396","steam_id":85568392924510192,"keywords":["cp","nocrits","nodmgspread","uncletopia"],"game_id":440,"stv_port":27036,"stv_name":"Uncletopia | London | 3 | All Maps | STV","players":[{"user_id":5,"name":"ÌåÄÌè¨Ïú†Ï†ÄÏûÑ#saveTF2","steam_id":76561199188516380,"connected_time":96000000000,"state":"active","ping":310}]},{"server_id":321,"name":"Uncletopia | London | 4 | All Maps","name_short":"lon-4","host":"lon-1.uk.uncletopia.com","port":27045,"enabled":true,"region":"eu","cc":"gb","latitude":51.509865,"longitude":-0.118092,"reserved":0,"last_update":"0001-01-01T00:00:00Z","name_a2s":"Uncletopia | London | 4 | All Maps","protocol":17,"map":"cp_snakewater_final1","folder":"tf","game":"Team Fortress","app_id":440,"player_count":0,"max_players":24,"Bots":0,"server_type":"Dedicated","server_os":"Linux","password":true,"vac":true,"version":"7932396","steam_id":85568392924510193,"keywords":["cp","nocrits","nodmgspread","uncletopia"],"game_id":440,"stv_port":27046,"stv_name":"Uncletopia | London | 4 | All Maps | STV","players":null},{"server_id":21,"name":"Uncletopia | London | 5 | All Maps","name_short":"lon-5","host":"lon-1.uk.uncletopia.com","port":27055,"enabled":true,"region":"eu","cc":"gb","latitude":51.509865,"longitude":-0.118092,"reserved":0,"last_update":"0001-01-01T00:00:00Z","name_a2s":"Uncletopia | London | 5 | All Maps","protocol":17,"map":"pl_frontier_final","folder":"tf","game":"Team Fortress","app_id":440,"player_count":20,"max_players":24,"Bots":0,"server_type":"Dedicated","server_os":"Linux","password":true,"vac":true,"version":"7932396","steam_id":85568392924742829,"keywords":["nocrits","nodmgspread","payload","uncletopia"],"game_id":440,"stv_port":27056,"stv_name":"Uncletopia | London | 5 | All Maps | STV","players":[{"user_id":81,"name":"minecraft","steam_id":76561199218227502,"connected_time":38000000000,"state":"active","ping":116},{"user_id":80,"name":"Everness","steam_id":76561197994803883,"connected_time":217000000000,"state":"active","ping":69},{"user_id":82,"name":"Meterora","steam_id":76561198092422131,"connected_time":28000000000,"state":"active","ping":45},{"user_id":28,"name":"Neimon","steam_id":76561198343485710,"connected_time":5352000000000,"state":"active","ping":128},{"user_id":73,"name":"conquistadorgt","steam_id":76561198848812449,"connected_time":1562000000000,"state":"active","ping":70},{"user_id":72,"name":"The Sex Defender","steam_id":76561198165732391,"connected_time":1606000000000,"state":"active","ping":84},{"user_id":29,"name":"Batman","steam_id":76561199041636597,"connected_time":5233000000000,"state":"active","ping":75},{"user_id":83,"name":"Deki","steam_id":76561198031914490,"connected_time":27000000000,"state":"active","ping":63},{"user_id":32,"name":"ja","steam_id":76561199228540618,"connected_time":4827000000000,"state":"active","ping":75},{"user_id":84,"name":"laza's boy","steam_id":76561199074095198,"connected_time":27000000000,"state":"active","ping":557},{"user_id":77,"name":"KrevTiz","steam_id":76561199043366861,"connected_time":1351000000000,"state":"active","ping":93},{"user_id":18,"name":"Idk What Im Doing","steam_id":76561198833068074,"connected_time":7476000000000,"state":"active","ping":92},{"user_id":75,"name":"DooWooD","steam_id":76561198335810106,"connected_time":1434000000000,"state":"active","ping":87},{"user_id":60,"name":"Nessieling","steam_id":76561198083556891,"connected_time":3001000000000,"state":"active","ping":70},{"user_id":45,"name":"hsn‚Åß‚Åß741","steam_id":76561198307602421,"connected_time":4238000000000,"state":"spawning","ping":112},{"user_id":40,"name":"rwota","steam_id":76561198385769722,"connected_time":4603000000000,"state":"active","ping":120},{"user_id":70,"name":"Mario Moretti [BR]","steam_id":76561198179299606,"connected_time":2338000000000,"state":"active","ping":107},{"user_id":76,"name":"on1on (scrambled)","steam_id":76561197995304137,"connected_time":1416000000000,"state":"active","ping":61},{"user_id":53,"name":"in the house like carpet","steam_id":76561199480942903,"connected_time":3842000000000,"state":"active","ping":74},{"user_id":59,"name":"PP_master69420","steam_id":76561199019913910,"connected_time":3102000000000,"state":"active","ping":83}]},{"server_id":22,"name":"Uncletopia | London | 6 | All Maps","name_short":"lon-6","host":"lon-1.uk.uncletopia.com","port":27065,"enabled":true,"region":"eu","cc":"gb","latitude":51.509865,"longitude":-0.118092,"reserved":0,"last_update":"0001-01-01T00:00:00Z","name_a2s":"Uncletopia | London | 6 | All Maps","protocol":17,"map":"cp_mountainlab","folder":"tf","game":"Team Fortress","app_id":440,"player_count":0,"max_players":24,"Bots":0,"server_type":"Dedicated","server_os":"Linux","password":true,"vac":true,"version":"7932396","steam_id":85568392924742830,"keywords":["cp","nocrits","nodmgspread","uncletopia"],"game_id":440,"stv_port":27066,"stv_name":"Uncletopia | London | 6 | All Maps | STV","players":null},{"server_id":40,"name":"Uncletopia | London | 7 | No Payload","name_short":"lon-7","host":"lon-1.uk.uncletopia.com","port":27075,"enabled":true,"region":"eu","cc":"gb","latitude":51.509865,"longitude":-0.118092,"reserved":0,"last_update":"0001-01-01T00:00:00Z","name_a2s":"Uncletopia | London | 7 | No Payload","protocol":17,"map":"pl_snowycoast","folder":"tf","game":"Team Fortress","app_id":440,"player_count":0,"max_players":24,"Bots":0,"server_type":"Dedicated","server_os":"Linux","password":true,"vac":true,"version":"7932396","steam_id":85568392924964314,"keywords":["nocrits","nodmgspread","payload","uncletopia"],"game_id":440,"stv_port":27076,"stv_name":"Uncletopia | London | 7 | No Payload | STV","players":null},{"server_id":41,"name":"Uncletopia | London | 8 | Community","name_short":"lon-8","host":"lon-1.uk.uncletopia.com","port":27085,"enabled":true,"region":"eu","cc":"gb","latitude":51.509865,"longitude":-0.118092,"reserved":0,"last_update":"0001-01-01T00:00:00Z","name_a2s":"Uncletopia | London | 8 | Community","protocol":17,"map":"pl_barnblitz","folder":"tf","game":"Team Fortress","app_id":440,"player_count":0,"max_players":24,"Bots":0,"server_type":"Dedicated","server_os":"Linux","password":true,"vac":true,"version":"7932396","steam_id":85568392924964315,"keywords":["nocrits","nodmgspread","payload","uncletopia"],"game_id":440,"stv_port":27086,"stv_name":"Uncletopia | London | 8 | Community | STV","players":null},{"server_id":300,"name":"Uncletopia | Montr√©al | 1 | All Maps","name_short":"mtl-1","host":"mtl-1.ca.uncletopia.com","port":27015,"enabled":true,"region":"us-east","cc":"ca","latitude":45.50889,"longitude":-73.56167,"reserved":0,"last_update":"0001-01-01T00:00:00Z","name_a2s":"Uncletopia | Montr√©al | 1 | All Maps","protocol":17,"map":"cp_altitude","folder":"tf","game":"Team Fortress","app_id":440,"player_count":0,"max_players":24,"Bots":0,"server_type":"Dedicated","server_os":"Linux","password":true,"vac":true,"version":"7932396","steam_id":85568392924500087,"keywords":["cp","nocrits","nodmgspread","uncletopia"],"game_id":440,"stv_port":27016,"stv_name":"Uncletopia | Montr√©al | 1 | All Maps | STV","players":null},{"server_id":301,"name":"Uncletopia | Montr√©al | 2 | All Maps","name_short":"mtl-2","host":"mtl-1.ca.uncletopia.com","port":27025,"enabled":true,"region":"us-east","cc":"ca","latitude":45.50889,"longitude":-73.56167,"reserved":0,"last_update":"0001-01-01T00:00:00Z","name_a2s":"Uncletopia | Montr√©al | 2 | All Maps","protocol":17,"map":"cp_snakewater_final1","folder":"tf","game":"Team Fortress","app_id":440,"player_count":0,"max_players":24,"Bots":0,"server_type":"Dedicated","server_os":"Linux","password":true,"vac":true,"version":"7932396","steam_id":85568392924500088,"keywords":["cp","nocrits","nodmgspread","uncletopia"],"game_id":440,"stv_port":27026,"stv_name":"Uncletopia | Montr√©al | 2 | All Maps | STV","players":null},{"server_id":302,"name":"Uncletopia | Montr√©al | 3 | All Maps","name_short":"mtl-3","host":"mtl-1.ca.uncletopia.com","port":27035,"enabled":true,"region":"us-east","cc":"ca","latitude":45.50889,"longitude":-73.56167,"reserved":0,"last_update":"0001-01-01T00:00:00Z","name_a2s":"Uncletopia | Montr√©al | 3 | All Maps","protocol":17,"map":"pl_frontier_final","folder":"tf","game":"Team Fortress","app_id":440,"player_count":0,"max_players":24,"Bots":0,"server_type":"Dedicated","server_os":"Linux","password":true,"vac":true,"version":"7932396","steam_id":85568392924500089,"keywords":["nocrits","nodmgspread","payload","uncletopia"],"game_id":440,"stv_port":27036,"stv_name":"Uncletopia | Montr√©al | 3 | All Maps | STV","players":null},{"server_id":303,"name":"Uncletopia | Montr√©al | 4 | No Payload","name_short":"mtl-4","host":"mtl-1.ca.uncletopia.com","port":27045,"enabled":true,"region":"us-east","cc":"ca","latitude":45.50889,"longitude":-73.56167,"reserved":0,"last_update":"0001-01-01T00:00:00Z","name_a2s":"Uncletopia | Montr√©al | 4 | No Payload","protocol":17,"map":"koth_lakeside_final","folder":"tf","game":"Team Fortress","app_id":440,"player_count":0,"max_players":24,"Bots":0,"server_type":"Dedicated","server_os":"Linux","password":true,"vac":true,"version":"7932396","steam_id":85568392924500090,"keywords":["cp","nocrits","nodmgspread","uncletopia"],"game_id":440,"stv_port":27046,"stv_name":"Uncletopia | Montr√©al | 4 | No Payload | STV","players":null},{"server_id":13,"name":"Uncletopia | New York City | 1 | All Maps","name_short":"nyc-1","host":"nyc-1.us.uncletopia.com","port":27015,"enabled":true,"region":"us-east","cc":"us","latitude":40.73061,"longitude":-73.93524,"reserved":0,"last_update":"0001-01-01T00:00:00Z","name_a2s":"Uncletopia | New York City | 1 | All Maps","protocol":17,"map":"cp_dustbowl","folder":"tf","game":"Team Fortress","app_id":440,"player_count":8,"max_players":24,"Bots":0,"server_type":"Dedicated","server_os":"Linux","password":true,"vac":true,"version":"7932396","steam_id":85568392924469993,"keywords":["cp","nocrits","nodmgspread","uncletopia"],"game_id":440,"stv_port":27016,"stv_name":"Uncletopia | New York City | 1 | All Maps | STV","players":[{"user_id":822,"name":"MALWARE9000","steam_id":76561198065238093,"connected_time":1627000000000,"state":"active","ping":99},{"user_id":830,"name":"firstlastmcgee","steam_id":76561198170187989,"connected_time":29000000000,"state":"spawning","ping":79},{"user_id":831,"name":"Alfonso Molestro","steam_id":76561197998677099,"connected_time":2000000000,"state":"spawning","ping":54},{"user_id":827,"name":"ygofa3004","steam_id":76561199113722551,"connected_time":491000000000,"state":"active","ping":142},{"user_id":825,"name":"....","steam_id":76561199482943969,"connected_time":911000000000,"state":"active","ping":33},{"user_id":823,"name":"Fostrel","steam_id":76561198152160601,"connected_time":1584000000000,"state":"active","ping":98},{"user_id":829,"name":"Decot","steam_id":76561198042016967,"connected_time":352000000000,"state":"active","ping":45},{"user_id":815,"name":"...","steam_id":76561198312298321,"connected_time":2784000000000,"state":"active","ping":71}]},{"server_id":14,"name":"Uncletopia | New York City | 2 | All Maps","name_short":"nyc-2","host":"nyc-1.us.uncletopia.com","port":27025,"enabled":true,"region":"us-east","cc":"us","latitude":40.73061,"longitude":-73.93524,"reserved":0,"last_update":"0001-01-01T00:00:00Z","name_a2s":"Uncletopia | New York City | 2 | All Maps","protocol":17,"map":"pl_pier","folder":"tf","game":"Team Fortress","app_id":440,"player_count":0,"max_players":24,"Bots":0,"server_type":"Dedicated","server_os":"Linux","password":true,"vac":true,"version":"7932396","steam_id":85568392924469994,"keywords":["nocrits","nodmgspread","payload","uncletopia"],"game_id":440,"stv_port":27026,"stv_name":"Uncletopia | New York City | 2 | All Maps | STV","players":null},{"server_id":15,"name":"Uncletopia | New York City | 3 | Stopwatch Beta","name_short":"nyc-3","host":"nyc-1.us.uncletopia.com","port":27035,"enabled":true,"region":"us-east","cc":"us","latitude":40.73061,"longitude":-73.93524,"reserved":0,"last_update":"0001-01-01T00:00:00Z","name_a2s":"Uncletopia | New York City | 3 | Stopwatch Beta","protocol":17,"map":"workshop/koth_bagel_rc6.ugc2514036946","folder":"tf","game":"Team Fortress","app_id":440,"player_count":0,"max_players":24,"Bots":0,"server_type":"Dedicated","server_os":"Linux","password":true,"vac":true,"version":"7932396","steam_id":85568392924742820,"keywords":["cp","nocrits","nodmgspread","uncletopia"],"game_id":440,"stv_port":27036,"stv_name":"Uncletopia | New York City | 3 | Stopwatch Beta | STV","players":null},{"server_id":16,"name":"Uncletopia | New York City | 4 | Community","name_short":"nyc-4","host":"nyc-1.us.uncletopia.com","port":27045,"enabled":true,"region":"us-east","cc":"us","latitude":40.73061,"longitude":-73.93524,"reserved":0,"last_update":"0001-01-01T00:00:00Z","name_a2s":"Uncletopia | New York City | 4 | Community","protocol":17,"map":"workshop/pl_cactuscanyon_redux_final2.ugc2579644293","folder":"tf","game":"Team Fortress","app_id":440,"player_count":0,"max_players":24,"Bots":0,"server_type":"Dedicated","server_os":"Linux","password":true,"vac":true,"version":"7932396","steam_id":85568392924742821,"keywords":["nocrits","nodmgspread","payload","uncletopia"],"game_id":440,"stv_port":27046,"stv_name":"Uncletopia | New York City | 4 | Community | STV","players":null},{"server_id":142,"name":"Uncletopia | S√£o Paulo | 1 | All Maps","name_short":"sao-1","host":"sao-1.br.uncletopia.com","port":27015,"enabled":true,"region":"sa","cc":"br","latitude":-23.533773,"longitude":-46.62529,"reserved":0,"last_update":"0001-01-01T00:00:00Z","name_a2s":"Uncletopia | S√£o Paulo | 1 | All Maps","protocol":17,"map":"koth_highpass","folder":"tf","game":"Team Fortress","app_id":440,"player_count":0,"max_players":24,"Bots":0,"server_type":"Dedicated","server_os":"Linux","password":true,"vac":true,"version":"7932396","steam_id":85568392924469996,"keywords":["cp","nocrits","nodmgspread","uncletopia"],"game_id":440,"stv_port":27016,"stv_name":"Uncletopia | S√£o Paulo | 1 | All Maps | STV","players":null},{"server_id":143,"name":"Uncletopia | S√£o Paulo | 2 | All Maps","name_short":"sao-2","host":"sao-2.br.uncletopia.com","port":27015,"enabled":true,"region":"sa","cc":"br","latitude":-23.533773,"longitude":-46.62529,"reserved":0,"last_update":"0001-01-01T00:00:00Z","name_a2s":"Uncletopia | S√£o Paulo | 2 | All Maps","protocol":17,"map":"koth_brazil","folder":"tf","game":"Team Fortress","app_id":440,"player_count":0,"max_players":24,"Bots":0,"server_type":"Dedicated","server_os":"Linux","password":true,"vac":true,"version":"7932396","steam_id":85568392924485349,"keywords":["cp","nocrits","nodmgspread","uncletopia"],"game_id":440,"stv_port":27016,"stv_name":"Uncletopia | S√£o Paulo | 2 | All Maps | STV","players":null},{"server_id":7,"name":"Uncletopia | Seattle | 1 | All Maps","name_short":"sea-1","host":"sea-1.us.uncletopia.com","port":27015,"enabled":true,"region":"us-west","cc":"us","latitude":47.608013,"longitude":-122.33517,"reserved":0,"last_update":"0001-01-01T00:00:00Z","name_a2s":"Uncletopia | Seattle | 1 | All Maps","protocol":17,"map":"pl_frontier_final","folder":"tf","game":"Team Fortress","app_id":440,"player_count":23,"max_players":24,"Bots":0,"server_type":"Dedicated","server_os":"Linux","password":true,"vac":true,"version":"7932396","steam_id":85568392924469997,"keywords":["nocrits","nodmgspread","payload","uncletopia"],"game_id":440,"stv_port":27016,"stv_name":"Uncletopia | Seattle | 1 | All Maps | STV","players":[{"user_id":798,"name":"snougaloogie","steam_id":76561198068787020,"connected_time":2914000000000,"state":"active","ping":107},{"user_id":801,"name":"little queefer","steam_id":76561198884935587,"connected_time":2534000000000,"state":"active","ping":108},{"user_id":833,"name":"mac_cheese","steam_id":76561198071334162,"connected_time":282000000000,"state":"active","ping":50},{"user_id":824,"name":"how do i control my guy?","steam_id":76561198158855211,"connected_time":1473000000000,"state":"active","ping":46},{"user_id":786,"name":"goldhed","steam_id":76561198051751133,"connected_time":3830000000000,"state":"active","ping":57},{"user_id":830,"name":"Wafflemuscle","steam_id":76561198868628982,"connected_time":549000000000,"state":"active","ping":53},{"user_id":774,"name":"Sniff","steam_id":76561198010270922,"connected_time":4992000000000,"state":"active","ping":54},{"user_id":832,"name":"black ops 3 guy","steam_id":76561198374769204,"connected_time":380000000000,"state":"active","ping":21},{"user_id":820,"name":"‚ù§[S'more]‚ù§","steam_id":76561198817361963,"connected_time":1679000000000,"state":"active","ping":75},{"user_id":809,"name":"Bing Soy","steam_id":76561199091381775,"connected_time":2218000000000,"state":"active","ping":101},{"user_id":823,"name":"Donny Q","steam_id":76561198020901703,"connected_time":1498000000000,"state":"active","ping":59},{"user_id":779,"name":"Casual Vore","steam_id":76561197999045683,"connected_time":4080000000000,"state":"active","ping":38},{"user_id":825,"name":"cracky","steam_id":76561197971365444,"connected_time":1471000000000,"state":"active","ping":51},{"user_id":810,"name":"devamar","steam_id":76561198069115467,"connected_time":2186000000000,"state":"active","ping":75},{"user_id":781,"name":"Inflight","steam_id":76561198920049475,"connected_time":4067000000000,"state":"active","ping":63},{"user_id":828,"name":"St. Baddie d'Arc","steam_id":76561198206752128,"connected_time":1300000000000,"state":"active","ping":152},{"user_id":834,"name":"koolamundo","steam_id":76561198101705890,"connected_time":178000000000,"state":"active","ping":88},{"user_id":819,"name":"Sacrificial Wormy","steam_id":76561198054539200,"connected_time":1688000000000,"state":"active","ping":57},{"user_id":829,"name":"porksoda","steam_id":76561198021451377,"connected_time":995000000000,"state":"active","ping":55},{"user_id":783,"name":"hatsune miku","steam_id":76561199445009981,"connected_time":4039000000000,"state":"active","ping":52},{"user_id":831,"name":"gorlab","steam_id":76561198025089694,"connected_time":510000000000,"state":"active","ping":63},{"user_id":817,"name":"VixianUwU","steam_id":76561198948815060,"connected_time":2027000000000,"state":"active","ping":80},{"user_id":827,"name":"..flop","steam_id":76561197989058876,"connected_time":1446000000000,"state":"active","ping":109}]},{"server_id":119,"name":"Uncletopia | Seattle | 2 | All Maps","name_short":"sea-2","host":"sea-1.us.uncletopia.com","port":27025,"enabled":true,"region":"us-west","cc":"us","latitude":47.608013,"longitude":-122.33517,"reserved":0,"last_update":"0001-01-01T00:00:00Z","name_a2s":"Uncletopia | Seattle | 2 | All Maps","protocol":17,"map":"cp_snakewater_final1","folder":"tf","game":"Team Fortress","app_id":440,"player_count":0,"max_players":24,"Bots":0,"server_type":"Dedicated","server_os":"Linux","password":true,"vac":true,"version":"7932396","steam_id":85568392924469998,"keywords":["cp","nocrits","nodmgspread","uncletopia"],"game_id":440,"stv_port":27026,"stv_name":"Uncletopia | Seattle | 2 | All Maps | STV","players":null},{"server_id":406,"name":"Uncletopia | Seattle | 3 | Stopwatch Beta","name_short":"sea-3","host":"sea-1.us.uncletopia.com","port":27035,"enabled":true,"region":"us-west","cc":"us","latitude":47.608013,"longitude":-122.33517,"reserved":0,"last_update":"0001-01-01T00:00:00Z","name_a2s":"Uncletopia | Seattle | 3 | Stopwatch Beta","protocol":17,"map":"workshop/cp_process_f12.ugc2302948105","folder":"tf","game":"Team Fortress","app_id":440,"player_count":0,"max_players":24,"Bots":0,"server_type":"Dedicated","server_os":"Linux","password":true,"vac":true,"version":"7932396","steam_id":85568392924515217,"keywords":["cp","nocrits","nodmgspread","uncletopia"],"game_id":440,"stv_port":27036,"stv_name":"Uncletopia | Seattle | 3 | Stopwatch Beta | STV","players":null},{"server_id":17,"name":"Uncletopia | San Francisco | 1 | All Maps","name_short":"sfo-1","host":"sfo-1.us.uncletopia.com","port":27015,"enabled":true,"region":"us-west","cc":"us","latitude":37.77397,"longitude":-122.4313,"reserved":0,"last_update":"0001-01-01T00:00:00Z","name_a2s":"Uncletopia | San Francisco | 1 | All Maps","protocol":17,"map":"koth_suijin","folder":"tf","game":"Team Fortress","app_id":440,"player_count":14,"max_players":24,"Bots":0,"server_type":"Dedicated","server_os":"Linux","password":true,"vac":true,"version":"7932396","steam_id":85568392924469999,"keywords":["cp","nocrits","nodmgspread","uncletopia"],"game_id":440,"stv_port":27016,"stv_name":"Uncletopia | San Francisco | 1 | All Maps | STV","players":[{"user_id":783,"name":"Samsonation","steam_id":76561199136570953,"connected_time":1755000000000,"state":"active","ping":54},{"user_id":795,"name":"CEOlifestyle","steam_id":76561198025747866,"connected_time":157000000000,"state":"active","ping":61},{"user_id":767,"name":"lili","steam_id":76561199391478575,"connected_time":2786000000000,"state":"active","ping":85},{"user_id":759,"name":"greentop_","steam_id":76561198209650964,"connected_time":3287000000000,"state":"active","ping":66},{"user_id":791,"name":"Nani","steam_id":76561198010230727,"connected_time":912000000000,"state":"active","ping":53},{"user_id":796,"name":"Mengle","steam_id":76561198001953684,"connected_time":113000000000,"state":"active","ping":107},{"user_id":768,"name":"Se√±or Marrano","steam_id":76561198083952982,"connected_time":2531000000000,"state":"active","ping":73},{"user_id":742,"name":"Jezzus","steam_id":76561199289676387,"connected_time":4946000000000,"state":"active","ping":94},{"user_id":784,"name":"Robotferret87","steam_id":76561198259837716,"connected_time":1743000000000,"state":"active","ping":120},{"user_id":786,"name":"DaBeatGoOff2?","steam_id":76561198106507400,"connected_time":1726000000000,"state":"active","ping":54},{"user_id":793,"name":"tr","steam_id":76561198046944222,"connected_time":746000000000,"state":"active","ping":61},{"user_id":787,"name":"Throws Before BrosÛ†Ä°","steam_id":76561197992905530,"connected_time":1707000000000,"state":"active","ping":41},{"user_id":764,"name":"LesserAce","steam_id":76561198153258132,"connected_time":2905000000000,"state":"active","ping":105},{"user_id":794,"name":"‚òÖSuperBurgerBoy‚òÖ","steam_id":76561198856387197,"connected_time":601000000000,"state":"active","ping":59}]},{"server_id":18,"name":"Uncletopia | San Francisco | 2 | All Maps","name_short":"sfo-2","host":"sfo-1.us.uncletopia.com","port":27025,"enabled":true,"region":"us-west","cc":"us","latitude":37.77397,"longitude":-122.4313,"reserved":0,"last_update":"0001-01-01T00:00:00Z","name_a2s":"Uncletopia | San Francisco | 2 | All Maps","protocol":17,"map":"cp_mountainlab","folder":"tf","game":"Team Fortress","app_id":440,"player_count":0,"max_players":24,"Bots":0,"server_type":"Dedicated","server_os":"Linux","password":true,"vac":true,"version":"7932396","steam_id":85568392924470000,"keywords":["cp","nocrits","nodmgspread","uncletopia"],"game_id":440,"stv_port":27026,"stv_name":"Uncletopia | San Francisco | 2 | All Maps | STV","players":null},{"server_id":19,"name":"Uncletopia | San Francisco | 3 | Stopwatch Beta","name_short":"sfo-3","host":"sfo-1.us.uncletopia.com","port":27035,"enabled":true,"region":"us-west","cc":"us","latitude":37.77397,"longitude":-122.4313,"reserved":0,"last_update":"0001-01-01T00:00:00Z","name_a2s":"Uncletopia | San Francisco | 3 | Stopwatch Beta","protocol":17,"map":"workshop/koth_clearcut_b15.ugc2107050255","folder":"tf","game":"Team Fortress","app_id":440,"player_count":0,"max_players":24,"Bots":0,"server_type":"Dedicated","server_os":"Linux","password":true,"vac":true,"version":"7932396","steam_id":85568392924742824,"keywords":["cp","nocrits","nodmgspread","uncletopia"],"game_id":440,"stv_port":27036,"stv_name":"Uncletopia | San Francisco | 3 | Stopwatch Beta | STV","players":null},{"server_id":20,"name":"Uncletopia | San Francisco | 4 | Community","name_short":"sfo-4","host":"sfo-1.us.uncletopia.com","port":27045,"enabled":true,"region":"us-west","cc":"us","latitude":37.77397,"longitude":-122.4313,"reserved":0,"last_update":"0001-01-01T00:00:00Z","name_a2s":"Uncletopia | San Francisco | 4 | Community","protocol":17,"map":"workshop/pl_vigil_rc9.ugc1266210012","folder":"tf","game":"Team Fortress","app_id":440,"player_count":20,"max_players":24,"Bots":0,"server_type":"Dedicated","server_os":"Linux","password":true,"vac":true,"version":"7932396","steam_id":85568392924742826,"keywords":["nocrits","nodmgspread","payload","uncletopia"],"game_id":440,"stv_port":27046,"stv_name":"Uncletopia | San Francisco | 4 | Community | STV","players":[{"user_id":119,"name":"resh","steam_id":76561198239598834,"connected_time":2466000000000,"state":"active","ping":107},{"user_id":41,"name":"jorts","steam_id":76561199041179985,"connected_time":9817000000000,"state":"active","ping":70},{"user_id":127,"name":"rat gets the cheese","steam_id":76561198031234032,"connected_time":786000000000,"state":"active","ping":93},{"user_id":128,"name":"ƒê√Ø…ê»ê…π…¶…Üa","steam_id":76561198981411945,"connected_time":675000000000,"state":"active","ping":50},{"user_id":60,"name":"rorywashere /·ê† - Àï -„Éû ‚≥ä","steam_id":76561198065825165,"connected_time":8741000000000,"state":"active","ping":93},{"user_id":50,"name":"squash","steam_id":76561198150281353,"connected_time":9471000000000,"state":"active","ping":74},{"user_id":123,"name":"lag man :|","steam_id":76561199087275855,"connected_time":1107000000000,"state":"active","ping":49},{"user_id":49,"name":"NEBULA","steam_id":76561198086878595,"connected_time":9609000000000,"state":"active","ping":60},{"user_id":121,"name":"chikin.sauce","steam_id":76561198042464635,"connected_time":2006000000000,"state":"active","ping":100},{"user_id":131,"name":"JKEMEISTR","steam_id":76561198082146326,"connected_time":19000000000,"state":"active","ping":60},{"user_id":129,"name":"chocolat3823","steam_id":76561199249875689,"connected_time":649000000000,"state":"active","ping":83},{"user_id":130,"name":"di0genes","steam_id":76561198126405427,"connected_time":328000000000,"state":"active","ping":82},{"user_id":112,"name":"alba","steam_id":76561198053658535,"connected_time":2934000000000,"state":"active","ping":122},{"user_id":58,"name":"horse (horse)","steam_id":76561198028718812,"connected_time":8973000000000,"state":"active","ping":60},{"user_id":125,"name":"oil","steam_id":76561198099980149,"connected_time":1033000000000,"state":"active","ping":60},{"user_id":117,"name":"The Chimp","steam_id":76561198349842142,"connected_time":2590000000000,"state":"active","ping":61},{"user_id":120,"name":"SolarusD","steam_id":76561198029279861,"connected_time":2086000000000,"state":"active","ping":48},{"user_id":108,"name":"Bamboo","steam_id":76561198043139553,"connected_time":3873000000000,"state":"active","ping":56},{"user_id":101,"name":"delight","steam_id":76561197980280272,"connected_time":5012000000000,"state":"active","ping":69},{"user_id":115,"name":"rauzz","steam_id":76561198204223497,"connected_time":2788000000000,"state":"active","ping":131}]},{"server_id":141,"name":"Uncletopia | Sydney | 1 | All Maps","name_short":"syd-1","host":"syd-1.au.uncletopia.com","port":27015,"enabled":true,"region":"au","cc":"au","latitude":-33.865143,"longitude":151.2099,"reserved":0,"last_update":"0001-01-01T00:00:00Z","name_a2s":"Uncletopia | Sydney | 1 | All Maps","protocol":17,"map":"cp_process_final","folder":"tf","game":"Team Fortress","app_id":440,"player_count":24,"max_players":24,"Bots":0,"server_type":"Dedicated","server_os":"Linux","password":true,"vac":true,"version":"7932396","steam_id":85568392924470001,"keywords":["cp","nocrits","nodmgspread","uncletopia"],"game_id":440,"stv_port":27016,"stv_name":"Uncletopia | Sydney | 1 | All Maps | STV","players":[{"user_id":147,"name":"A writhing mass of bees","steam_id":76561198317860338,"connected_time":279000000000,"state":"active","ping":54},{"user_id":129,"name":"JewBoyQ","steam_id":76561198097058066,"connected_time":1596000000000,"state":"active","ping":248},{"user_id":133,"name":"Doctor Estonia","steam_id":76561198057365089,"connected_time":1312000000000,"state":"active","ping":85},{"user_id":106,"name":"Ash!","steam_id":76561198042067688,"connected_time":4065000000000,"state":"active","ping":105},{"user_id":138,"name":"asasasuop","steam_id":76561199166893972,"connected_time":794000000000,"state":"active","ping":88},{"user_id":137,"name":"Zoey","steam_id":76561198126153554,"connected_time":834000000000,"state":"active","ping":73},{"user_id":119,"name":"Brum","steam_id":76561198073508075,"connected_time":2851000000000,"state":"active","ping":114},{"user_id":135,"name":"the poo man | trade.tf","steam_id":76561198173322978,"connected_time":1144000000000,"state":"active","ping":60},{"user_id":145,"name":"symogin","steam_id":76561198067804239,"connected_time":509000000000,"state":"active","ping":62},{"user_id":140,"name":"Zeppy","steam_id":76561198074766231,"connected_time":723000000000,"state":"active","ping":74},{"user_id":84,"name":"voxii","steam_id":76561198099698281,"connected_time":4606000000000,"state":"active","ping":72},{"user_id":149,"name":"pigeon","steam_id":76561198135180841,"connected_time":194000000000,"state":"active","ping":45},{"user_id":107,"name":"THE VERMINATOR","steam_id":76561198131507981,"connected_time":4057000000000,"state":"active","ping":102},{"user_id":123,"name":"sf/k","steam_id":76561198047758776,"connected_time":2542000000000,"state":"active","ping":43},{"user_id":151,"name":"CypressFluff (She/Her)","steam_id":76561198174667818,"connected_time":54000000000,"state":"active","ping":57},{"user_id":148,"name":"‚ô•bap NYAAAA","steam_id":76561198085486146,"connected_time":228000000000,"state":"active","ping":57},{"user_id":141,"name":"Not A Clever Man","steam_id":76561198038700246,"connected_time":687000000000,"state":"active","ping":72},{"user_id":103,"name":"Berry","steam_id":76561198983957460,"connected_time":4132000000000,"state":"active","ping":101},{"user_id":142,"name":"bub","steam_id":76561198446126519,"connected_time":686000000000,"state":"active","ping":42},{"user_id":150,"name":"brass monkey","steam_id":76561198833290341,"connected_time":120000000000,"state":"active","ping":105},{"user_id":126,"name":"Stroke Victim","steam_id":76561198088762557,"connected_time":2179000000000,"state":"active","ping":114},{"user_id":146,"name":"FascismSalad","steam_id":76561198262410973,"connected_time":395000000000,"state":"active","ping":49},{"user_id":143,"name":"Soru","steam_id":76561198010844786,"connected_time":654000000000,"state":"active","ping":69},{"user_id":144,"name":"claptone","steam_id":76561197974374971,"connected_time":637000000000,"state":"active","ping":55}]},{"server_id":123,"name":"Uncletopia | Sydney | 2 | All Maps","name_short":"syd-2","host":"syd-1.au.uncletopia.com","port":27025,"enabled":true,"region":"au","cc":"au","latitude":-33.865143,"longitude":151.2099,"reserved":0,"last_update":"0001-01-01T00:00:00Z","name_a2s":"Uncletopia | Sydney | 2 | All Maps","protocol":17,"map":"pl_goldrush","folder":"tf","game":"Team Fortress","app_id":440,"player_count":16,"max_players":24,"Bots":0,"server_type":"Dedicated","server_os":"Linux","password":true,"vac":true,"version":"7932396","steam_id":85568392924470002,"keywords":["nocrits","nodmgspread","payload","uncletopia"],"game_id":440,"stv_port":27026,"stv_name":"Uncletopia | Sydney | 2 | All Maps | STV","players":[{"user_id":30,"name":"CardboardKing (no mic)","steam_id":76561199099769110,"connected_time":6020000000000,"state":"active","ping":55},{"user_id":89,"name":"Y0shua3","steam_id":76561199381627916,"connected_time":1411000000000,"state":"active","ping":92},{"user_id":60,"name":"Jodelk√∂nig Franzl Lang","steam_id":76561198007667830,"connected_time":4288000000000,"state":"active","ping":45},{"user_id":90,"name":"A 1989 Nissan Patrol DX","steam_id":76561198152812718,"connected_time":1380000000000,"state":"active","ping":71},{"user_id":114,"name":"american (escaped containment)","steam_id":76561198081681647,"connected_time":94000000000,"state":"active","ping":76},{"user_id":111,"name":"hazz_mcpie -BvM-","steam_id":76561198092450084,"connected_time":256000000000,"state":"active","ping":85},{"user_id":83,"name":"In the face!","steam_id":76561199400467501,"connected_time":2072000000000,"state":"active","ping":103},{"user_id":106,"name":"Techlord","steam_id":76561199117241969,"connected_time":365000000000,"state":"active","ping":45},{"user_id":93,"name":"mwaya","steam_id":76561198067646022,"connected_time":1254000000000,"state":"active","ping":60},{"user_id":115,"name":"Judgement","steam_id":76561199232551668,"connected_time":85000000000,"state":"active","ping":89},{"user_id":95,"name":"Player 3.14","steam_id":76561198016766670,"connected_time":1118000000000,"state":"active","ping":40},{"user_id":112,"name":"monomaniac(f2p)","steam_id":76561199042262110,"connected_time":193000000000,"state":"active","ping":200},{"user_id":108,"name":"WogBat","steam_id":76561198151221055,"connected_time":332000000000,"state":"active","ping":64},{"user_id":98,"name":"Snowy","steam_id":76561198255720598,"connected_time":956000000000,"state":"active","ping":40},{"user_id":53,"name":"s0lar","steam_id":76561198200896745,"connected_time":4980000000000,"state":"active","ping":36},{"user_id":97,"name":"paper boat","steam_id":76561198046558051,"connected_time":1084000000000,"state":"active","ping":144}]},{"server_id":395,"name":"Uncletopia | Sydney | 3 | All Maps","name_short":"syd-3","host":"syd-1.au.uncletopia.com","port":27035,"enabled":true,"region":"au","cc":"au","latitude":-33.865143,"longitude":151.2099,"reserved":0,"last_update":"0001-01-01T00:00:00Z","name_a2s":"Uncletopia | Sydney | 3 | All Maps","protocol":17,"map":"koth_highpass","folder":"tf","game":"Team Fortress","app_id":440,"player_count":0,"max_players":24,"Bots":0,"server_type":"Dedicated","server_os":"Linux","password":true,"vac":true,"version":"7932396","steam_id":85568392925194467,"keywords":["cp","nocrits","nodmgspread","uncletopia"],"game_id":440,"stv_port":27036,"stv_name":"Uncletopia | Sydney | 3 | All Maps | STV","players":null},{"server_id":396,"name":"Uncletopia | Sydney | 4 | All Maps","name_short":"syd-4","host":"syd-1.au.uncletopia.com","port":27045,"enabled":true,"region":"au","cc":"au","latitude":-33.865143,"longitude":151.2099,"reserved":0,"last_update":"0001-01-01T00:00:00Z","name_a2s":"Uncletopia | Sydney | 4 | All Maps","protocol":17,"map":"pl_borneo","folder":"tf","game":"Team Fortress","app_id":440,"player_count":11,"max_players":24,"Bots":0,"server_type":"Dedicated","server_os":"Linux","password":true,"vac":true,"version":"7932396","steam_id":85568392925397958,"keywords":["nocrits","nodmgspread","payload","uncletopia"],"game_id":440,"stv_port":27046,"stv_name":"Uncletopia | Sydney | 4 | All Maps | STV","players":[{"user_id":289,"name":"BingusLover‚ù§","steam_id":76561198168709587,"connected_time":204000000000,"state":"active","ping":81},{"user_id":290,"name":"Okie Dokie","steam_id":76561198125237921,"connected_time":53000000000,"state":"active","ping":47},{"user_id":272,"name":"FrOStY","steam_id":76561198088155805,"connected_time":1287000000000,"state":"active","ping":100},{"user_id":292,"name":"SilverPenguin","steam_id":76561199025744213,"connected_time":5000000000,"state":"spawning","ping":89},{"user_id":291,"name":"Cleaner fish","steam_id":76561199343836118,"connected_time":16000000000,"state":"spawning","ping":390},{"user_id":284,"name":"skeleton with a hat","steam_id":76561199007969265,"connected_time":882000000000,"state":"active","ping":89},{"user_id":227,"name":"TheOrang","steam_id":76561199232263206,"connected_time":4367000000000,"state":"active","ping":110},{"user_id":281,"name":"ivoangelozocca","steam_id":76561199419790359,"connected_time":908000000000,"state":"active","ping":157},{"user_id":257,"name":"pointless101","steam_id":76561199446931124,"connected_time":2219000000000,"state":"active","ping":92},{"user_id":258,"name":"MikkyD","steam_id":76561198043452962,"connected_time":2194000000000,"state":"active","ping":59},{"user_id":282,"name":"Sinister80s","steam_id":76561198343540472,"connected_time":891000000000,"state":"active","ping":60}]},{"server_id":58,"name":"Uncletopia | Sydney | 5 | Stopwatch Beta","name_short":"syd-5","host":"syd-1.au.uncletopia.com","port":27055,"enabled":true,"region":"au","cc":"au","latitude":-33.865143,"longitude":151.2099,"reserved":0,"last_update":"0001-01-01T00:00:00Z","name_a2s":"Uncletopia | Sydney | 5 | Stopwatch Beta","protocol":17,"map":"workshop/koth_ashville_final.ugc2130459942","folder":"tf","game":"Team Fortress","app_id":440,"player_count":0,"max_players":24,"Bots":0,"server_type":"Dedicated","server_os":"Linux","password":true,"vac":true,"version":"7932396","steam_id":85568392925397959,"keywords":["cp","nocrits","nodmgspread","uncletopia"],"game_id":440,"stv_port":27056,"stv_name":"Uncletopia | Sydney | 5 | Stopwatch Beta | STV","players":null},{"server_id":59,"name":"Uncletopia | Sydney | 6 | Community","name_short":"syd-6","host":"syd-1.au.uncletopia.com","port":27065,"enabled":true,"region":"au","cc":"au","latitude":-33.865143,"longitude":151.2099,"reserved":0,"last_update":"0001-01-01T00:00:00Z","name_a2s":"Uncletopia | Sydney | 6 | Community","protocol":17,"map":"workshop/cp_villa_b19.ugc2113052569","folder":"tf","game":"Team Fortress","app_id":440,"player_count":0,"max_players":24,"Bots":0,"server_type":"Dedicated","server_os":"Linux","password":true,"vac":true,"version":"7932396","steam_id":85568392925397960,"keywords":["cp","nocrits","nodmgspread","uncletopia"],"game_id":440,"stv_port":27066,"stv_name":"Uncletopia | Sydney | 6 | Community | STV","players":null},{"server_id":49,"name":"Uncletopia | Warsaw | 1 | All Maps","name_short":"waw-1","host":"waw-1.pl.uncletopia.com","port":27015,"enabled":true,"region":"eu","cc":"pl","latitude":52.2297,"longitude":21.017532,"reserved":0,"last_update":"0001-01-01T00:00:00Z","name_a2s":"","protocol":0,"map":"","folder":"","game":"","app_id":0,"player_count":0,"max_players":0,"Bots":0,"server_type":"","server_os":"","password":false,"vac":false,"version":"","steam_id":0,"keywords":null,"game_id":0,"stv_port":0,"stv_name":"","players":null},{"server_id":50,"name":"Uncletopia | Warsaw | 2 | All Maps","name_short":"waw-2","host":"waw-1.pl.uncletopia.com","port":27025,"enabled":true,"region":"eu","cc":"pl","latitude":52.2297,"longitude":21.017532,"reserved":0,"last_update":"0001-01-01T00:00:00Z","name_a2s":"Uncletopia | Warsaw | 2 | All Maps","protocol":17,"map":"cp_sunshine","folder":"tf","game":"Team Fortress","app_id":440,"player_count":0,"max_players":24,"Bots":0,"server_type":"Dedicated","server_os":"Linux","password":true,"vac":true,"version":"7932396","steam_id":85568392925397851,"keywords":["cp","nocrits","nodmgspread","uncletopia"],"game_id":440,"stv_port":27026,"stv_name":"Uncletopia | Warsaw | 2 | All Maps | STV","players":null},{"server_id":51,"name":"Uncletopia | Warsaw | 3 | All Maps","name_short":"waw-3","host":"waw-1.pl.uncletopia.com","port":27035,"enabled":true,"region":"eu","cc":"pl","latitude":52.2297,"longitude":21.017532,"reserved":0,"last_update":"0001-01-01T00:00:00Z","name_a2s":"Uncletopia | Warsaw | 3 | All Maps","protocol":17,"map":"koth_lakeside_final","folder":"tf","game":"Team Fortress","app_id":440,"player_count":0,"max_players":24,"Bots":0,"server_type":"Dedicated","server_os":"Linux","password":true,"vac":true,"version":"7932396","steam_id":85568392925397852,"keywords":["cp","nocrits","nodmgspread","uncletopia"],"game_id":440,"stv_port":27036,"stv_name":"Uncletopia | Warsaw | 3 | All Maps | STV","players":null},{"server_id":52,"name":"Uncletopia | Warsaw | 4 | All Maps","name_short":"waw-4","host":"waw-1.pl.uncletopia.com","port":27045,"enabled":true,"region":"eu","cc":"pl","latitude":52.2297,"longitude":21.017532,"reserved":0,"last_update":"0001-01-01T00:00:00Z","name_a2s":"Uncletopia | Warsaw | 4 | All Maps","protocol":17,"map":"cp_mountainlab","folder":"tf","game":"Team Fortress","app_id":440,"player_count":0,"max_players":24,"Bots":0,"server_type":"Dedicated","server_os":"Linux","password":true,"vac":true,"version":"7932396","steam_id":85568392925397853,"keywords":["cp","nocrits","nodmgspread","uncletopia"],"game_id":440,"stv_port":27046,"stv_name":"Uncletopia | Warsaw | 4 | All Maps | STV","players":null},{"server_id":53,"name":"Uncletopia | Warsaw | 5 | Stopwatch Beta","name_short":"waw-5","host":"waw-1.pl.uncletopia.com","port":27055,"enabled":true,"region":"eu","cc":"pl","latitude":52.2297,"longitude":21.017532,"reserved":0,"last_update":"0001-01-01T00:00:00Z","name_a2s":"Uncletopia | Warsaw | 5 | Stopwatch Beta","protocol":17,"map":"koth_highpass","folder":"tf","game":"Team Fortress","app_id":440,"player_count":0,"max_players":24,"Bots":0,"server_type":"Dedicated","server_os":"Linux","password":true,"vac":true,"version":"7932396","steam_id":85568392925397854,"keywords":["cp","nocrits","nodmgspread","uncletopia"],"game_id":440,"stv_port":27056,"stv_name":"Uncletopia | Warsaw | 5 | Stopwatch Beta | STV","players":null},{"server_id":54,"name":"Uncletopia | Warsaw | 6 | Community","name_short":"waw-6","host":"waw-1.pl.uncletopia.com","port":27065,"enabled":true,"region":"eu","cc":"pl","latitude":52.2297,"longitude":21.017532,"reserved":0,"last_update":"0001-01-01T00:00:00Z","name_a2s":"Uncletopia | Warsaw | 6 | Community","protocol":17,"map":"pl_upward","folder":"tf","game":"Team Fortress","app_id":440,"player_count":0,"max_players":24,"Bots":0,"server_type":"Dedicated","server_os":"Linux","password":true,"vac":true,"version":"7932396","steam_id":85568392925397856,"keywords":["nocrits","nodmgspread","payload","uncletopia"],"game_id":440,"stv_port":27066,"stv_name":"Uncletopia | Warsaw | 6 | Community | STV","players":null}]}