{"status":true,"message":"","result":[{"server_id":9,"name":"Uncletopia | Atlanta | 1 | All Maps","name_short":"atl-1","host":"atl-1.us.uncletopia.com","port":27015,"enabled":true,"region":"us-east","cc":"us","latitude":33.753746,"longitude":-84.38633,"reserved":0,"last_update":"0001-01-01T00:00:00Z","name_a2s":"Uncletopia | Atlanta | 1 | All Maps","protocol":17,"map":"pl_borneo","folder":"tf","game":"Team Fortress","app_id":440,"player_count":24,"max_players":24,"Bots":0,"server_type":"Dedicated","server_os":"Linux","password":true,"vac":true,"version":"7961495","steam_id":85568392924469982,"keywords":["nocrits","nodmgspread","payload","uncletopia"],"game_id":440,"stv_port":27016,"stv_name":"Uncletopia | Atlanta | 1 | All Maps | STV","players":[{"user_id":71,"name":"Ashes!","steam_id":76561197998475441,"connected_time":14888000000000,"state":"active","ping":74},{"user_id":207,"name":"Foolie","steam_id":76561198291741747,"connected_time":1296000000000,"state":"active","ping":74},{"user_id":162,"name":"Poo","steam_id":76561198265144507,"connected_time":6345000000000,"state":"active","ping":74},{"user_id":200,"name":"Neptune˖⁺｡˚⋆˙♥","steam_id":76561199054203198,"connected_time":1825000000000,"state":"active","ping":67},{"user_id":209,"name":"Yes!","steam_id":76561198084208477,"connected_time":1167000000000,"state":"active","ping":58},{"user_id":164,"name":"Kuri","steam_id":76561199037050183,"connected_time":5713000000000,"state":"active","ping":79},{"user_id":218,"name":"Tay1Qr","steam_id":76561198082809935,"connected_time":19000000000,"state":"spawning","ping":58},{"user_id":202,"name":"glam","steam_id":76561198059570070,"connected_time":1719000000000,"state":"active","ping":60},{"user_id":179,"name":"Dreszerg","steam_id":76561198838757422,"connected_time":4565000000000,"state":"active","ping":76},{"user_id":214,"name":"Hipster_Giraffe","steam_id":76561198069701092,"connected_time":907000000000,"state":"active","ping":85},{"user_id":206,"name":"FaZe Tim Allen","steam_id":76561198358434883,"connected_time":1468000000000,"state":"active","ping":46},{"user_id":211,"name":"karma charger","steam_id":76561198032566820,"connected_time":1007000000000,"state":"active","ping":67},{"user_id":205,"name":"King Cotton","steam_id":76561198292444376,"connected_time":1637000000000,"state":"active","ping":89},{"user_id":186,"name":"Temina","steam_id":76561198978778718,"connected_time":3084000000000,"state":"active","ping":122},{"user_id":216,"name":"Andrew Weber","steam_id":76561199359977174,"connected_time":542000000000,"state":"active","ping":74},{"user_id":194,"name":"loot","steam_id":76561198069954956,"connected_time":2318000000000,"state":"active","ping":50},{"user_id":196,"name":"lynt","steam_id":76561198988333976,"connected_time":2105000000000,"state":"active","ping":42},{"user_id":147,"name":"Le4n!!!","steam_id":76561198045522596,"connected_time":8060000000000,"state":"active","ping":63},{"user_id":107,"name":"Thotimus Begonimus","steam_id":76561197970275938,"connected_time":11078000000000,"state":"active","ping":41},{"user_id":217,"name":"Evil little man","steam_id":76561198311053471,"connected_time":483000000000,"state":"active","ping":64},{"user_id":215,"name":"SpectreBurn","steam_id":76561198163300780,"connected_time":892000000000,"state":"active","ping":50},{"user_id":208,"name":"ryan.m.pomeroy","steam_id":76561199122432930,"connected_time":1276000000000,"state":"active","ping":92},{"user_id":195,"name":"eeeeeeeenE","steam_id":76561198857793523,"connected_time":2253000000000,"state":"active","ping":150},{"user_id":212,"name":"Just a storm dick, sit down","steam_id":76561198404528521,"connected_time":1002000000000,"state":"active","ping":86}]},{"server_id":104,"name":"Uncletopia | Atlanta | 2 | All Maps","name_short":"atl-2","host":"atl-1.us.uncletopia.com","port":27025,"enabled":true,"region":"us-east","cc":"us","latitude":33.753746,"longitude":-84.38633,"reserved":0,"last_update":"0001-01-01T00:00:00Z","name_a2s":"Uncletopia | Atlanta | 2 | All Maps","protocol":17,"map":"pl_upward","folder":"tf","game":"Team Fortress","app_id":440,"player_count":22,"max_players":24,"Bots":0,"server_type":"Dedicated","server_os":"Linux","password":true,"vac":true,"version":"7961495","steam_id":85568392924469983,"keywords":["nocrits","nodmgspread","payload","uncletopia"],"game_id":440,"stv_port":27026,"stv_name":"Uncletopia | Atlanta | 2 | All Maps | STV","players":[{"user_id":208,"name":"bladees realest, saddest verse","steam_id":76561198098099826,"connected_time":1599000000000,"state":"active","ping":74},{"user_id":218,"name":"beats (16:38)","steam_id":76561199245717718,"connected_time":8000000000,"state":"active","ping":130},{"user_id":131,"name":"Tony Slark","steam_id":76561198151256410,"connected_time":5840000000000,"state":"active","ping":119},{"user_id":151,"name":"B0B_Bobson","steam_id":76561198400694217,"connected_time":5224000000000,"state":"active","ping":66},{"user_id":213,"name":"T_is_for_Toenail","steam_id":76561198297066505,"connected_time":570000000000,"state":"active","ping":75},{"user_id":211,"name":"the flying spoon","steam_id":76561199039152146,"connected_time":1320000000000,"state":"active","ping":81},{"user_id":121,"name":"Indigo","steam_id":76561198430362969,"connected_time":7033000000000,"state":"active","ping":61},{"user_id":203,"name":"DoctorDrew","steam_id":76561197962400538,"connected_time":1863000000000,"state":"active","ping":98},{"user_id":134,"name":"PiolaCat","steam_id":76561199100535345,"connected_time":5777000000000,"state":"active","ping":115},{"user_id":215,"name":"row","steam_id":76561198040946044,"connected_time":31000000000,"state":"active","ping":45},{"user_id":210,"name":"Ghost","steam_id":76561198110914180,"connected_time":1483000000000,"state":"active","ping":175},{"user_id":168,"name":"Amish Supremacist","steam_id":76561198396181197,"connected_time":3990000000000,"state":"active","ping":69},{"user_id":169,"name":"Lil' Dunky","steam_id":76561198163572748,"connected_time":3990000000000,"state":"active","ping":84},{"user_id":178,"name":"Dunkle","steam_id":76561198041903573,"connected_time":3848000000000,"state":"active","ping":99},{"user_id":212,"name":"k0ka","steam_id":76561198247969962,"connected_time":667000000000,"state":"active","ping":56},{"user_id":201,"name":"newgrounds1004","steam_id":76561199471951160,"connected_time":2139000000000,"state":"active","ping":74},{"user_id":146,"name":"DlTTO","steam_id":76561199427026752,"connected_time":5362000000000,"state":"active","ping":84},{"user_id":173,"name":"FreshlyBrewed","steam_id":76561198181099881,"connected_time":3971000000000,"state":"active","ping":89},{"user_id":217,"name":"Scorch","steam_id":76561198167024005,"connected_time":24000000000,"state":"active","ping":59},{"user_id":175,"name":"SLSalmon","steam_id":76561198306602461,"connected_time":3946000000000,"state":"active","ping":76},{"user_id":199,"name":"Horizons","steam_id":76561198106417594,"connected_time":2348000000000,"state":"active","ping":62},{"user_id":62,"name":"El Bondin","steam_id":76561198820792434,"connected_time":10599000000000,"state":"active","ping":81}]},{"server_id":400,"name":"Uncletopia | Atlanta | 3 | Stopwatch","name_short":"atl-3","host":"atl-1.us.uncletopia.com","port":27035,"enabled":true,"region":"us-east","cc":"us","latitude":33.753746,"longitude":-84.38633,"reserved":0,"last_update":"0001-01-01T00:00:00Z","name_a2s":"Uncletopia | Atlanta | 3 | Stopwatch","protocol":17,"map":"pl_badwater","folder":"tf","game":"Team Fortress","app_id":440,"player_count":0,"max_players":24,"Bots":0,"server_type":"Dedicated","server_os":"Linux","password":true,"vac":true,"version":"7961495","steam_id":85568392924515187,"keywords":["nocrits","nodmgspread","payload","uncletopia"],"game_id":440,"stv_port":27036,"stv_name":"Uncletopia | Atlanta | 3 | Stopwatch | STV","players":null},{"server_id":401,"name":"Uncletopia | Atlanta | 4 | Community","name_short":"atl-4","host":"atl-1.us.uncletopia.com","port":27045,"enabled":true,"region":"us-east","cc":"us","latitude":33.753746,"longitude":-84.38633,"reserved":0,"last_update":"0001-01-01T00:00:00Z","name_a2s":"Uncletopia | Atlanta | 4 | Community","protocol":17,"map":"workshop/koth_product_final.ugc454272353","folder":"tf","game":"Team Fortress","app_id":440,"player_count":0,"max_players":24,"Bots":0,"server_type":"Dedicated","server_os":"Linux","password":true,"vac":true,"version":"7961495","steam_id":85568392924515188,"keywords":["cp","nocrits","nodmgspread","uncletopia"],"game_id":440,"stv_port":27046,"stv_name":"Uncletopia | Atlanta | 4 | Community | STV","players":null},{"server_id":2,"name":"Uncletopia | Chicago | 1 | All Maps","name_short":"chi-1","host":"chi-1.us.uncletopia.com","port":27015,"enabled":true,"region":"us-central","cc":"us","latitude":41.881832,"longitude":-87.62318,"reserved":0,"last_update":"0001-01-01T00:00:00Z","name_a2s":"Uncletopia | Chicago | 1 | All Maps","protocol":17,"map":"ctf_2fort","folder":"tf","game":"Team Fortress","app_id":440,"player_count":18,"max_players":24,"Bots":0,"server_type":"Dedicated","server_os":"Linux","password":true,"vac":true,"version":"7961495","steam_id":85568392924469984,"keywords":["ctf","nocrits","nodmgspread","uncletopia"],"game_id":440,"stv_port":27016,"stv_name":"Uncletopia | Chicago | 1 | All Maps | STV","players":[{"user_id":461,"name":"aiden","steam_id":76561198449527009,"connected_time":580000000000,"state":"active","ping":85},{"user_id":459,"name":"Peter the Panda","steam_id":76561198300786324,"connected_time":712000000000,"state":"active","ping":56},{"user_id":450,"name":"MechaSixVII","steam_id":76561198014927379,"connected_time":1166000000000,"state":"active","ping":69},{"user_id":460,"name":"Baka!⑨⑨⑨⑨","steam_id":76561198152948254,"connected_time":710000000000,"state":"active","ping":56},{"user_id":451,"name":"陆八魔アルdaisuki","steam_id":76561198155185583,"connected_time":1110000000000,"state":"active","ping":55},{"user_id":462,"name":"Lyathan","steam_id":76561198062773218,"connected_time":307000000000,"state":"active","ping":58},{"user_id":465,"name":"RazorBlade1789","steam_id":76561199229668460,"connected_time":80000000000,"state":"active","ping":60},{"user_id":435,"name":"dantheman","steam_id":76561199486390813,"connected_time":1921000000000,"state":"active","ping":100},{"user_id":398,"name":"SMG Sniper","steam_id":76561198796731695,"connected_time":5107000000000,"state":"active","ping":92},{"user_id":423,"name":"Kiss Master","steam_id":76561198289572271,"connected_time":3387000000000,"state":"active","ping":77},{"user_id":466,"name":"TheGamingJasper","steam_id":76561199054003635,"connected_time":23000000000,"state":"spawning","ping":96},{"user_id":436,"name":"Adam (Cursed Confetti Creature)","steam_id":76561198317690197,"connected_time":1912000000000,"state":"active","ping":46},{"user_id":467,"name":"I HATE THIS GAME","steam_id":76561198054551666,"connected_time":20000000000,"state":"active","ping":65},{"user_id":401,"name":"Chozo","steam_id":76561198987145873,"connected_time":4968000000000,"state":"active","ping":67},{"user_id":468,"name":"Real","steam_id":76561198119315680,"connected_time":12000000000,"state":"active","ping":71},{"user_id":463,"name":"TallBit","steam_id":76561199059748976,"connected_time":176000000000,"state":"active","ping":49},{"user_id":455,"name":"loser","steam_id":76561198259380127,"connected_time":986000000000,"state":"active","ping":46},{"user_id":443,"name":"Lunarthrope","steam_id":76561198292132147,"connected_time":1871000000000,"state":"active","ping":99}]},{"server_id":106,"name":"Uncletopia | Chicago | 2 | All Maps","name_short":"chi-2","host":"chi-1.us.uncletopia.com","port":27025,"enabled":true,"region":"us-central","cc":"us","latitude":41.881832,"longitude":-87.62318,"reserved":0,"last_update":"0001-01-01T00:00:00Z","name_a2s":"Uncletopia | Chicago | 2 | All Maps","protocol":17,"map":"pl_badwater","folder":"tf","game":"Team Fortress","app_id":440,"player_count":24,"max_players":24,"Bots":0,"server_type":"Dedicated","server_os":"Linux","password":true,"vac":true,"version":"7961495","steam_id":85568392924469985,"keywords":["nocrits","nodmgspread","payload","uncletopia"],"game_id":440,"stv_port":27026,"stv_name":"Uncletopia | Chicago | 2 | All Maps | STV","players":[{"user_id":363,"name":"SURRENDER FREEMEN","steam_id":76561198072277956,"connected_time":78000000000,"state":"active","ping":111},{"user_id":345,"name":"Bottom Trans Cowgirl","steam_id":76561198304239680,"connected_time":2128000000000,"state":"active","ping":78},{"user_id":357,"name":"roii","steam_id":76561198157517892,"connected_time":397000000000,"state":"active","ping":82},{"user_id":305,"name":"ShellBug","steam_id":76561198144187527,"connected_time":4257000000000,"state":"active","ping":67},{"user_id":353,"name":"That Darned Imp","steam_id":76561198854501307,"connected_time":639000000000,"state":"active","ping":58},{"user_id":349,"name":"Still Alive","steam_id":76561198042523000,"connected_time":1148000000000,"state":"active","ping":56},{"user_id":361,"name":"Colin102004","steam_id":76561198202384334,"connected_time":188000000000,"state":"active","ping":52},{"user_id":333,"name":"boobs \u003c3","steam_id":76561198845326390,"connected_time":2301000000000,"state":"active","ping":60},{"user_id":277,"name":"jstn","steam_id":76561198845283665,"connected_time":5977000000000,"state":"active","ping":68},{"user_id":352,"name":"HurRhombus","steam_id":76561198080839440,"connected_time":763000000000,"state":"active","ping":63},{"user_id":327,"name":"inshallah","steam_id":76561198165212575,"connected_time":2618000000000,"state":"active","ping":65},{"user_id":359,"name":"Tts Vicious","steam_id":76561198880470230,"connected_time":241000000000,"state":"active","ping":61},{"user_id":354,"name":"Tim Williams","steam_id":76561198177327059,"connected_time":620000000000,"state":"active","ping":73},{"user_id":328,"name":"gaming elliptical","steam_id":76561198013456569,"connected_time":2399000000000,"state":"active","ping":47},{"user_id":339,"name":"sasharudzik","steam_id":76561199126617781,"connected_time":2234000000000,"state":"active","ping":68},{"user_id":350,"name":"DualiTea","steam_id":76561198081733870,"connected_time":1146000000000,"state":"active","ping":46},{"user_id":337,"name":"The Jar","steam_id":76561198146013385,"connected_time":2251000000000,"state":"active","ping":75},{"user_id":362,"name":"Joe Biden","steam_id":76561198056170906,"connected_time":185000000000,"state":"active","ping":73},{"user_id":348,"name":"Rin","steam_id":76561198132096559,"connected_time":1382000000000,"state":"active","ping":70},{"user_id":347,"name":"King of the Beasts","steam_id":76561198123927752,"connected_time":1914000000000,"state":"active","ping":55},{"user_id":355,"name":"heyitsmeguy","steam_id":76561198018304407,"connected_time":618000000000,"state":"active","ping":64},{"user_id":342,"name":"Lucy Lou!","steam_id":76561198078209088,"connected_time":2201000000000,"state":"active","ping":43},{"user_id":356,"name":"Try Gardening","steam_id":76561198120311340,"connected_time":618000000000,"state":"active","ping":48},{"user_id":358,"name":"GraViTyXIII","steam_id":76561197993334348,"connected_time":307000000000,"state":"active","ping":71}]},{"server_id":402,"name":"Uncletopia | Chicago | 3 | All Maps","name_short":"chi-3","host":"chi-1.us.uncletopia.com","port":27035,"enabled":true,"region":"us-central","cc":"us","latitude":41.881832,"longitude":-87.62318,"reserved":0,"last_update":"0001-01-01T00:00:00Z","name_a2s":"Uncletopia | Chicago | 3 | All Maps","protocol":17,"map":"pl_thundermountain","folder":"tf","game":"Team Fortress","app_id":440,"player_count":23,"max_players":24,"Bots":0,"server_type":"Dedicated","server_os":"Linux","password":true,"vac":true,"version":"7961495","steam_id":85568392924515191,"keywords":["nocrits","nodmgspread","payload","uncletopia"],"game_id":440,"stv_port":27036,"stv_name":"Uncletopia | Chicago | 3 | All Maps | STV","players":[{"user_id":290,"name":"Jaflampe","steam_id":76561198175827647,"connected_time":2563000000000,"state":"active","ping":69},{"user_id":306,"name":"Zaedik","steam_id":76561198363558890,"connected_time":544000000000,"state":"active","ping":73},{"user_id":311,"name":"bob adams","steam_id":76561198824632395,"connected_time":335000000000,"state":"active","ping":73},{"user_id":307,"name":"Torensz64(But weezer)","steam_id":76561198239036482,"connected_time":520000000000,"state":"active","ping":51},{"user_id":312,"name":"Literally Roxy's Wife Tsuyu","steam_id":76561198175421763,"connected_time":306000000000,"state":"active","ping":58},{"user_id":299,"name":"bleach₪","steam_id":76561198004482768,"connected_time":1832000000000,"state":"active","ping":114},{"user_id":309,"name":"Lost","steam_id":76561198025933206,"connected_time":436000000000,"state":"active","ping":60},{"user_id":313,"name":"Jrock","steam_id":76561198045715996,"connected_time":175000000000,"state":"active","ping":94},{"user_id":310,"name":"MaDeuce","steam_id":76561198110732835,"connected_time":422000000000,"state":"active","ping":129},{"user_id":314,"name":"slafflow","steam_id":76561199381012350,"connected_time":168000000000,"state":"active","ping":72},{"user_id":315,"name":"Captain Malarkey","steam_id":76561198869924281,"connected_time":136000000000,"state":"active","ping":77},{"user_id":316,"name":"Seymourian","steam_id":76561199078574984,"connected_time":132000000000,"state":"active","ping":86},{"user_id":303,"name":"Riff III","steam_id":76561198066921423,"connected_time":829000000000,"state":"active","ping":74},{"user_id":304,"name":"A Sun","steam_id":76561198142545364,"connected_time":671000000000,"state":"active","ping":66},{"user_id":317,"name":"Blitz","steam_id":76561199233833149,"connected_time":126000000000,"state":"active","ping":137},{"user_id":318,"name":"SQ | Work-Mann","steam_id":76561198136662801,"connected_time":94000000000,"state":"active","ping":70},{"user_id":319,"name":"ghostmike","steam_id":76561198344139050,"connected_time":74000000000,"state":"active","ping":83},{"user_id":320,"name":"dbluewillow","steam_id":76561198025417603,"connected_time":55000000000,"state":"active","ping":64},{"user_id":256,"name":"CWISPY","steam_id":76561199061818541,"connected_time":5564000000000,"state":"active","ping":79},{"user_id":321,"name":"hej","steam_id":76561197996366940,"connected_time":0,"state":"spawning","ping":0},{"user_id":230,"name":"thecal","steam_id":76561198307893384,"connected_time":7083000000000,"state":"active","ping":56},{"user_id":274,"name":"Beef Wellington","steam_id":76561198049837377,"connected_time":3867000000000,"state":"active","ping":49},{"user_id":254,"name":"GRIM","steam_id":76561198148191762,"connected_time":5626000000000,"state":"active","ping":84}]},{"server_id":403,"name":"Uncletopia | Chicago | 4 | All Maps","name_short":"chi-4","host":"chi-1.us.uncletopia.com","port":27045,"enabled":true,"region":"us-central","cc":"us","latitude":41.881832,"longitude":-87.62318,"reserved":0,"last_update":"0001-01-01T00:00:00Z","name_a2s":"Uncletopia | Chicago | 4 | All Maps","protocol":17,"map":"pl_pier","folder":"tf","game":"Team Fortress","app_id":440,"player_count":24,"max_players":24,"Bots":0,"server_type":"Dedicated","server_os":"Linux","password":true,"vac":true,"version":"7961495","steam_id":85568392924515193,"keywords":["nocrits","nodmgspread","payload","uncletopia"],"game_id":440,"stv_port":27046,"stv_name":"Uncletopia | Chicago | 4 | All Maps | STV","players":[{"user_id":51,"name":"Forced2Wipe","steam_id":76561198170390298,"connected_time":858000000000,"state":"active","ping":67},{"user_id":52,"name":"Dr. Jeebus","steam_id":76561198098449850,"connected_time":852000000000,"state":"active","ping":75},{"user_id":53,"name":"the222attacker","steam_id":76561198969690191,"connected_time":841000000000,"state":"active","ping":68},{"user_id":59,"name":"NEM","steam_id":76561199241131104,"connected_time":744000000000,"state":"active","ping":102},{"user_id":55,"name":"incredirocks","steam_id":76561198061079993,"connected_time":831000000000,"state":"active","ping":45},{"user_id":65,"name":"Stultus","steam_id":76561198115116367,"connected_time":320000000000,"state":"active","ping":74},{"user_id":66,"name":"Kritzburgh","steam_id":76561198149466938,"connected_time":292000000000,"state":"active","ping":60},{"user_id":20,"name":"FakeFailPlayz","steam_id":76561199229883706,"connected_time":2480000000000,"state":"active","ping":75},{"user_id":27,"name":"Big Bill Haywood","steam_id":76561198142290733,"connected_time":1638000000000,"state":"active","ping":68},{"user_id":31,"name":"xxxsinpadres","steam_id":76561198366873419,"connected_time":1443000000000,"state":"active","ping":65},{"user_id":56,"name":"ewp","steam_id":76561199148289271,"connected_time":794000000000,"state":"active","ping":127},{"user_id":29,"name":"jp_pizza","steam_id":76561198308103061,"connected_time":1592000000000,"state":"active","ping":45},{"user_id":32,"name":"imsobad1254","steam_id":76561199405307184,"connected_time":1418000000000,"state":"active","ping":49},{"user_id":63,"name":"Skudge Sister","steam_id":76561198041766766,"connected_time":416000000000,"state":"active","ping":81},{"user_id":57,"name":"Magical.Puffin","steam_id":76561198129039275,"connected_time":788000000000,"state":"active","ping":111},{"user_id":62,"name":"MaxTgaX","steam_id":76561198046287539,"connected_time":483000000000,"state":"active","ping":52},{"user_id":36,"name":"Sal Vulcano","steam_id":76561198016677665,"connected_time":1368000000000,"state":"active","ping":62},{"user_id":67,"name":"2 Percent Milk","steam_id":76561198118529039,"connected_time":239000000000,"state":"active","ping":69},{"user_id":58,"name":"The Rat Bastard","steam_id":76561198112705880,"connected_time":760000000000,"state":"active","ping":95},{"user_id":39,"name":"narko","steam_id":76561198215832523,"connected_time":1307000000000,"state":"active","ping":113},{"user_id":40,"name":"Nash","steam_id":76561198044192734,"connected_time":1299000000000,"state":"active","ping":56},{"user_id":64,"name":"Libz","steam_id":76561198868782574,"connected_time":371000000000,"state":"active","ping":145},{"user_id":42,"name":"Spirit","steam_id":76561198205388573,"connected_time":1140000000000,"state":"active","ping":60},{"user_id":68,"name":"Irish Empire","steam_id":76561199107427068,"connected_time":93000000000,"state":"spawning","ping":215}]},{"server_id":36,"name":"Uncletopia | Chicago | 5 | All Maps","name_short":"chi-5","host":"chi-2.us.uncletopia.com","port":27015,"enabled":true,"region":"us-central","cc":"us","latitude":41.881832,"longitude":-87.62318,"reserved":0,"last_update":"0001-01-01T00:00:00Z","name_a2s":"Uncletopia | Chicago | 5 | All Maps","protocol":17,"map":"pl_borneo","folder":"tf","game":"Team Fortress","app_id":440,"player_count":24,"max_players":24,"Bots":0,"server_type":"Dedicated","server_os":"Linux","password":true,"vac":true,"version":"7961495","steam_id":85568392924866362,"keywords":["nocrits","nodmgspread","payload","uncletopia"],"game_id":440,"stv_port":27016,"stv_name":"Uncletopia | Chicago | 5 | All Maps | STV","players":[{"user_id":193,"name":"paddle gaming","steam_id":76561199250055131,"connected_time":1990000000000,"state":"active","ping":79},{"user_id":218,"name":"Congcrab","steam_id":76561198078687685,"connected_time":621000000000,"state":"active","ping":82},{"user_id":196,"name":"Pasta","steam_id":76561198967200587,"connected_time":1829000000000,"state":"active","ping":70},{"user_id":187,"name":"Peepster","steam_id":76561198297854733,"connected_time":2948000000000,"state":"active","ping":73},{"user_id":143,"name":"Bullwinkle J. Moose","steam_id":76561198075977196,"connected_time":4833000000000,"state":"active","ping":101},{"user_id":208,"name":"Muselk, but mexican","steam_id":76561199289676387,"connected_time":1224000000000,"state":"active","ping":82},{"user_id":219,"name":"gothpapa","steam_id":76561198452122510,"connected_time":465000000000,"state":"active","ping":48},{"user_id":175,"name":"JRB","steam_id":76561198054629439,"connected_time":3225000000000,"state":"active","ping":47},{"user_id":214,"name":"gerge","steam_id":76561198092238353,"connected_time":690000000000,"state":"active","ping":66},{"user_id":195,"name":"Gen-E  TTV/geneoftf2","steam_id":76561199497800989,"connected_time":1834000000000,"state":"active","ping":94},{"user_id":215,"name":"[GU1Z] Dulphon","steam_id":76561199236177480,"connected_time":671000000000,"state":"active","ping":67},{"user_id":210,"name":"Ze_Über_Nerd","steam_id":76561198091148675,"connected_time":770000000000,"state":"active","ping":73},{"user_id":216,"name":"Wafflemouth","steam_id":76561198086040614,"connected_time":667000000000,"state":"active","ping":56},{"user_id":206,"name":"MTGbigdog","steam_id":76561198838760637,"connected_time":1387000000000,"state":"active","ping":75},{"user_id":199,"name":"EvilGuy132","steam_id":76561199146841962,"connected_time":1694000000000,"state":"active","ping":65},{"user_id":220,"name":"Zombee","steam_id":76561198105367546,"connected_time":305000000000,"state":"active","ping":79},{"user_id":179,"name":"roto","steam_id":76561198138735860,"connected_time":3091000000000,"state":"active","ping":68},{"user_id":200,"name":"semon demon","steam_id":76561198883093646,"connected_time":1676000000000,"state":"active","ping":84},{"user_id":201,"name":"Jessicamustdie","steam_id":76561198045230921,"connected_time":1642000000000,"state":"active","ping":59},{"user_id":183,"name":"dark souls boss","steam_id":76561198316610724,"connected_time":3069000000000,"state":"active","ping":91},{"user_id":221,"name":"BoopBerry","steam_id":76561198871571711,"connected_time":224000000000,"state":"active","ping":59},{"user_id":209,"name":"Hugs","steam_id":76561198214584133,"connected_time":1099000000000,"state":"active","ping":119},{"user_id":224,"name":"Maurdakar","steam_id":76561197983420976,"connected_time":146000000000,"state":"active","ping":72},{"user_id":223,"name":"Jiggles","steam_id":76561198062014279,"connected_time":149000000000,"state":"active","ping":58}]},{"server_id":37,"name":"Uncletopia | Chicago | 6 | All Maps","name_short":"chi-6","host":"chi-2.us.uncletopia.com","port":27025,"enabled":true,"region":"us-central","cc":"us","latitude":41.881832,"longitude":-87.62318,"reserved":0,"last_update":"0001-01-01T00:00:00Z","name_a2s":"Uncletopia | Chicago | 6 | All Maps","protocol":17,"map":"pl_pier","folder":"tf","game":"Team Fortress","app_id":440,"player_count":7,"max_players":24,"Bots":0,"server_type":"Dedicated","server_os":"Linux","password":true,"vac":true,"version":"7961495","steam_id":85568392924866363,"keywords":["nocrits","nodmgspread","payload","uncletopia"],"game_id":440,"stv_port":27026,"stv_name":"Uncletopia | Chicago | 6 | All Maps | STV","players":[{"user_id":26,"name":"Feet Bandit","steam_id":76561199152252878,"connected_time":735000000000,"state":"active","ping":85},{"user_id":13,"name":"♥ Tomboy ♥","steam_id":76561198069881436,"connected_time":4709000000000,"state":"active","ping":69},{"user_id":17,"name":"♥cinnamonboy♥","steam_id":76561198882330338,"connected_time":2864000000000,"state":"active","ping":60},{"user_id":19,"name":"Agent 263","steam_id":76561199025546030,"connected_time":2480000000000,"state":"active","ping":367},{"user_id":24,"name":"bookreader","steam_id":76561198978568007,"connected_time":1042000000000,"state":"active","ping":45},{"user_id":28,"name":"[SB] EDDIE SPAGHETTI","steam_id":76561198071688546,"connected_time":518000000000,"state":"active","ping":84},{"user_id":25,"name":"spider mastermind (real)","steam_id":76561199433948284,"connected_time":996000000000,"state":"active","ping":51}]},{"server_id":38,"name":"Uncletopia | Chicago | 7 | Stopwatch","name_short":"chi-7","host":"chi-2.us.uncletopia.com","port":27035,"enabled":true,"region":"us-central","cc":"us","latitude":41.881832,"longitude":-87.62318,"reserved":0,"last_update":"0001-01-01T00:00:00Z","name_a2s":"Uncletopia | Chicago | 7 | Stopwatch","protocol":17,"map":"workshop/cp_process_f12.ugc2302948105","folder":"tf","game":"Team Fortress","app_id":440,"player_count":0,"max_players":24,"Bots":0,"server_type":"Dedicated","server_os":"Linux","password":true,"vac":true,"version":"7961495","steam_id":85568392924866364,"keywords":["cp","nocrits","nodmgspread","uncletopia"],"game_id":440,"stv_port":27036,"stv_name":"Uncletopia | Chicago | 7 | Stopwatch | STV","players":null},{"server_id":39,"name":"Uncletopia | Chicago | 8 | Community","name_short":"chi-8","host":"chi-2.us.uncletopia.com","port":27045,"enabled":true,"region":"us-central","cc":"us","latitude":41.881832,"longitude":-87.62318,"reserved":0,"last_update":"0001-01-01T00:00:00Z","name_a2s":"Uncletopia | Chicago | 8 | Community","protocol":17,"map":"workshop/pl_fifthcurve_rc1.ugc648227046","folder":"tf","game":"Team Fortress","app_id":440,"player_count":0,"max_players":24,"Bots":0,"server_type":"Dedicated","server_os":"Linux","password":true,"vac":true,"version":"7961495","steam_id":85568392924866365,"keywords":["nocrits","nodmgspread","payload","uncletopia"],"game_id":440,"stv_port":27046,"stv_name":"Uncletopia | Chicago | 8 | Community | STV","players":null},{"server_id":8,"name":"Uncletopia | Dallas | 1 | All Maps","name_short":"dal-1","host":"dal-1.us.uncletopia.com","port":27015,"enabled":true,"region":"us-central","cc":"us","latitude":32.779167,"longitude":-96.80889,"reserved":0,"last_update":"0001-01-01T00:00:00Z","name_a2s":"Uncletopia | Dallas | 1 | All Maps","protocol":17,"map":"koth_lakeside_final","folder":"tf","game":"Team Fortress","app_id":440,"player_count":18,"max_players":24,"Bots":0,"server_type":"Dedicated","server_os":"Linux","password":true,"vac":true,"version":"7961495","steam_id":85568392924469986,"keywords":["cp","nocrits","nodmgspread","uncletopia"],"game_id":440,"stv_port":27016,"stv_name":"Uncletopia | Dallas | 1 | All Maps | STV","players":[{"user_id":182,"name":"ocky","steam_id":76561198313049944,"connected_time":2810000000000,"state":"active","ping":78},{"user_id":209,"name":"Asanez3","steam_id":76561198037381436,"connected_time":114000000000,"state":"active","ping":89},{"user_id":189,"name":"organsblue","steam_id":76561199050461421,"connected_time":1598000000000,"state":"active","ping":84},{"user_id":193,"name":"bug","steam_id":76561198130032444,"connected_time":1495000000000,"state":"active","ping":96},{"user_id":210,"name":"TheUnforgettableQuinceañera","steam_id":76561198150567198,"connected_time":91000000000,"state":"active","ping":75},{"user_id":167,"name":"Aeon","steam_id":76561198079117315,"connected_time":5230000000000,"state":"active","ping":79},{"user_id":165,"name":"La()VaJ()86","steam_id":76561198247547042,"connected_time":5399000000000,"state":"active","ping":87},{"user_id":117,"name":"Snitzman","steam_id":76561198068303272,"connected_time":8736000000000,"state":"active","ping":82},{"user_id":187,"name":"TheAsianMeatball","steam_id":76561198336926133,"connected_time":2068000000000,"state":"active","ping":67},{"user_id":192,"name":"Scrux","steam_id":76561198129763115,"connected_time":1526000000000,"state":"active","ping":86},{"user_id":207,"name":"Diet Coque","steam_id":76561198013781408,"connected_time":242000000000,"state":"spawning","ping":66},{"user_id":205,"name":"FanaticSalt","steam_id":76561199380123059,"connected_time":681000000000,"state":"active","ping":44},{"user_id":195,"name":"A Can of AriZona Green Tea","steam_id":76561198062481133,"connected_time":1400000000000,"state":"active","ping":74},{"user_id":203,"name":"sleebysyd","steam_id":76561198146749756,"connected_time":927000000000,"state":"active","ping":96},{"user_id":147,"name":"+","steam_id":76561198262422184,"connected_time":6573000000000,"state":"active","ping":44},{"user_id":199,"name":"banana gaming","steam_id":76561198334907218,"connected_time":1068000000000,"state":"active","ping":60},{"user_id":185,"name":"leesh","steam_id":76561198079603938,"connected_time":2221000000000,"state":"active","ping":59},{"user_id":137,"name":"Kiwi","steam_id":76561198162162816,"connected_time":7379000000000,"state":"active","ping":170}]},{"server_id":108,"name":"Uncletopia | Dallas | 2 | All Maps","name_short":"dal-2","host":"dal-1.us.uncletopia.com","port":27025,"enabled":true,"region":"us-central","cc":"us","latitude":32.779167,"longitude":-96.80889,"reserved":0,"last_update":"0001-01-01T00:00:00Z","name_a2s":"Uncletopia | Dallas | 2 | All Maps","protocol":17,"map":"pl_swiftwater_final1","folder":"tf","game":"Team Fortress","app_id":440,"player_count":23,"max_players":24,"Bots":0,"server_type":"Dedicated","server_os":"Linux","password":true,"vac":true,"version":"7961495","steam_id":85568392924469988,"keywords":["nocrits","nodmgspread","payload","uncletopia"],"game_id":440,"stv_port":27026,"stv_name":"Uncletopia | Dallas | 2 | All Maps | STV","players":[{"user_id":412,"name":"Mr.Pan","steam_id":76561198069030613,"connected_time":1106000000000,"state":"active","ping":66},{"user_id":418,"name":"reis","steam_id":76561199232952016,"connected_time":810000000000,"state":"active","ping":178},{"user_id":411,"name":"ginosaurusx","steam_id":76561198410640142,"connected_time":1181000000000,"state":"active","ping":97},{"user_id":416,"name":"The Wind Fucker Lives","steam_id":76561198275362375,"connected_time":852000000000,"state":"active","ping":89},{"user_id":440,"name":"The Caretaker","steam_id":76561198125241411,"connected_time":95000000000,"state":"active","ping":86},{"user_id":401,"name":"caheyz","steam_id":76561198847749278,"connected_time":1902000000000,"state":"active","ping":47},{"user_id":408,"name":"astrobob911","steam_id":76561199099110654,"connected_time":1341000000000,"state":"active","ping":109},{"user_id":407,"name":"SaaxoM","steam_id":76561198208256603,"connected_time":1439000000000,"state":"active","ping":73},{"user_id":420,"name":"Bronze Age Furvert","steam_id":76561198859118263,"connected_time":751000000000,"state":"active","ping":88},{"user_id":375,"name":"Pupcubus","steam_id":76561198057986869,"connected_time":3961000000000,"state":"active","ping":76},{"user_id":436,"name":"moe","steam_id":76561198929586245,"connected_time":244000000000,"state":"active","ping":72},{"user_id":414,"name":"elephantofdoom","steam_id":76561198062436835,"connected_time":934000000000,"state":"active","ping":79},{"user_id":366,"name":"Lolxdloldx","steam_id":76561198136887125,"connected_time":4349000000000,"state":"active","ping":75},{"user_id":312,"name":"Jaked0cxTTV","steam_id":76561198357732040,"connected_time":8141000000000,"state":"active","ping":74},{"user_id":437,"name":"ihave80hp","steam_id":76561199251621911,"connected_time":228000000000,"state":"active","ping":62},{"user_id":438,"name":"Carcino","steam_id":76561198006170253,"connected_time":198000000000,"state":"active","ping":64},{"user_id":421,"name":"Bagel","steam_id":76561198167747447,"connected_time":738000000000,"state":"active","ping":104},{"user_id":376,"name":"the untamed wiener","steam_id":76561198093957011,"connected_time":3946000000000,"state":"active","ping":82},{"user_id":422,"name":"The jesus guy (FRNK)","steam_id":76561198237997622,"connected_time":691000000000,"state":"active","ping":176},{"user_id":423,"name":"CherN0ble","steam_id":76561198118209980,"connected_time":686000000000,"state":"active","ping":111},{"user_id":442,"name":"Jerry","steam_id":76561199194960453,"connected_time":80000000000,"state":"active","ping":272},{"user_id":404,"name":"Cresant Ape","steam_id":76561198127425559,"connected_time":1767000000000,"state":"active","ping":55},{"user_id":428,"name":"shadowtaco69","steam_id":76561198112453714,"connected_time":440000000000,"state":"active","ping":69}]},{"server_id":404,"name":"Uncletopia | Dallas | 3 | All Maps","name_short":"dal-3","host":"dal-1.us.uncletopia.com","port":27035,"enabled":true,"region":"us-central","cc":"us","latitude":32.779167,"longitude":-96.80889,"reserved":0,"last_update":"0001-01-01T00:00:00Z","name_a2s":"Uncletopia | Dallas | 3 | All Maps","protocol":17,"map":"pl_upward","folder":"tf","game":"Team Fortress","app_id":440,"player_count":8,"max_players":24,"Bots":0,"server_type":"Dedicated","server_os":"Linux","password":true,"vac":true,"version":"7961495","steam_id":85568392924515219,"keywords":["nocrits","nodmgspread","payload","uncletopia"],"game_id":440,"stv_port":27036,"stv_name":"Uncletopia | Dallas | 3 | All Maps | STV","players":[{"user_id":209,"name":"Kirby","steam_id":76561199161858008,"connected_time":1910000000000,"state":"active","ping":70},{"user_id":218,"name":"Bully Maguire","steam_id":76561199081621029,"connected_time":991000000000,"state":"active","ping":83},{"user_id":204,"name":"I Am Not Human","steam_id":76561198211511400,"connected_time":2495000000000,"state":"active","ping":96},{"user_id":211,"name":"manyjules2021","steam_id":76561199474864870,"connected_time":1812000000000,"state":"active","ping":80},{"user_id":222,"name":"✨ Rarity ✨","steam_id":76561199172206856,"connected_time":312000000000,"state":"active","ping":54},{"user_id":213,"name":"Mr. jazz guy","steam_id":76561199013258673,"connected_time":1639000000000,"state":"active","ping":165},{"user_id":215,"name":"LerN","steam_id":76561198083463877,"connected_time":1362000000000,"state":"active","ping":89},{"user_id":132,"name":"Coach McFish","steam_id":76561198210456405,"connected_time":8486000000000,"state":"active","ping":87}]},{"server_id":405,"name":"Uncletopia | Dallas | 4 | Community","name_short":"dal-4","host":"dal-1.us.uncletopia.com","port":27045,"enabled":true,"region":"us-central","cc":"us","latitude":32.779167,"longitude":-96.80889,"reserved":0,"last_update":"0001-01-01T00:00:00Z","name_a2s":"Uncletopia | Dallas | 4 | Community","protocol":17,"map":"workshop/koth_kemptown_rc1.ugc767410655","folder":"tf","game":"Team Fortress","app_id":440,"player_count":0,"max_players":24,"Bots":0,"server_type":"Dedicated","server_os":"Linux","password":true,"vac":true,"version":"7961495","steam_id":85568392924515220,"keywords":["cp","nocrits","nodmgspread","uncletopia"],"game_id":440,"stv_port":27046,"stv_name":"Uncletopia | Dallas | 4 | Community | STV","players":null},{"server_id":5,"name":"Uncletopia | Frankfurt | 1 | All Maps","name_short":"frk-1","host":"frk-1.de.uncletopia.com","port":27015,"enabled":true,"region":"eu","cc":"de","latitude":50.110924,"longitude":8.682127,"reserved":0,"last_update":"0001-01-01T00:00:00Z","name_a2s":"Uncletopia | Frankfurt | 1 | All Maps","protocol":17,"map":"pl_frontier_final","folder":"tf","game":"Team Fortress","app_id":440,"player_count":3,"max_players":24,"Bots":0,"server_type":"Dedicated","server_os":"Linux","password":true,"vac":true,"version":"7961495","steam_id":85568392924469989,"keywords":["nocrits","nodmgspread","payload","uncletopia"],"game_id":440,"stv_port":27016,"stv_name":"Uncletopia | Frankfurt | 1 | All Maps | STV","players":[{"user_id":577,"name":"Pikdy","steam_id":76561199492395972,"connected_time":882000000000,"state":"active","ping":59},{"user_id":574,"name":"Andale","steam_id":76561198326236983,"connected_time":1542000000000,"state":"active","ping":63},{"user_id":543,"name":"aaaa","steam_id":76561198086304421,"connected_time":4019000000000,"state":"active","ping":113}]},{"server_id":110,"name":"Uncletopia | Frankfurt | 2 | All Maps","name_short":"frk-2","host":"frk-1.de.uncletopia.com","port":27025,"enabled":true,"region":"eu","cc":"de","latitude":50.110924,"longitude":8.682127,"reserved":0,"last_update":"0001-01-01T00:00:00Z","name_a2s":"Uncletopia | Frankfurt | 2 | All Maps","protocol":17,"map":"pl_upward","folder":"tf","game":"Team Fortress","app_id":440,"player_count":24,"max_players":24,"Bots":0,"server_type":"Dedicated","server_os":"Linux","password":true,"vac":true,"version":"7961495","steam_id":85568392924469990,"keywords":["nocrits","nodmgspread","payload","uncletopia"],"game_id":440,"stv_port":27026,"stv_name":"Uncletopia | Frankfurt | 2 | All Maps | STV","players":[{"user_id":591,"name":"TidB","steam_id":76561198055342304,"connected_time":636000000000,"state":"active","ping":45},{"user_id":592,"name":"Burrito","steam_id":76561198023919089,"connected_time":432000000000,"state":"active","ping":83},{"user_id":575,"name":"Vinn0","steam_id":76561198987241284,"connected_time":1945000000000,"state":"active","ping":45},{"user_id":589,"name":"Eric Catman","steam_id":76561198802117294,"connected_time":848000000000,"state":"active","ping":83},{"user_id":598,"name":"Ozzie","steam_id":76561197992915315,"connected_time":106000000000,"state":"active","ping":74},{"user_id":590,"name":"Maltrof","steam_id":76561198830832016,"connected_time":667000000000,"state":"active","ping":90},{"user_id":584,"name":"Avocado","steam_id":76561199007231261,"connected_time":962000000000,"state":"active","ping":77},{"user_id":595,"name":"Lennox","steam_id":76561198069063554,"connected_time":292000000000,"state":"active","ping":41},{"user_id":581,"name":"DaisyTheCat","steam_id":76561198241732704,"connected_time":1057000000000,"state":"active","ping":61},{"user_id":599,"name":"nordstream bomber","steam_id":76561199401283123,"connected_time":99000000000,"state":"active","ping":57},{"user_id":593,"name":"DUCK","steam_id":76561199015137005,"connected_time":390000000000,"state":"active","ping":64},{"user_id":594,"name":"_Starlight_","steam_id":76561197993885738,"connected_time":372000000000,"state":"active","ping":79},{"user_id":547,"name":"Tin","steam_id":76561198022201818,"connected_time":3440000000000,"state":"active","ping":53},{"user_id":548,"name":"HetNet","steam_id":76561198207584963,"connected_time":3439000000000,"state":"active","ping":80},{"user_id":549,"name":"Aspartus","steam_id":76561198101385763,"connected_time":3429000000000,"state":"active","ping":46},{"user_id":600,"name":"Predrag218","steam_id":76561199242439630,"connected_time":5000000000,"state":"spawning","ping":108},{"user_id":550,"name":"XxBenShapiro420xX","steam_id":76561199229373972,"connected_time":3408000000000,"state":"active","ping":72},{"user_id":573,"name":"DeBlauwe","steam_id":76561198003140896,"connected_time":2089000000000,"state":"active","ping":56},{"user_id":576,"name":"Lorenzo Lovers","steam_id":76561198073973581,"connected_time":1793000000000,"state":"active","ping":80},{"user_id":596,"name":"grr","steam_id":76561199429407130,"connected_time":230000000000,"state":"active","ping":84},{"user_id":585,"name":"_420_StopItDudeCmon","steam_id":76561197997146481,"connected_time":960000000000,"state":"active","ping":59},{"user_id":586,"name":"fifionet","steam_id":76561198026618085,"connected_time":956000000000,"state":"active","ping":79},{"user_id":587,"name":"HiddeMon","steam_id":76561198884386491,"connected_time":953000000000,"state":"active","ping":57},{"user_id":588,"name":"whats up doc?","steam_id":76561198452111945,"connected_time":931000000000,"state":"active","ping":55}]},{"server_id":308,"name":"Uncletopia | Frankfurt | 3 | All Maps","name_short":"frk-3","host":"frk-1.de.uncletopia.com","port":27035,"enabled":true,"region":"eu","cc":"de","latitude":50.110924,"longitude":8.682127,"reserved":0,"last_update":"0001-01-01T00:00:00Z","name_a2s":"Uncletopia | Frankfurt | 3 | All Maps","protocol":17,"map":"cp_sunshine","folder":"tf","game":"Team Fortress","app_id":440,"player_count":23,"max_players":24,"Bots":0,"server_type":"Dedicated","server_os":"Linux","password":true,"vac":true,"version":"7961495","steam_id":85568392924504274,"keywords":["cp","nocrits","nodmgspread","uncletopia"],"game_id":440,"stv_port":27036,"stv_name":"Uncletopia | Frankfurt | 3 | All Maps | STV","players":[{"user_id":595,"name":"comic_sans","steam_id":76561198845309519,"connected_time":884000000000,"state":"active","ping":95},{"user_id":589,"name":"Burgarnils","steam_id":76561198122854061,"connected_time":1551000000000,"state":"active","ping":75},{"user_id":610,"name":"Tanyeri","steam_id":76561198116005521,"connected_time":11000000000,"state":"spawning","ping":85},{"user_id":599,"name":"Ineanto","steam_id":76561198067247630,"connected_time":660000000000,"state":"active","ping":63},{"user_id":533,"name":"джегеми хэпкингс","steam_id":76561198131531394,"connected_time":5308000000000,"state":"active","ping":89},{"user_id":598,"name":"schneppke","steam_id":76561198150311390,"connected_time":742000000000,"state":"active","ping":60},{"user_id":579,"name":"Sky Tree","steam_id":76561198027103242,"connected_time":2404000000000,"state":"active","ping":119},{"user_id":602,"name":"|⁧AVol","steam_id":76561198217589544,"connected_time":203000000000,"state":"active","ping":99},{"user_id":600,"name":"Step back","steam_id":76561198063855616,"connected_time":262000000000,"state":"active","ping":75},{"user_id":603,"name":"JimBowBlade","steam_id":76561198018620946,"connected_time":168000000000,"state":"active","ping":72},{"user_id":537,"name":"Štěpán","steam_id":76561198275742101,"connected_time":5120000000000,"state":"active","ping":57},{"user_id":559,"name":"AFerociousTeddyBearSlayer","steam_id":76561198247447256,"connected_time":3836000000000,"state":"active","ping":49},{"user_id":500,"name":"SPONGE","steam_id":76561198040933472,"connected_time":7371000000000,"state":"active","ping":60},{"user_id":604,"name":"Ransu","steam_id":76561198211750823,"connected_time":159000000000,"state":"active","ping":90},{"user_id":477,"name":"Rock..","steam_id":76561198004641963,"connected_time":8999000000000,"state":"active","ping":81},{"user_id":591,"name":"tm`","steam_id":76561197993580412,"connected_time":1405000000000,"state":"active","ping":60},{"user_id":605,"name":"UZless","steam_id":76561198814550081,"connected_time":125000000000,"state":"active","ping":100},{"user_id":606,"name":"Fenix (RUS)","steam_id":76561198399886365,"connected_time":63000000000,"state":"active","ping":91},{"user_id":607,"name":"Anthony's Official Profile","steam_id":76561199020903774,"connected_time":51000000000,"state":"active","ping":50},{"user_id":608,"name":"Dandroid7","steam_id":76561198947673092,"connected_time":44000000000,"state":"active","ping":55},{"user_id":609,"name":"Duke Fishlord","steam_id":76561198079928327,"connected_time":36000000000,"state":"spawning","ping":51},{"user_id":611,"name":"Froenzi","steam_id":76561198168841723,"connected_time":7000000000,"state":"active","ping":161},{"user_id":612,"name":"★Lily","steam_id":76561198014774371,"connected_time":2000000000,"state":"spawning","ping":66}]},{"server_id":309,"name":"Uncletopia | Frankfurt | 4 | All Maps","name_short":"frk-4","host":"frk-1.de.uncletopia.com","port":27045,"enabled":true,"region":"eu","cc":"de","latitude":50.110924,"longitude":8.682127,"reserved":0,"last_update":"0001-01-01T00:00:00Z","name_a2s":"Uncletopia | Frankfurt | 4 | All Maps","protocol":17,"map":"pl_swiftwater_final1","folder":"tf","game":"Team Fortress","app_id":440,"player_count":24,"max_players":24,"Bots":0,"server_type":"Dedicated","server_os":"Linux","password":true,"vac":true,"version":"7961495","steam_id":85568392924504275,"keywords":["nocrits","nodmgspread","payload","uncletopia"],"game_id":440,"stv_port":27046,"stv_name":"Uncletopia | Frankfurt | 4 | All Maps | STV","players":[{"user_id":660,"name":"xD_TheRizzler","steam_id":76561198202638164,"connected_time":1347000000000,"state":"active","ping":72},{"user_id":646,"name":"Hey, I´m Andy!","steam_id":76561198060337777,"connected_time":2283000000000,"state":"active","ping":72},{"user_id":628,"name":"DamRISH","steam_id":76561198082513549,"connected_time":3006000000000,"state":"active","ping":124},{"user_id":587,"name":"Janus","steam_id":76561198223603960,"connected_time":5430000000000,"state":"active","ping":60},{"user_id":632,"name":"help!IMGONNABLOWUP","steam_id":76561198061233344,"connected_time":2766000000000,"state":"active","ping":55},{"user_id":585,"name":"Ziomek","steam_id":76561199131735098,"connected_time":5489000000000,"state":"active","ping":79},{"user_id":630,"name":"Relic","steam_id":76561199499093258,"connected_time":2817000000000,"state":"active","ping":60},{"user_id":666,"name":"Firedehole","steam_id":76561198054511813,"connected_time":1261000000000,"state":"active","ping":80},{"user_id":680,"name":"CiVillain","steam_id":76561198059617732,"connected_time":587000000000,"state":"active","ping":59},{"user_id":633,"name":"immie^^","steam_id":76561197961231625,"connected_time":2762000000000,"state":"active","ping":52},{"user_id":669,"name":"crackus #savetf2","steam_id":76561198230384788,"connected_time":1251000000000,"state":"active","ping":72},{"user_id":673,"name":"Sugardaddy_pep","steam_id":76561198807512589,"connected_time":1015000000000,"state":"active","ping":77},{"user_id":648,"name":"Robin of Red","steam_id":76561198100407226,"connected_time":2013000000000,"state":"active","ping":97},{"user_id":650,"name":"Teeth Snatcher","steam_id":76561198057707263,"connected_time":1814000000000,"state":"active","ping":64},{"user_id":645,"name":"icuken","steam_id":76561198046172939,"connected_time":2443000000000,"state":"active","ping":112},{"user_id":639,"name":"Davido01","steam_id":76561198089406245,"connected_time":2617000000000,"state":"active","ping":64},{"user_id":640,"name":"Xeno","steam_id":76561198975556646,"connected_time":2611000000000,"state":"active","ping":45},{"user_id":667,"name":"Sirwλst3d","steam_id":76561198201935008,"connected_time":1258000000000,"state":"active","ping":80},{"user_id":678,"name":"Racco","steam_id":76561198198855238,"connected_time":759000000000,"state":"active","ping":53},{"user_id":668,"name":"Pelham Bay Rat","steam_id":76561198096692107,"connected_time":1253000000000,"state":"active","ping":145},{"user_id":659,"name":"Mark applier","steam_id":76561198177722379,"connected_time":1360000000000,"state":"active","ping":62},{"user_id":661,"name":"big bug buttz","steam_id":76561198115106008,"connected_time":1346000000000,"state":"active","ping":83},{"user_id":672,"name":"micro","steam_id":76561199186605424,"connected_time":1220000000000,"state":"active","ping":149}]},{"server_id":310,"name":"Uncletopia | Frankfurt | 5 | All Maps","name_short":"frk-5","host":"frk-1.de.uncletopia.com","port":27055,"enabled":true,"region":"eu","cc":"de","latitude":50.110924,"longitude":8.682127,"reserved":0,"last_update":"0001-01-01T00:00:00Z","name_a2s":"Uncletopia | Frankfurt | 5 | All Maps","protocol":17,"map":"pl_swiftwater_final1","folder":"tf","game":"Team Fortress","app_id":440,"player_count":24,"max_players":24,"Bots":0,"server_type":"Dedicated","server_os":"Linux","password":true,"vac":true,"version":"7961495","steam_id":85568392924504277,"keywords":["nocrits","nodmgspread","payload","uncletopia"],"game_id":440,"stv_port":27056,"stv_name":"Uncletopia | Frankfurt | 5 | All Maps | STV","players":[{"user_id":734,"name":"Den","steam_id":76561198043835212,"connected_time":566000000000,"state":"active","ping":66},{"user_id":739,"name":"please do not the cat","steam_id":76561198089003514,"connected_time":318000000000,"state":"active","ping":45},{"user_id":732,"name":"Crimson","steam_id":76561197987552332,"connected_time":604000000000,"state":"active","ping":43},{"user_id":735,"name":"Houlles","steam_id":76561198095277383,"connected_time":527000000000,"state":"active","ping":70},{"user_id":676,"name":"SalCrabber deluxe","steam_id":76561198275942961,"connected_time":4095000000000,"state":"active","ping":43},{"user_id":715,"name":"konkey","steam_id":76561198030119065,"connected_time":1923000000000,"state":"active","ping":75},{"user_id":726,"name":"Pedro Sanchez baloncesto","steam_id":76561198134192269,"connected_time":1201000000000,"state":"active","ping":85},{"user_id":719,"name":"HomyachiK","steam_id":76561198272480377,"connected_time":1710000000000,"state":"active","ping":90},{"user_id":736,"name":"Snowmotion","steam_id":76561198075022454,"connected_time":523000000000,"state":"active","ping":55},{"user_id":741,"name":"pepper","steam_id":76561198059782462,"connected_time":250000000000,"state":"active","ping":57},{"user_id":668,"name":"rob","steam_id":76561198122211848,"connected_time":4704000000000,"state":"active","ping":86},{"user_id":728,"name":"it was a good day","steam_id":76561198079458690,"connected_time":1002000000000,"state":"active","ping":53},{"user_id":691,"name":"Mach 🧀","steam_id":76561198952487564,"connected_time":2800000000000,"state":"active","ping":171},{"user_id":721,"name":"milikicz","steam_id":76561198050626103,"connected_time":1621000000000,"state":"active","ping":53},{"user_id":686,"name":"install gentoo","steam_id":76561198185257982,"connected_time":3252000000000,"state":"active","ping":82},{"user_id":737,"name":"Cha Cha Cha Perkele Vittu","steam_id":76561198035928111,"connected_time":445000000000,"state":"active","ping":93},{"user_id":692,"name":"dick cheese enjoyer","steam_id":76561198077421906,"connected_time":2793000000000,"state":"active","ping":53},{"user_id":727,"name":"Ender_DragonYT... GGDROP.COM","steam_id":76561198946735113,"connected_time":1027000000000,"state":"active","ping":74},{"user_id":693,"name":"Mr. Boobmastic","steam_id":76561197975482475,"connected_time":2755000000000,"state":"active","ping":54},{"user_id":706,"name":"Claymeister","steam_id":76561198095967929,"connected_time":2171000000000,"state":"active","ping":60},{"user_id":729,"name":"Amandus","steam_id":76561198036281079,"connected_time":932000000000,"state":"active","ping":60},{"user_id":714,"name":"mugshot","steam_id":76561198363841749,"connected_time":1958000000000,"state":"active","ping":65},{"user_id":733,"name":"Woad Raider","steam_id":76561198215485788,"connected_time":600000000000,"state":"active","ping":76},{"user_id":717,"name":"tjuvjakt","steam_id":76561198214848887,"connected_time":1887000000000,"state":"active","ping":68}]},{"server_id":311,"name":"Uncletopia | Frankfurt | 6 | All Maps","name_short":"frk-6","host":"frk-1.de.uncletopia.com","port":27065,"enabled":true,"region":"eu","cc":"de","latitude":50.110924,"longitude":8.682127,"reserved":0,"last_update":"0001-01-01T00:00:00Z","name_a2s":"Uncletopia | Frankfurt | 6 | All Maps","protocol":17,"map":"pl_upward","folder":"tf","game":"Team Fortress","app_id":440,"player_count":4,"max_players":24,"Bots":0,"server_type":"Dedicated","server_os":"Linux","password":true,"vac":true,"version":"7961495","steam_id":85568392924504278,"keywords":["nocrits","nodmgspread","payload","uncletopia"],"game_id":440,"stv_port":27066,"stv_name":"Uncletopia | Frankfurt | 6 | All Maps | STV","players":[{"user_id":602,"name":"Calamity-Sanity","steam_id":76561199412529989,"connected_time":679000000000,"state":"active","ping":191},{"user_id":603,"name":"king011507","steam_id":76561199010804293,"connected_time":661000000000,"state":"active","ping":151},{"user_id":604,"name":"[HOL] Solringen","steam_id":76561198003584681,"connected_time":420000000000,"state":"active","ping":71},{"user_id":543,"name":"Xiqui","steam_id":76561198818386611,"connected_time":6660000000000,"state":"active","ping":75}]},{"server_id":23,"name":"Uncletopia | Frankfurt | 7 | Stopwatch","name_short":"frk-7","host":"frk-1.de.uncletopia.com","port":27075,"enabled":true,"region":"eu","cc":"de","latitude":50.110924,"longitude":8.682127,"reserved":0,"last_update":"0001-01-01T00:00:00Z","name_a2s":"Uncletopia | Frankfurt | 7 | Stopwatch","protocol":17,"map":"workshop/koth_ashville_final.ugc2130459942","folder":"tf","game":"Team Fortress","app_id":440,"player_count":0,"max_players":24,"Bots":0,"server_type":"Dedicated","server_os":"Linux","password":true,"vac":true,"version":"7961495","steam_id":85568392924742827,"keywords":["cp","nocrits","nodmgspread","uncletopia"],"game_id":440,"stv_port":27076,"stv_name":"Uncletopia | Frankfurt | 7 | Stopwatch | STV","players":null},{"server_id":24,"name":"Uncletopia | Frankfurt | 8 | Community","name_short":"frk-8","host":"frk-1.de.uncletopia.com","port":27085,"enabled":true,"region":"eu","cc":"de","latitude":50.110924,"longitude":8.682127,"reserved":0,"last_update":"0001-01-01T00:00:00Z","name_a2s":"Uncletopia | Frankfurt | 8 | Community","protocol":17,"map":"workshop/koth_trenchfoot_ab1.ugc731436616","folder":"tf","game":"Team Fortress","app_id":440,"player_count":0,"max_players":24,"Bots":0,"server_type":"Dedicated","server_os":"Linux","password":true,"vac":true,"version":"7961495","steam_id":85568392924742828,"keywords":["cp","nocrits","nodmgspread","uncletopia"],"game_id":440,"stv_port":27086,"stv_name":"Uncletopia | Frankfurt | 8 | Community | STV","players":null},{"server_id":202,"name":"Uncletopia | Hong Kong | 1 | All Maps","name_short":"hgk-1","host":"hgk-1.hk.uncletopia.com","port":27015,"enabled":true,"region":"asia","cc":"hk","latitude":22.302711,"longitude":114.177216,"reserved":0,"last_update":"0001-01-01T00:00:00Z","name_a2s":"Uncletopia | Hong Kong | 1 | All Maps","protocol":17,"map":"cp_snakewater_final1","folder":"tf","game":"Team Fortress","app_id":440,"player_count":0,"max_players":24,"Bots":0,"server_type":"Dedicated","server_os":"Linux","password":true,"vac":true,"version":"7961495","steam_id":85568392924494504,"keywords":["cp","nocrits","nodmgspread","uncletopia"],"game_id":440,"stv_port":27016,"stv_name":"Uncletopia | Hong Kong | 1 | All Maps | STV","players":null},{"server_id":1,"name":"Uncletopia | Los Angeles | 1 | All Maps","name_short":"lax-1","host":"lax-1.us.uncletopia.com","port":27015,"enabled":true,"region":"us-west","cc":"us","latitude":33.94279,"longitude":-118.41004,"reserved":0,"last_update":"0001-01-01T00:00:00Z","name_a2s":"Uncletopia | Los Angeles | 1 | All Maps","protocol":17,"map":"pl_pier","folder":"tf","game":"Team Fortress","app_id":440,"player_count":0,"max_players":24,"Bots":0,"server_type":"Dedicated","server_os":"Linux","password":true,"vac":true,"version":"7961495","steam_id":85568392924469991,"keywords":["nocrits","nodmgspread","payload","uncletopia"],"game_id":440,"stv_port":27016,"stv_name":"Uncletopia | Los Angeles | 1 | All Maps | STV","players":null},{"server_id":112,"name":"Uncletopia | Los Angeles | 2 | All Maps","name_short":"lax-2","host":"lax-1.us.uncletopia.com","port":27025,"enabled":true,"region":"us-west","cc":"us","latitude":33.94279,"longitude":-118.41004,"reserved":0,"last_update":"0001-01-01T00:00:00Z","name_a2s":"Uncletopia | Los Angeles | 2 | All Maps","protocol":17,"map":"pl_pier","folder":"tf","game":"Team Fortress","app_id":440,"player_count":0,"max_players":24,"Bots":0,"server_type":"Dedicated","server_os":"Linux","password":true,"vac":true,"version":"7961495","steam_id":85568392924469992,"keywords":["nocrits","nodmgspread","payload","uncletopia"],"game_id":440,"stv_port":27026,"stv_name":"Uncletopia | Los Angeles | 2 | All Maps | STV","players":null},{"server_id":324,"name":"Uncletopia | Los Angeles | 3 | All Maps","name_short":"lax-3","host":"lax-1.us.uncletopia.com","port":27035,"enabled":true,"region":"us-west","cc":"us","latitude":33.94279,"longitude":-118.41004,"reserved":0,"last_update":"0001-01-01T00:00:00Z","name_a2s":"Uncletopia | Los Angeles | 3 | All Maps","protocol":17,"map":"pl_badwater","folder":"tf","game":"Team Fortress","app_id":440,"player_count":14,"max_players":24,"Bots":0,"server_type":"Dedicated","server_os":"Linux","password":true,"vac":true,"version":"7961495","steam_id":85568392924510198,"keywords":["nocrits","nodmgspread","payload","uncletopia"],"game_id":440,"stv_port":27036,"stv_name":"Uncletopia | Los Angeles | 3 | All Maps | STV","players":[{"user_id":19,"name":"Tom","steam_id":76561198139202942,"connected_time":983000000000,"state":"active","ping":111},{"user_id":23,"name":"Iron Argus","steam_id":76561198181088245,"connected_time":435000000000,"state":"active","ping":135},{"user_id":7,"name":"Pyrano","steam_id":76561198841531936,"connected_time":3111000000000,"state":"active","ping":79},{"user_id":10,"name":"goon refinery","steam_id":76561198166781089,"connected_time":1957000000000,"state":"active","ping":75},{"user_id":9,"name":"wrist game dumbin","steam_id":76561198247984828,"connected_time":2053000000000,"state":"active","ping":45},{"user_id":27,"name":"Rat5555546","steam_id":76561199350546592,"connected_time":47000000000,"state":"active","ping":62},{"user_id":17,"name":"Squeems","steam_id":76561198864101010,"connected_time":1305000000000,"state":"active","ping":109},{"user_id":18,"name":"GH578","steam_id":76561199493262585,"connected_time":1182000000000,"state":"active","ping":74},{"user_id":14,"name":"Pringle [Commissions Open | DM]","steam_id":76561198343735562,"connected_time":1709000000000,"state":"active","ping":95},{"user_id":21,"name":"Shibuya 808","steam_id":76561198040462757,"connected_time":613000000000,"state":"active","ping":101},{"user_id":22,"name":"no vc no c","steam_id":76561197989503095,"connected_time":566000000000,"state":"active","ping":161},{"user_id":24,"name":"Goop","steam_id":76561198824129892,"connected_time":365000000000,"state":"active","ping":63},{"user_id":25,"name":"green bean","steam_id":76561198113099204,"connected_time":260000000000,"state":"active","ping":45},{"user_id":26,"name":"Velgrauder","steam_id":76561198848526938,"connected_time":146000000000,"state":"active","ping":101}]},{"server_id":25,"name":"Uncletopia | Los Angeles | 4 | Stopwatch","name_short":"lax-4","host":"lax-1.us.uncletopia.com","port":27045,"enabled":true,"region":"us-west","cc":"us","latitude":33.94279,"longitude":-118.41004,"reserved":0,"last_update":"0001-01-01T00:00:00Z","name_a2s":"Uncletopia | Los Angeles | 4 | Stopwatch","protocol":17,"map":"pl_barnblitz","folder":"tf","game":"Team Fortress","app_id":440,"player_count":0,"max_players":24,"Bots":0,"server_type":"Dedicated","server_os":"Linux","password":true,"vac":true,"version":"7961495","steam_id":85568392924510199,"keywords":["nocrits","nodmgspread","payload","uncletopia"],"game_id":440,"stv_port":27046,"stv_name":"Uncletopia | Los Angeles | 4 | Stopwatch | STV","players":null},{"server_id":11,"name":"Uncletopia | London | 1 | All Maps","name_short":"lon-1","host":"lon-1.uk.uncletopia.com","port":27015,"enabled":true,"region":"eu","cc":"gb","latitude":51.509865,"longitude":-0.118092,"reserved":0,"last_update":"0001-01-01T00:00:00Z","name_a2s":"Uncletopia | London | 1 | All Maps","protocol":17,"map":"cp_steel","folder":"tf","game":"Team Fortress","app_id":440,"player_count":24,"max_players":24,"Bots":0,"server_type":"Dedicated","server_os":"Linux","password":true,"vac":true,"version":"7961495","steam_id":85568392924367362,"keywords":["cp","nocrits","nodmgspread","uncletopia"],"game_id":440,"stv_port":27016,"stv_name":"Uncletopia | London | 1 | All Maps | STV","players":[{"user_id":746,"name":"Collet-Gaming69","steam_id":76561198335486000,"connected_time":24000000000,"state":"active","ping":64},{"user_id":739,"name":"Jag är ett anka","steam_id":76561198059978438,"connected_time":439000000000,"state":"active","ping":69},{"user_id":743,"name":"The Power","steam_id":76561198060566884,"connected_time":147000000000,"state":"active","ping":44},{"user_id":714,"name":"GoblinGaming","steam_id":76561198360395476,"connected_time":2544000000000,"state":"active","ping":31},{"user_id":695,"name":"stroyo on ttv","steam_id":76561198409592046,"connected_time":4358000000000,"state":"active","ping":45},{"user_id":719,"name":"mary","steam_id":76561198014828037,"connected_time":2109000000000,"state":"active","ping":55},{"user_id":720,"name":"Gubbly Bubbins","steam_id":76561198101451654,"connected_time":2046000000000,"state":"active","ping":46},{"user_id":721,"name":"Slifer the Sky Dragon","steam_id":76561198062255803,"connected_time":2028000000000,"state":"active","ping":69},{"user_id":727,"name":"Frosti","steam_id":76561198332850064,"connected_time":1630000000000,"state":"active","ping":163},{"user_id":740,"name":"nedraagoeh","steam_id":76561198346638308,"connected_time":249000000000,"state":"active","ping":57},{"user_id":726,"name":"puck","steam_id":76561198121260981,"connected_time":1805000000000,"state":"active","ping":42},{"user_id":737,"name":"Paulo Doutor","steam_id":76561198168674032,"connected_time":713000000000,"state":"active","ping":84},{"user_id":709,"name":"Rjay","steam_id":76561198026151229,"connected_time":3773000000000,"state":"active","ping":100},{"user_id":679,"name":"Jörö","steam_id":76561198342570528,"connected_time":5326000000000,"state":"active","ping":69},{"user_id":713,"name":"Clown :o)","steam_id":76561198074657015,"connected_time":2696000000000,"state":"active","ping":62},{"user_id":734,"name":"not my season","steam_id":76561198083588151,"connected_time":1058000000000,"state":"active","ping":74},{"user_id":732,"name":"BreadBubbles","steam_id":76561198174332826,"connected_time":1177000000000,"state":"active","ping":66},{"user_id":742,"name":"Vitun vittu","steam_id":76561198110679463,"connected_time":241000000000,"state":"active","ping":74},{"user_id":738,"name":"Purps","steam_id":76561198053886680,"connected_time":600000000000,"state":"active","ping":42},{"user_id":675,"name":"trite","steam_id":76561197983765323,"connected_time":5626000000000,"state":"active","ping":54},{"user_id":542,"name":"sokige","steam_id":76561198167112371,"connected_time":12822000000000,"state":"active","ping":106},{"user_id":725,"name":"ඞauraඞ","steam_id":76561198066258544,"connected_time":1875000000000,"state":"active","ping":62},{"user_id":700,"name":"shooer!","steam_id":76561198110531281,"connected_time":4207000000000,"state":"active","ping":70},{"user_id":717,"name":"jimmy bob","steam_id":76561198319583692,"connected_time":2356000000000,"state":"active","ping":61}]},{"server_id":114,"name":"Uncletopia | London | 2 | All Maps","name_short":"lon-2","host":"lon-1.uk.uncletopia.com","port":27025,"enabled":true,"region":"eu","cc":"gb","latitude":51.509865,"longitude":-0.118092,"reserved":0,"last_update":"0001-01-01T00:00:00Z","name_a2s":"Uncletopia | London | 2 | All Maps","protocol":17,"map":"pl_badwater","folder":"tf","game":"Team Fortress","app_id":440,"player_count":24,"max_players":24,"Bots":0,"server_type":"Dedicated","server_os":"Linux","password":true,"vac":true,"version":"7961495","steam_id":85568392924470941,"keywords":["nocrits","nodmgspread","payload","uncletopia"],"game_id":440,"stv_port":27026,"stv_name":"Uncletopia | London | 2 | All Maps | STV","players":[{"user_id":584,"name":"Queen Of Broken Hearts","steam_id":76561198140392849,"connected_time":970000000000,"state":"active","ping":57},{"user_id":560,"name":"Woman (Real)","steam_id":76561199151823932,"connected_time":3891000000000,"state":"active","ping":88},{"user_id":569,"name":"pierre200000","steam_id":76561197964573308,"connected_time":2536000000000,"state":"active","ping":59},{"user_id":570,"name":"Tobi Kool","steam_id":76561198421707721,"connected_time":2517000000000,"state":"active","ping":72},{"user_id":580,"name":"super warrior maker","steam_id":76561199093623546,"connected_time":2034000000000,"state":"active","ping":42},{"user_id":509,"name":"The Lady","steam_id":76561198029895809,"connected_time":8989000000000,"state":"active","ping":85},{"user_id":566,"name":"Bajas","steam_id":76561198179339326,"connected_time":2593000000000,"state":"active","ping":76},{"user_id":539,"name":"rocze","steam_id":76561198088280730,"connected_time":5612000000000,"state":"active","ping":75},{"user_id":587,"name":"RAVAGING WEDNESDAY","steam_id":76561198148858397,"connected_time":892000000000,"state":"active","ping":62},{"user_id":582,"name":"Tero","steam_id":76561198073147972,"connected_time":1492000000000,"state":"active","ping":90},{"user_id":547,"name":"Akroview","steam_id":76561198025506967,"connected_time":5037000000000,"state":"active","ping":68},{"user_id":567,"name":"xavier","steam_id":76561198076494034,"connected_time":2590000000000,"state":"active","ping":49},{"user_id":514,"name":"finbar","steam_id":76561198056812396,"connected_time":8528000000000,"state":"active","ping":75},{"user_id":545,"name":"Kestrel","steam_id":76561198799083881,"connected_time":5082000000000,"state":"active","ping":45},{"user_id":576,"name":"gagalak","steam_id":76561198089979108,"connected_time":2345000000000,"state":"active","ping":104},{"user_id":557,"name":"Vershal Smershal","steam_id":76561198116223995,"connected_time":4058000000000,"state":"active","ping":58},{"user_id":581,"name":"Mangophysics","steam_id":76561198328905546,"connected_time":2008000000000,"state":"active","ping":121},{"user_id":583,"name":"Gen","steam_id":76561198021775885,"connected_time":1468000000000,"state":"active","ping":46},{"user_id":562,"name":"Maximilian1359","steam_id":76561198152439608,"connected_time":3844000000000,"state":"active","ping":66},{"user_id":588,"name":"Just Navlis","steam_id":76561198090479609,"connected_time":341000000000,"state":"active","ping":53},{"user_id":565,"name":"goop","steam_id":76561198190073005,"connected_time":2994000000000,"state":"active","ping":47},{"user_id":568,"name":"Pilaarius","steam_id":76561198120273212,"connected_time":2574000000000,"state":"active","ping":105},{"user_id":579,"name":"John Noob","steam_id":76561197999170026,"connected_time":2144000000000,"state":"active","ping":86},{"user_id":577,"name":"slnc","steam_id":76561198041151496,"connected_time":2311000000000,"state":"active","ping":72}]},{"server_id":320,"name":"Uncletopia | London | 3 | All Maps","name_short":"lon-3","host":"lon-1.uk.uncletopia.com","port":27035,"enabled":true,"region":"eu","cc":"gb","latitude":51.509865,"longitude":-0.118092,"reserved":0,"last_update":"0001-01-01T00:00:00Z","name_a2s":"Uncletopia | London | 3 | All Maps","protocol":17,"map":"pl_barnblitz","folder":"tf","game":"Team Fortress","app_id":440,"player_count":23,"max_players":24,"Bots":0,"server_type":"Dedicated","server_os":"Linux","password":true,"vac":true,"version":"7961495","steam_id":85568392924510192,"keywords":["nocrits","nodmgspread","payload","uncletopia"],"game_id":440,"stv_port":27036,"stv_name":"Uncletopia | London | 3 | All Maps | STV","players":[{"user_id":401,"name":"Stefman","steam_id":76561199025104038,"connected_time":3231000000000,"state":"active","ping":43},{"user_id":414,"name":"George7231","steam_id":76561198136490042,"connected_time":2941000000000,"state":"active","ping":54},{"user_id":451,"name":"ImInYourWalls","steam_id":76561198074257986,"connected_time":189000000000,"state":"active","ping":59},{"user_id":429,"name":"lil EGG","steam_id":76561198361321253,"connected_time":1679000000000,"state":"active","ping":128},{"user_id":350,"name":"Tom Cruise","steam_id":76561198871991529,"connected_time":6215000000000,"state":"active","ping":60},{"user_id":413,"name":"soil.dirt.earth","steam_id":76561198014377623,"connected_time":2964000000000,"state":"active","ping":30},{"user_id":440,"name":"Urinal","steam_id":76561198007736676,"connected_time":794000000000,"state":"active","ping":77},{"user_id":431,"name":"It's a me Malario","steam_id":76561198176546013,"connected_time":1284000000000,"state":"active","ping":65},{"user_id":437,"name":"[UwU] Blackblood909","steam_id":76561198079427660,"connected_time":861000000000,"state":"active","ping":66},{"user_id":430,"name":"ThiccSkin Detective","steam_id":76561198989449047,"connected_time":1315000000000,"state":"active","ping":129},{"user_id":196,"name":"Marcel","steam_id":76561198348686648,"connected_time":18364000000000,"state":"active","ping":45},{"user_id":428,"name":"BELADIT","steam_id":76561198011911501,"connected_time":1760000000000,"state":"active","ping":79},{"user_id":432,"name":"Duncle322","steam_id":76561198258257247,"connected_time":1253000000000,"state":"active","ping":84},{"user_id":416,"name":"child cruncher","steam_id":76561199376433147,"connected_time":2892000000000,"state":"active","ping":49},{"user_id":433,"name":"Haha?","steam_id":76561198056882245,"connected_time":1182000000000,"state":"active","ping":41},{"user_id":417,"name":"Caelestis","steam_id":76561198170017997,"connected_time":2889000000000,"state":"active","ping":71},{"user_id":438,"name":"Niyaah","steam_id":76561198110209191,"connected_time":856000000000,"state":"active","ping":60},{"user_id":441,"name":"sharkybro_nl","steam_id":76561198316862224,"connected_time":785000000000,"state":"active","ping":55},{"user_id":442,"name":"Tywhip","steam_id":76561199207545191,"connected_time":766000000000,"state":"active","ping":58},{"user_id":452,"name":"Gregor Samsa","steam_id":76561198973069177,"connected_time":20000000000,"state":"active","ping":62},{"user_id":447,"name":"sto cazzo","steam_id":76561198066071855,"connected_time":660000000000,"state":"active","ping":72},{"user_id":422,"name":"hasky","steam_id":76561197986052798,"connected_time":2671000000000,"state":"active","ping":71},{"user_id":448,"name":"bowchika wowa #SlavaUkraine","steam_id":76561198159564550,"connected_time":656000000000,"state":"active","ping":72}]},{"server_id":321,"name":"Uncletopia | London | 4 | All Maps","name_short":"lon-4","host":"lon-1.uk.uncletopia.com","port":27045,"enabled":true,"region":"eu","cc":"gb","latitude":51.509865,"longitude":-0.118092,"reserved":0,"last_update":"0001-01-01T00:00:00Z","name_a2s":"Uncletopia | London | 4 | All Maps","protocol":17,"map":"cp_mountainlab","folder":"tf","game":"Team Fortress","app_id":440,"player_count":24,"max_players":24,"Bots":0,"server_type":"Dedicated","server_os":"Linux","password":true,"vac":true,"version":"7961495","steam_id":85568392924510193,"keywords":["cp","nocrits","nodmgspread","uncletopia"],"game_id":440,"stv_port":27046,"stv_name":"Uncletopia | London | 4 | All Maps | STV","players":[{"user_id":498,"name":"Jombus Quan","steam_id":76561198240560666,"connected_time":795000000000,"state":"active","ping":48},{"user_id":483,"name":"Prox","steam_id":76561198351490981,"connected_time":1573000000000,"state":"active","ping":37},{"user_id":499,"name":"papa","steam_id":76561198044349618,"connected_time":794000000000,"state":"active","ping":75},{"user_id":424,"name":"-kraft-","steam_id":76561198086695613,"connected_time":5293000000000,"state":"active","ping":92},{"user_id":484,"name":"The worst TF2 player(Real)","steam_id":76561199184873889,"connected_time":1561000000000,"state":"active","ping":79},{"user_id":508,"name":"Smiley","steam_id":76561198842378679,"connected_time":369000000000,"state":"active","ping":173},{"user_id":403,"name":"Jimmy Poppadopolos","steam_id":76561198044825612,"connected_time":7067000000000,"state":"active","ping":60},{"user_id":505,"name":"simonjohna646","steam_id":76561199403481880,"connected_time":683000000000,"state":"active","ping":124},{"user_id":497,"name":"Cuppa Joe","steam_id":76561199084888903,"connected_time":879000000000,"state":"active","ping":168},{"user_id":501,"name":"Richard Hammond","steam_id":76561199223016965,"connected_time":790000000000,"state":"active","ping":40},{"user_id":491,"name":"p1za","steam_id":76561198166349183,"connected_time":1337000000000,"state":"active","ping":55},{"user_id":490,"name":"SolidSalt","steam_id":76561198334789026,"connected_time":1370000000000,"state":"active","ping":40},{"user_id":454,"name":"Razef","steam_id":76561198030309484,"connected_time":3823000000000,"state":"active","ping":59},{"user_id":507,"name":"TreatFly","steam_id":76561198069707362,"connected_time":611000000000,"state":"active","ping":56},{"user_id":509,"name":"D4NTheProtogen","steam_id":76561198206460789,"connected_time":309000000000,"state":"active","ping":55},{"user_id":473,"name":"lillunya ♡","steam_id":76561198330418866,"connected_time":2125000000000,"state":"active","ping":76},{"user_id":502,"name":"Team Fortress","steam_id":76561198058722801,"connected_time":783000000000,"state":"active","ping":45},{"user_id":503,"name":"Batters🌸","steam_id":76561198927992205,"connected_time":778000000000,"state":"active","ping":49},{"user_id":511,"name":"Far ∞","steam_id":76561199166149359,"connected_time":249000000000,"state":"active","ping":68},{"user_id":513,"name":"Liko","steam_id":76561197994660517,"connected_time":209000000000,"state":"active","ping":84},{"user_id":443,"name":"LiterallyRyanGosling","steam_id":76561199017856691,"connected_time":4610000000000,"state":"active","ping":57},{"user_id":512,"name":"iq drops","steam_id":76561198035795130,"connected_time":219000000000,"state":"active","ping":64},{"user_id":514,"name":"«x»Paradroide","steam_id":76561198180190190,"connected_time":208000000000,"state":"active","ping":71},{"user_id":495,"name":"MagusCubed","steam_id":76561198083973944,"connected_time":955000000000,"state":"active","ping":46}]},{"server_id":21,"name":"Uncletopia | London | 5 | All Maps","name_short":"lon-5","host":"lon-1.uk.uncletopia.com","port":27055,"enabled":true,"region":"eu","cc":"gb","latitude":51.509865,"longitude":-0.118092,"reserved":0,"last_update":"0001-01-01T00:00:00Z","name_a2s":"Uncletopia | London | 5 | All Maps","protocol":17,"map":"cp_sunshine","folder":"tf","game":"Team Fortress","app_id":440,"player_count":0,"max_players":24,"Bots":0,"server_type":"Dedicated","server_os":"Linux","password":true,"vac":true,"version":"7961495","steam_id":85568392924742829,"keywords":["cp","nocrits","nodmgspread","uncletopia"],"game_id":440,"stv_port":27056,"stv_name":"Uncletopia | London | 5 | All Maps | STV","players":null},{"server_id":22,"name":"Uncletopia | London | 6 | All Maps","name_short":"lon-6","host":"lon-1.uk.uncletopia.com","port":27065,"enabled":true,"region":"eu","cc":"gb","latitude":51.509865,"longitude":-0.118092,"reserved":0,"last_update":"0001-01-01T00:00:00Z","name_a2s":"Uncletopia | London | 6 | All Maps","protocol":17,"map":"cp_mountainlab","folder":"tf","game":"Team Fortress","app_id":440,"player_count":24,"max_players":24,"Bots":0,"server_type":"Dedicated","server_os":"Linux","password":true,"vac":true,"version":"7961495","steam_id":85568392924742830,"keywords":["cp","nocrits","nodmgspread","uncletopia"],"game_id":440,"stv_port":27066,"stv_name":"Uncletopia | London | 6 | All Maps | STV","players":[{"user_id":575,"name":"Ninjeg","steam_id":76561197995307947,"connected_time":2055000000000,"state":"active","ping":61},{"user_id":574,"name":"Ullr","steam_id":76561198140547483,"connected_time":2232000000000,"state":"active","ping":44},{"user_id":500,"name":"Kekeke","steam_id":76561198063672270,"connected_time":5172000000000,"state":"active","ping":97},{"user_id":569,"name":"Tavish","steam_id":76561197971486686,"connected_time":2683000000000,"state":"active","ping":56},{"user_id":607,"name":"Seliush","steam_id":76561198313583650,"connected_time":336000000000,"state":"active","ping":81},{"user_id":614,"name":"Omyskull","steam_id":76561198131711758,"connected_time":81000000000,"state":"active","ping":65},{"user_id":612,"name":"The Once-Ler","steam_id":76561199121717685,"connected_time":240000000000,"state":"spawning","ping":64},{"user_id":609,"name":"long crab","steam_id":76561198136239861,"connected_time":315000000000,"state":"active","ping":52},{"user_id":571,"name":"MustangCricket","steam_id":76561197963408317,"connected_time":2378000000000,"state":"active","ping":62},{"user_id":603,"name":"FurbyZone","steam_id":76561198268344503,"connected_time":855000000000,"state":"active","ping":54},{"user_id":577,"name":"Janner","steam_id":76561198127045282,"connected_time":1962000000000,"state":"active","ping":46},{"user_id":578,"name":"KillerQueen (he/they/she)","steam_id":76561199019399725,"connected_time":1933000000000,"state":"active","ping":54},{"user_id":547,"name":"AI | Davidoscki","steam_id":76561198129166046,"connected_time":3468000000000,"state":"active","ping":120},{"user_id":589,"name":"Knösta","steam_id":76561198143422139,"connected_time":1758000000000,"state":"active","ping":110},{"user_id":597,"name":"soupalognionycrouton","steam_id":76561199021878433,"connected_time":1181000000000,"state":"active","ping":78},{"user_id":553,"name":"Pan W","steam_id":76561198384111099,"connected_time":3283000000000,"state":"active","ping":73},{"user_id":606,"name":"Visphiric","steam_id":76561198071938027,"connected_time":348000000000,"state":"active","ping":39},{"user_id":598,"name":"Pofl","steam_id":76561197995110333,"connected_time":1181000000000,"state":"active","ping":71},{"user_id":604,"name":"j","steam_id":76561198299474630,"connected_time":815000000000,"state":"active","ping":58},{"user_id":613,"name":"BlueBlueFox","steam_id":76561198053817230,"connected_time":198000000000,"state":"active","ping":92},{"user_id":584,"name":"Coagulated@nalCrust","steam_id":76561198173218318,"connected_time":1827000000000,"state":"active","ping":48},{"user_id":599,"name":"PAX","steam_id":76561198046692146,"connected_time":1165000000000,"state":"active","ping":84},{"user_id":596,"name":"☩ Knightz ☩","steam_id":76561198040936414,"connected_time":1215000000000,"state":"active","ping":106},{"user_id":608,"name":"[503. ]captain swiftfingers","steam_id":76561198043684517,"connected_time":326000000000,"state":"active","ping":57}]},{"server_id":40,"name":"Uncletopia | London | 7 | Stopwatch","name_short":"lon-7","host":"lon-1.uk.uncletopia.com","port":27075,"enabled":true,"region":"eu","cc":"gb","latitude":51.509865,"longitude":-0.118092,"reserved":0,"last_update":"0001-01-01T00:00:00Z","name_a2s":"Uncletopia | London | 7 | Stopwatch","protocol":17,"map":"koth_highpass","folder":"tf","game":"Team Fortress","app_id":440,"player_count":0,"max_players":24,"Bots":0,"server_type":"Dedicated","server_os":"Linux","password":true,"vac":true,"version":"7961495","steam_id":85568392924964314,"keywords":["cp","nocrits","nodmgspread","uncletopia"],"game_id":440,"stv_port":27076,"stv_name":"Uncletopia | London | 7 | Stopwatch | STV","players":null},{"server_id":41,"name":"Uncletopia | London | 8 | Community","name_short":"lon-8","host":"lon-1.uk.uncletopia.com","port":27085,"enabled":true,"region":"eu","cc":"gb","latitude":51.509865,"longitude":-0.118092,"reserved":0,"last_update":"0001-01-01T00:00:00Z","name_a2s":"Uncletopia | London | 8 | Community","protocol":17,"map":"workshop/koth_trenchfoot_ab1.ugc731436616","folder":"tf","game":"Team Fortress","app_id":440,"player_count":2,"max_players":24,"Bots":0,"server_type":"Dedicated","server_os":"Linux","password":true,"vac":true,"version":"7961495","steam_id":85568392924964315,"keywords":["cp","nocrits","nodmgspread","uncletopia"],"game_id":440,"stv_port":27086,"stv_name":"Uncletopia | London | 8 | Community | STV","players":[{"user_id":54,"name":"joosssh","steam_id":76561198072130805,"connected_time":330000000000,"state":"active","ping":59},{"user_id":55,"name":"SIVA Directive","steam_id":76561199109805036,"connected_time":269000000000,"state":"active","ping":52}]},{"server_id":300,"name":"Uncletopia | Montréal | 1 | One Thousand Uncles","name_short":"mtl-1","host":"mtl-1.ca.uncletopia.com","port":27015,"enabled":true,"region":"us-east","cc":"ca","latitude":45.50889,"longitude":-73.56167,"reserved":0,"last_update":"0001-01-01T00:00:00Z","name_a2s":"","protocol":0,"map":"","folder":"","game":"","app_id":0,"player_count":5,"max_players":0,"Bots":0,"server_type":"","server_os":"","password":false,"vac":false,"version":"","steam_id":0,"keywords":null,"game_id":0,"stv_port":0,"stv_name":"","players":[{"user_id":230,"name":"Yep","steam_id":76561198041437251,"connected_time":9713000000000,"state":"active","ping":58},{"user_id":324,"name":"Drake the Pixel","steam_id":76561198131824401,"connected_time":1579000000000,"state":"active","ping":45},{"user_id":358,"name":"Sallomone","steam_id":76561198878216775,"connected_time":929000000000,"state":"active","ping":258},{"user_id":317,"name":"Ak","steam_id":76561199333659458,"connected_time":2574000000000,"state":"active","ping":60},{"user_id":360,"name":"yeetsalid","steam_id":76561198864793567,"connected_time":167000000000,"state":"active","ping":71}]},{"server_id":301,"name":"Uncletopia | Montréal | 2 | One Thousand Uncles","name_short":"mtl-2","host":"mtl-1.ca.uncletopia.com","port":27025,"enabled":true,"region":"us-east","cc":"ca","latitude":45.50889,"longitude":-73.56167,"reserved":0,"last_update":"0001-01-01T00:00:00Z","name_a2s":"","protocol":0,"map":"","folder":"","game":"","app_id":0,"player_count":0,"max_players":0,"Bots":0,"server_type":"","server_os":"","password":false,"vac":false,"version":"","steam_id":0,"keywords":null,"game_id":0,"stv_port":0,"stv_name":"","players":null},{"server_id":302,"name":"Uncletopia | Montréal | 3 | One Thousand Uncles","name_short":"mtl-3","host":"mtl-1.ca.uncletopia.com","port":27035,"enabled":true,"region":"us-east","cc":"ca","latitude":45.50889,"longitude":-73.56167,"reserved":0,"last_update":"0001-01-01T00:00:00Z","name_a2s":"","protocol":0,"map":"","folder":"","game":"","app_id":0,"player_count":0,"max_players":0,"Bots":0,"server_type":"","server_os":"","password":false,"vac":false,"version":"","steam_id":0,"keywords":null,"game_id":0,"stv_port":0,"stv_name":"","players":null},{"server_id":13,"name":"Uncletopia | New York City | 1 | All Maps","name_short":"nyc-1","host":"nyc-1.us.uncletopia.com","port":27015,"enabled":true,"region":"us-east","cc":"us","latitude":40.73061,"longitude":-73.93524,"reserved":0,"last_update":"0001-01-01T00:00:00Z","name_a2s":"Uncletopia | New York City | 1 | All Maps","protocol":17,"map":"pl_pier","folder":"tf","game":"Team Fortress","app_id":440,"player_count":20,"max_players":24,"Bots":0,"server_type":"Dedicated","server_os":"Linux","password":true,"vac":true,"version":"7961495","steam_id":85568392924469993,"keywords":["nocrits","nodmgspread","payload","uncletopia"],"game_id":440,"stv_port":27016,"stv_name":"Uncletopia | New York City | 1 | All Maps | STV","players":[{"user_id":164,"name":"-_-","steam_id":76561198005773253,"connected_time":108000000000,"state":"active","ping":83},{"user_id":148,"name":"wile smells :3","steam_id":76561197968351430,"connected_time":1035000000000,"state":"active","ping":105},{"user_id":165,"name":"1st place love live fan","steam_id":76561198037951506,"connected_time":66000000000,"state":"active","ping":56},{"user_id":162,"name":"Baller64","steam_id":76561199468366156,"connected_time":404000000000,"state":"active","ping":63},{"user_id":142,"name":"ePun","steam_id":76561198271891295,"connected_time":1531000000000,"state":"active","ping":60},{"user_id":147,"name":"BFro","steam_id":76561198102758681,"connected_time":1042000000000,"state":"active","ping":72},{"user_id":42,"name":"☼ fellini","steam_id":76561198074180953,"connected_time":6640000000000,"state":"active","ping":44},{"user_id":149,"name":"RPGnoob","steam_id":76561198384913758,"connected_time":1011000000000,"state":"active","ping":96},{"user_id":150,"name":"Mooop","steam_id":76561199091800420,"connected_time":999000000000,"state":"active","ping":59},{"user_id":168,"name":"Ash Ridley","steam_id":76561198125095908,"connected_time":0,"state":"spawning","ping":10},{"user_id":134,"name":"Rambly Dambly","steam_id":76561198844496567,"connected_time":2299000000000,"state":"active","ping":44},{"user_id":156,"name":"DoUFart","steam_id":76561198093422623,"connected_time":807000000000,"state":"active","ping":59},{"user_id":132,"name":"BlueSpy","steam_id":76561198134707089,"connected_time":2544000000000,"state":"active","ping":82},{"user_id":158,"name":"gordonzheng12","steam_id":76561199493305527,"connected_time":644000000000,"state":"active","ping":40},{"user_id":137,"name":"gary","steam_id":76561197991793693,"connected_time":1619000000000,"state":"active","ping":59},{"user_id":144,"name":"Mer","steam_id":76561198192171041,"connected_time":1437000000000,"state":"active","ping":121},{"user_id":151,"name":"frog","steam_id":76561199168999314,"connected_time":996000000000,"state":"active","ping":59},{"user_id":167,"name":"I Like the Taste of Lead Paint","steam_id":76561198961669220,"connected_time":10000000000,"state":"spawning","ping":89},{"user_id":125,"name":"fish enjoyer","steam_id":76561198307447918,"connected_time":2806000000000,"state":"active","ping":81},{"user_id":155,"name":"Little Skull Boi","steam_id":76561198093595888,"connected_time":965000000000,"state":"active","ping":83}]},{"server_id":14,"name":"Uncletopia | New York City | 2 | All Maps","name_short":"nyc-2","host":"nyc-1.us.uncletopia.com","port":27025,"enabled":true,"region":"us-east","cc":"us","latitude":40.73061,"longitude":-73.93524,"reserved":0,"last_update":"0001-01-01T00:00:00Z","name_a2s":"Uncletopia | New York City | 2 | All Maps","protocol":17,"map":"koth_suijin","folder":"tf","game":"Team Fortress","app_id":440,"player_count":22,"max_players":24,"Bots":0,"server_type":"Dedicated","server_os":"Linux","password":true,"vac":true,"version":"7961495","steam_id":85568392924469994,"keywords":["cp","nocrits","nodmgspread","uncletopia"],"game_id":440,"stv_port":27026,"stv_name":"Uncletopia | New York City | 2 | All Maps | STV","players":[{"user_id":373,"name":"Queso2469","steam_id":76561197993024580,"connected_time":6442000000000,"state":"active","ping":51},{"user_id":86,"name":"Jin","steam_id":76561198119873148,"connected_time":27795000000000,"state":"active","ping":44},{"user_id":429,"name":"Digit","steam_id":76561198156589157,"connected_time":2305000000000,"state":"active","ping":60},{"user_id":379,"name":"Lemon Soda","steam_id":76561198140208761,"connected_time":6129000000000,"state":"active","ping":50},{"user_id":423,"name":"Meta Five","steam_id":76561197993248926,"connected_time":3063000000000,"state":"active","ping":66},{"user_id":403,"name":"λ T O M I C S P E E D","steam_id":76561198378581038,"connected_time":3932000000000,"state":"active","ping":88},{"user_id":433,"name":"SmalGuy","steam_id":76561199202967055,"connected_time":813000000000,"state":"active","ping":67},{"user_id":416,"name":"BiggSlorp","steam_id":76561199130776156,"connected_time":3349000000000,"state":"active","ping":57},{"user_id":395,"name":"Ballistic","steam_id":76561197992355477,"connected_time":4816000000000,"state":"active","ping":52},{"user_id":424,"name":"Mr. Milk","steam_id":76561198068902833,"connected_time":2716000000000,"state":"active","ping":87},{"user_id":414,"name":"Kraftlos","steam_id":76561198074350350,"connected_time":3415000000000,"state":"active","ping":59},{"user_id":392,"name":"Cat","steam_id":76561198328159094,"connected_time":5459000000000,"state":"active","ping":83},{"user_id":435,"name":"Bacchus","steam_id":76561198113244990,"connected_time":125000000000,"state":"active","ping":74},{"user_id":418,"name":"Comfy!","steam_id":76561198008818346,"connected_time":3303000000000,"state":"active","ping":49},{"user_id":398,"name":"Just washed","steam_id":76561199030160932,"connected_time":4602000000000,"state":"active","ping":79},{"user_id":432,"name":"Wubs","steam_id":76561198100722286,"connected_time":1692000000000,"state":"active","ping":44},{"user_id":427,"name":"Jin Mu-Won","steam_id":76561198414122318,"connected_time":2618000000000,"state":"active","ping":71},{"user_id":407,"name":"Tom Pearl","steam_id":76561198143826450,"connected_time":3852000000000,"state":"active","ping":67},{"user_id":419,"name":"Jojo","steam_id":76561198332887086,"connected_time":3299000000000,"state":"active","ping":43},{"user_id":430,"name":"Elias","steam_id":76561198106431732,"connected_time":2305000000000,"state":"active","ping":80},{"user_id":426,"name":"John Fortress","steam_id":76561198999712284,"connected_time":2645000000000,"state":"active","ping":81},{"user_id":253,"name":"Voracious Puma","steam_id":76561197963621649,"connected_time":18359000000000,"state":"active","ping":90}]},{"server_id":15,"name":"Uncletopia | New York City | 3 | Stopwatch","name_short":"nyc-3","host":"nyc-1.us.uncletopia.com","port":27035,"enabled":true,"region":"us-east","cc":"us","latitude":40.73061,"longitude":-73.93524,"reserved":0,"last_update":"0001-01-01T00:00:00Z","name_a2s":"Uncletopia | New York City | 3 | Stopwatch","protocol":17,"map":"workshop/koth_product_final.ugc454272353","folder":"tf","game":"Team Fortress","app_id":440,"player_count":0,"max_players":24,"Bots":0,"server_type":"Dedicated","server_os":"Linux","password":true,"vac":true,"version":"7961495","steam_id":85568392924742820,"keywords":["cp","nocrits","nodmgspread","uncletopia"],"game_id":440,"stv_port":27036,"stv_name":"Uncletopia | New York City | 3 | Stopwatch | STV","players":null},{"server_id":16,"name":"Uncletopia | New York City | 4 | Community","name_short":"nyc-4","host":"nyc-1.us.uncletopia.com","port":27045,"enabled":true,"region":"us-east","cc":"us","latitude":40.73061,"longitude":-73.93524,"reserved":0,"last_update":"0001-01-01T00:00:00Z","name_a2s":"Uncletopia | New York City | 4 | Community","protocol":17,"map":"workshop/cp_logjam_rc12.ugc454812035","folder":"tf","game":"Team Fortress","app_id":440,"player_count":0,"max_players":24,"Bots":0,"server_type":"Dedicated","server_os":"Linux","password":true,"vac":true,"version":"7961495","steam_id":85568392924742821,"keywords":["cp","nocrits","nodmgspread","uncletopia"],"game_id":440,"stv_port":27046,"stv_name":"Uncletopia | New York City | 4 | Community | STV","players":null},{"server_id":142,"name":"Uncletopia | São Paulo | 1 | All Maps","name_short":"sao-1","host":"sao-1.br.uncletopia.com","port":27015,"enabled":true,"region":"sa","cc":"br","latitude":-23.533773,"longitude":-46.62529,"reserved":0,"last_update":"0001-01-01T00:00:00Z","name_a2s":"Uncletopia | São Paulo | 1 | All Maps","protocol":17,"map":"koth_viaduct","folder":"tf","game":"Team Fortress","app_id":440,"player_count":0,"max_players":24,"Bots":0,"server_type":"Dedicated","server_os":"Linux","password":true,"vac":true,"version":"7961495","steam_id":85568392924469996,"keywords":["cp","nocrits","nodmgspread","uncletopia"],"game_id":440,"stv_port":27016,"stv_name":"Uncletopia | São Paulo | 1 | All Maps | STV","players":null},{"server_id":143,"name":"Uncletopia | São Paulo | 2 | Community","name_short":"sao-2","host":"sao-2.br.uncletopia.com","port":27015,"enabled":true,"region":"sa","cc":"br","latitude":-23.533773,"longitude":-46.62529,"reserved":0,"last_update":"0001-01-01T00:00:00Z","name_a2s":"Uncletopia | São Paulo | 2 | Community","protocol":17,"map":"workshop/cp_snowbase_b21.ugc2081770490","folder":"tf","game":"Team Fortress","app_id":440,"player_count":0,"max_players":24,"Bots":0,"server_type":"Dedicated","server_os":"Linux","password":true,"vac":true,"version":"7961495","steam_id":85568392924485349,"keywords":["cp","nocrits","nodmgspread","uncletopia"],"game_id":440,"stv_port":27016,"stv_name":"Uncletopia | São Paulo | 2 | Community | STV","players":null},{"server_id":7,"name":"Uncletopia | Seattle | 1 | All Maps","name_short":"sea-1","host":"sea-1.us.uncletopia.com","port":27015,"enabled":true,"region":"us-west","cc":"us","latitude":47.608013,"longitude":-122.33517,"reserved":0,"last_update":"0001-01-01T00:00:00Z","name_a2s":"Uncletopia | Seattle | 1 | All Maps","protocol":17,"map":"pl_swiftwater_final1","folder":"tf","game":"Team Fortress","app_id":440,"player_count":19,"max_players":24,"Bots":0,"server_type":"Dedicated","server_os":"Linux","password":true,"vac":true,"version":"7961495","steam_id":85568392924469997,"keywords":["nocrits","nodmgspread","payload","uncletopia"],"game_id":440,"stv_port":27016,"stv_name":"Uncletopia | Seattle | 1 | All Maps | STV","players":[{"user_id":346,"name":"Jaeger","steam_id":76561199392187099,"connected_time":3427000000000,"state":"active","ping":108},{"user_id":408,"name":"Rock Kickass","steam_id":76561198450510841,"connected_time":231000000000,"state":"active","ping":102},{"user_id":392,"name":"Nom Skirrett","steam_id":76561198014600788,"connected_time":1066000000000,"state":"active","ping":60},{"user_id":377,"name":"Dilbert Jones","steam_id":76561198799249177,"connected_time":2176000000000,"state":"active","ping":73},{"user_id":393,"name":"Defeat","steam_id":76561198065203818,"connected_time":975000000000,"state":"active","ping":33},{"user_id":409,"name":"Cheezbeargur","steam_id":76561198164702899,"connected_time":223000000000,"state":"active","ping":61},{"user_id":406,"name":"Daz","steam_id":76561198041431938,"connected_time":336000000000,"state":"active","ping":49},{"user_id":410,"name":"BitPieStudios","steam_id":76561198059216393,"connected_time":118000000000,"state":"active","ping":66},{"user_id":380,"name":"fish (2:3)","steam_id":76561198134331073,"connected_time":2030000000000,"state":"active","ping":45},{"user_id":390,"name":"Walter White","steam_id":76561199102963294,"connected_time":1192000000000,"state":"active","ping":59},{"user_id":389,"name":"imasheep","steam_id":76561198210322871,"connected_time":1206000000000,"state":"active","ping":91},{"user_id":349,"name":"twitch.tv/kegaman_","steam_id":76561198043632775,"connected_time":3416000000000,"state":"active","ping":77},{"user_id":407,"name":"half of a swarm of wasps","steam_id":76561198929398928,"connected_time":258000000000,"state":"active","ping":48},{"user_id":402,"name":"Reaganomics","steam_id":76561199106877333,"connected_time":589000000000,"state":"active","ping":59},{"user_id":387,"name":"Haydob13","steam_id":76561198110378191,"connected_time":1706000000000,"state":"active","ping":51},{"user_id":370,"name":"MONKEY | videogamer1002","steam_id":76561198157110599,"connected_time":2356000000000,"state":"active","ping":33},{"user_id":397,"name":"GibbusGod","steam_id":76561199232436690,"connected_time":830000000000,"state":"active","ping":112},{"user_id":326,"name":"Jukebox","steam_id":76561198043930636,"connected_time":5346000000000,"state":"active","ping":48},{"user_id":288,"name":"soup","steam_id":76561198043209046,"connected_time":8756000000000,"state":"active","ping":68}]},{"server_id":119,"name":"Uncletopia | Seattle | 2 | All Maps","name_short":"sea-2","host":"sea-1.us.uncletopia.com","port":27025,"enabled":true,"region":"us-west","cc":"us","latitude":47.608013,"longitude":-122.33517,"reserved":0,"last_update":"0001-01-01T00:00:00Z","name_a2s":"Uncletopia | Seattle | 2 | All Maps","protocol":17,"map":"pl_pier","folder":"tf","game":"Team Fortress","app_id":440,"player_count":22,"max_players":24,"Bots":0,"server_type":"Dedicated","server_os":"Linux","password":true,"vac":true,"version":"7961495","steam_id":85568392924469998,"keywords":["nocrits","nodmgspread","payload","uncletopia"],"game_id":440,"stv_port":27026,"stv_name":"Uncletopia | Seattle | 2 | All Maps | STV","players":[{"user_id":51,"name":"a chicken","steam_id":76561198313121580,"connected_time":3890000000000,"state":"active","ping":79},{"user_id":84,"name":"Chad the Sex Haver","steam_id":76561198058236528,"connected_time":1524000000000,"state":"active","ping":88},{"user_id":113,"name":"The Horny","steam_id":76561198863639459,"connected_time":39000000000,"state":"active","ping":87},{"user_id":105,"name":"1995 Cooler ranch Doritos","steam_id":76561199006526991,"connected_time":523000000000,"state":"active","ping":75},{"user_id":106,"name":"boof^","steam_id":76561198087074444,"connected_time":523000000000,"state":"active","ping":57},{"user_id":109,"name":"Five","steam_id":76561198026640473,"connected_time":341000000000,"state":"active","ping":60},{"user_id":108,"name":"jadene11","steam_id":76561199369221113,"connected_time":388000000000,"state":"active","ping":69},{"user_id":107,"name":"dirty30","steam_id":76561198021226566,"connected_time":502000000000,"state":"active","ping":49},{"user_id":97,"name":"Dimmerswitch","steam_id":76561198034782177,"connected_time":799000000000,"state":"active","ping":57},{"user_id":98,"name":"Jpxfred","steam_id":76561199414783749,"connected_time":779000000000,"state":"active","ping":64},{"user_id":112,"name":"antler gore","steam_id":76561198059041027,"connected_time":295000000000,"state":"active","ping":55},{"user_id":114,"name":"Sheev Palpatine","steam_id":76561198252332430,"connected_time":29000000000,"state":"active","ping":96},{"user_id":110,"name":"fully automated medic bot","steam_id":76561198065662025,"connected_time":330000000000,"state":"active","ping":68},{"user_id":54,"name":"Shut up","steam_id":76561199005023878,"connected_time":3694000000000,"state":"active","ping":100},{"user_id":89,"name":"WackerCracker","steam_id":76561198148867840,"connected_time":1429000000000,"state":"active","ping":80},{"user_id":45,"name":"Pi-er","steam_id":76561198450073779,"connected_time":4538000000000,"state":"active","ping":138},{"user_id":101,"name":"Grim","steam_id":76561198016978310,"connected_time":690000000000,"state":"active","ping":66},{"user_id":99,"name":"Butt Cheese Wanky","steam_id":76561198006569710,"connected_time":755000000000,"state":"active","ping":123},{"user_id":100,"name":"Ryld","steam_id":76561198010174380,"connected_time":740000000000,"state":"active","ping":47},{"user_id":111,"name":"Bob Sapp's Liver","steam_id":76561198011675372,"connected_time":316000000000,"state":"active","ping":45},{"user_id":104,"name":"5oc","steam_id":76561199196300397,"connected_time":615000000000,"state":"active","ping":80},{"user_id":76,"name":"Dimple","steam_id":76561198980324190,"connected_time":2737000000000,"state":"active","ping":60}]},{"server_id":406,"name":"Uncletopia | Seattle | 3 | Stopwatch","name_short":"sea-3","host":"sea-1.us.uncletopia.com","port":27035,"enabled":true,"region":"us-west","cc":"us","latitude":47.608013,"longitude":-122.33517,"reserved":0,"last_update":"0001-01-01T00:00:00Z","name_a2s":"Uncletopia | Seattle | 3 | Stopwatch","protocol":17,"map":"pl_swiftwater_final1","folder":"tf","game":"Team Fortress","app_id":440,"player_count":0,"max_players":24,"Bots":0,"server_type":"Dedicated","server_os":"Linux","password":true,"vac":true,"version":"7961495","steam_id":85568392924515217,"keywords":["nocrits","nodmgspread","payload","uncletopia"],"game_id":440,"stv_port":27036,"stv_name":"Uncletopia | Seattle | 3 | Stopwatch | STV","players":null},{"server_id":17,"name":"Uncletopia | San Francisco | 1 | All Maps","name_short":"sfo-1","host":"sfo-1.us.uncletopia.com","port":27015,"enabled":true,"region":"us-west","cc":"us","latitude":37.77397,"longitude":-122.4313,"reserved":0,"last_update":"0001-01-01T00:00:00Z","name_a2s":"Uncletopia | San Francisco | 1 | All Maps","protocol":17,"map":"koth_cascade","folder":"tf","game":"Team Fortress","app_id":440,"player_count":0,"max_players":24,"Bots":0,"server_type":"Dedicated","server_os":"Linux","password":true,"vac":true,"version":"7961495","steam_id":85568392924469999,"keywords":["cp","nocrits","nodmgspread","uncletopia"],"game_id":440,"stv_port":27016,"stv_name":"Uncletopia | San Francisco | 1 | All Maps | STV","players":null},{"server_id":18,"name":"Uncletopia | San Francisco | 2 | All Maps","name_short":"sfo-2","host":"sfo-1.us.uncletopia.com","port":27025,"enabled":true,"region":"us-west","cc":"us","latitude":37.77397,"longitude":-122.4313,"reserved":0,"last_update":"0001-01-01T00:00:00Z","name_a2s":"Uncletopia | San Francisco | 2 | All Maps","protocol":17,"map":"koth_cascade","folder":"tf","game":"Team Fortress","app_id":440,"player_count":0,"max_players":24,"Bots":0,"server_type":"Dedicated","server_os":"Linux","password":true,"vac":true,"version":"7961495","steam_id":85568392924470000,"keywords":["cp","nocrits","nodmgspread","uncletopia"],"game_id":440,"stv_port":27026,"stv_name":"Uncletopia | San Francisco | 2 | All Maps | STV","players":null},{"server_id":19,"name":"Uncletopia | San Francisco | 3 | Stopwatch","name_short":"sfo-3","host":"sfo-1.us.uncletopia.com","port":27035,"enabled":true,"region":"us-west","cc":"us","latitude":37.77397,"longitude":-122.4313,"reserved":0,"last_update":"0001-01-01T00:00:00Z","name_a2s":"Uncletopia | San Francisco | 3 | Stopwatch","protocol":17,"map":"workshop/koth_clearcut_b15.ugc2107050255","folder":"tf","game":"Team Fortress","app_id":440,"player_count":0,"max_players":24,"Bots":0,"server_type":"Dedicated","server_os":"Linux","password":true,"vac":true,"version":"7961495","steam_id":85568392924742824,"keywords":["cp","nocrits","nodmgspread","uncletopia"],"game_id":440,"stv_port":27036,"stv_name":"Uncletopia | San Francisco | 3 | Stopwatch | STV","players":null},{"server_id":20,"name":"Uncletopia | San Francisco | 4 | Community","name_short":"sfo-4","host":"sfo-1.us.uncletopia.com","port":27045,"enabled":true,"region":"us-west","cc":"us","latitude":37.77397,"longitude":-122.4313,"reserved":0,"last_update":"0001-01-01T00:00:00Z","name_a2s":"Uncletopia | San Francisco | 4 | Community","protocol":17,"map":"pl_pier","folder":"tf","game":"Team Fortress","app_id":440,"player_count":0,"max_players":24,"Bots":0,"server_type":"Dedicated","server_os":"Linux","password":true,"vac":true,"version":"7961495","steam_id":85568392924742826,"keywords":["nocrits","nodmgspread","payload","uncletopia"],"game_id":440,"stv_port":27046,"stv_name":"Uncletopia | San Francisco | 4 | Community | STV","players":null},{"server_id":141,"name":"Uncletopia | Sydney | 1 | All Maps","name_short":"syd-1","host":"syd-1.au.uncletopia.com","port":27015,"enabled":true,"region":"au","cc":"au","latitude":-33.865143,"longitude":151.2099,"reserved":0,"last_update":"0001-01-01T00:00:00Z","name_a2s":"Uncletopia | Sydney | 1 | All Maps","protocol":17,"map":"koth_viaduct","folder":"tf","game":"Team Fortress","app_id":440,"player_count":0,"max_players":24,"Bots":0,"server_type":"Dedicated","server_os":"Linux","password":true,"vac":true,"version":"7961495","steam_id":85568392924470001,"keywords":["cp","nocrits","nodmgspread","uncletopia"],"game_id":440,"stv_port":27016,"stv_name":"Uncletopia | Sydney | 1 | All Maps | STV","players":null},{"server_id":123,"name":"Uncletopia | Sydney | 2 | All Maps","name_short":"syd-2","host":"syd-1.au.uncletopia.com","port":27025,"enabled":true,"region":"au","cc":"au","latitude":-33.865143,"longitude":151.2099,"reserved":0,"last_update":"0001-01-01T00:00:00Z","name_a2s":"Uncletopia | Sydney | 2 | All Maps","protocol":17,"map":"koth_lakeside_final","folder":"tf","game":"Team Fortress","app_id":440,"player_count":0,"max_players":24,"Bots":0,"server_type":"Dedicated","server_os":"Linux","password":true,"vac":true,"version":"7961495","steam_id":85568392924470002,"keywords":["cp","nocrits","nodmgspread","uncletopia"],"game_id":440,"stv_port":27026,"stv_name":"Uncletopia | Sydney | 2 | All Maps | STV","players":null},{"server_id":395,"name":"Uncletopia | Sydney | 3 | All Maps","name_short":"syd-3","host":"syd-1.au.uncletopia.com","port":27035,"enabled":true,"region":"au","cc":"au","latitude":-33.865143,"longitude":151.2099,"reserved":0,"last_update":"0001-01-01T00:00:00Z","name_a2s":"Uncletopia | Sydney | 3 | All Maps","protocol":17,"map":"pl_frontier_final","folder":"tf","game":"Team Fortress","app_id":440,"player_count":0,"max_players":24,"Bots":0,"server_type":"Dedicated","server_os":"Linux","password":true,"vac":true,"version":"7961495","steam_id":85568392925194467,"keywords":["nocrits","nodmgspread","payload","uncletopia"],"game_id":440,"stv_port":27036,"stv_name":"Uncletopia | Sydney | 3 | All Maps | STV","players":null},{"server_id":396,"name":"Uncletopia | Sydney | 4 | All Maps","name_short":"syd-4","host":"syd-1.au.uncletopia.com","port":27045,"enabled":true,"region":"au","cc":"au","latitude":-33.865143,"longitude":151.2099,"reserved":0,"last_update":"0001-01-01T00:00:00Z","name_a2s":"Uncletopia | Sydney | 4 | All Maps","protocol":17,"map":"cp_process_final","folder":"tf","game":"Team Fortress","app_id":440,"player_count":0,"max_players":24,"Bots":0,"server_type":"Dedicated","server_os":"Linux","password":true,"vac":true,"version":"7961495","steam_id":85568392925397958,"keywords":["cp","nocrits","nodmgspread","uncletopia"],"game_id":440,"stv_port":27046,"stv_name":"Uncletopia | Sydney | 4 | All Maps | STV","players":null},{"server_id":58,"name":"Uncletopia | Sydney | 5 | Stopwatch","name_short":"syd-5","host":"syd-1.au.uncletopia.com","port":27055,"enabled":true,"region":"au","cc":"au","latitude":-33.865143,"longitude":151.2099,"reserved":0,"last_update":"0001-01-01T00:00:00Z","name_a2s":"Uncletopia | Sydney | 5 | Stopwatch","protocol":17,"map":"pl_frontier_final","folder":"tf","game":"Team Fortress","app_id":440,"player_count":0,"max_players":24,"Bots":0,"server_type":"Dedicated","server_os":"Linux","password":true,"vac":true,"version":"7961495","steam_id":85568392925397959,"keywords":["nocrits","nodmgspread","payload","uncletopia"],"game_id":440,"stv_port":27056,"stv_name":"Uncletopia | Sydney | 5 | Stopwatch | STV","players":null},{"server_id":59,"name":"Uncletopia | Sydney | 6 | Community","name_short":"syd-6","host":"syd-1.au.uncletopia.com","port":27065,"enabled":true,"region":"au","cc":"au","latitude":-33.865143,"longitude":151.2099,"reserved":0,"last_update":"0001-01-01T00:00:00Z","name_a2s":"Uncletopia | Sydney | 6 | Community","protocol":17,"map":"cp_sunshine","folder":"tf","game":"Team Fortress","app_id":440,"player_count":0,"max_players":24,"Bots":0,"server_type":"Dedicated","server_os":"Linux","password":true,"vac":true,"version":"7961495","steam_id":85568392925397960,"keywords":["cp","nocrits","nodmgspread","uncletopia"],"game_id":440,"stv_port":27066,"stv_name":"Uncletopia | Sydney | 6 | Community | STV","players":null},{"server_id":49,"name":"Uncletopia | Warsaw | 1 | One Thousand Uncles","name_short":"waw-1","host":"waw-1.pl.uncletopia.com","port":27015,"enabled":true,"region":"eu","cc":"pl","latitude":52.2297,"longitude":21.017532,"reserved":0,"last_update":"0001-01-01T00:00:00Z","name_a2s":"Uncletopia | Warsaw | 1 | One Thousand Uncles","protocol":17,"map":"pl_swiftwater_final1","folder":"tf","game":"Team Fortress","app_id":440,"player_count":21,"max_players":32,"Bots":16,"server_type":"Dedicated","server_os":"Linux","password":true,"vac":true,"version":"7961495","steam_id":85568392925397850,"keywords":["alltalk","bots","danepve","increased_maxplayers","nocrits","norespawntime","payload","uncletopia"],"game_id":440,"stv_port":0,"stv_name":"","players":[{"user_id":805,"name":"[HK]我係香港人","steam_id":76561198165376815,"connected_time":859000000000,"state":"active","ping":89},{"user_id":777,"name":"CurlyPaty - [YouTube]","steam_id":76561198125025171,"connected_time":2295000000000,"state":"active","ping":47},{"user_id":782,"name":"monke","steam_id":76561199095477435,"connected_time":1867000000000,"state":"active","ping":64},{"user_id":769,"name":"Voks_","steam_id":76561198159687785,"connected_time":3371000000000,"state":"active","ping":63},{"user_id":770,"name":"Swatman002","steam_id":76561198143804785,"connected_time":3168000000000,"state":"active","ping":70}]},{"server_id":50,"name":"Uncletopia | Warsaw | 2 | One Thousand Uncles","name_short":"waw-2","host":"waw-1.pl.uncletopia.com","port":27025,"enabled":true,"region":"eu","cc":"pl","latitude":52.2297,"longitude":21.017532,"reserved":0,"last_update":"0001-01-01T00:00:00Z","name_a2s":"Uncletopia | Warsaw | 2 | One Thousand Uncles","protocol":17,"map":"pl_hoodoo_final","folder":"tf","game":"Team Fortress","app_id":440,"player_count":0,"max_players":32,"Bots":0,"server_type":"Dedicated","server_os":"Linux","password":true,"vac":true,"version":"7961495","steam_id":85568392925397851,"keywords":["alltalk","danepve","increased_maxplayers","nocrits","norespawntime","payload","uncletopia"],"game_id":440,"stv_port":0,"stv_name":"","players":null},{"server_id":51,"name":"Uncletopia | Warsaw | 3 | All Maps","name_short":"waw-3","host":"waw-1.pl.uncletopia.com","port":27035,"enabled":true,"region":"eu","cc":"pl","latitude":52.2297,"longitude":21.017532,"reserved":0,"last_update":"0001-01-01T00:00:00Z","name_a2s":"Uncletopia | Warsaw | 3 | All Maps","protocol":17,"map":"pl_barnblitz","folder":"tf","game":"Team Fortress","app_id":440,"player_count":0,"max_players":24,"Bots":0,"server_type":"Dedicated","server_os":"Linux","password":true,"vac":true,"version":"7961495","steam_id":85568392925397852,"keywords":["nocrits","nodmgspread","payload","uncletopia"],"game_id":440,"stv_port":27036,"stv_name":"Uncletopia | Warsaw | 3 | All Maps | STV","players":null},{"server_id":52,"name":"Uncletopia | Warsaw | 4 | All Maps","name_short":"waw-4","host":"waw-1.pl.uncletopia.com","port":27045,"enabled":true,"region":"eu","cc":"pl","latitude":52.2297,"longitude":21.017532,"reserved":0,"last_update":"0001-01-01T00:00:00Z","name_a2s":"Uncletopia | Warsaw | 4 | All Maps","protocol":17,"map":"koth_suijin","folder":"tf","game":"Team Fortress","app_id":440,"player_count":0,"max_players":24,"Bots":0,"server_type":"Dedicated","server_os":"Linux","password":true,"vac":true,"version":"7961495","steam_id":85568392925397853,"keywords":["cp","nocrits","nodmgspread","uncletopia"],"game_id":440,"stv_port":27046,"stv_name":"Uncletopia | Warsaw | 4 | All Maps | STV","players":null},{"server_id":53,"name":"Uncletopia | Warsaw | 5 | Stopwatch","name_short":"waw-5","host":"waw-1.pl.uncletopia.com","port":27055,"enabled":true,"region":"eu","cc":"pl","latitude":52.2297,"longitude":21.017532,"reserved":0,"last_update":"0001-01-01T00:00:00Z","name_a2s":"Uncletopia | Warsaw | 5 | Stopwatch","protocol":17,"map":"workshop/koth_ramjam_rc1.ugc459778887","folder":"tf","game":"Team Fortress","app_id":440,"player_count":0,"max_players":24,"Bots":0,"server_type":"Dedicated","server_os":"Linux","password":true,"vac":true,"version":"7961495","steam_id":85568392925397854,"keywords":["cp","nocrits","nodmgspread","uncletopia"],"game_id":440,"stv_port":27056,"stv_name":"Uncletopia | Warsaw | 5 | Stopwatch | STV","players":null},{"server_id":54,"name":"Uncletopia | Warsaw | 6 | Community","name_short":"waw-6","host":"waw-1.pl.uncletopia.com","port":27065,"enabled":true,"region":"eu","cc":"pl","latitude":52.2297,"longitude":21.017532,"reserved":0,"last_update":"0001-01-01T00:00:00Z","name_a2s":"Uncletopia | Warsaw | 6 | Community","protocol":17,"map":"workshop/cp_mannbase_rc2a.ugc1900737467","folder":"tf","game":"Team Fortress","app_id":440,"player_count":0,"max_players":24,"Bots":0,"server_type":"Dedicated","server_os":"Linux","password":true,"vac":true,"version":"7961495","steam_id":85568392925397856,"keywords":["cp","nocrits","nodmgspread","uncletopia"],"game_id":440,"stv_port":27066,"stv_name":"Uncletopia | Warsaw | 6 | Community | STV","players":null}]}