{"status":true,"message":"","result":[{"server_id":9,"name":"Uncletopia | Atlanta | 1 | All Maps","name_short":"atl-1","host":"atl-1.us.uncletopia.com","port":27015,"enabled":true,"region":"us-east","cc":"us","latitude":33.753746,"longitude":-84.38633,"reserved":0,"last_update":"0001-01-01T00:00:00Z","name_a2s":"Uncletopia | Atlanta | 1 | All Maps","protocol":17,"map":"cp_process_final","folder":"tf","game":"Team Fortress","app_id":440,"player_count":0,"max_players":24,"Bots":0,"server_type":"Dedicated","server_os":"Linux","password":true,"vac":true,"version":"7961495","steam_id":85568392924469982,"keywords":["cp","nocrits","nodmgspread","uncletopia"],"game_id":440,"stv_port":27016,"stv_name":"Uncletopia | Atlanta | 1 | All Maps | STV","players":null},{"server_id":104,"name":"Uncletopia | Atlanta | 2 | All Maps","name_short":"atl-2","host":"atl-1.us.uncletopia.com","port":27025,"enabled":true,"region":"us-east","cc":"us","latitude":33.753746,"longitude":-84.38633,"reserved":0,"last_update":"0001-01-01T00:00:00Z","name_a2s":"Uncletopia | Atlanta | 2 | All Maps","protocol":17,"map":"pl_upward","folder":"tf","game":"Team Fortress","app_id":440,"player_count":18,"max_players":24,"Bots":0,"server_type":"Dedicated","server_os":"Linux","password":true,"vac":true,"version":"7961495","steam_id":85568392924469983,"keywords":["nocrits","nodmgspread","payload","uncletopia"],"game_id":440,"stv_port":27026,"stv_name":"Uncletopia | Atlanta | 2 | All Maps | STV","players":null},{"server_id":400,"name":"Uncletopia | Atlanta | 3 | All Maps","name_short":"atl-3","host":"atl-1.us.uncletopia.com","port":27035,"enabled":true,"region":"us-east","cc":"us","latitude":33.753746,"longitude":-84.38633,"reserved":0,"last_update":"0001-01-01T00:00:00Z","name_a2s":"Uncletopia | Atlanta | 3 | All Maps","protocol":17,"map":"pl_snowycoast","folder":"tf","game":"Team Fortress","app_id":440,"player_count":0,"max_players":24,"Bots":0,"server_type":"Dedicated","server_os":"Linux","password":true,"vac":true,"version":"7961495","steam_id":85568392924515187,"keywords":["nocrits","nodmgspread","payload","uncletopia"],"game_id":440,"stv_port":27036,"stv_name":"Uncletopia | Atlanta | 3 | All Maps | STV","players":null},{"server_id":401,"name":"Uncletopia | Atlanta | 4 | Community","name_short":"atl-4","host":"atl-1.us.uncletopia.com","port":27045,"enabled":true,"region":"us-east","cc":"us","latitude":33.753746,"longitude":-84.38633,"reserved":0,"last_update":"0001-01-01T00:00:00Z","name_a2s":"Uncletopia | Atlanta | 4 | Community","protocol":17,"map":"pl_fifthcurve_rc1","folder":"tf","game":"Team Fortress","app_id":440,"player_count":0,"max_players":24,"Bots":0,"server_type":"Dedicated","server_os":"Linux","password":true,"vac":true,"version":"7961495","steam_id":85568392924515188,"keywords":["nocrits","nodmgspread","payload","uncletopia"],"game_id":440,"stv_port":27046,"stv_name":"Uncletopia | Atlanta | 4 | Community | STV","players":null},{"server_id":2,"name":"Uncletopia | Chicago | 1 | All Maps","name_short":"chi-1","host":"chi-1.us.uncletopia.com","port":27015,"enabled":true,"region":"us-central","cc":"us","latitude":41.881832,"longitude":-87.62318,"reserved":0,"last_update":"0001-01-01T00:00:00Z","name_a2s":"Uncletopia | Chicago | 1 | All Maps","protocol":17,"map":"pl_badwater","folder":"tf","game":"Team Fortress","app_id":440,"player_count":24,"max_players":24,"Bots":0,"server_type":"Dedicated","server_os":"Linux","password":true,"vac":true,"version":"7961495","steam_id":85568392924469984,"keywords":["nocrits","nodmgspread","payload","uncletopia"],"game_id":440,"stv_port":27016,"stv_name":"Uncletopia | Chicago | 1 | All Maps | STV","players":[{"user_id":855,"name":"Bodhi (she/they)","steam_id":76561198103230995,"connected_time":7772000000000,"state":"active","ping":78},{"user_id":925,"name":"Toonice","steam_id":76561198402994885,"connected_time":1400000000000,"state":"active","ping":76},{"user_id":868,"name":"Qwerty","steam_id":76561198023525894,"connected_time":7169000000000,"state":"active","ping":166},{"user_id":909,"name":"Osteo-Oligarch","steam_id":76561198164731896,"connected_time":2815000000000,"state":"active","ping":72},{"user_id":917,"name":"ash","steam_id":76561198127890645,"connected_time":1600000000000,"state":"active","ping":80},{"user_id":862,"name":"V.E.R.G.I.L.I.U.S.","steam_id":76561198046055673,"connected_time":7243000000000,"state":"active","ping":73},{"user_id":873,"name":"vv","steam_id":76561198134813102,"connected_time":6121000000000,"state":"active","ping":66},{"user_id":844,"name":"Wizard Raccoon","steam_id":76561198072562591,"connected_time":8677000000000,"state":"active","ping":80},{"user_id":927,"name":"Pun Gun","steam_id":76561199229784344,"connected_time":195000000000,"state":"active","ping":56},{"user_id":924,"name":"Aniz","steam_id":76561199226665024,"connected_time":1551000000000,"state":"active","ping":160},{"user_id":919,"name":"rose","steam_id":76561198048882285,"connected_time":1586000000000,"state":"active","ping":69},{"user_id":905,"name":"suzuya #LFT","steam_id":76561199207991492,"connected_time":2886000000000,"state":"active","ping":60},{"user_id":914,"name":"Comradical","steam_id":76561197990808285,"connected_time":2240000000000,"state":"active","ping":85},{"user_id":920,"name":"nomad","steam_id":76561197998740399,"connected_time":1582000000000,"state":"active","ping":62},{"user_id":922,"name":"JokLit","steam_id":76561198117542242,"connected_time":1576000000000,"state":"active","ping":202},{"user_id":903,"name":"Chicken Burger","steam_id":76561198358529311,"connected_time":3963000000000,"state":"active","ping":71},{"user_id":902,"name":"for the king","steam_id":76561197973488858,"connected_time":4037000000000,"state":"active","ping":60},{"user_id":906,"name":"orgasmo","steam_id":76561198047355245,"connected_time":2882000000000,"state":"active","ping":61},{"user_id":918,"name":"eish","steam_id":76561198089463603,"connected_time":1600000000000,"state":"active","ping":132},{"user_id":856,"name":"Your Local Sad Queer Librarian","steam_id":76561198013077080,"connected_time":7614000000000,"state":"active","ping":59},{"user_id":890,"name":"pancake ‚óè","steam_id":76561198999217575,"connected_time":4992000000000,"state":"active","ping":66},{"user_id":858,"name":"‚òÖRIVI‚òÖ","steam_id":76561198086635699,"connected_time":7583000000000,"state":"active","ping":88},{"user_id":923,"name":"Sophie","steam_id":76561198170408057,"connected_time":1575000000000,"state":"active","ping":60},{"user_id":926,"name":"paetho YT (new TF2 vid!)","steam_id":76561198152690003,"connected_time":727000000000,"state":"active","ping":60}]},{"server_id":106,"name":"Uncletopia | Chicago | 2 | All Maps","name_short":"chi-2","host":"chi-1.us.uncletopia.com","port":27025,"enabled":true,"region":"us-central","cc":"us","latitude":41.881832,"longitude":-87.62318,"reserved":0,"last_update":"0001-01-01T00:00:00Z","name_a2s":"Uncletopia | Chicago | 2 | All Maps","protocol":17,"map":"pl_frontier_final","folder":"tf","game":"Team Fortress","app_id":440,"player_count":23,"max_players":24,"Bots":0,"server_type":"Dedicated","server_os":"Linux","password":true,"vac":true,"version":"7961495","steam_id":85568392924469985,"keywords":["nocrits","nodmgspread","payload","uncletopia"],"game_id":440,"stv_port":27026,"stv_name":"Uncletopia | Chicago | 2 | All Maps | STV","players":[{"user_id":374,"name":"SCARING THE HOES","steam_id":76561198397009880,"connected_time":702000000000,"state":"active","ping":65},{"user_id":330,"name":"we're so back","steam_id":76561198058485742,"connected_time":4974000000000,"state":"active","ping":65},{"user_id":355,"name":"BrainlezBrainiac","steam_id":76561199193942805,"connected_time":3183000000000,"state":"active","ping":82},{"user_id":372,"name":"stall","steam_id":76561199152861652,"connected_time":1382000000000,"state":"active","ping":57},{"user_id":364,"name":":)","steam_id":76561198093921290,"connected_time":2485000000000,"state":"active","ping":47},{"user_id":321,"name":"Shystie","steam_id":76561198025371440,"connected_time":5190000000000,"state":"active","ping":80},{"user_id":385,"name":"RURU","steam_id":76561198039758987,"connected_time":198000000000,"state":"active","ping":103},{"user_id":373,"name":"Excalibrine","steam_id":76561198129312118,"connected_time":770000000000,"state":"active","ping":84},{"user_id":323,"name":"caRat","steam_id":76561198859267372,"connected_time":5152000000000,"state":"active","ping":108},{"user_id":353,"name":"El Gato Paranoico","steam_id":76561198116567116,"connected_time":3210000000000,"state":"active","ping":98},{"user_id":378,"name":"Whatsapp Spy","steam_id":76561198085410969,"connected_time":509000000000,"state":"active","ping":51},{"user_id":387,"name":"NeonBean","steam_id":76561198088335827,"connected_time":154000000000,"state":"active","ping":94},{"user_id":336,"name":"DRAGON_WARRIOR","steam_id":76561198155720118,"connected_time":4793000000000,"state":"active","ping":52},{"user_id":380,"name":"vulcan nightclub pon farr night","steam_id":76561197974283797,"connected_time":503000000000,"state":"active","ping":44},{"user_id":359,"name":"Lili Rouxxx","steam_id":76561198000522179,"connected_time":3100000000000,"state":"active","ping":66},{"user_id":381,"name":"YASAI JUICE","steam_id":76561198131971992,"connected_time":446000000000,"state":"active","ping":41},{"user_id":370,"name":"primordialheath","steam_id":76561199386942638,"connected_time":1630000000000,"state":"active","ping":58},{"user_id":368,"name":"cotton candy warrior","steam_id":76561198058998371,"connected_time":1886000000000,"state":"active","ping":67},{"user_id":361,"name":"Cy4nideCutie","steam_id":76561198126686695,"connected_time":2922000000000,"state":"active","ping":63},{"user_id":382,"name":"ChozoChorizo","steam_id":76561198272609196,"connected_time":433000000000,"state":"active","ping":55},{"user_id":362,"name":"dunk","steam_id":76561198132476501,"connected_time":2874000000000,"state":"active","ping":39},{"user_id":367,"name":"smooth brain","steam_id":76561198049253541,"connected_time":2011000000000,"state":"active","ping":70}]},{"server_id":402,"name":"Uncletopia | Chicago | 3 | All Maps","name_short":"chi-3","host":"chi-1.us.uncletopia.com","port":27035,"enabled":true,"region":"us-central","cc":"us","latitude":41.881832,"longitude":-87.62318,"reserved":0,"last_update":"0001-01-01T00:00:00Z","name_a2s":"Uncletopia | Chicago | 3 | All Maps","protocol":17,"map":"koth_suijin","folder":"tf","game":"Team Fortress","app_id":440,"player_count":20,"max_players":24,"Bots":0,"server_type":"Dedicated","server_os":"Linux","password":true,"vac":true,"version":"7961495","steam_id":85568392924515191,"keywords":["cp","nocrits","nodmgspread","uncletopia"],"game_id":440,"stv_port":27036,"stv_name":"Uncletopia | Chicago | 3 | All Maps | STV","players":[{"user_id":780,"name":"[·é¥·èã·èã·éÆ] Danmar33","steam_id":76561198056453091,"connected_time":348000000000,"state":"active","ping":45},{"user_id":776,"name":"bingus","steam_id":76561199198633203,"connected_time":592000000000,"state":"active","ping":85},{"user_id":785,"name":"eat Pant","steam_id":76561197974965536,"connected_time":157000000000,"state":"active","ping":58},{"user_id":764,"name":"IAin'tClownin'","steam_id":76561198143328086,"connected_time":1705000000000,"state":"active","ping":46},{"user_id":777,"name":"SIGMA [BS]","steam_id":76561197962604879,"connected_time":560000000000,"state":"active","ping":63},{"user_id":744,"name":"mika ultra","steam_id":76561198139802458,"connected_time":3139000000000,"state":"active","ping":72},{"user_id":752,"name":"President William Howard Taft","steam_id":76561198047691108,"connected_time":2144000000000,"state":"active","ping":69},{"user_id":770,"name":"girlboss warcriminal","steam_id":76561198049258493,"connected_time":1211000000000,"state":"active","ping":106},{"user_id":781,"name":"Rez LeRoux","steam_id":76561198451503538,"connected_time":322000000000,"state":"active","ping":71},{"user_id":750,"name":"roddy ricch - ballin","steam_id":76561198111290441,"connected_time":2218000000000,"state":"active","ping":57},{"user_id":762,"name":"crashies","steam_id":76561198151400547,"connected_time":1840000000000,"state":"active","ping":71},{"user_id":743,"name":"pele","steam_id":76561198021224745,"connected_time":3299000000000,"state":"active","ping":56},{"user_id":778,"name":"MR. BEEEEEEEEEEEEEAAAAAAAAAAST","steam_id":76561198205346760,"connected_time":542000000000,"state":"active","ping":43},{"user_id":755,"name":"-robotic","steam_id":76561198085674870,"connected_time":2068000000000,"state":"active","ping":86},{"user_id":783,"name":"Ham","steam_id":76561198219857080,"connected_time":288000000000,"state":"active","ping":64},{"user_id":784,"name":"¬Æ","steam_id":76561198276258112,"connected_time":268000000000,"state":"active","ping":75},{"user_id":756,"name":"CeeJ üôä","steam_id":76561198065257478,"connected_time":2067000000000,"state":"active","ping":80},{"user_id":771,"name":"skullcrushar","steam_id":76561198094512992,"connected_time":1211000000000,"state":"active","ping":45},{"user_id":735,"name":"WoodsRunner","steam_id":76561198121812870,"connected_time":3919000000000,"state":"active","ping":50}]},{"server_id":403,"name":"Uncletopia | Chicago | 4 | All Maps","name_short":"chi-4","host":"chi-1.us.uncletopia.com","port":27045,"enabled":true,"region":"us-central","cc":"us","latitude":41.881832,"longitude":-87.62318,"reserved":0,"last_update":"0001-01-01T00:00:00Z","name_a2s":"Uncletopia | Chicago | 4 | All Maps","protocol":17,"map":"pl_borneo","folder":"tf","game":"Team Fortress","app_id":440,"player_count":24,"max_players":24,"Bots":0,"server_type":"Dedicated","server_os":"Linux","password":true,"vac":true,"version":"7961495","steam_id":85568392924515193,"keywords":["nocrits","nodmgspread","payload","uncletopia"],"game_id":440,"stv_port":27046,"stv_name":"Uncletopia | Chicago | 4 | All Maps | STV","players":[{"user_id":667,"name":"Tri_Hunter","steam_id":76561198108176706,"connected_time":2555000000000,"state":"active","ping":56},{"user_id":680,"name":"rE_d0","steam_id":76561198975450630,"connected_time":1331000000000,"state":"active","ping":98},{"user_id":693,"name":"crunchy obama","steam_id":76561198044485217,"connected_time":86000000000,"state":"active","ping":114},{"user_id":670,"name":"Lucil3 on Bandcamp","steam_id":76561198149063013,"connected_time":2477000000000,"state":"active","ping":67},{"user_id":671,"name":"shaq$","steam_id":76561198045246504,"connected_time":2470000000000,"state":"active","ping":60},{"user_id":666,"name":"King of Ping","steam_id":76561198278737470,"connected_time":2664000000000,"state":"active","ping":70},{"user_id":689,"name":"LennyGaggins","steam_id":76561198119768140,"connected_time":509000000000,"state":"active","ping":76},{"user_id":690,"name":"Deborp","steam_id":76561198118868430,"connected_time":502000000000,"state":"active","ping":88},{"user_id":672,"name":"chubbbo","steam_id":76561198943598378,"connected_time":2462000000000,"state":"active","ping":60},{"user_id":678,"name":"Smoby","steam_id":76561198823256099,"connected_time":1504000000000,"state":"active","ping":147},{"user_id":684,"name":"Codo Sapien","steam_id":76561198014206810,"connected_time":1140000000000,"state":"active","ping":30},{"user_id":685,"name":"Cycro","steam_id":76561198119580252,"connected_time":1118000000000,"state":"active","ping":68},{"user_id":661,"name":"Frank","steam_id":76561198428759980,"connected_time":3599000000000,"state":"active","ping":90},{"user_id":652,"name":"Thequirka","steam_id":76561198968058652,"connected_time":4509000000000,"state":"active","ping":99},{"user_id":662,"name":"swift","steam_id":76561198082496000,"connected_time":3356000000000,"state":"active","ping":75},{"user_id":686,"name":"B·µ¢g B‚Çí‚Çõ‚Çõ","steam_id":76561198090271815,"connected_time":1074000000000,"state":"active","ping":122},{"user_id":658,"name":"Toblerone","steam_id":76561198057374871,"connected_time":4271000000000,"state":"active","ping":61},{"user_id":691,"name":"BK (King Buford)","steam_id":76561198272057200,"connected_time":392000000000,"state":"active","ping":103},{"user_id":694,"name":"M17","steam_id":76561198124771378,"connected_time":85000000000,"state":"active","ping":60},{"user_id":654,"name":"McSpazatron","steam_id":76561198955942148,"connected_time":4445000000000,"state":"active","ping":90},{"user_id":676,"name":"Guts","steam_id":76561198244702428,"connected_time":2205000000000,"state":"active","ping":55},{"user_id":655,"name":"Firebreak (whee/whim/wish)","steam_id":76561198009518178,"connected_time":4416000000000,"state":"active","ping":60},{"user_id":656,"name":"Spinch","steam_id":76561198296224166,"connected_time":4403000000000,"state":"active","ping":103},{"user_id":657,"name":"Publo","steam_id":76561198161777140,"connected_time":4391000000000,"state":"active","ping":76}]},{"server_id":36,"name":"Uncletopia | Chicago | 5 | All Maps","name_short":"chi-5","host":"chi-2.us.uncletopia.com","port":27015,"enabled":true,"region":"us-central","cc":"us","latitude":41.881832,"longitude":-87.62318,"reserved":0,"last_update":"0001-01-01T00:00:00Z","name_a2s":"Uncletopia | Chicago | 5 | All Maps","protocol":17,"map":"pl_pier","folder":"tf","game":"Team Fortress","app_id":440,"player_count":24,"max_players":24,"Bots":0,"server_type":"Dedicated","server_os":"Linux","password":true,"vac":true,"version":"7961495","steam_id":85568392924866362,"keywords":["nocrits","nodmgspread","payload","uncletopia"],"game_id":440,"stv_port":27016,"stv_name":"Uncletopia | Chicago | 5 | All Maps | STV","players":[{"user_id":572,"name":"Patrikk","steam_id":76561198133966043,"connected_time":599000000000,"state":"active","ping":73},{"user_id":544,"name":"Jofferie","steam_id":76561198035927549,"connected_time":1936000000000,"state":"active","ping":79},{"user_id":570,"name":"Unworthy","steam_id":76561199057285248,"connected_time":684000000000,"state":"active","ping":62},{"user_id":529,"name":"ultralisk52","steam_id":76561198051666604,"connected_time":3243000000000,"state":"active","ping":61},{"user_id":557,"name":"Hythreon","steam_id":76561198083031622,"connected_time":1366000000000,"state":"active","ping":104},{"user_id":565,"name":"scared","steam_id":76561198050220225,"connected_time":994000000000,"state":"active","ping":68},{"user_id":551,"name":"isucktoomuch****","steam_id":76561198075165369,"connected_time":1744000000000,"state":"active","ping":115},{"user_id":549,"name":"¬øskitt1eS?","steam_id":76561198330093211,"connected_time":1787000000000,"state":"active","ping":61},{"user_id":526,"name":"Whyamidoingthisaaaa","steam_id":76561199168837342,"connected_time":3393000000000,"state":"active","ping":68},{"user_id":571,"name":"Torensz64(But weezer)","steam_id":76561198239036482,"connected_time":651000000000,"state":"active","ping":60},{"user_id":564,"name":"Moss","steam_id":76561199122200727,"connected_time":1008000000000,"state":"active","ping":71},{"user_id":573,"name":"Taco","steam_id":76561198158621392,"connected_time":267000000000,"state":"active","ping":71},{"user_id":556,"name":"Dr Oshawott","steam_id":76561198042021629,"connected_time":1509000000000,"state":"active","ping":67},{"user_id":554,"name":"Phantis_Squid","steam_id":76561199428864090,"connected_time":1695000000000,"state":"active","ping":67},{"user_id":538,"name":"Hero","steam_id":76561198044117696,"connected_time":2844000000000,"state":"active","ping":74},{"user_id":524,"name":"Cereal","steam_id":76561198128418112,"connected_time":3654000000000,"state":"active","ping":91},{"user_id":558,"name":"Sky!","steam_id":76561198141953747,"connected_time":1345000000000,"state":"active","ping":62},{"user_id":522,"name":"f","steam_id":76561198215559840,"connected_time":3671000000000,"state":"active","ping":68},{"user_id":540,"name":"reero","steam_id":76561198071785065,"connected_time":2521000000000,"state":"active","ping":60},{"user_id":523,"name":"‚ú™ goofbears -iwnl-","steam_id":76561199100831175,"connected_time":3658000000000,"state":"active","ping":60},{"user_id":575,"name":"rat 2","steam_id":76561198197297414,"connected_time":30000000000,"state":"active","ping":45},{"user_id":559,"name":"Forty Bass","steam_id":76561198034298839,"connected_time":1326000000000,"state":"active","ping":110},{"user_id":560,"name":"ShadozoneX","steam_id":76561198255452404,"connected_time":1321000000000,"state":"active","ping":64},{"user_id":510,"name":"boywife","steam_id":76561198810691607,"connected_time":5437000000000,"state":"active","ping":87}]},{"server_id":37,"name":"Uncletopia | Chicago | 6 | All Maps","name_short":"chi-6","host":"chi-2.us.uncletopia.com","port":27025,"enabled":true,"region":"us-central","cc":"us","latitude":41.881832,"longitude":-87.62318,"reserved":0,"last_update":"0001-01-01T00:00:00Z","name_a2s":"Uncletopia | Chicago | 6 | All Maps","protocol":17,"map":"pl_swiftwater_final1","folder":"tf","game":"Team Fortress","app_id":440,"player_count":3,"max_players":24,"Bots":0,"server_type":"Dedicated","server_os":"Linux","password":true,"vac":true,"version":"7961495","steam_id":85568392924866363,"keywords":["nocrits","nodmgspread","payload","uncletopia"],"game_id":440,"stv_port":27026,"stv_name":"Uncletopia | Chicago | 6 | All Maps | STV","players":[{"user_id":595,"name":"Likusfool","steam_id":76561198289603760,"connected_time":13000000000,"state":"active","ping":73},{"user_id":594,"name":"hoovy   dundy","steam_id":76561199456080272,"connected_time":226000000000,"state":"active","ping":266},{"user_id":593,"name":"ABZ Gamer","steam_id":76561199027227636,"connected_time":415000000000,"state":"active","ping":70}]},{"server_id":38,"name":"Uncletopia | Chicago | 7 | Stopwatch Beta","name_short":"chi-7","host":"chi-2.us.uncletopia.com","port":27035,"enabled":true,"region":"us-central","cc":"us","latitude":41.881832,"longitude":-87.62318,"reserved":0,"last_update":"0001-01-01T00:00:00Z","name_a2s":"Uncletopia | Chicago | 7 | Stopwatch Beta","protocol":17,"map":"workshop/koth_product_final.ugc454272353","folder":"tf","game":"Team Fortress","app_id":440,"player_count":0,"max_players":24,"Bots":0,"server_type":"Dedicated","server_os":"Linux","password":true,"vac":true,"version":"7961495","steam_id":85568392924866364,"keywords":["cp","nocrits","nodmgspread","uncletopia"],"game_id":440,"stv_port":27036,"stv_name":"Uncletopia | Chicago | 7 | Stopwatch Beta | STV","players":null},{"server_id":39,"name":"Uncletopia | Chicago | 8 | Community","name_short":"chi-8","host":"chi-2.us.uncletopia.com","port":27045,"enabled":true,"region":"us-central","cc":"us","latitude":41.881832,"longitude":-87.62318,"reserved":0,"last_update":"0001-01-01T00:00:00Z","name_a2s":"Uncletopia | Chicago | 8 | Community","protocol":17,"map":"workshop/pl_cactuscanyon_redux_final2.ugc2579644293","folder":"tf","game":"Team Fortress","app_id":440,"player_count":0,"max_players":24,"Bots":0,"server_type":"Dedicated","server_os":"Linux","password":true,"vac":true,"version":"7961495","steam_id":85568392924866365,"keywords":["nocrits","nodmgspread","payload","uncletopia"],"game_id":440,"stv_port":27046,"stv_name":"Uncletopia | Chicago | 8 | Community | STV","players":null},{"server_id":8,"name":"Uncletopia | Dallas | 1 | All Maps","name_short":"dal-1","host":"dal-1.us.uncletopia.com","port":27015,"enabled":true,"region":"us-central","cc":"us","latitude":32.779167,"longitude":-96.80889,"reserved":0,"last_update":"0001-01-01T00:00:00Z","name_a2s":"Uncletopia | Dallas | 1 | All Maps","protocol":17,"map":"pl_upward","folder":"tf","game":"Team Fortress","app_id":440,"player_count":24,"max_players":24,"Bots":0,"server_type":"Dedicated","server_os":"Linux","password":true,"vac":true,"version":"7961495","steam_id":85568392924469986,"keywords":["nocrits","nodmgspread","payload","uncletopia"],"game_id":440,"stv_port":27016,"stv_name":"Uncletopia | Dallas | 1 | All Maps | STV","players":[{"user_id":684,"name":"Cyberwulph","steam_id":76561198297412789,"connected_time":5558000000000,"state":"active","ping":100},{"user_id":697,"name":"purpleflame","steam_id":76561198277979851,"connected_time":3655000000000,"state":"active","ping":84},{"user_id":708,"name":"FG7","steam_id":76561198381197197,"connected_time":2694000000000,"state":"active","ping":129},{"user_id":668,"name":"Clubs","steam_id":76561198271133942,"connected_time":6156000000000,"state":"active","ping":56},{"user_id":716,"name":"flippercurve","steam_id":76561199238295034,"connected_time":1736000000000,"state":"active","ping":70},{"user_id":700,"name":"Zanegerous","steam_id":76561198256514642,"connected_time":3636000000000,"state":"active","ping":73},{"user_id":717,"name":"Bheem","steam_id":76561198170453459,"connected_time":1691000000000,"state":"active","ping":96},{"user_id":718,"name":"sweaterfan","steam_id":76561199389567214,"connected_time":1683000000000,"state":"active","ping":64},{"user_id":722,"name":"adios muchacho","steam_id":76561198068113347,"connected_time":663000000000,"state":"active","ping":75},{"user_id":696,"name":"firulais","steam_id":76561198860460013,"connected_time":3887000000000,"state":"active","ping":71},{"user_id":690,"name":"Project_Counter","steam_id":76561198152786076,"connected_time":4936000000000,"state":"active","ping":57},{"user_id":724,"name":"Thingy","steam_id":76561198140161202,"connected_time":609000000000,"state":"active","ping":74},{"user_id":701,"name":"inzang","steam_id":76561198088318074,"connected_time":3631000000000,"state":"active","ping":57},{"user_id":503,"name":"Lee?","steam_id":76561199060892634,"connected_time":19739000000000,"state":"active","ping":66},{"user_id":725,"name":"mina","steam_id":76561198881665250,"connected_time":597000000000,"state":"active","ping":95},{"user_id":720,"name":"3-13","steam_id":76561198063929021,"connected_time":1619000000000,"state":"active","ping":86},{"user_id":687,"name":"Crouching Helps","steam_id":76561198011862054,"connected_time":5176000000000,"state":"active","ping":75},{"user_id":721,"name":"Alivefox","steam_id":76561198075211239,"connected_time":1463000000000,"state":"active","ping":54},{"user_id":669,"name":"Rilshrink","steam_id":76561198202586792,"connected_time":6025000000000,"state":"active","ping":52},{"user_id":698,"name":"porz","steam_id":76561198195711453,"connected_time":3648000000000,"state":"active","ping":45},{"user_id":712,"name":"Bolbi","steam_id":76561198051811597,"connected_time":2218000000000,"state":"active","ping":89},{"user_id":709,"name":"tsz","steam_id":76561199246231090,"connected_time":2690000000000,"state":"active","ping":83},{"user_id":683,"name":"catboy","steam_id":76561198298140571,"connected_time":5739000000000,"state":"active","ping":98},{"user_id":714,"name":"EverythingZen","steam_id":76561198257384503,"connected_time":1995000000000,"state":"active","ping":69}]},{"server_id":108,"name":"Uncletopia | Dallas | 2 | All Maps","name_short":"dal-2","host":"dal-1.us.uncletopia.com","port":27025,"enabled":true,"region":"us-central","cc":"us","latitude":32.779167,"longitude":-96.80889,"reserved":0,"last_update":"0001-01-01T00:00:00Z","name_a2s":"Uncletopia | Dallas | 2 | All Maps","protocol":17,"map":"pl_upward","folder":"tf","game":"Team Fortress","app_id":440,"player_count":21,"max_players":24,"Bots":0,"server_type":"Dedicated","server_os":"Linux","password":true,"vac":true,"version":"7961495","steam_id":85568392924469988,"keywords":["nocrits","nodmgspread","payload","uncletopia"],"game_id":440,"stv_port":27026,"stv_name":"Uncletopia | Dallas | 2 | All Maps | STV","players":[{"user_id":789,"name":"D-Class 1278","steam_id":76561198121316353,"connected_time":21000000000,"state":"connecting","ping":99},{"user_id":770,"name":"Ghoulenoir","steam_id":76561198074314573,"connected_time":2349000000000,"state":"connecting","ping":79},{"user_id":771,"name":"Wikked","steam_id":76561198196149207,"connected_time":2278000000000,"state":"connecting","ping":127},{"user_id":786,"name":"Triwq","steam_id":76561198054810406,"connected_time":636000000000,"state":"connecting","ping":67},{"user_id":761,"name":"lucasgamer4life","steam_id":76561198129816242,"connected_time":2948000000000,"state":"connecting","ping":92},{"user_id":710,"name":"Taco+Taco=Burrito","steam_id":76561198063128663,"connected_time":4510000000000,"state":"connecting","ping":88},{"user_id":787,"name":"resh!","steam_id":76561198066619792,"connected_time":370000000000,"state":"connecting","ping":80},{"user_id":783,"name":"Yakul","steam_id":76561198100040013,"connected_time":763000000000,"state":"connecting","ping":92},{"user_id":766,"name":"Yapple Dapple","steam_id":76561198082422815,"connected_time":2698000000000,"state":"connecting","ping":66},{"user_id":777,"name":"Sychke","steam_id":76561198067144055,"connected_time":1651000000000,"state":"connecting","ping":98},{"user_id":778,"name":"BB Lorexav","steam_id":76561198207565988,"connected_time":1649000000000,"state":"connecting","ping":94},{"user_id":762,"name":"SleepyScotoplanesTTV","steam_id":76561198968140914,"connected_time":2940000000000,"state":"connecting","ping":77},{"user_id":775,"name":"herb","steam_id":76561198185980055,"connected_time":1910000000000,"state":"connecting","ping":116},{"user_id":788,"name":"Trippy","steam_id":76561199090730294,"connected_time":155000000000,"state":"connecting","ping":74},{"user_id":779,"name":"scrimblo","steam_id":76561199150833796,"connected_time":1578000000000,"state":"connecting","ping":104},{"user_id":780,"name":"Belts the Puppet","steam_id":76561198322969864,"connected_time":1544000000000,"state":"connecting","ping":115},{"user_id":666,"name":"Joe Nathan","steam_id":76561198041030399,"connected_time":5453000000000,"state":"connecting","ping":64},{"user_id":759,"name":"Die-Sas","steam_id":76561198987794008,"connected_time":3341000000000,"state":"connecting","ping":82},{"user_id":785,"name":"√êŒπ—è—Ç—É B…ÑŒ≤bl—î","steam_id":76561198382555244,"connected_time":715000000000,"state":"connecting","ping":72}]},{"server_id":404,"name":"Uncletopia | Dallas | 3 | All Maps","name_short":"dal-3","host":"dal-1.us.uncletopia.com","port":27035,"enabled":true,"region":"us-central","cc":"us","latitude":32.779167,"longitude":-96.80889,"reserved":0,"last_update":"0001-01-01T00:00:00Z","name_a2s":"Uncletopia | Dallas | 3 | All Maps","protocol":17,"map":"cp_powerhouse","folder":"tf","game":"Team Fortress","app_id":440,"player_count":23,"max_players":24,"Bots":0,"server_type":"Dedicated","server_os":"Linux","password":true,"vac":true,"version":"7961495","steam_id":85568392924515219,"keywords":["cp","nocrits","nodmgspread","uncletopia"],"game_id":440,"stv_port":27036,"stv_name":"Uncletopia | Dallas | 3 | All Maps | STV","players":[{"user_id":672,"name":"Vapeinhand","steam_id":76561198134439943,"connected_time":560000000000,"state":"active","ping":73},{"user_id":684,"name":"Michaelpc1","steam_id":76561198088365519,"connected_time":14000000000,"state":"active","ping":89},{"user_id":670,"name":"18 pounds","steam_id":76561198025804838,"connected_time":863000000000,"state":"active","ping":76},{"user_id":642,"name":"LofiVibes","steam_id":76561198054533267,"connected_time":3081000000000,"state":"active","ping":84},{"user_id":673,"name":"framp down","steam_id":76561198006316527,"connected_time":465000000000,"state":"active","ping":73},{"user_id":676,"name":"Red Physical","steam_id":76561198151864382,"connected_time":410000000000,"state":"active","ping":90},{"user_id":662,"name":"Kazmirl","steam_id":76561198116008410,"connected_time":1589000000000,"state":"active","ping":105},{"user_id":620,"name":"i am clinically insane","steam_id":76561199013323529,"connected_time":5106000000000,"state":"active","ping":91},{"user_id":597,"name":"Snoopy","steam_id":76561198273735974,"connected_time":6254000000000,"state":"active","ping":80},{"user_id":677,"name":"2ndWhiterunGuard","steam_id":76561198105382714,"connected_time":370000000000,"state":"active","ping":52},{"user_id":665,"name":"DontRunWithScissors","steam_id":76561198079662757,"connected_time":1310000000000,"state":"active","ping":97},{"user_id":678,"name":"pieftwc","steam_id":76561198844080556,"connected_time":364000000000,"state":"active","ping":90},{"user_id":679,"name":"the gamer","steam_id":76561199175442910,"connected_time":331000000000,"state":"active","ping":95},{"user_id":666,"name":"dansal","steam_id":76561197997042510,"connected_time":1295000000000,"state":"active","ping":88},{"user_id":680,"name":"‚í∑‚ì™‚ì™‚ì£‚ì®‚ìí‚ìê‚ìö‚ìî‚ì¢","steam_id":76561198088776421,"connected_time":268000000000,"state":"active","ping":86},{"user_id":681,"name":"Sulphur Cake","steam_id":76561198061427354,"connected_time":167000000000,"state":"active","ping":64},{"user_id":669,"name":"·µñ·µâ·µáÀ°","steam_id":76561198022760558,"connected_time":958000000000,"state":"active","ping":77},{"user_id":603,"name":"Pizza","steam_id":76561198118748364,"connected_time":6158000000000,"state":"active","ping":75},{"user_id":682,"name":"Tommy Provolone","steam_id":76561198170062377,"connected_time":142000000000,"state":"active","ping":66},{"user_id":605,"name":"No Chance of Pearly Gates","steam_id":76561198042570322,"connected_time":6142000000000,"state":"active","ping":83},{"user_id":664,"name":"Woomy","steam_id":76561198070242372,"connected_time":1509000000000,"state":"active","ping":68},{"user_id":671,"name":"kickalll","steam_id":76561198059616013,"connected_time":829000000000,"state":"active","ping":125},{"user_id":658,"name":"Full Throttle Axolotl","steam_id":76561198041836477,"connected_time":1938000000000,"state":"active","ping":86}]},{"server_id":405,"name":"Uncletopia | Dallas | 4 | Community","name_short":"dal-4","host":"dal-1.us.uncletopia.com","port":27045,"enabled":true,"region":"us-central","cc":"us","latitude":32.779167,"longitude":-96.80889,"reserved":0,"last_update":"0001-01-01T00:00:00Z","name_a2s":"Uncletopia | Dallas | 4 | Community","protocol":17,"map":"workshop/koth_ashville_final.ugc2130459942","folder":"tf","game":"Team Fortress","app_id":440,"player_count":0,"max_players":24,"Bots":0,"server_type":"Dedicated","server_os":"Linux","password":true,"vac":true,"version":"7961495","steam_id":85568392924515220,"keywords":["cp","nocrits","nodmgspread","uncletopia"],"game_id":440,"stv_port":27046,"stv_name":"Uncletopia | Dallas | 4 | Community | STV","players":null},{"server_id":5,"name":"Uncletopia | Frankfurt | 1 | All Maps","name_short":"frk-1","host":"frk-1.de.uncletopia.com","port":27015,"enabled":true,"region":"eu","cc":"de","latitude":50.110924,"longitude":8.682127,"reserved":0,"last_update":"0001-01-01T00:00:00Z","name_a2s":"Uncletopia | Frankfurt | 1 | All Maps","protocol":17,"map":"pl_badwater","folder":"tf","game":"Team Fortress","app_id":440,"player_count":0,"max_players":24,"Bots":0,"server_type":"Dedicated","server_os":"Linux","password":true,"vac":true,"version":"7961495","steam_id":85568392924469989,"keywords":["nocrits","nodmgspread","payload","uncletopia"],"game_id":440,"stv_port":27016,"stv_name":"Uncletopia | Frankfurt | 1 | All Maps | STV","players":null},{"server_id":110,"name":"Uncletopia | Frankfurt | 2 | All Maps","name_short":"frk-2","host":"frk-1.de.uncletopia.com","port":27025,"enabled":true,"region":"eu","cc":"de","latitude":50.110924,"longitude":8.682127,"reserved":0,"last_update":"0001-01-01T00:00:00Z","name_a2s":"Uncletopia | Frankfurt | 2 | All Maps","protocol":17,"map":"koth_lakeside_final","folder":"tf","game":"Team Fortress","app_id":440,"player_count":0,"max_players":24,"Bots":0,"server_type":"Dedicated","server_os":"Linux","password":true,"vac":true,"version":"7961495","steam_id":85568392924469990,"keywords":["cp","nocrits","nodmgspread","uncletopia"],"game_id":440,"stv_port":27026,"stv_name":"Uncletopia | Frankfurt | 2 | All Maps | STV","players":null},{"server_id":308,"name":"Uncletopia | Frankfurt | 3 | All Maps","name_short":"frk-3","host":"frk-1.de.uncletopia.com","port":27035,"enabled":true,"region":"eu","cc":"de","latitude":50.110924,"longitude":8.682127,"reserved":0,"last_update":"0001-01-01T00:00:00Z","name_a2s":"Uncletopia | Frankfurt | 3 | All Maps","protocol":17,"map":"cp_sunshine","folder":"tf","game":"Team Fortress","app_id":440,"player_count":0,"max_players":24,"Bots":0,"server_type":"Dedicated","server_os":"Linux","password":true,"vac":true,"version":"7961495","steam_id":85568392924504274,"keywords":["cp","nocrits","nodmgspread","uncletopia"],"game_id":440,"stv_port":27036,"stv_name":"Uncletopia | Frankfurt | 3 | All Maps | STV","players":null},{"server_id":309,"name":"Uncletopia | Frankfurt | 4 | All Maps","name_short":"frk-4","host":"frk-1.de.uncletopia.com","port":27045,"enabled":true,"region":"eu","cc":"de","latitude":50.110924,"longitude":8.682127,"reserved":0,"last_update":"0001-01-01T00:00:00Z","name_a2s":"Uncletopia | Frankfurt | 4 | All Maps","protocol":17,"map":"cp_altitude","folder":"tf","game":"Team Fortress","app_id":440,"player_count":0,"max_players":24,"Bots":0,"server_type":"Dedicated","server_os":"Linux","password":true,"vac":true,"version":"7961495","steam_id":85568392924504275,"keywords":["cp","nocrits","nodmgspread","uncletopia"],"game_id":440,"stv_port":27046,"stv_name":"Uncletopia | Frankfurt | 4 | All Maps | STV","players":null},{"server_id":310,"name":"Uncletopia | Frankfurt | 5 | All Maps","name_short":"frk-5","host":"frk-1.de.uncletopia.com","port":27055,"enabled":true,"region":"eu","cc":"de","latitude":50.110924,"longitude":8.682127,"reserved":0,"last_update":"0001-01-01T00:00:00Z","name_a2s":"Uncletopia | Frankfurt | 5 | All Maps","protocol":17,"map":"cp_process_final","folder":"tf","game":"Team Fortress","app_id":440,"player_count":0,"max_players":24,"Bots":0,"server_type":"Dedicated","server_os":"Linux","password":true,"vac":true,"version":"7961495","steam_id":85568392924504277,"keywords":["cp","nocrits","nodmgspread","uncletopia"],"game_id":440,"stv_port":27056,"stv_name":"Uncletopia | Frankfurt | 5 | All Maps | STV","players":null},{"server_id":311,"name":"Uncletopia | Frankfurt | 6 | All Maps","name_short":"frk-6","host":"frk-1.de.uncletopia.com","port":27065,"enabled":true,"region":"eu","cc":"de","latitude":50.110924,"longitude":8.682127,"reserved":0,"last_update":"0001-01-01T00:00:00Z","name_a2s":"Uncletopia | Frankfurt | 6 | All Maps","protocol":17,"map":"pl_barnblitz","folder":"tf","game":"Team Fortress","app_id":440,"player_count":0,"max_players":24,"Bots":0,"server_type":"Dedicated","server_os":"Linux","password":true,"vac":true,"version":"7961495","steam_id":85568392924504278,"keywords":["nocrits","nodmgspread","payload","uncletopia"],"game_id":440,"stv_port":27066,"stv_name":"Uncletopia | Frankfurt | 6 | All Maps | STV","players":null},{"server_id":23,"name":"Uncletopia | Frankfurt | 7 | Stopwatch Beta","name_short":"frk-7","host":"frk-1.de.uncletopia.com","port":27075,"enabled":true,"region":"eu","cc":"de","latitude":50.110924,"longitude":8.682127,"reserved":0,"last_update":"0001-01-01T00:00:00Z","name_a2s":"Uncletopia | Frankfurt | 7 | Stopwatch Beta","protocol":17,"map":"koth_cascade","folder":"tf","game":"Team Fortress","app_id":440,"player_count":0,"max_players":24,"Bots":0,"server_type":"Dedicated","server_os":"Linux","password":true,"vac":true,"version":"7961495","steam_id":85568392924742827,"keywords":["cp","nocrits","nodmgspread","uncletopia"],"game_id":440,"stv_port":27076,"stv_name":"Uncletopia | Frankfurt | 7 | Stopwatch Beta | STV","players":null},{"server_id":24,"name":"Uncletopia | Frankfurt | 8 | Community","name_short":"frk-8","host":"frk-1.de.uncletopia.com","port":27085,"enabled":true,"region":"eu","cc":"de","latitude":50.110924,"longitude":8.682127,"reserved":0,"last_update":"0001-01-01T00:00:00Z","name_a2s":"Uncletopia | Frankfurt | 8 | Community","protocol":17,"map":"cp_dustbowl","folder":"tf","game":"Team Fortress","app_id":440,"player_count":0,"max_players":24,"Bots":0,"server_type":"Dedicated","server_os":"Linux","password":true,"vac":true,"version":"7961495","steam_id":85568392924742828,"keywords":["cp","nocrits","nodmgspread","uncletopia"],"game_id":440,"stv_port":27086,"stv_name":"Uncletopia | Frankfurt | 8 | Community | STV","players":null},{"server_id":202,"name":"Uncletopia | Hong Kong | 1 | All Maps","name_short":"hgk-1","host":"hgk-1.hk.uncletopia.com","port":27015,"enabled":true,"region":"asia","cc":"hk","latitude":22.302711,"longitude":114.177216,"reserved":0,"last_update":"0001-01-01T00:00:00Z","name_a2s":"Uncletopia | Hong Kong | 1 | All Maps","protocol":17,"map":"pl_snowycoast","folder":"tf","game":"Team Fortress","app_id":440,"player_count":0,"max_players":24,"Bots":0,"server_type":"Dedicated","server_os":"Linux","password":true,"vac":true,"version":"7961495","steam_id":85568392924494504,"keywords":["nocrits","nodmgspread","payload","uncletopia"],"game_id":440,"stv_port":27016,"stv_name":"Uncletopia | Hong Kong | 1 | All Maps | STV","players":null},{"server_id":1,"name":"Uncletopia | Los Angeles | 1 | All Maps","name_short":"lax-1","host":"lax-1.us.uncletopia.com","port":27015,"enabled":true,"region":"us-west","cc":"us","latitude":33.94279,"longitude":-118.41004,"reserved":0,"last_update":"0001-01-01T00:00:00Z","name_a2s":"Uncletopia | Los Angeles | 1 | All Maps","protocol":17,"map":"pl_barnblitz","folder":"tf","game":"Team Fortress","app_id":440,"player_count":21,"max_players":24,"Bots":0,"server_type":"Dedicated","server_os":"Linux","password":true,"vac":true,"version":"7961495","steam_id":85568392924469991,"keywords":["nocrits","nodmgspread","payload","uncletopia"],"game_id":440,"stv_port":27016,"stv_name":"Uncletopia | Los Angeles | 1 | All Maps | STV","players":[{"user_id":320,"name":"hash","steam_id":76561198058516339,"connected_time":5332000000000,"state":"active","ping":46},{"user_id":378,"name":"Popeye Senior","steam_id":76561198009727462,"connected_time":219000000000,"state":"active","ping":139},{"user_id":371,"name":"An00bis","steam_id":76561198044084508,"connected_time":432000000000,"state":"active","ping":45},{"user_id":354,"name":"pebbleguye","steam_id":76561198034662654,"connected_time":3279000000000,"state":"active","ping":79},{"user_id":330,"name":"xbox record that","steam_id":76561198150117455,"connected_time":4200000000000,"state":"active","ping":49},{"user_id":372,"name":"mentos14","steam_id":76561198097993629,"connected_time":420000000000,"state":"active","ping":59},{"user_id":380,"name":"OneMisguidedSlyGuy","steam_id":76561198372243261,"connected_time":91000000000,"state":"active","ping":42},{"user_id":253,"name":"Schnitz","steam_id":76561198265484253,"connected_time":10439000000000,"state":"active","ping":53},{"user_id":368,"name":"Whisper!","steam_id":76561198119609795,"connected_time":1631000000000,"state":"active","ping":48},{"user_id":359,"name":"Higuma","steam_id":76561198375229012,"connected_time":2822000000000,"state":"active","ping":63},{"user_id":373,"name":"lol","steam_id":76561198026491738,"connected_time":353000000000,"state":"active","ping":57},{"user_id":374,"name":"Skeleblood","steam_id":76561198153323281,"connected_time":352000000000,"state":"active","ping":81},{"user_id":345,"name":"BurdBrain","steam_id":76561197962097737,"connected_time":3506000000000,"state":"active","ping":66},{"user_id":336,"name":"Tommy da bird","steam_id":76561198136340711,"connected_time":3883000000000,"state":"active","ping":90},{"user_id":381,"name":"H2OBourne","steam_id":76561198396293109,"connected_time":66000000000,"state":"active","ping":89},{"user_id":375,"name":"Yoozer","steam_id":76561198420257694,"connected_time":342000000000,"state":"active","ping":53},{"user_id":360,"name":"Dirtbomb","steam_id":76561198002403301,"connected_time":2556000000000,"state":"active","ping":74},{"user_id":376,"name":"riSygneD","steam_id":76561198331618687,"connected_time":313000000000,"state":"active","ping":35},{"user_id":370,"name":"Saber","steam_id":76561199030547855,"connected_time":472000000000,"state":"active","ping":55},{"user_id":377,"name":"Adam Levine (Real)","steam_id":76561199199257149,"connected_time":308000000000,"state":"active","ping":142},{"user_id":303,"name":"Terror","steam_id":76561198188685728,"connected_time":6905000000000,"state":"active","ping":102}]},{"server_id":112,"name":"Uncletopia | Los Angeles | 2 | All Maps","name_short":"lax-2","host":"lax-1.us.uncletopia.com","port":27025,"enabled":true,"region":"us-west","cc":"us","latitude":33.94279,"longitude":-118.41004,"reserved":0,"last_update":"0001-01-01T00:00:00Z","name_a2s":"Uncletopia | Los Angeles | 2 | All Maps","protocol":17,"map":"pl_borneo","folder":"tf","game":"Team Fortress","app_id":440,"player_count":14,"max_players":24,"Bots":0,"server_type":"Dedicated","server_os":"Linux","password":true,"vac":true,"version":"7961495","steam_id":85568392924469992,"keywords":["nocrits","nodmgspread","payload","uncletopia"],"game_id":440,"stv_port":27026,"stv_name":"Uncletopia | Los Angeles | 2 | All Maps | STV","players":[{"user_id":555,"name":"Sol","steam_id":76561198121500201,"connected_time":3800000000000,"state":"spawning","ping":68},{"user_id":612,"name":"porksoda","steam_id":76561198021451377,"connected_time":948000000000,"state":"spawning","ping":103},{"user_id":604,"name":"Temujin","steam_id":76561198030936583,"connected_time":1733000000000,"state":"spawning","ping":143},{"user_id":605,"name":"Pho","steam_id":76561198306515742,"connected_time":1714000000000,"state":"spawning","ping":107},{"user_id":607,"name":"jim awesome","steam_id":76561198337486020,"connected_time":1705000000000,"state":"spawning","ping":95},{"user_id":567,"name":"Rusty","steam_id":76561198055585129,"connected_time":3248000000000,"state":"spawning","ping":123},{"user_id":578,"name":"Killing_Moon","steam_id":76561198028185566,"connected_time":2931000000000,"state":"spawning","ping":91},{"user_id":613,"name":"Overgrowth","steam_id":76561198242333848,"connected_time":845000000000,"state":"spawning","ping":75},{"user_id":580,"name":"Nani","steam_id":76561198010230727,"connected_time":2884000000000,"state":"spawning","ping":81},{"user_id":559,"name":"[DATS‚û°] Sugar Meowth","steam_id":76561197995251793,"connected_time":3647000000000,"state":"spawning","ping":134},{"user_id":608,"name":"hakken","steam_id":76561199102391736,"connected_time":1680000000000,"state":"spawning","ping":85},{"user_id":594,"name":"De Monki","steam_id":76561198964210411,"connected_time":2335000000000,"state":"spawning","ping":70},{"user_id":614,"name":"yo mr white, isn't this haram?","steam_id":76561198104086771,"connected_time":806000000000,"state":"spawning","ping":92},{"user_id":615,"name":"sponge bob ice gream cumball","steam_id":76561198419896433,"connected_time":769000000000,"state":"spawning","ping":135}]},{"server_id":324,"name":"Uncletopia | Los Angeles | 3 | All Maps","name_short":"lax-3","host":"lax-1.us.uncletopia.com","port":27035,"enabled":true,"region":"us-west","cc":"us","latitude":33.94279,"longitude":-118.41004,"reserved":0,"last_update":"0001-01-01T00:00:00Z","name_a2s":"Uncletopia | Los Angeles | 3 | All Maps","protocol":17,"map":"cp_mountainlab","folder":"tf","game":"Team Fortress","app_id":440,"player_count":16,"max_players":24,"Bots":0,"server_type":"Dedicated","server_os":"Linux","password":true,"vac":true,"version":"7961495","steam_id":85568392924510198,"keywords":["cp","nocrits","nodmgspread","uncletopia"],"game_id":440,"stv_port":27036,"stv_name":"Uncletopia | Los Angeles | 3 | All Maps | STV","players":[{"user_id":453,"name":"i failed my finals","steam_id":76561198174751517,"connected_time":54000000000,"state":"active","ping":77},{"user_id":454,"name":"Jeff","steam_id":76561199003107869,"connected_time":0,"state":"connecting","ping":0},{"user_id":448,"name":"GVoltX","steam_id":76561198992020605,"connected_time":455000000000,"state":"active","ping":75},{"user_id":451,"name":"Sex Goblin","steam_id":76561198247839014,"connected_time":420000000000,"state":"active","ping":84},{"user_id":442,"name":"I'm So Fucking Cool","steam_id":76561198098418071,"connected_time":1413000000000,"state":"active","ping":48},{"user_id":452,"name":"leon swag kennedy","steam_id":76561198119394720,"connected_time":409000000000,"state":"active","ping":65},{"user_id":431,"name":"The Dumptruck of Notre-Dame","steam_id":76561198004815026,"connected_time":2203000000000,"state":"active","ping":47},{"user_id":433,"name":"Dranos","steam_id":76561198317456244,"connected_time":2171000000000,"state":"active","ping":57},{"user_id":446,"name":"champ town #1 fan","steam_id":76561198272026370,"connected_time":775000000000,"state":"active","ping":90},{"user_id":427,"name":"shotgun heavy","steam_id":76561198032259680,"connected_time":2741000000000,"state":"active","ping":108},{"user_id":423,"name":"loco503","steam_id":76561198827495121,"connected_time":3099000000000,"state":"active","ping":71},{"user_id":396,"name":"indyjacob","steam_id":76561198065158713,"connected_time":4151000000000,"state":"active","ping":69},{"user_id":441,"name":"shakoiwa","steam_id":76561199059441773,"connected_time":1461000000000,"state":"active","ping":60},{"user_id":415,"name":"the hunchback of gay paris","steam_id":76561197987056308,"connected_time":3276000000000,"state":"active","ping":71},{"user_id":445,"name":"Darkspiral","steam_id":76561198080807559,"connected_time":1225000000000,"state":"active","ping":45},{"user_id":417,"name":"parallax","steam_id":76561198004438881,"connected_time":3268000000000,"state":"active","ping":72}]},{"server_id":25,"name":"Uncletopia | Los Angeles | 4 | Stopwatch Beta","name_short":"lax-4","host":"lax-1.us.uncletopia.com","port":27045,"enabled":true,"region":"us-west","cc":"us","latitude":33.94279,"longitude":-118.41004,"reserved":0,"last_update":"0001-01-01T00:00:00Z","name_a2s":"Uncletopia | Los Angeles | 4 | Stopwatch Beta","protocol":17,"map":"workshop/koth_ashville_final.ugc2130459942","folder":"tf","game":"Team Fortress","app_id":440,"player_count":0,"max_players":24,"Bots":0,"server_type":"Dedicated","server_os":"Linux","password":true,"vac":true,"version":"7961495","steam_id":85568392924510199,"keywords":["cp","nocrits","nodmgspread","uncletopia"],"game_id":440,"stv_port":27046,"stv_name":"Uncletopia | Los Angeles | 4 | Stopwatch Beta | STV","players":null},{"server_id":11,"name":"Uncletopia | London | 1 | All Maps","name_short":"lon-1","host":"lon-1.uk.uncletopia.com","port":27015,"enabled":true,"region":"eu","cc":"gb","latitude":51.509865,"longitude":-0.118092,"reserved":0,"last_update":"0001-01-01T00:00:00Z","name_a2s":"Uncletopia | London | 1 | All Maps","protocol":17,"map":"pl_borneo","folder":"tf","game":"Team Fortress","app_id":440,"player_count":0,"max_players":24,"Bots":0,"server_type":"Dedicated","server_os":"Linux","password":true,"vac":true,"version":"7961495","steam_id":85568392924367362,"keywords":["nocrits","nodmgspread","payload","uncletopia"],"game_id":440,"stv_port":27016,"stv_name":"Uncletopia | London | 1 | All Maps | STV","players":null},{"server_id":114,"name":"Uncletopia | London | 2 | All Maps","name_short":"lon-2","host":"lon-1.uk.uncletopia.com","port":27025,"enabled":true,"region":"eu","cc":"gb","latitude":51.509865,"longitude":-0.118092,"reserved":0,"last_update":"0001-01-01T00:00:00Z","name_a2s":"Uncletopia | London | 2 | All Maps","protocol":17,"map":"cp_snakewater_final1","folder":"tf","game":"Team Fortress","app_id":440,"player_count":0,"max_players":24,"Bots":0,"server_type":"Dedicated","server_os":"Linux","password":true,"vac":true,"version":"7961495","steam_id":85568392924470941,"keywords":["cp","nocrits","nodmgspread","uncletopia"],"game_id":440,"stv_port":27026,"stv_name":"Uncletopia | London | 2 | All Maps | STV","players":null},{"server_id":320,"name":"Uncletopia | London | 3 | All Maps","name_short":"lon-3","host":"lon-1.uk.uncletopia.com","port":27035,"enabled":true,"region":"eu","cc":"gb","latitude":51.509865,"longitude":-0.118092,"reserved":0,"last_update":"0001-01-01T00:00:00Z","name_a2s":"Uncletopia | London | 3 | All Maps","protocol":17,"map":"pl_pier","folder":"tf","game":"Team Fortress","app_id":440,"player_count":0,"max_players":24,"Bots":0,"server_type":"Dedicated","server_os":"Linux","password":true,"vac":true,"version":"7961495","steam_id":85568392924510192,"keywords":["nocrits","nodmgspread","payload","uncletopia"],"game_id":440,"stv_port":27036,"stv_name":"Uncletopia | London | 3 | All Maps | STV","players":null},{"server_id":321,"name":"Uncletopia | London | 4 | All Maps","name_short":"lon-4","host":"lon-1.uk.uncletopia.com","port":27045,"enabled":true,"region":"eu","cc":"gb","latitude":51.509865,"longitude":-0.118092,"reserved":0,"last_update":"0001-01-01T00:00:00Z","name_a2s":"Uncletopia | London | 4 | All Maps","protocol":17,"map":"koth_viaduct","folder":"tf","game":"Team Fortress","app_id":440,"player_count":0,"max_players":24,"Bots":0,"server_type":"Dedicated","server_os":"Linux","password":true,"vac":true,"version":"7961495","steam_id":85568392924510193,"keywords":["cp","nocrits","nodmgspread","uncletopia"],"game_id":440,"stv_port":27046,"stv_name":"Uncletopia | London | 4 | All Maps | STV","players":null},{"server_id":21,"name":"Uncletopia | London | 5 | All Maps","name_short":"lon-5","host":"lon-1.uk.uncletopia.com","port":27055,"enabled":true,"region":"eu","cc":"gb","latitude":51.509865,"longitude":-0.118092,"reserved":0,"last_update":"0001-01-01T00:00:00Z","name_a2s":"Uncletopia | London | 5 | All Maps","protocol":17,"map":"pl_barnblitz","folder":"tf","game":"Team Fortress","app_id":440,"player_count":0,"max_players":24,"Bots":0,"server_type":"Dedicated","server_os":"Linux","password":true,"vac":true,"version":"7961495","steam_id":85568392924742829,"keywords":["nocrits","nodmgspread","payload","uncletopia"],"game_id":440,"stv_port":27056,"stv_name":"Uncletopia | London | 5 | All Maps | STV","players":null},{"server_id":22,"name":"Uncletopia | London | 6 | All Maps","name_short":"lon-6","host":"lon-1.uk.uncletopia.com","port":27065,"enabled":true,"region":"eu","cc":"gb","latitude":51.509865,"longitude":-0.118092,"reserved":0,"last_update":"0001-01-01T00:00:00Z","name_a2s":"Uncletopia | London | 6 | All Maps","protocol":17,"map":"cp_snakewater_final1","folder":"tf","game":"Team Fortress","app_id":440,"player_count":0,"max_players":24,"Bots":0,"server_type":"Dedicated","server_os":"Linux","password":true,"vac":true,"version":"7961495","steam_id":85568392924742830,"keywords":["cp","nocrits","nodmgspread","uncletopia"],"game_id":440,"stv_port":27066,"stv_name":"Uncletopia | London | 6 | All Maps | STV","players":null},{"server_id":40,"name":"Uncletopia | London | 7 | No Payload","name_short":"lon-7","host":"lon-1.uk.uncletopia.com","port":27075,"enabled":true,"region":"eu","cc":"gb","latitude":51.509865,"longitude":-0.118092,"reserved":0,"last_update":"0001-01-01T00:00:00Z","name_a2s":"Uncletopia | London | 7 | No Payload","protocol":17,"map":"cp_egypt_final","folder":"tf","game":"Team Fortress","app_id":440,"player_count":0,"max_players":24,"Bots":0,"server_type":"Dedicated","server_os":"Linux","password":true,"vac":true,"version":"7961495","steam_id":85568392924964314,"keywords":["cp","nocrits","nodmgspread","uncletopia"],"game_id":440,"stv_port":27076,"stv_name":"Uncletopia | London | 7 | No Payload | STV","players":null},{"server_id":41,"name":"Uncletopia | London | 8 | Community","name_short":"lon-8","host":"lon-1.uk.uncletopia.com","port":27085,"enabled":true,"region":"eu","cc":"gb","latitude":51.509865,"longitude":-0.118092,"reserved":0,"last_update":"0001-01-01T00:00:00Z","name_a2s":"Uncletopia | London | 8 | Community","protocol":17,"map":"pl_borneo","folder":"tf","game":"Team Fortress","app_id":440,"player_count":0,"max_players":24,"Bots":0,"server_type":"Dedicated","server_os":"Linux","password":true,"vac":true,"version":"7961495","steam_id":85568392924964315,"keywords":["nocrits","nodmgspread","payload","uncletopia"],"game_id":440,"stv_port":27086,"stv_name":"Uncletopia | London | 8 | Community | STV","players":null},{"server_id":300,"name":"Uncletopia | Montr√©al | 1 | All Maps","name_short":"mtl-1","host":"mtl-1.ca.uncletopia.com","port":27015,"enabled":true,"region":"us-east","cc":"ca","latitude":45.50889,"longitude":-73.56167,"reserved":0,"last_update":"0001-01-01T00:00:00Z","name_a2s":"Uncletopia | Montr√©al | 1 | All Maps","protocol":17,"map":"pl_swiftwater_final1","folder":"tf","game":"Team Fortress","app_id":440,"player_count":0,"max_players":24,"Bots":0,"server_type":"Dedicated","server_os":"Linux","password":true,"vac":true,"version":"7961495","steam_id":85568392924500087,"keywords":["nocrits","nodmgspread","payload","uncletopia"],"game_id":440,"stv_port":27016,"stv_name":"Uncletopia | Montr√©al | 1 | All Maps | STV","players":null},{"server_id":301,"name":"Uncletopia | Montr√©al | 2 | All Maps","name_short":"mtl-2","host":"mtl-1.ca.uncletopia.com","port":27025,"enabled":true,"region":"us-east","cc":"ca","latitude":45.50889,"longitude":-73.56167,"reserved":0,"last_update":"0001-01-01T00:00:00Z","name_a2s":"Uncletopia | Montr√©al | 2 | All Maps","protocol":17,"map":"cp_dustbowl","folder":"tf","game":"Team Fortress","app_id":440,"player_count":0,"max_players":24,"Bots":0,"server_type":"Dedicated","server_os":"Linux","password":true,"vac":true,"version":"7961495","steam_id":85568392924500088,"keywords":["cp","nocrits","nodmgspread","uncletopia"],"game_id":440,"stv_port":27026,"stv_name":"Uncletopia | Montr√©al | 2 | All Maps | STV","players":null},{"server_id":302,"name":"Uncletopia | Montr√©al | 3 | All Maps","name_short":"mtl-3","host":"mtl-1.ca.uncletopia.com","port":27035,"enabled":true,"region":"us-east","cc":"ca","latitude":45.50889,"longitude":-73.56167,"reserved":0,"last_update":"0001-01-01T00:00:00Z","name_a2s":"Uncletopia | Montr√©al | 3 | All Maps","protocol":17,"map":"koth_cascade","folder":"tf","game":"Team Fortress","app_id":440,"player_count":0,"max_players":24,"Bots":0,"server_type":"Dedicated","server_os":"Linux","password":true,"vac":true,"version":"7961495","steam_id":85568392924500089,"keywords":["cp","nocrits","nodmgspread","uncletopia"],"game_id":440,"stv_port":27036,"stv_name":"Uncletopia | Montr√©al | 3 | All Maps | STV","players":null},{"server_id":303,"name":"Uncletopia | Montr√©al | 4 | No Payload","name_short":"mtl-4","host":"mtl-1.ca.uncletopia.com","port":27045,"enabled":true,"region":"us-east","cc":"ca","latitude":45.50889,"longitude":-73.56167,"reserved":0,"last_update":"0001-01-01T00:00:00Z","name_a2s":"Uncletopia | Montr√©al | 4 | No Payload","protocol":17,"map":"koth_lakeside_final","folder":"tf","game":"Team Fortress","app_id":440,"player_count":0,"max_players":24,"Bots":0,"server_type":"Dedicated","server_os":"Linux","password":true,"vac":true,"version":"7961495","steam_id":85568392924500090,"keywords":["cp","nocrits","nodmgspread","uncletopia"],"game_id":440,"stv_port":27046,"stv_name":"Uncletopia | Montr√©al | 4 | No Payload | STV","players":null},{"server_id":13,"name":"Uncletopia | New York City | 1 | All Maps","name_short":"nyc-1","host":"nyc-1.us.uncletopia.com","port":27015,"enabled":true,"region":"us-east","cc":"us","latitude":40.73061,"longitude":-73.93524,"reserved":0,"last_update":"0001-01-01T00:00:00Z","name_a2s":"Uncletopia | New York City | 1 | All Maps","protocol":17,"map":"pl_swiftwater_final1","folder":"tf","game":"Team Fortress","app_id":440,"player_count":19,"max_players":24,"Bots":0,"server_type":"Dedicated","server_os":"Linux","password":true,"vac":true,"version":"7961495","steam_id":85568392924469993,"keywords":["nocrits","nodmgspread","payload","uncletopia"],"game_id":440,"stv_port":27016,"stv_name":"Uncletopia | New York City | 1 | All Maps | STV","players":[{"user_id":975,"name":"Mcdiddle","steam_id":76561198025390097,"connected_time":688000000000,"state":"active","ping":54},{"user_id":977,"name":"Mat-Shades","steam_id":76561198013998031,"connected_time":551000000000,"state":"active","ping":98},{"user_id":976,"name":"Biden Blast","steam_id":76561198366729030,"connected_time":608000000000,"state":"active","ping":113},{"user_id":978,"name":"‚ô¶Silvia‚ô¶","steam_id":76561198373039444,"connected_time":488000000000,"state":"active","ping":171},{"user_id":990,"name":"Scooter O'Boyl","steam_id":76561197971687069,"connected_time":40000000000,"state":"active","ping":62},{"user_id":922,"name":"Fun Sized Depression","steam_id":76561198835517383,"connected_time":5625000000000,"state":"active","ping":71},{"user_id":953,"name":"Loser","steam_id":76561198139384735,"connected_time":2154000000000,"state":"active","ping":57},{"user_id":956,"name":"Zero","steam_id":76561198064142285,"connected_time":1861000000000,"state":"active","ping":95},{"user_id":979,"name":"goo goo ga ga","steam_id":76561198055606721,"connected_time":431000000000,"state":"active","ping":70},{"user_id":972,"name":"Gram Tokers Count Doinkula","steam_id":76561198112811565,"connected_time":1096000000000,"state":"active","ping":52},{"user_id":959,"name":"jorjor wells","steam_id":76561199073429082,"connected_time":1665000000000,"state":"active","ping":54},{"user_id":960,"name":"Super Sand Lesbian","steam_id":76561198028157625,"connected_time":1638000000000,"state":"active","ping":88},{"user_id":968,"name":"jose.gonzales.2011","steam_id":76561198115151771,"connected_time":1285000000000,"state":"active","ping":77},{"user_id":963,"name":"Gonzales Royal Servant","steam_id":76561198066887958,"connected_time":1458000000000,"state":"active","ping":60},{"user_id":903,"name":"Venumb Bengal","steam_id":76561198156498290,"connected_time":7717000000000,"state":"active","ping":93},{"user_id":988,"name":"xxx","steam_id":76561199122494395,"connected_time":122000000000,"state":"active","ping":62},{"user_id":970,"name":"L + Maidenless + Tarnished","steam_id":76561198978605490,"connected_time":1184000000000,"state":"active","ping":37},{"user_id":989,"name":"spxcy","steam_id":76561198080296853,"connected_time":105000000000,"state":"active","ping":141},{"user_id":864,"name":"Meh","steam_id":76561198078187920,"connected_time":11011000000000,"state":"active","ping":89}]},{"server_id":14,"name":"Uncletopia | New York City | 2 | All Maps","name_short":"nyc-2","host":"nyc-1.us.uncletopia.com","port":27025,"enabled":true,"region":"us-east","cc":"us","latitude":40.73061,"longitude":-73.93524,"reserved":0,"last_update":"0001-01-01T00:00:00Z","name_a2s":"Uncletopia | New York City | 2 | All Maps","protocol":17,"map":"pl_snowycoast","folder":"tf","game":"Team Fortress","app_id":440,"player_count":24,"max_players":24,"Bots":0,"server_type":"Dedicated","server_os":"Linux","password":true,"vac":true,"version":"7961495","steam_id":85568392924469994,"keywords":["nocrits","nodmgspread","payload","uncletopia"],"game_id":440,"stv_port":27026,"stv_name":"Uncletopia | New York City | 2 | All Maps | STV","players":[{"user_id":687,"name":"goliath birdeater","steam_id":76561198089852954,"connected_time":8948000000000,"state":"active","ping":87},{"user_id":768,"name":"orbisg","steam_id":76561198004133638,"connected_time":4176000000000,"state":"active","ping":113},{"user_id":686,"name":"dunk","steam_id":76561198066114874,"connected_time":8963000000000,"state":"active","ping":106},{"user_id":809,"name":"Jo","steam_id":76561198060447015,"connected_time":1182000000000,"state":"active","ping":61},{"user_id":811,"name":"Maxxycat","steam_id":76561198194062681,"connected_time":984000000000,"state":"active","ping":62},{"user_id":773,"name":"A Puppy","steam_id":76561198828184456,"connected_time":3899000000000,"state":"active","ping":48},{"user_id":781,"name":"DragoDuck","steam_id":76561198385685683,"connected_time":3225000000000,"state":"active","ping":108},{"user_id":807,"name":"Spike","steam_id":76561198141356571,"connected_time":1312000000000,"state":"active","ping":92},{"user_id":750,"name":"wise","steam_id":76561198030066204,"connected_time":4775000000000,"state":"active","ping":36},{"user_id":794,"name":"twink floyd","steam_id":76561199487086586,"connected_time":2260000000000,"state":"active","ping":81},{"user_id":777,"name":"on that zaza?","steam_id":76561198038713198,"connected_time":3823000000000,"state":"active","ping":50},{"user_id":795,"name":"Pink fluoride","steam_id":76561198055337107,"connected_time":2231000000000,"state":"active","ping":69},{"user_id":806,"name":"Soldier","steam_id":76561198029265697,"connected_time":1318000000000,"state":"active","ping":77},{"user_id":801,"name":"mac","steam_id":76561198043039518,"connected_time":1762000000000,"state":"active","ping":81},{"user_id":812,"name":"BigNugs","steam_id":76561198056402610,"connected_time":980000000000,"state":"active","ping":89},{"user_id":793,"name":"MyrButCool","steam_id":76561198177245933,"connected_time":2330000000000,"state":"active","ping":52},{"user_id":796,"name":"Engie's best friend","steam_id":76561197961707932,"connected_time":2221000000000,"state":"active","ping":149},{"user_id":769,"name":"stile","steam_id":76561198149443710,"connected_time":4173000000000,"state":"active","ping":110},{"user_id":813,"name":"Jesse Bear","steam_id":76561198217075305,"connected_time":752000000000,"state":"active","ping":73},{"user_id":814,"name":"shnowshner","steam_id":76561198066450438,"connected_time":740000000000,"state":"active","ping":80},{"user_id":808,"name":"FM","steam_id":76561198017539604,"connected_time":1257000000000,"state":"active","ping":84},{"user_id":798,"name":"werecat","steam_id":76561198005091213,"connected_time":2158000000000,"state":"active","ping":46},{"user_id":802,"name":"samsung tokyo","steam_id":76561198102681457,"connected_time":1630000000000,"state":"active","ping":85},{"user_id":746,"name":"tracker","steam_id":76561198046911616,"connected_time":4966000000000,"state":"active","ping":49}]},{"server_id":15,"name":"Uncletopia | New York City | 3 | Stopwatch Beta","name_short":"nyc-3","host":"nyc-1.us.uncletopia.com","port":27035,"enabled":true,"region":"us-east","cc":"us","latitude":40.73061,"longitude":-73.93524,"reserved":0,"last_update":"0001-01-01T00:00:00Z","name_a2s":"Uncletopia | New York City | 3 | Stopwatch Beta","protocol":17,"map":"workshop/koth_bagel_rc6.ugc2514036946","folder":"tf","game":"Team Fortress","app_id":440,"player_count":0,"max_players":24,"Bots":0,"server_type":"Dedicated","server_os":"Linux","password":true,"vac":true,"version":"7961495","steam_id":85568392924742820,"keywords":["cp","nocrits","nodmgspread","uncletopia"],"game_id":440,"stv_port":27036,"stv_name":"Uncletopia | New York City | 3 | Stopwatch Beta | STV","players":null},{"server_id":16,"name":"Uncletopia | New York City | 4 | Community","name_short":"nyc-4","host":"nyc-1.us.uncletopia.com","port":27045,"enabled":true,"region":"us-east","cc":"us","latitude":40.73061,"longitude":-73.93524,"reserved":0,"last_update":"0001-01-01T00:00:00Z","name_a2s":"Uncletopia | New York City | 4 | Community","protocol":17,"map":"workshop/cp_croissant_final.ugc458840209","folder":"tf","game":"Team Fortress","app_id":440,"player_count":0,"max_players":24,"Bots":0,"server_type":"Dedicated","server_os":"Linux","password":true,"vac":true,"version":"7961495","steam_id":85568392924742821,"keywords":["cp","nocrits","nodmgspread","uncletopia"],"game_id":440,"stv_port":27046,"stv_name":"Uncletopia | New York City | 4 | Community | STV","players":null},{"server_id":142,"name":"Uncletopia | S√£o Paulo | 1 | All Maps","name_short":"sao-1","host":"sao-1.br.uncletopia.com","port":27015,"enabled":true,"region":"sa","cc":"br","latitude":-23.533773,"longitude":-46.62529,"reserved":0,"last_update":"0001-01-01T00:00:00Z","name_a2s":"Uncletopia | S√£o Paulo | 1 | All Maps","protocol":17,"map":"koth_viaduct","folder":"tf","game":"Team Fortress","app_id":440,"player_count":0,"max_players":24,"Bots":0,"server_type":"Dedicated","server_os":"Linux","password":true,"vac":true,"version":"7961495","steam_id":85568392924469996,"keywords":["cp","nocrits","nodmgspread","uncletopia"],"game_id":440,"stv_port":27016,"stv_name":"Uncletopia | S√£o Paulo | 1 | All Maps | STV","players":null},{"server_id":143,"name":"Uncletopia | S√£o Paulo | 2 | Community","name_short":"sao-2","host":"sao-2.br.uncletopia.com","port":27015,"enabled":true,"region":"sa","cc":"br","latitude":-23.533773,"longitude":-46.62529,"reserved":0,"last_update":"0001-01-01T00:00:00Z","name_a2s":"Uncletopia | S√£o Paulo | 2 | Community","protocol":17,"map":"workshop/pl_corrode_rc2.ugc546577989","folder":"tf","game":"Team Fortress","app_id":440,"player_count":0,"max_players":24,"Bots":0,"server_type":"Dedicated","server_os":"Linux","password":true,"vac":true,"version":"7961495","steam_id":85568392924485349,"keywords":["nocrits","nodmgspread","payload","uncletopia"],"game_id":440,"stv_port":27016,"stv_name":"Uncletopia | S√£o Paulo | 2 | Community | STV","players":null},{"server_id":7,"name":"Uncletopia | Seattle | 1 | All Maps","name_short":"sea-1","host":"sea-1.us.uncletopia.com","port":27015,"enabled":true,"region":"us-west","cc":"us","latitude":47.608013,"longitude":-122.33517,"reserved":0,"last_update":"0001-01-01T00:00:00Z","name_a2s":"Uncletopia | Seattle | 1 | All Maps","protocol":17,"map":"pl_pier","folder":"tf","game":"Team Fortress","app_id":440,"player_count":24,"max_players":24,"Bots":0,"server_type":"Dedicated","server_os":"Linux","password":true,"vac":true,"version":"7961495","steam_id":85568392924469997,"keywords":["nocrits","nodmgspread","payload","uncletopia"],"game_id":440,"stv_port":27016,"stv_name":"Uncletopia | Seattle | 1 | All Maps | STV","players":[{"user_id":519,"name":"THAT CAT","steam_id":76561198010828625,"connected_time":375000000000,"state":"active","ping":38},{"user_id":518,"name":"Pukei-Pukei","steam_id":76561197992722546,"connected_time":387000000000,"state":"active","ping":85},{"user_id":464,"name":"mub","steam_id":76561197961943948,"connected_time":7316000000000,"state":"active","ping":50},{"user_id":522,"name":"Franksta","steam_id":76561198049024304,"connected_time":205000000000,"state":"active","ping":71},{"user_id":521,"name":"Zorlovo","steam_id":76561198006443283,"connected_time":321000000000,"state":"active","ping":84},{"user_id":503,"name":"swarm of bee","steam_id":76561198059604047,"connected_time":2286000000000,"state":"active","ping":39},{"user_id":472,"name":"Luca","steam_id":76561198125087140,"connected_time":6021000000000,"state":"active","ping":51},{"user_id":494,"name":"Attrition","steam_id":76561197969881916,"connected_time":3544000000000,"state":"active","ping":53},{"user_id":516,"name":"fwoov","steam_id":76561198129166260,"connected_time":398000000000,"state":"active","ping":84},{"user_id":489,"name":"shane","steam_id":76561198060491451,"connected_time":4353000000000,"state":"active","ping":80},{"user_id":493,"name":"slushy :))","steam_id":76561198135281802,"connected_time":3736000000000,"state":"active","ping":56},{"user_id":487,"name":"soup","steam_id":76561198043209046,"connected_time":4538000000000,"state":"active","ping":78},{"user_id":486,"name":"Arsonist Goose","steam_id":76561198147441830,"connected_time":4545000000000,"state":"active","ping":75},{"user_id":512,"name":"Skoad","steam_id":76561198104650528,"connected_time":1530000000000,"state":"active","ping":69},{"user_id":514,"name":"Lily Thorn","steam_id":76561198305488625,"connected_time":1034000000000,"state":"active","ping":66},{"user_id":515,"name":"Finkly","steam_id":76561198049828110,"connected_time":400000000000,"state":"active","ping":47},{"user_id":502,"name":"lusty","steam_id":76561198138478947,"connected_time":2671000000000,"state":"active","ping":40},{"user_id":471,"name":"mega","steam_id":76561198089520959,"connected_time":6121000000000,"state":"active","ping":101},{"user_id":508,"name":"EddieEnder","steam_id":76561198057912688,"connected_time":1969000000000,"state":"active","ping":76},{"user_id":520,"name":"rat gets the cheese","steam_id":76561198031234032,"connected_time":373000000000,"state":"active","ping":99},{"user_id":509,"name":"trackpad gaming | f2p","steam_id":76561198840414371,"connected_time":1591000000000,"state":"active","ping":59},{"user_id":517,"name":"S Q U I S H E  T H A T  C A T","steam_id":76561198293865429,"connected_time":398000000000,"state":"active","ping":40},{"user_id":481,"name":"Username","steam_id":76561199033122306,"connected_time":5567000000000,"state":"active","ping":151},{"user_id":500,"name":"gldhd","steam_id":76561198051751133,"connected_time":2878000000000,"state":"active","ping":55}]},{"server_id":119,"name":"Uncletopia | Seattle | 2 | All Maps","name_short":"sea-2","host":"sea-1.us.uncletopia.com","port":27025,"enabled":true,"region":"us-west","cc":"us","latitude":47.608013,"longitude":-122.33517,"reserved":0,"last_update":"0001-01-01T00:00:00Z","name_a2s":"Uncletopia | Seattle | 2 | All Maps","protocol":17,"map":"koth_highpass","folder":"tf","game":"Team Fortress","app_id":440,"player_count":24,"max_players":24,"Bots":0,"server_type":"Dedicated","server_os":"Linux","password":true,"vac":true,"version":"7961495","steam_id":85568392924469998,"keywords":["cp","nocrits","nodmgspread","uncletopia"],"game_id":440,"stv_port":27026,"stv_name":"Uncletopia | Seattle | 2 | All Maps | STV","players":[{"user_id":637,"name":"Gohan Beast","steam_id":76561198271939793,"connected_time":398000000000,"state":"active","ping":45},{"user_id":605,"name":"rorywashere /·ê† - Àï -„Éû ‚≥ä","steam_id":76561198065825165,"connected_time":3078000000000,"state":"active","ping":93},{"user_id":620,"name":"NEBULA","steam_id":76561198086878595,"connected_time":1740000000000,"state":"active","ping":72},{"user_id":610,"name":"Faefanger","steam_id":76561198201871002,"connected_time":2361000000000,"state":"active","ping":61},{"user_id":633,"name":"mine diam","steam_id":76561198119123981,"connected_time":797000000000,"state":"active","ping":59},{"user_id":625,"name":"Domopon","steam_id":76561199080347686,"connected_time":1061000000000,"state":"active","ping":79},{"user_id":629,"name":"greens beans","steam_id":76561198153611491,"connected_time":1025000000000,"state":"active","ping":47},{"user_id":600,"name":"spurious george","steam_id":76561198043558709,"connected_time":3385000000000,"state":"active","ping":46},{"user_id":635,"name":"Phlog Roach","steam_id":76561198111154662,"connected_time":604000000000,"state":"active","ping":55},{"user_id":619,"name":"9c Flasher","steam_id":76561198053289095,"connected_time":1793000000000,"state":"active","ping":34},{"user_id":607,"name":"Dr. Eggman","steam_id":76561199053746837,"connected_time":3052000000000,"state":"active","ping":155},{"user_id":603,"name":"Ducks","steam_id":76561198130038345,"connected_time":3132000000000,"state":"active","ping":69},{"user_id":614,"name":"thunderous prophet","steam_id":76561198131166135,"connected_time":2028000000000,"state":"active","ping":41},{"user_id":630,"name":"squash","steam_id":76561198150281353,"connected_time":1004000000000,"state":"active","ping":53},{"user_id":636,"name":"gangstress","steam_id":76561198095495769,"connected_time":559000000000,"state":"active","ping":48},{"user_id":616,"name":"Trips","steam_id":76561198054581597,"connected_time":1953000000000,"state":"active","ping":62},{"user_id":602,"name":"(414) fungi","steam_id":76561198169755734,"connected_time":3376000000000,"state":"active","ping":61},{"user_id":617,"name":"jadeite","steam_id":76561198022298676,"connected_time":1951000000000,"state":"active","ping":33},{"user_id":618,"name":"Cyaniday","steam_id":76561198302051082,"connected_time":1847000000000,"state":"active","ping":70},{"user_id":638,"name":"Weakforanimebitches","steam_id":76561198217663016,"connected_time":127000000000,"state":"active","ping":81},{"user_id":632,"name":"Oaky Loafs","steam_id":76561198317179010,"connected_time":950000000000,"state":"active","ping":57},{"user_id":597,"name":"HotHead","steam_id":76561198138468982,"connected_time":3462000000000,"state":"active","ping":48},{"user_id":623,"name":"chadj.cummins2010","steam_id":76561198347967106,"connected_time":1616000000000,"state":"active","ping":123},{"user_id":533,"name":"T√ºCold","steam_id":76561198111278197,"connected_time":8998000000000,"state":"active","ping":57}]},{"server_id":406,"name":"Uncletopia | Seattle | 3 | Stopwatch Beta","name_short":"sea-3","host":"sea-1.us.uncletopia.com","port":27035,"enabled":true,"region":"us-west","cc":"us","latitude":47.608013,"longitude":-122.33517,"reserved":0,"last_update":"0001-01-01T00:00:00Z","name_a2s":"Uncletopia | Seattle | 3 | Stopwatch Beta","protocol":17,"map":"workshop/koth_ashville_final.ugc2130459942","folder":"tf","game":"Team Fortress","app_id":440,"player_count":0,"max_players":24,"Bots":0,"server_type":"Dedicated","server_os":"Linux","password":true,"vac":true,"version":"7961495","steam_id":85568392924515217,"keywords":["cp","nocrits","nodmgspread","uncletopia"],"game_id":440,"stv_port":27036,"stv_name":"Uncletopia | Seattle | 3 | Stopwatch Beta | STV","players":null},{"server_id":17,"name":"Uncletopia | San Francisco | 1 | All Maps","name_short":"sfo-1","host":"sfo-1.us.uncletopia.com","port":27015,"enabled":true,"region":"us-west","cc":"us","latitude":37.77397,"longitude":-122.4313,"reserved":0,"last_update":"0001-01-01T00:00:00Z","name_a2s":"Uncletopia | San Francisco | 1 | All Maps","protocol":17,"map":"pl_badwater","folder":"tf","game":"Team Fortress","app_id":440,"player_count":24,"max_players":24,"Bots":0,"server_type":"Dedicated","server_os":"Linux","password":true,"vac":true,"version":"7961495","steam_id":85568392924469999,"keywords":["nocrits","nodmgspread","payload","uncletopia"],"game_id":440,"stv_port":27016,"stv_name":"Uncletopia | San Francisco | 1 | All Maps | STV","players":[{"user_id":603,"name":"tf2pyro","steam_id":76561198388184353,"connected_time":436000000000,"state":"active","ping":81},{"user_id":604,"name":"DinkyStink","steam_id":76561198309373876,"connected_time":329000000000,"state":"active","ping":129},{"user_id":600,"name":"Cheff cook","steam_id":76561198451203268,"connected_time":1256000000000,"state":"active","ping":65},{"user_id":605,"name":"FakePercMan","steam_id":76561199446858029,"connected_time":286000000000,"state":"active","ping":140},{"user_id":585,"name":"!","steam_id":76561199189013920,"connected_time":2017000000000,"state":"active","ping":33},{"user_id":592,"name":"Eric4bz","steam_id":76561198054439606,"connected_time":1718000000000,"state":"active","ping":86},{"user_id":606,"name":"Quick Fix Be Hittin Different","steam_id":76561198881093314,"connected_time":271000000000,"state":"active","ping":84},{"user_id":567,"name":"Green Mario","steam_id":76561198094325997,"connected_time":3126000000000,"state":"active","ping":76},{"user_id":563,"name":"osothedog","steam_id":76561198043226026,"connected_time":3236000000000,"state":"active","ping":60},{"user_id":597,"name":"gatorbelt","steam_id":76561198145784505,"connected_time":1472000000000,"state":"active","ping":51},{"user_id":591,"name":"Gm_Trash","steam_id":76561199445091548,"connected_time":1774000000000,"state":"active","ping":84},{"user_id":607,"name":"SQbuilder","steam_id":76561198076473375,"connected_time":239000000000,"state":"active","ping":46},{"user_id":602,"name":"Celery","steam_id":76561198019941718,"connected_time":996000000000,"state":"active","ping":115},{"user_id":566,"name":"Paxton Bradlyey","steam_id":76561198066979420,"connected_time":3158000000000,"state":"active","ping":66},{"user_id":568,"name":"‚ô´ Gilgion","steam_id":76561198050297529,"connected_time":3110000000000,"state":"active","ping":66},{"user_id":583,"name":"cup","steam_id":76561198121245586,"connected_time":2139000000000,"state":"active","ping":81},{"user_id":611,"name":"RavenwolF","steam_id":76561197963374354,"connected_time":101000000000,"state":"active","ping":102},{"user_id":586,"name":"im not your father luke","steam_id":76561199089515791,"connected_time":2005000000000,"state":"active","ping":59},{"user_id":572,"name":"Kalir","steam_id":76561197996125658,"connected_time":3028000000000,"state":"active","ping":84},{"user_id":608,"name":"denomes","steam_id":76561198002969945,"connected_time":233000000000,"state":"active","ping":54},{"user_id":612,"name":"Vegan Veal","steam_id":76561198123607452,"connected_time":71000000000,"state":"spawning","ping":58},{"user_id":610,"name":"Notfunnyj","steam_id":76561198372720890,"connected_time":160000000000,"state":"active","ping":64},{"user_id":613,"name":" ∞·µâ·µÉ·µõ ∏","steam_id":76561198334544321,"connected_time":47000000000,"state":"active","ping":149},{"user_id":577,"name":"Mr defrost","steam_id":76561198322125657,"connected_time":2908000000000,"state":"active","ping":84}]},{"server_id":18,"name":"Uncletopia | San Francisco | 2 | All Maps","name_short":"sfo-2","host":"sfo-1.us.uncletopia.com","port":27025,"enabled":true,"region":"us-west","cc":"us","latitude":37.77397,"longitude":-122.4313,"reserved":0,"last_update":"0001-01-01T00:00:00Z","name_a2s":"Uncletopia | San Francisco | 2 | All Maps","protocol":17,"map":"cp_altitude","folder":"tf","game":"Team Fortress","app_id":440,"player_count":12,"max_players":24,"Bots":0,"server_type":"Dedicated","server_os":"Linux","password":true,"vac":true,"version":"7961495","steam_id":85568392924470000,"keywords":["cp","nocrits","nodmgspread","uncletopia"],"game_id":440,"stv_port":27026,"stv_name":"Uncletopia | San Francisco | 2 | All Maps | STV","players":[{"user_id":94,"name":"MrBombastic","steam_id":76561198869486693,"connected_time":18000000000,"state":"spawning","ping":218},{"user_id":82,"name":"spiderland","steam_id":76561198335992132,"connected_time":1101000000000,"state":"active","ping":52},{"user_id":92,"name":"maxis","steam_id":76561199164267647,"connected_time":244000000000,"state":"active","ping":65},{"user_id":41,"name":"Mom","steam_id":76561198207936000,"connected_time":6063000000000,"state":"active","ping":44},{"user_id":81,"name":"Spectra","steam_id":76561198064067542,"connected_time":1318000000000,"state":"active","ping":66},{"user_id":88,"name":"BoX_hEaD101","steam_id":76561198200875467,"connected_time":583000000000,"state":"active","ping":67},{"user_id":83,"name":"Sp√ºkiiTV","steam_id":76561198098281824,"connected_time":929000000000,"state":"active","ping":99},{"user_id":84,"name":"The_RainbowTrout","steam_id":76561199309554436,"connected_time":841000000000,"state":"active","ping":59},{"user_id":85,"name":"Dogman15","steam_id":76561198071246716,"connected_time":705000000000,"state":"active","ping":58},{"user_id":90,"name":"ars110","steam_id":76561198030492435,"connected_time":495000000000,"state":"active","ping":74},{"user_id":93,"name":"Ponka Po","steam_id":76561198019155825,"connected_time":171000000000,"state":"active","ping":107},{"user_id":89,"name":"Interrobang","steam_id":76561198385044529,"connected_time":511000000000,"state":"active","ping":105}]},{"server_id":19,"name":"Uncletopia | San Francisco | 3 | Stopwatch Beta","name_short":"sfo-3","host":"sfo-1.us.uncletopia.com","port":27035,"enabled":true,"region":"us-west","cc":"us","latitude":37.77397,"longitude":-122.4313,"reserved":0,"last_update":"0001-01-01T00:00:00Z","name_a2s":"Uncletopia | San Francisco | 3 | Stopwatch Beta","protocol":17,"map":"koth_highpass","folder":"tf","game":"Team Fortress","app_id":440,"player_count":0,"max_players":24,"Bots":0,"server_type":"Dedicated","server_os":"Linux","password":true,"vac":true,"version":"7961495","steam_id":85568392924742824,"keywords":["cp","nocrits","nodmgspread","uncletopia"],"game_id":440,"stv_port":27036,"stv_name":"Uncletopia | San Francisco | 3 | Stopwatch Beta | STV","players":null},{"server_id":20,"name":"Uncletopia | San Francisco | 4 | Community","name_short":"sfo-4","host":"sfo-1.us.uncletopia.com","port":27045,"enabled":true,"region":"us-west","cc":"us","latitude":37.77397,"longitude":-122.4313,"reserved":0,"last_update":"0001-01-01T00:00:00Z","name_a2s":"Uncletopia | San Francisco | 4 | Community","protocol":17,"map":"workshop/cp_glacier_rc6.ugc2905735376","folder":"tf","game":"Team Fortress","app_id":440,"player_count":0,"max_players":24,"Bots":0,"server_type":"Dedicated","server_os":"Linux","password":true,"vac":true,"version":"7961495","steam_id":85568392924742826,"keywords":["cp","nocrits","nodmgspread","uncletopia"],"game_id":440,"stv_port":27046,"stv_name":"Uncletopia | San Francisco | 4 | Community | STV","players":null},{"server_id":141,"name":"Uncletopia | Sydney | 1 | All Maps","name_short":"syd-1","host":"syd-1.au.uncletopia.com","port":27015,"enabled":true,"region":"au","cc":"au","latitude":-33.865143,"longitude":151.2099,"reserved":0,"last_update":"0001-01-01T00:00:00Z","name_a2s":"Uncletopia | Sydney | 1 | All Maps","protocol":17,"map":"pl_badwater","folder":"tf","game":"Team Fortress","app_id":440,"player_count":4,"max_players":24,"Bots":0,"server_type":"Dedicated","server_os":"Linux","password":true,"vac":true,"version":"7961495","steam_id":85568392924470001,"keywords":["nocrits","nodmgspread","payload","uncletopia"],"game_id":440,"stv_port":27016,"stv_name":"Uncletopia | Sydney | 1 | All Maps | STV","players":[{"user_id":9,"name":"N0thing_but_pure_lag_and_luck","steam_id":76561199002102933,"connected_time":397000000000,"state":"active","ping":121},{"user_id":10,"name":"DeceptiveGoat666","steam_id":76561198823793696,"connected_time":342000000000,"state":"active","ping":111},{"user_id":11,"name":"Theducktube","steam_id":76561198137265224,"connected_time":168000000000,"state":"active","ping":161},{"user_id":12,"name":"Buny","steam_id":76561198051375054,"connected_time":128000000000,"state":"active","ping":30}]},{"server_id":123,"name":"Uncletopia | Sydney | 2 | All Maps","name_short":"syd-2","host":"syd-1.au.uncletopia.com","port":27025,"enabled":true,"region":"au","cc":"au","latitude":-33.865143,"longitude":151.2099,"reserved":0,"last_update":"0001-01-01T00:00:00Z","name_a2s":"Uncletopia | Sydney | 2 | All Maps","protocol":17,"map":"koth_harvest_final","folder":"tf","game":"Team Fortress","app_id":440,"player_count":23,"max_players":24,"Bots":0,"server_type":"Dedicated","server_os":"Linux","password":true,"vac":true,"version":"7961495","steam_id":85568392924470002,"keywords":["cp","nocrits","nodmgspread","uncletopia"],"game_id":440,"stv_port":27026,"stv_name":"Uncletopia | Sydney | 2 | All Maps | STV","players":[{"user_id":40,"name":"Owlenstein‚Ñ¢","steam_id":76561198093983826,"connected_time":418000000000,"state":"active","ping":115},{"user_id":43,"name":"Killing","steam_id":76561198107392931,"connected_time":270000000000,"state":"active","ping":62},{"user_id":5,"name":"cakey","steam_id":76561198173746761,"connected_time":2169000000000,"state":"active","ping":46},{"user_id":6,"name":"uven","steam_id":76561198080981482,"connected_time":2162000000000,"state":"active","ping":41},{"user_id":37,"name":"thrax","steam_id":76561197992385270,"connected_time":594000000000,"state":"active","ping":54},{"user_id":12,"name":"UrAvgDMG","steam_id":76561199214859141,"connected_time":2067000000000,"state":"active","ping":150},{"user_id":13,"name":"Selling Anti-Matter for $543","steam_id":76561198070708382,"connected_time":2060000000000,"state":"active","ping":45},{"user_id":14,"name":"Perplexia","steam_id":76561198012215739,"connected_time":1980000000000,"state":"active","ping":78},{"user_id":15,"name":"A Simple Wok","steam_id":76561198134842324,"connected_time":1962000000000,"state":"active","ping":50},{"user_id":17,"name":"trxsh","steam_id":76561198194421386,"connected_time":1542000000000,"state":"active","ping":60},{"user_id":19,"name":"soupy","steam_id":76561198073734936,"connected_time":1499000000000,"state":"active","ping":90},{"user_id":20,"name":"Fyrestorm","steam_id":76561198025600650,"connected_time":1417000000000,"state":"active","ping":54},{"user_id":29,"name":"using a laptop","steam_id":76561199445302425,"connected_time":1109000000000,"state":"active","ping":160},{"user_id":22,"name":"Trotter","steam_id":76561198343965263,"connected_time":1377000000000,"state":"active","ping":71},{"user_id":36,"name":"Second Lieutenant Pisser","steam_id":76561198866538028,"connected_time":665000000000,"state":"active","ping":77},{"user_id":38,"name":"Turbo_dip","steam_id":76561198446508846,"connected_time":521000000000,"state":"active","ping":70},{"user_id":30,"name":"aoam","steam_id":76561198087803935,"connected_time":1012000000000,"state":"active","ping":47},{"user_id":26,"name":"sav","steam_id":76561198058760041,"connected_time":1233000000000,"state":"active","ping":73},{"user_id":39,"name":"LaFleur","steam_id":76561198869499113,"connected_time":460000000000,"state":"active","ping":52},{"user_id":32,"name":"Mezorak","steam_id":76561198053433380,"connected_time":839000000000,"state":"active","ping":57},{"user_id":34,"name":"Pompadouraus","steam_id":76561198327530525,"connected_time":790000000000,"state":"active","ping":75},{"user_id":35,"name":"Finger Bun Fun","steam_id":76561198118383219,"connected_time":763000000000,"state":"active","ping":59},{"user_id":42,"name":"Rashid Of The Dank Memes","steam_id":76561198281398078,"connected_time":310000000000,"state":"active","ping":63}]},{"server_id":395,"name":"Uncletopia | Sydney | 3 | All Maps","name_short":"syd-3","host":"syd-1.au.uncletopia.com","port":27035,"enabled":true,"region":"au","cc":"au","latitude":-33.865143,"longitude":151.2099,"reserved":0,"last_update":"0001-01-01T00:00:00Z","name_a2s":"Uncletopia | Sydney | 3 | All Maps","protocol":17,"map":"cp_dustbowl","folder":"tf","game":"Team Fortress","app_id":440,"player_count":0,"max_players":24,"Bots":0,"server_type":"Dedicated","server_os":"Linux","password":true,"vac":true,"version":"7961495","steam_id":85568392925194467,"keywords":["cp","nocrits","nodmgspread","uncletopia"],"game_id":440,"stv_port":27036,"stv_name":"Uncletopia | Sydney | 3 | All Maps | STV","players":null},{"server_id":396,"name":"Uncletopia | Sydney | 4 | All Maps","name_short":"syd-4","host":"syd-1.au.uncletopia.com","port":27045,"enabled":true,"region":"au","cc":"au","latitude":-33.865143,"longitude":151.2099,"reserved":0,"last_update":"0001-01-01T00:00:00Z","name_a2s":"Uncletopia | Sydney | 4 | All Maps","protocol":17,"map":"cp_dustbowl","folder":"tf","game":"Team Fortress","app_id":440,"player_count":0,"max_players":24,"Bots":0,"server_type":"Dedicated","server_os":"Linux","password":true,"vac":true,"version":"7961495","steam_id":85568392925397958,"keywords":["cp","nocrits","nodmgspread","uncletopia"],"game_id":440,"stv_port":27046,"stv_name":"Uncletopia | Sydney | 4 | All Maps | STV","players":null},{"server_id":58,"name":"Uncletopia | Sydney | 5 | Stopwatch Beta","name_short":"syd-5","host":"syd-1.au.uncletopia.com","port":27055,"enabled":true,"region":"au","cc":"au","latitude":-33.865143,"longitude":151.2099,"reserved":0,"last_update":"0001-01-01T00:00:00Z","name_a2s":"Uncletopia | Sydney | 5 | Stopwatch Beta","protocol":17,"map":"koth_viaduct","folder":"tf","game":"Team Fortress","app_id":440,"player_count":0,"max_players":24,"Bots":0,"server_type":"Dedicated","server_os":"Linux","password":true,"vac":true,"version":"7961495","steam_id":85568392925397959,"keywords":["cp","nocrits","nodmgspread","uncletopia"],"game_id":440,"stv_port":27056,"stv_name":"Uncletopia | Sydney | 5 | Stopwatch Beta | STV","players":null},{"server_id":59,"name":"Uncletopia | Sydney | 6 | Community","name_short":"syd-6","host":"syd-1.au.uncletopia.com","port":27065,"enabled":true,"region":"au","cc":"au","latitude":-33.865143,"longitude":151.2099,"reserved":0,"last_update":"0001-01-01T00:00:00Z","name_a2s":"Uncletopia | Sydney | 6 | Community","protocol":17,"map":"koth_cascade","folder":"tf","game":"Team Fortress","app_id":440,"player_count":0,"max_players":24,"Bots":0,"server_type":"Dedicated","server_os":"Linux","password":true,"vac":true,"version":"7961495","steam_id":85568392925397960,"keywords":["cp","nocrits","nodmgspread","uncletopia"],"game_id":440,"stv_port":27066,"stv_name":"Uncletopia | Sydney | 6 | Community | STV","players":null},{"server_id":49,"name":"Uncletopia | Warsaw | 1 | All Maps","name_short":"waw-1","host":"waw-1.pl.uncletopia.com","port":27015,"enabled":true,"region":"eu","cc":"pl","latitude":52.2297,"longitude":21.017532,"reserved":0,"last_update":"0001-01-01T00:00:00Z","name_a2s":"","protocol":0,"map":"","folder":"","game":"","app_id":0,"player_count":0,"max_players":0,"Bots":0,"server_type":"","server_os":"","password":false,"vac":false,"version":"","steam_id":0,"keywords":null,"game_id":0,"stv_port":0,"stv_name":"","players":null},{"server_id":50,"name":"Uncletopia | Warsaw | 2 | All Maps","name_short":"waw-2","host":"waw-1.pl.uncletopia.com","port":27025,"enabled":true,"region":"eu","cc":"pl","latitude":52.2297,"longitude":21.017532,"reserved":0,"last_update":"0001-01-01T00:00:00Z","name_a2s":"","protocol":0,"map":"","folder":"","game":"","app_id":0,"player_count":0,"max_players":0,"Bots":0,"server_type":"","server_os":"","password":false,"vac":false,"version":"","steam_id":0,"keywords":null,"game_id":0,"stv_port":0,"stv_name":"","players":null},{"server_id":51,"name":"Uncletopia | Warsaw | 3 | All Maps","name_short":"waw-3","host":"waw-1.pl.uncletopia.com","port":27035,"enabled":true,"region":"eu","cc":"pl","latitude":52.2297,"longitude":21.017532,"reserved":0,"last_update":"0001-01-01T00:00:00Z","name_a2s":"","protocol":0,"map":"","folder":"","game":"","app_id":0,"player_count":0,"max_players":0,"Bots":0,"server_type":"","server_os":"","password":false,"vac":false,"version":"","steam_id":0,"keywords":null,"game_id":0,"stv_port":0,"stv_name":"","players":null},{"server_id":52,"name":"Uncletopia | Warsaw | 4 | All Maps","name_short":"waw-4","host":"waw-1.pl.uncletopia.com","port":27045,"enabled":true,"region":"eu","cc":"pl","latitude":52.2297,"longitude":21.017532,"reserved":0,"last_update":"0001-01-01T00:00:00Z","name_a2s":"","protocol":0,"map":"","folder":"","game":"","app_id":0,"player_count":0,"max_players":0,"Bots":0,"server_type":"","server_os":"","password":false,"vac":false,"version":"","steam_id":0,"keywords":null,"game_id":0,"stv_port":0,"stv_name":"","players":null},{"server_id":53,"name":"Uncletopia | Warsaw | 5 | Stopwatch Beta","name_short":"waw-5","host":"waw-1.pl.uncletopia.com","port":27055,"enabled":true,"region":"eu","cc":"pl","latitude":52.2297,"longitude":21.017532,"reserved":0,"last_update":"0001-01-01T00:00:00Z","name_a2s":"","protocol":0,"map":"","folder":"","game":"","app_id":0,"player_count":0,"max_players":0,"Bots":0,"server_type":"","server_os":"","password":false,"vac":false,"version":"","steam_id":0,"keywords":null,"game_id":0,"stv_port":0,"stv_name":"","players":null},{"server_id":54,"name":"Uncletopia | Warsaw | 6 | Community","name_short":"waw-6","host":"waw-1.pl.uncletopia.com","port":27065,"enabled":true,"region":"eu","cc":"pl","latitude":52.2297,"longitude":21.017532,"reserved":0,"last_update":"0001-01-01T00:00:00Z","name_a2s":"","protocol":0,"map":"","folder":"","game":"","app_id":0,"player_count":0,"max_players":0,"Bots":0,"server_type":"","server_os":"","password":false,"vac":false,"version":"","steam_id":0,"keywords":null,"game_id":0,"stv_port":0,"stv_name":"","players":null}]}