{"status":true,"message":"","result":[{"server_id":2,"name":"Uncletopia | Chicago | 1 | All Maps","name_short":"chi-1","host":"chi-1.us.uncletopia.com","port":27015,"enabled":true,"region":"us-central","cc":"us","latitude":41.881832,"longitude":-87.62318,"reserved":0,"last_update":"0001-01-01T00:00:00Z","name_a2s":"Uncletopia | Chicago | 1 | All Maps","protocol":17,"map":"pl_upward","folder":"tf","game":"Team Fortress","app_id":440,"player_count":24,"max_players":24,"Bots":0,"server_type":"Dedicated","server_os":"Linux","password":true,"vac":true,"version":"7932396","steam_id":85568392924469984,"keywords":["nocrits","nodmgspread","payload","uncletopia"],"game_id":440,"stv_port":27016,"stv_name":"Uncletopia | Chicago | 1 | All Maps | STV","players":[{"user_id":50,"name":"God","steam_id":76561198131089513,"connected_time":1161000000000,"state":"active","ping":59},{"user_id":60,"name":"Dzhoshua","steam_id":76561198071915251,"connected_time":783000000000,"state":"active","ping":60},{"user_id":48,"name":"Gijsie_","steam_id":76561198831416559,"connected_time":1301000000000,"state":"active","ping":161},{"user_id":54,"name":"WEED!!11!!GOBLIN","steam_id":76561198834268598,"connected_time":1022000000000,"state":"active","ping":60},{"user_id":74,"name":"Terminal Brain Rot","steam_id":76561198112594672,"connected_time":198000000000,"state":"active","ping":66},{"user_id":58,"name":"Cesar Barrels","steam_id":76561198984117905,"connected_time":992000000000,"state":"active","ping":99},{"user_id":32,"name":"Kuyumiester","steam_id":76561198126835302,"connected_time":2625000000000,"state":"active","ping":63},{"user_id":69,"name":"RatAudiobooks","steam_id":76561198391634813,"connected_time":572000000000,"state":"active","ping":68},{"user_id":72,"name":"Floaty","steam_id":76561198066487242,"connected_time":499000000000,"state":"active","ping":57},{"user_id":38,"name":"Pick Up That Can","steam_id":76561198126582848,"connected_time":2026000000000,"state":"active","ping":52},{"user_id":39,"name":"salad","steam_id":76561198190551935,"connected_time":1991000000000,"state":"active","ping":98},{"user_id":61,"name":"Don't Fuckle with Shuckle","steam_id":76561199020102367,"connected_time":764000000000,"state":"active","ping":88},{"user_id":45,"name":"Eris","steam_id":76561198347660282,"connected_time":1479000000000,"state":"active","ping":70},{"user_id":46,"name":"vicky","steam_id":76561198240344950,"connected_time":1402000000000,"state":"active","ping":93},{"user_id":66,"name":"amberenix","steam_id":76561198805110908,"connected_time":619000000000,"state":"active","ping":85},{"user_id":51,"name":"zzzPoison‚ù§","steam_id":76561198302928116,"connected_time":1159000000000,"state":"active","ping":56},{"user_id":52,"name":"chiefpapos","steam_id":76561198273996638,"connected_time":1152000000000,"state":"active","ping":77},{"user_id":73,"name":"Tots","steam_id":76561198027485007,"connected_time":284000000000,"state":"active","ping":71},{"user_id":62,"name":"THE CUMEST LORD","steam_id":76561198061412592,"connected_time":696000000000,"state":"active","ping":69},{"user_id":63,"name":"ReDiculous22","steam_id":76561198038391383,"connected_time":681000000000,"state":"active","ping":71},{"user_id":65,"name":"ttv/Gummyia (Girl + Live!)","steam_id":76561198092419346,"connected_time":645000000000,"state":"active","ping":50},{"user_id":67,"name":"mikey","steam_id":76561198095803763,"connected_time":615000000000,"state":"active","ping":86},{"user_id":70,"name":"moonlightz","steam_id":76561199083859469,"connected_time":557000000000,"state":"active","ping":62},{"user_id":71,"name":"Ghilo","steam_id":76561198010112441,"connected_time":538000000000,"state":"active","ping":110}]},{"server_id":106,"name":"Uncletopia | Chicago | 2 | All Maps","name_short":"chi-2","host":"chi-1.us.uncletopia.com","port":27025,"enabled":true,"region":"us-central","cc":"us","latitude":41.881832,"longitude":-87.62318,"reserved":0,"last_update":"0001-01-01T00:00:00Z","name_a2s":"Uncletopia | Chicago | 2 | All Maps","protocol":17,"map":"pl_snowycoast","folder":"tf","game":"Team Fortress","app_id":440,"player_count":0,"max_players":24,"Bots":0,"server_type":"Dedicated","server_os":"Linux","password":true,"vac":true,"version":"7932396","steam_id":85568392924469985,"keywords":["nocrits","nodmgspread","payload","uncletopia"],"game_id":440,"stv_port":27026,"stv_name":"Uncletopia | Chicago | 2 | All Maps | STV","players":null},{"server_id":402,"name":"Uncletopia | Chicago | 3 | All Maps","name_short":"chi-3","host":"chi-1.us.uncletopia.com","port":27035,"enabled":true,"region":"us-central","cc":"us","latitude":41.881832,"longitude":-87.62318,"reserved":0,"last_update":"0001-01-01T00:00:00Z","name_a2s":"Uncletopia | Chicago | 3 | All Maps","protocol":17,"map":"pl_swiftwater_final1","folder":"tf","game":"Team Fortress","app_id":440,"player_count":0,"max_players":24,"Bots":0,"server_type":"Dedicated","server_os":"Linux","password":true,"vac":true,"version":"7932396","steam_id":85568392924515191,"keywords":["nocrits","nodmgspread","payload","uncletopia"],"game_id":440,"stv_port":27036,"stv_name":"Uncletopia | Chicago | 3 | All Maps | STV","players":null},{"server_id":403,"name":"Uncletopia | Chicago | 4 | All Maps","name_short":"chi-4","host":"chi-1.us.uncletopia.com","port":27045,"enabled":true,"region":"us-central","cc":"us","latitude":41.881832,"longitude":-87.62318,"reserved":0,"last_update":"0001-01-01T00:00:00Z","name_a2s":"Uncletopia | Chicago | 4 | All Maps","protocol":17,"map":"pl_badwater","folder":"tf","game":"Team Fortress","app_id":440,"player_count":20,"max_players":24,"Bots":0,"server_type":"Dedicated","server_os":"Linux","password":true,"vac":true,"version":"7932396","steam_id":85568392924515193,"keywords":["nocrits","nodmgspread","payload","uncletopia"],"game_id":440,"stv_port":27046,"stv_name":"Uncletopia | Chicago | 4 | All Maps | STV","players":[{"user_id":14,"name":"Sir Loincloth","steam_id":76561198033073991,"connected_time":4882000000000,"state":"active","ping":66},{"user_id":70,"name":"Albino Jellyfish","steam_id":76561198208561097,"connected_time":488000000000,"state":"active","ping":60},{"user_id":5,"name":"sabdychan","steam_id":76561198973078784,"connected_time":4959000000000,"state":"active","ping":63},{"user_id":32,"name":"Shaunt","steam_id":76561198171551057,"connected_time":3980000000000,"state":"active","ping":51},{"user_id":76,"name":"smams_productions","steam_id":76561198200589378,"connected_time":20000000000,"state":"active","ping":62},{"user_id":73,"name":"deadmian.","steam_id":76561198089098014,"connected_time":364000000000,"state":"active","ping":85},{"user_id":68,"name":"xp","steam_id":76561199207991492,"connected_time":1200000000000,"state":"active","ping":60},{"user_id":60,"name":"Epifiny","steam_id":76561198027958086,"connected_time":2108000000000,"state":"active","ping":69},{"user_id":23,"name":"bobbymcbobington","steam_id":76561199089411172,"connected_time":4313000000000,"state":"active","ping":115},{"user_id":17,"name":"TheDerpingNoob","steam_id":76561198109783729,"connected_time":4789000000000,"state":"active","ping":47},{"user_id":58,"name":"SmileyVR","steam_id":76561197998366715,"connected_time":2374000000000,"state":"active","ping":60},{"user_id":65,"name":"Zanartan","steam_id":76561198050528902,"connected_time":1585000000000,"state":"active","ping":185},{"user_id":21,"name":"TheGamingGuru","steam_id":76561198356484354,"connected_time":4379000000000,"state":"active","ping":126},{"user_id":74,"name":"_Hot_Fuzz_","steam_id":76561198160304886,"connected_time":158000000000,"state":"active","ping":54},{"user_id":75,"name":"Quakedad","steam_id":76561198055811307,"connected_time":154000000000,"state":"active","ping":122},{"user_id":59,"name":"HateIsOnSale","steam_id":76561199060968518,"connected_time":2356000000000,"state":"active","ping":82},{"user_id":66,"name":"phantom","steam_id":76561197963860777,"connected_time":1511000000000,"state":"active","ping":53},{"user_id":47,"name":"Save","steam_id":76561198032740584,"connected_time":3328000000000,"state":"active","ping":73},{"user_id":69,"name":"BIG HOG","steam_id":76561198079923652,"connected_time":998000000000,"state":"active","ping":75},{"user_id":55,"name":"Ace Attorney","steam_id":76561198133011705,"connected_time":2441000000000,"state":"active","ping":62}]},{"server_id":36,"name":"Uncletopia | Chicago | 5 | All Maps","name_short":"chi-5","host":"chi-2.us.uncletopia.com","port":27015,"enabled":true,"region":"us-central","cc":"us","latitude":41.881832,"longitude":-87.62318,"reserved":0,"last_update":"0001-01-01T00:00:00Z","name_a2s":"Uncletopia | Chicago | 5 | All Maps","protocol":17,"map":"cp_altitude","folder":"tf","game":"Team Fortress","app_id":440,"player_count":0,"max_players":24,"Bots":0,"server_type":"Dedicated","server_os":"Linux","password":true,"vac":true,"version":"7932396","steam_id":85568392924866362,"keywords":["cp","nocrits","nodmgspread","uncletopia"],"game_id":440,"stv_port":27016,"stv_name":"Uncletopia | Chicago | 5 | All Maps | STV","players":null},{"server_id":37,"name":"Uncletopia | Chicago | 6 | All Maps","name_short":"chi-6","host":"chi-2.us.uncletopia.com","port":27025,"enabled":true,"region":"us-central","cc":"us","latitude":41.881832,"longitude":-87.62318,"reserved":0,"last_update":"0001-01-01T00:00:00Z","name_a2s":"Uncletopia | Chicago | 6 | All Maps","protocol":17,"map":"koth_viaduct","folder":"tf","game":"Team Fortress","app_id":440,"player_count":0,"max_players":24,"Bots":0,"server_type":"Dedicated","server_os":"Linux","password":true,"vac":true,"version":"7932396","steam_id":85568392924866363,"keywords":["cp","nocrits","nodmgspread","uncletopia"],"game_id":440,"stv_port":27026,"stv_name":"Uncletopia | Chicago | 6 | All Maps | STV","players":null},{"server_id":38,"name":"Uncletopia | Chicago | 7 | Stopwatch Beta","name_short":"chi-7","host":"chi-2.us.uncletopia.com","port":27035,"enabled":true,"region":"us-central","cc":"us","latitude":41.881832,"longitude":-87.62318,"reserved":0,"last_update":"0001-01-01T00:00:00Z","name_a2s":"Uncletopia | Chicago | 7 | Stopwatch Beta","protocol":17,"map":"pl_borneo","folder":"tf","game":"Team Fortress","app_id":440,"player_count":0,"max_players":24,"Bots":0,"server_type":"Dedicated","server_os":"Linux","password":true,"vac":true,"version":"7932396","steam_id":85568392924866364,"keywords":["nocrits","nodmgspread","payload","uncletopia"],"game_id":440,"stv_port":27036,"stv_name":"Uncletopia | Chicago | 7 | Stopwatch Beta | STV","players":null},{"server_id":39,"name":"Uncletopia | Chicago | 8 | Community","name_short":"chi-8","host":"chi-2.us.uncletopia.com","port":27045,"enabled":true,"region":"us-central","cc":"us","latitude":41.881832,"longitude":-87.62318,"reserved":0,"last_update":"0001-01-01T00:00:00Z","name_a2s":"Uncletopia | Chicago | 8 | Community","protocol":17,"map":"koth_viaduct","folder":"tf","game":"Team Fortress","app_id":440,"player_count":0,"max_players":24,"Bots":0,"server_type":"Dedicated","server_os":"Linux","password":true,"vac":true,"version":"7932396","steam_id":85568392924866365,"keywords":["cp","nocrits","nodmgspread","uncletopia"],"game_id":440,"stv_port":27046,"stv_name":"Uncletopia | Chicago | 8 | Community | STV","players":null},{"server_id":8,"name":"Uncletopia | Dallas | 1 | All Maps","name_short":"dal-1","host":"dal-1.us.uncletopia.com","port":27015,"enabled":true,"region":"us-central","cc":"us","latitude":32.779167,"longitude":-96.80889,"reserved":0,"last_update":"0001-01-01T00:00:00Z","name_a2s":"Uncletopia | Dallas | 1 | All Maps","protocol":17,"map":"cp_gullywash_final1","folder":"tf","game":"Team Fortress","app_id":440,"player_count":24,"max_players":24,"Bots":0,"server_type":"Dedicated","server_os":"Linux","password":true,"vac":true,"version":"7932396","steam_id":85568392924469986,"keywords":["cp","nocrits","nodmgspread","uncletopia"],"game_id":440,"stv_port":27016,"stv_name":"Uncletopia | Dallas | 1 | All Maps | STV","players":[{"user_id":3,"name":"WillKill","steam_id":76561197990341180,"connected_time":4936000000000,"state":"active","ping":81},{"user_id":4,"name":"Ojen","steam_id":76561197998414482,"connected_time":4934000000000,"state":"active","ping":94},{"user_id":5,"name":"lb Diamond","steam_id":76561197967998740,"connected_time":4932000000000,"state":"active","ping":97},{"user_id":6,"name":"Nahvee","steam_id":76561198119759695,"connected_time":4929000000000,"state":"active","ping":70},{"user_id":37,"name":"Tyler\u0026Fingers","steam_id":76561198085154485,"connected_time":3665000000000,"state":"active","ping":91},{"user_id":61,"name":"wackob","steam_id":76561198044478622,"connected_time":1238000000000,"state":"active","ping":100},{"user_id":9,"name":"qt pa 2t","steam_id":76561198066867150,"connected_time":4910000000000,"state":"active","ping":89},{"user_id":10,"name":"Chilling Bing","steam_id":76561198140651185,"connected_time":4908000000000,"state":"active","ping":56},{"user_id":18,"name":"perfect inCell","steam_id":76561198059182316,"connected_time":4732000000000,"state":"active","ping":76},{"user_id":72,"name":"Starkiller","steam_id":76561198101643120,"connected_time":326000000000,"state":"active","ping":47},{"user_id":54,"name":"Knight_Lover456","steam_id":76561198406715922,"connected_time":1885000000000,"state":"active","ping":101},{"user_id":73,"name":"The Collective(Hypnotist)","steam_id":76561198170423483,"connected_time":324000000000,"state":"active","ping":84},{"user_id":62,"name":"sleeperino","steam_id":76561198061504714,"connected_time":1116000000000,"state":"active","ping":63},{"user_id":17,"name":"resh!","steam_id":76561198066619792,"connected_time":4737000000000,"state":"active","ping":59},{"user_id":42,"name":"rizzard of oz","steam_id":76561198040907214,"connected_time":3002000000000,"state":"active","ping":68},{"user_id":20,"name":"Pancake","steam_id":76561198057888197,"connected_time":4699000000000,"state":"active","ping":89},{"user_id":39,"name":"GunBunnii","steam_id":76561197991093019,"connected_time":3167000000000,"state":"active","ping":78},{"user_id":60,"name":"Sunny Unruly","steam_id":76561199280853585,"connected_time":1391000000000,"state":"active","ping":170},{"user_id":51,"name":"Wacks","steam_id":76561198079476100,"connected_time":2257000000000,"state":"active","ping":89},{"user_id":69,"name":"Markiplier","steam_id":76561199218194540,"connected_time":613000000000,"state":"active","ping":85},{"user_id":74,"name":"sera","steam_id":76561198161604812,"connected_time":235000000000,"state":"active","ping":115},{"user_id":55,"name":"Pight","steam_id":76561198823422389,"connected_time":1868000000000,"state":"active","ping":89},{"user_id":66,"name":"mndbrkn","steam_id":76561198054390505,"connected_time":1013000000000,"state":"active","ping":69},{"user_id":41,"name":"Knooper","steam_id":76561198096149824,"connected_time":3051000000000,"state":"active","ping":119}]},{"server_id":108,"name":"Uncletopia | Dallas | 2 | All Maps","name_short":"dal-2","host":"dal-1.us.uncletopia.com","port":27025,"enabled":true,"region":"us-central","cc":"us","latitude":32.779167,"longitude":-96.80889,"reserved":0,"last_update":"0001-01-01T00:00:00Z","name_a2s":"Uncletopia | Dallas | 2 | All Maps","protocol":17,"map":"cp_altitude","folder":"tf","game":"Team Fortress","app_id":440,"player_count":0,"max_players":24,"Bots":0,"server_type":"Dedicated","server_os":"Linux","password":true,"vac":true,"version":"7932396","steam_id":85568392924469988,"keywords":["cp","nocrits","nodmgspread","uncletopia"],"game_id":440,"stv_port":27026,"stv_name":"Uncletopia | Dallas | 2 | All Maps | STV","players":null},{"server_id":5,"name":"Uncletopia | Frankfurt | 1 | All Maps","name_short":"frk-1","host":"frk-1.de.uncletopia.com","port":27015,"enabled":true,"region":"eu","cc":"de","latitude":50.110924,"longitude":8.682127,"reserved":0,"last_update":"0001-01-01T00:00:00Z","name_a2s":"Uncletopia | Frankfurt | 1 | All Maps","protocol":17,"map":"pl_frontier_final","folder":"tf","game":"Team Fortress","app_id":440,"player_count":23,"max_players":24,"Bots":0,"server_type":"Dedicated","server_os":"Linux","password":true,"vac":true,"version":"7932396","steam_id":85568392924469989,"keywords":["nocrits","nodmgspread","payload","uncletopia"],"game_id":440,"stv_port":27016,"stv_name":"Uncletopia | Frankfurt | 1 | All Maps | STV","players":[{"user_id":261,"name":"{*R@MIRU$*}","steam_id":76561197989873986,"connected_time":353000000000,"state":"active","ping":76},{"user_id":260,"name":"Unseen","steam_id":76561198154670360,"connected_time":382000000000,"state":"active","ping":82},{"user_id":231,"name":"7-Zip","steam_id":76561198099726966,"connected_time":2617000000000,"state":"active","ping":102},{"user_id":258,"name":"ogsdu","steam_id":76561197994849019,"connected_time":394000000000,"state":"active","ping":69},{"user_id":265,"name":"SCRAMMMBLED","steam_id":76561197998307746,"connected_time":48000000000,"state":"active","ping":63},{"user_id":245,"name":"Skittles","steam_id":76561198024077569,"connected_time":1151000000000,"state":"active","ping":71},{"user_id":263,"name":"vadr","steam_id":76561198334528186,"connected_time":269000000000,"state":"active","ping":57},{"user_id":262,"name":"skai","steam_id":76561198184881255,"connected_time":333000000000,"state":"active","ping":74},{"user_id":232,"name":"Pinochet","steam_id":76561198194042394,"connected_time":2616000000000,"state":"active","ping":144},{"user_id":248,"name":"Greenmaker","steam_id":76561198060466591,"connected_time":971000000000,"state":"active","ping":83},{"user_id":253,"name":"Dr snuggles","steam_id":76561198151918102,"connected_time":591000000000,"state":"active","ping":87},{"user_id":244,"name":"Wyremingo","steam_id":76561198314337596,"connected_time":1164000000000,"state":"active","ping":112},{"user_id":237,"name":"Watermelon","steam_id":76561198078349914,"connected_time":2013000000000,"state":"active","ping":59},{"user_id":252,"name":"jt7","steam_id":76561198073655162,"connected_time":861000000000,"state":"active","ping":71},{"user_id":243,"name":"nvs","steam_id":76561198120668070,"connected_time":1319000000000,"state":"active","ping":60},{"user_id":247,"name":"Gety0","steam_id":76561198044387185,"connected_time":988000000000,"state":"active","ping":84},{"user_id":256,"name":"fregaropa","steam_id":76561198150806166,"connected_time":422000000000,"state":"active","ping":79},{"user_id":159,"name":"jaime8D","steam_id":76561197980590671,"connected_time":6617000000000,"state":"active","ping":90},{"user_id":234,"name":"Accident","steam_id":76561198115160396,"connected_time":2427000000000,"state":"active","ping":71},{"user_id":264,"name":"Popop","steam_id":76561198004793795,"connected_time":254000000000,"state":"active","ping":50},{"user_id":236,"name":"RiX","steam_id":76561197969053733,"connected_time":2023000000000,"state":"active","ping":67},{"user_id":233,"name":"skill based","steam_id":76561198341178432,"connected_time":2535000000000,"state":"active","ping":57},{"user_id":255,"name":"please do not the cat","steam_id":76561198089003514,"connected_time":509000000000,"state":"active","ping":45}]},{"server_id":110,"name":"Uncletopia | Frankfurt | 2 | All Maps","name_short":"frk-2","host":"frk-1.de.uncletopia.com","port":27025,"enabled":true,"region":"eu","cc":"de","latitude":50.110924,"longitude":8.682127,"reserved":0,"last_update":"0001-01-01T00:00:00Z","name_a2s":"Uncletopia | Frankfurt | 2 | All Maps","protocol":17,"map":"pl_borneo","folder":"tf","game":"Team Fortress","app_id":440,"player_count":2,"max_players":24,"Bots":0,"server_type":"Dedicated","server_os":"Linux","password":true,"vac":true,"version":"7932396","steam_id":85568392924469990,"keywords":["nocrits","nodmgspread","payload","uncletopia"],"game_id":440,"stv_port":27026,"stv_name":"Uncletopia | Frankfurt | 2 | All Maps | STV","players":[{"user_id":4,"name":"Goose of Wisdom","steam_id":76561198233465044,"connected_time":505000000000,"state":"active","ping":147},{"user_id":5,"name":"Brinier","steam_id":76561199012604288,"connected_time":423000000000,"state":"active","ping":65}]},{"server_id":308,"name":"Uncletopia | Frankfurt | 3 | All Maps","name_short":"frk-3","host":"frk-1.de.uncletopia.com","port":27035,"enabled":true,"region":"eu","cc":"de","latitude":50.110924,"longitude":8.682127,"reserved":0,"last_update":"0001-01-01T00:00:00Z","name_a2s":"Uncletopia | Frankfurt | 3 | All Maps","protocol":17,"map":"pl_frontier_final","folder":"tf","game":"Team Fortress","app_id":440,"player_count":24,"max_players":24,"Bots":0,"server_type":"Dedicated","server_os":"Linux","password":true,"vac":true,"version":"7932396","steam_id":85568392924504274,"keywords":["nocrits","nodmgspread","payload","uncletopia"],"game_id":440,"stv_port":27036,"stv_name":"Uncletopia | Frankfurt | 3 | All Maps | STV","players":[{"user_id":73,"name":"cosmetical","steam_id":76561198444036574,"connected_time":626000000000,"state":"active","ping":65},{"user_id":72,"name":"Speed Wagon","steam_id":76561198064444787,"connected_time":675000000000,"state":"active","ping":119},{"user_id":67,"name":"Pumpkin Pie","steam_id":76561198115230959,"connected_time":1445000000000,"state":"active","ping":77},{"user_id":11,"name":"ÈìÅÁãº","steam_id":76561198225242968,"connected_time":5013000000000,"state":"active","ping":116},{"user_id":66,"name":"I drink 3D printer ink","steam_id":76561198056434693,"connected_time":1631000000000,"state":"active","ping":51},{"user_id":55,"name":"HayLeX","steam_id":76561198130997343,"connected_time":2286000000000,"state":"active","ping":87},{"user_id":61,"name":"howabe","steam_id":76561197996486818,"connected_time":2077000000000,"state":"active","ping":58},{"user_id":52,"name":"Ch4bby","steam_id":76561198058792875,"connected_time":2405000000000,"state":"active","ping":58},{"user_id":62,"name":"Etherhel","steam_id":76561198838449544,"connected_time":2055000000000,"state":"active","ping":87},{"user_id":68,"name":"POZO chachiply","steam_id":76561198316355509,"connected_time":1441000000000,"state":"active","ping":75},{"user_id":47,"name":"MovingIsOverRated","steam_id":76561198385633292,"connected_time":2846000000000,"state":"active","ping":93},{"user_id":70,"name":"Purplenoogie","steam_id":76561198081872160,"connected_time":905000000000,"state":"active","ping":57},{"user_id":21,"name":"Silvestro","steam_id":76561198021660066,"connected_time":4380000000000,"state":"active","ping":76},{"user_id":25,"name":"z29ba2t0t1l301e17 (Song)","steam_id":76561198032359132,"connected_time":3959000000000,"state":"active","ping":59},{"user_id":46,"name":"KUMI","steam_id":76561198089207719,"connected_time":2889000000000,"state":"active","ping":81},{"user_id":27,"name":"jhonny el sins","steam_id":76561198982787752,"connected_time":3842000000000,"state":"active","ping":55},{"user_id":53,"name":"PelikaanEi","steam_id":76561198129780959,"connected_time":2403000000000,"state":"active","ping":56},{"user_id":69,"name":"Mister Mr.","steam_id":76561198966944744,"connected_time":1326000000000,"state":"active","ping":64},{"user_id":32,"name":"FLASH","steam_id":76561197996649686,"connected_time":3781000000000,"state":"active","ping":75},{"user_id":74,"name":"üÉî Katarina","steam_id":76561198065652251,"connected_time":603000000000,"state":"active","ping":43},{"user_id":76,"name":"kaT","steam_id":76561198879664338,"connected_time":31000000000,"state":"active","ping":60},{"user_id":75,"name":"SnowShot","steam_id":76561198004766638,"connected_time":304000000000,"state":"active","ping":67},{"user_id":71,"name":"glorbus","steam_id":76561198969544894,"connected_time":682000000000,"state":"active","ping":55},{"user_id":77,"name":"Varsk","steam_id":76561198061398890,"connected_time":22000000000,"state":"active","ping":83}]},{"server_id":309,"name":"Uncletopia | Frankfurt | 4 | All Maps","name_short":"frk-4","host":"frk-1.de.uncletopia.com","port":27045,"enabled":true,"region":"eu","cc":"de","latitude":50.110924,"longitude":8.682127,"reserved":0,"last_update":"0001-01-01T00:00:00Z","name_a2s":"Uncletopia | Frankfurt | 4 | All Maps","protocol":17,"map":"koth_viaduct","folder":"tf","game":"Team Fortress","app_id":440,"player_count":0,"max_players":24,"Bots":0,"server_type":"Dedicated","server_os":"Linux","password":true,"vac":true,"version":"7932396","steam_id":85568392924504275,"keywords":["cp","nocrits","nodmgspread","uncletopia"],"game_id":440,"stv_port":27046,"stv_name":"Uncletopia | Frankfurt | 4 | All Maps | STV","players":null},{"server_id":310,"name":"Uncletopia | Frankfurt | 5 | All Maps","name_short":"frk-5","host":"frk-1.de.uncletopia.com","port":27055,"enabled":true,"region":"eu","cc":"de","latitude":50.110924,"longitude":8.682127,"reserved":0,"last_update":"0001-01-01T00:00:00Z","name_a2s":"Uncletopia | Frankfurt | 5 | All Maps","protocol":17,"map":"cp_dustbowl","folder":"tf","game":"Team Fortress","app_id":440,"player_count":22,"max_players":24,"Bots":0,"server_type":"Dedicated","server_os":"Linux","password":true,"vac":true,"version":"7932396","steam_id":85568392924504277,"keywords":["cp","nocrits","nodmgspread","uncletopia"],"game_id":440,"stv_port":27056,"stv_name":"Uncletopia | Frankfurt | 5 | All Maps | STV","players":[{"user_id":54,"name":"fector","steam_id":76561199204249586,"connected_time":625000000000,"state":"active","ping":130},{"user_id":8,"name":"iniT","steam_id":76561198019883794,"connected_time":3422000000000,"state":"active","ping":59},{"user_id":18,"name":"Xanshi","steam_id":76561198152392309,"connected_time":2190000000000,"state":"active","ping":57},{"user_id":44,"name":"Fat Pigeon","steam_id":76561198817940142,"connected_time":1202000000000,"state":"active","ping":51},{"user_id":19,"name":"fernandobmwm355555","steam_id":76561198086609447,"connected_time":2128000000000,"state":"active","ping":50},{"user_id":22,"name":"fredu","steam_id":76561198107605938,"connected_time":2023000000000,"state":"active","ping":100},{"user_id":59,"name":"Hivel","steam_id":76561198151390773,"connected_time":221000000000,"state":"active","ping":103},{"user_id":46,"name":"Karahieb","steam_id":76561197972670214,"connected_time":955000000000,"state":"active","ping":59},{"user_id":23,"name":"Craig Cockburn","steam_id":76561198003927328,"connected_time":2010000000000,"state":"active","ping":76},{"user_id":45,"name":"Rudy Karma","steam_id":76561198349348738,"connected_time":1098000000000,"state":"active","ping":61},{"user_id":48,"name":"Lernix","steam_id":76561198382328645,"connected_time":776000000000,"state":"active","ping":57},{"user_id":26,"name":"Karen","steam_id":76561198410598772,"connected_time":1896000000000,"state":"active","ping":53},{"user_id":27,"name":"TF2Girl","steam_id":76561198061437907,"connected_time":1858000000000,"state":"active","ping":100},{"user_id":50,"name":"shrark","steam_id":76561198090001673,"connected_time":764000000000,"state":"active","ping":126},{"user_id":56,"name":"neJ","steam_id":76561198003397488,"connected_time":505000000000,"state":"active","ping":73},{"user_id":55,"name":"Ikea-Chan","steam_id":76561198123659338,"connected_time":537000000000,"state":"active","ping":85},{"user_id":38,"name":"Xeno","steam_id":76561198975556646,"connected_time":1566000000000,"state":"active","ping":45},{"user_id":57,"name":"Grenade The green goblin.","steam_id":76561197979603871,"connected_time":408000000000,"state":"active","ping":60},{"user_id":34,"name":"the joy of recycling","steam_id":76561198138509827,"connected_time":1636000000000,"state":"active","ping":75},{"user_id":35,"name":"germinator","steam_id":76561199387893648,"connected_time":1627000000000,"state":"active","ping":109},{"user_id":43,"name":"the manager","steam_id":76561198346638308,"connected_time":1316000000000,"state":"active","ping":65},{"user_id":52,"name":"Sex Man TF2","steam_id":76561198798657045,"connected_time":695000000000,"state":"active","ping":75}]},{"server_id":311,"name":"Uncletopia | Frankfurt | 6 | All Maps","name_short":"frk-6","host":"frk-1.de.uncletopia.com","port":27065,"enabled":true,"region":"eu","cc":"de","latitude":50.110924,"longitude":8.682127,"reserved":0,"last_update":"0001-01-01T00:00:00Z","name_a2s":"Uncletopia | Frankfurt | 6 | All Maps","protocol":17,"map":"koth_viaduct","folder":"tf","game":"Team Fortress","app_id":440,"player_count":0,"max_players":24,"Bots":0,"server_type":"Dedicated","server_os":"Linux","password":true,"vac":true,"version":"7932396","steam_id":85568392924504278,"keywords":["cp","nocrits","nodmgspread","uncletopia"],"game_id":440,"stv_port":27066,"stv_name":"Uncletopia | Frankfurt | 6 | All Maps | STV","players":null},{"server_id":23,"name":"Uncletopia | Frankfurt | 7 | Stopwatch Beta","name_short":"frk-7","host":"frk-1.de.uncletopia.com","port":27075,"enabled":true,"region":"eu","cc":"de","latitude":50.110924,"longitude":8.682127,"reserved":0,"last_update":"0001-01-01T00:00:00Z","name_a2s":"Uncletopia | Frankfurt | 7 | Stopwatch Beta","protocol":17,"map":"pl_snowycoast","folder":"tf","game":"Team Fortress","app_id":440,"player_count":0,"max_players":24,"Bots":0,"server_type":"Dedicated","server_os":"Linux","password":true,"vac":true,"version":"7932396","steam_id":85568392924742827,"keywords":["nocrits","nodmgspread","payload","uncletopia"],"game_id":440,"stv_port":27076,"stv_name":"Uncletopia | Frankfurt | 7 | Stopwatch Beta | STV","players":null},{"server_id":24,"name":"Uncletopia | Frankfurt | 8 | Community","name_short":"frk-8","host":"frk-1.de.uncletopia.com","port":27085,"enabled":true,"region":"eu","cc":"de","latitude":50.110924,"longitude":8.682127,"reserved":0,"last_update":"0001-01-01T00:00:00Z","name_a2s":"Uncletopia | Frankfurt | 8 | Community","protocol":17,"map":"pl_barnblitz","folder":"tf","game":"Team Fortress","app_id":440,"player_count":0,"max_players":24,"Bots":0,"server_type":"Dedicated","server_os":"Linux","password":true,"vac":true,"version":"7932396","steam_id":85568392924742828,"keywords":["nocrits","nodmgspread","payload","uncletopia"],"game_id":440,"stv_port":27086,"stv_name":"Uncletopia | Frankfurt | 8 | Community | STV","players":null},{"server_id":202,"name":"Uncletopia | Hong Kong | 1 | All Maps","name_short":"hgk-1","host":"hgk-1.hk.uncletopia.com","port":27015,"enabled":true,"region":"asia","cc":"hk","latitude":22.302711,"longitude":114.177216,"reserved":0,"last_update":"0001-01-01T00:00:00Z","name_a2s":"Uncletopia | Hong Kong | 1 | All Maps","protocol":17,"map":"pl_swiftwater_final1","folder":"tf","game":"Team Fortress","app_id":440,"player_count":0,"max_players":24,"Bots":0,"server_type":"Dedicated","server_os":"Linux","password":true,"vac":true,"version":"7932396","steam_id":85568392924494504,"keywords":["nocrits","nodmgspread","payload","uncletopia"],"game_id":440,"stv_port":27016,"stv_name":"Uncletopia | Hong Kong | 1 | All Maps | STV","players":null},{"server_id":1,"name":"Uncletopia | Los Angeles | 1 | All Maps","name_short":"lax-1","host":"lax-1.us.uncletopia.com","port":27015,"enabled":true,"region":"us-west","cc":"us","latitude":33.94279,"longitude":-118.41004,"reserved":0,"last_update":"0001-01-01T00:00:00Z","name_a2s":"Uncletopia | Los Angeles | 1 | All Maps","protocol":17,"map":"pl_pier","folder":"tf","game":"Team Fortress","app_id":440,"player_count":0,"max_players":24,"Bots":0,"server_type":"Dedicated","server_os":"Linux","password":true,"vac":true,"version":"7932396","steam_id":85568392924469991,"keywords":["nocrits","nodmgspread","payload","uncletopia"],"game_id":440,"stv_port":27016,"stv_name":"Uncletopia | Los Angeles | 1 | All Maps | STV","players":null},{"server_id":112,"name":"Uncletopia | Los Angeles | 2 | All Maps","name_short":"lax-2","host":"lax-1.us.uncletopia.com","port":27025,"enabled":true,"region":"us-west","cc":"us","latitude":33.94279,"longitude":-118.41004,"reserved":0,"last_update":"0001-01-01T00:00:00Z","name_a2s":"Uncletopia | Los Angeles | 2 | All Maps","protocol":17,"map":"koth_highpass","folder":"tf","game":"Team Fortress","app_id":440,"player_count":0,"max_players":24,"Bots":0,"server_type":"Dedicated","server_os":"Linux","password":true,"vac":true,"version":"7932396","steam_id":85568392924469992,"keywords":["cp","nocrits","nodmgspread","uncletopia"],"game_id":440,"stv_port":27026,"stv_name":"Uncletopia | Los Angeles | 2 | All Maps | STV","players":null},{"server_id":324,"name":"Uncletopia | Los Angeles | 3 | All Maps","name_short":"lax-3","host":"lax-1.us.uncletopia.com","port":27035,"enabled":true,"region":"us-west","cc":"us","latitude":33.94279,"longitude":-118.41004,"reserved":0,"last_update":"0001-01-01T00:00:00Z","name_a2s":"Uncletopia | Los Angeles | 3 | All Maps","protocol":17,"map":"cp_process_final","folder":"tf","game":"Team Fortress","app_id":440,"player_count":0,"max_players":24,"Bots":0,"server_type":"Dedicated","server_os":"Linux","password":true,"vac":true,"version":"7932396","steam_id":85568392924510198,"keywords":["cp","nocrits","nodmgspread","uncletopia"],"game_id":440,"stv_port":27036,"stv_name":"Uncletopia | Los Angeles | 3 | All Maps | STV","players":null},{"server_id":25,"name":"Uncletopia | Los Angeles | 4 | Stopwatch Beta","name_short":"lax-4","host":"lax-1.us.uncletopia.com","port":27045,"enabled":true,"region":"us-west","cc":"us","latitude":33.94279,"longitude":-118.41004,"reserved":0,"last_update":"0001-01-01T00:00:00Z","name_a2s":"Uncletopia | Los Angeles | 4 | Stopwatch Beta","protocol":17,"map":"workshop/koth_clearcut_b15.ugc2107050255","folder":"tf","game":"Team Fortress","app_id":440,"player_count":0,"max_players":24,"Bots":0,"server_type":"Dedicated","server_os":"Linux","password":true,"vac":true,"version":"7932396","steam_id":85568392924510199,"keywords":["cp","nocrits","nodmgspread","uncletopia"],"game_id":440,"stv_port":27046,"stv_name":"Uncletopia | Los Angeles | 4 | Stopwatch Beta | STV","players":null},{"server_id":11,"name":"Uncletopia | London | 1 | All Maps","name_short":"lon-1","host":"lon-1.uk.uncletopia.com","port":27015,"enabled":true,"region":"eu","cc":"gb","latitude":51.509865,"longitude":-0.118092,"reserved":0,"last_update":"0001-01-01T00:00:00Z","name_a2s":"Uncletopia | London | 1 | All Maps","protocol":17,"map":"koth_cascade","folder":"tf","game":"Team Fortress","app_id":440,"player_count":0,"max_players":24,"Bots":0,"server_type":"Dedicated","server_os":"Linux","password":true,"vac":true,"version":"7932396","steam_id":85568392924367362,"keywords":["cp","nocrits","nodmgspread","uncletopia"],"game_id":440,"stv_port":27016,"stv_name":"Uncletopia | London | 1 | All Maps | STV","players":null},{"server_id":114,"name":"Uncletopia | London | 2 | All Maps","name_short":"lon-2","host":"lon-1.uk.uncletopia.com","port":27025,"enabled":true,"region":"eu","cc":"gb","latitude":51.509865,"longitude":-0.118092,"reserved":0,"last_update":"0001-01-01T00:00:00Z","name_a2s":"Uncletopia | London | 2 | All Maps","protocol":17,"map":"koth_highpass","folder":"tf","game":"Team Fortress","app_id":440,"player_count":0,"max_players":24,"Bots":0,"server_type":"Dedicated","server_os":"Linux","password":true,"vac":true,"version":"7932396","steam_id":85568392924470941,"keywords":["cp","nocrits","nodmgspread","uncletopia"],"game_id":440,"stv_port":27026,"stv_name":"Uncletopia | London | 2 | All Maps | STV","players":null},{"server_id":320,"name":"Uncletopia | London | 3 | All Maps","name_short":"lon-3","host":"lon-1.uk.uncletopia.com","port":27035,"enabled":true,"region":"eu","cc":"gb","latitude":51.509865,"longitude":-0.118092,"reserved":0,"last_update":"0001-01-01T00:00:00Z","name_a2s":"Uncletopia | London | 3 | All Maps","protocol":17,"map":"cp_altitude","folder":"tf","game":"Team Fortress","app_id":440,"player_count":0,"max_players":24,"Bots":0,"server_type":"Dedicated","server_os":"Linux","password":true,"vac":true,"version":"7932396","steam_id":85568392924510192,"keywords":["cp","nocrits","nodmgspread","uncletopia"],"game_id":440,"stv_port":27036,"stv_name":"Uncletopia | London | 3 | All Maps | STV","players":null},{"server_id":321,"name":"Uncletopia | London | 4 | All Maps","name_short":"lon-4","host":"lon-1.uk.uncletopia.com","port":27045,"enabled":true,"region":"eu","cc":"gb","latitude":51.509865,"longitude":-0.118092,"reserved":0,"last_update":"0001-01-01T00:00:00Z","name_a2s":"Uncletopia | London | 4 | All Maps","protocol":17,"map":"cp_altitude","folder":"tf","game":"Team Fortress","app_id":440,"player_count":0,"max_players":24,"Bots":0,"server_type":"Dedicated","server_os":"Linux","password":true,"vac":true,"version":"7932396","steam_id":85568392924510193,"keywords":["cp","nocrits","nodmgspread","uncletopia"],"game_id":440,"stv_port":27046,"stv_name":"Uncletopia | London | 4 | All Maps | STV","players":null},{"server_id":21,"name":"Uncletopia | London | 5 | All Maps","name_short":"lon-5","host":"lon-1.uk.uncletopia.com","port":27055,"enabled":true,"region":"eu","cc":"gb","latitude":51.509865,"longitude":-0.118092,"reserved":0,"last_update":"0001-01-01T00:00:00Z","name_a2s":"Uncletopia | London | 5 | All Maps","protocol":17,"map":"pl_frontier_final","folder":"tf","game":"Team Fortress","app_id":440,"player_count":1,"max_players":24,"Bots":0,"server_type":"Dedicated","server_os":"Linux","password":true,"vac":true,"version":"7932396","steam_id":85568392924742829,"keywords":["nocrits","nodmgspread","payload","uncletopia"],"game_id":440,"stv_port":27056,"stv_name":"Uncletopia | London | 5 | All Maps | STV","players":[{"user_id":5,"name":"darjan69713","steam_id":76561199428131909,"connected_time":217000000000,"state":"active","ping":97}]},{"server_id":22,"name":"Uncletopia | London | 6 | All Maps","name_short":"lon-6","host":"lon-1.uk.uncletopia.com","port":27065,"enabled":true,"region":"eu","cc":"gb","latitude":51.509865,"longitude":-0.118092,"reserved":0,"last_update":"0001-01-01T00:00:00Z","name_a2s":"Uncletopia | London | 6 | All Maps","protocol":17,"map":"koth_harvest_final","folder":"tf","game":"Team Fortress","app_id":440,"player_count":22,"max_players":24,"Bots":0,"server_type":"Dedicated","server_os":"Linux","password":true,"vac":true,"version":"7932396","steam_id":85568392924742830,"keywords":["cp","nocrits","nodmgspread","uncletopia"],"game_id":440,"stv_port":27066,"stv_name":"Uncletopia | London | 6 | All Maps | STV","players":[{"user_id":293,"name":"nappo","steam_id":76561198060105180,"connected_time":3600000000000,"state":"active","ping":75},{"user_id":282,"name":"rwota","steam_id":76561198385769722,"connected_time":4012000000000,"state":"active","ping":105},{"user_id":296,"name":"em","steam_id":76561198393596975,"connected_time":3518000000000,"state":"active","ping":53},{"user_id":310,"name":"Cathedra","steam_id":76561198430227030,"connected_time":1211000000000,"state":"active","ping":67},{"user_id":315,"name":"jge","steam_id":76561198123186387,"connected_time":641000000000,"state":"active","ping":63},{"user_id":317,"name":"G_0N","steam_id":76561199403909211,"connected_time":592000000000,"state":"active","ping":59},{"user_id":302,"name":"Themadnessman","steam_id":76561198079732032,"connected_time":2388000000000,"state":"active","ping":78},{"user_id":279,"name":"wal","steam_id":76561198066043883,"connected_time":4157000000000,"state":"active","ping":46},{"user_id":314,"name":":-/","steam_id":76561198068081430,"connected_time":795000000000,"state":"active","ping":42},{"user_id":318,"name":"cuddle","steam_id":76561198805181599,"connected_time":589000000000,"state":"active","ping":56},{"user_id":250,"name":"Gubbly Bubbins","steam_id":76561198101451654,"connected_time":5556000000000,"state":"active","ping":47},{"user_id":280,"name":"eva.","steam_id":76561198054474684,"connected_time":4123000000000,"state":"active","ping":89},{"user_id":322,"name":"shablool","steam_id":76561199192795613,"connected_time":433000000000,"state":"active","ping":102},{"user_id":323,"name":"Dolcelatte","steam_id":76561198038501770,"connected_time":428000000000,"state":"active","ping":60},{"user_id":303,"name":"pHJ","steam_id":76561198022289525,"connected_time":2295000000000,"state":"active","ping":59},{"user_id":286,"name":"God's Silliest Little Jester","steam_id":76561197987168654,"connected_time":3861000000000,"state":"active","ping":57},{"user_id":327,"name":"Sixie","steam_id":76561198251675360,"connected_time":234000000000,"state":"active","ping":52},{"user_id":325,"name":"iq drops","steam_id":76561198035795130,"connected_time":341000000000,"state":"active","ping":54},{"user_id":307,"name":"Flare","steam_id":76561198039098320,"connected_time":1372000000000,"state":"active","ping":46},{"user_id":324,"name":"scott steiners strongest warrio","steam_id":76561198148888622,"connected_time":398000000000,"state":"active","ping":55},{"user_id":321,"name":"Big pissy inna trunky","steam_id":76561198878146167,"connected_time":503000000000,"state":"active","ping":69},{"user_id":329,"name":"The cost of living in the UK","steam_id":76561199000520747,"connected_time":34000000000,"state":"active","ping":46}]},{"server_id":40,"name":"Uncletopia | London | 7 | No Payload","name_short":"lon-7","host":"lon-1.uk.uncletopia.com","port":27075,"enabled":true,"region":"eu","cc":"gb","latitude":51.509865,"longitude":-0.118092,"reserved":0,"last_update":"0001-01-01T00:00:00Z","name_a2s":"Uncletopia | London | 7 | No Payload","protocol":17,"map":"pl_snowycoast","folder":"tf","game":"Team Fortress","app_id":440,"player_count":0,"max_players":24,"Bots":0,"server_type":"Dedicated","server_os":"Linux","password":true,"vac":true,"version":"7932396","steam_id":85568392924964314,"keywords":["nocrits","nodmgspread","payload","uncletopia"],"game_id":440,"stv_port":27076,"stv_name":"Uncletopia | London | 7 | No Payload | STV","players":null},{"server_id":41,"name":"Uncletopia | London | 8 | Community","name_short":"lon-8","host":"lon-1.uk.uncletopia.com","port":27085,"enabled":true,"region":"eu","cc":"gb","latitude":51.509865,"longitude":-0.118092,"reserved":0,"last_update":"0001-01-01T00:00:00Z","name_a2s":"Uncletopia | London | 8 | Community","protocol":17,"map":"workshop/pl_cactuscanyon_redux_final2.ugc2579644293","folder":"tf","game":"Team Fortress","app_id":440,"player_count":0,"max_players":24,"Bots":0,"server_type":"Dedicated","server_os":"Linux","password":true,"vac":true,"version":"7932396","steam_id":85568392924964315,"keywords":["nocrits","nodmgspread","payload","uncletopia"],"game_id":440,"stv_port":27086,"stv_name":"Uncletopia | London | 8 | Community | STV","players":null},{"server_id":300,"name":"Uncletopia | Montr√©al | 1 | All Maps","name_short":"mtl-1","host":"mtl-1.ca.uncletopia.com","port":27015,"enabled":true,"region":"us-east","cc":"ca","latitude":45.50889,"longitude":-73.56167,"reserved":0,"last_update":"0001-01-01T00:00:00Z","name_a2s":"Uncletopia | Montr√©al | 1 | All Maps","protocol":17,"map":"cp_altitude","folder":"tf","game":"Team Fortress","app_id":440,"player_count":0,"max_players":24,"Bots":0,"server_type":"Dedicated","server_os":"Linux","password":true,"vac":true,"version":"7932396","steam_id":85568392924500087,"keywords":["cp","nocrits","nodmgspread","uncletopia"],"game_id":440,"stv_port":27016,"stv_name":"Uncletopia | Montr√©al | 1 | All Maps | STV","players":null},{"server_id":301,"name":"Uncletopia | Montr√©al | 2 | All Maps","name_short":"mtl-2","host":"mtl-1.ca.uncletopia.com","port":27025,"enabled":true,"region":"us-east","cc":"ca","latitude":45.50889,"longitude":-73.56167,"reserved":0,"last_update":"0001-01-01T00:00:00Z","name_a2s":"Uncletopia | Montr√©al | 2 | All Maps","protocol":17,"map":"koth_lakeside_final","folder":"tf","game":"Team Fortress","app_id":440,"player_count":0,"max_players":24,"Bots":0,"server_type":"Dedicated","server_os":"Linux","password":true,"vac":true,"version":"7932396","steam_id":85568392924500088,"keywords":["cp","nocrits","nodmgspread","uncletopia"],"game_id":440,"stv_port":27026,"stv_name":"Uncletopia | Montr√©al | 2 | All Maps | STV","players":null},{"server_id":302,"name":"Uncletopia | Montr√©al | 3 | All Maps","name_short":"mtl-3","host":"mtl-1.ca.uncletopia.com","port":27035,"enabled":true,"region":"us-east","cc":"ca","latitude":45.50889,"longitude":-73.56167,"reserved":0,"last_update":"0001-01-01T00:00:00Z","name_a2s":"Uncletopia | Montr√©al | 3 | All Maps","protocol":17,"map":"cp_process_final","folder":"tf","game":"Team Fortress","app_id":440,"player_count":0,"max_players":24,"Bots":0,"server_type":"Dedicated","server_os":"Linux","password":true,"vac":true,"version":"7932396","steam_id":85568392924500089,"keywords":["cp","nocrits","nodmgspread","uncletopia"],"game_id":440,"stv_port":27036,"stv_name":"Uncletopia | Montr√©al | 3 | All Maps | STV","players":null},{"server_id":303,"name":"Uncletopia | Montr√©al | 4 | No Payload","name_short":"mtl-4","host":"mtl-1.ca.uncletopia.com","port":27045,"enabled":true,"region":"us-east","cc":"ca","latitude":45.50889,"longitude":-73.56167,"reserved":0,"last_update":"0001-01-01T00:00:00Z","name_a2s":"Uncletopia | Montr√©al | 4 | No Payload","protocol":17,"map":"ctf_landfall","folder":"tf","game":"Team Fortress","app_id":440,"player_count":0,"max_players":24,"Bots":0,"server_type":"Dedicated","server_os":"Linux","password":true,"vac":true,"version":"7932396","steam_id":85568392924500090,"keywords":["ctf","nocrits","nodmgspread","uncletopia"],"game_id":440,"stv_port":27046,"stv_name":"Uncletopia | Montr√©al | 4 | No Payload | STV","players":null},{"server_id":13,"name":"Uncletopia | New York City | 1 | All Maps","name_short":"nyc-1","host":"nyc-1.us.uncletopia.com","port":27015,"enabled":true,"region":"us-east","cc":"us","latitude":40.73061,"longitude":-73.93524,"reserved":0,"last_update":"0001-01-01T00:00:00Z","name_a2s":"Uncletopia | New York City | 1 | All Maps","protocol":17,"map":"cp_dustbowl","folder":"tf","game":"Team Fortress","app_id":440,"player_count":0,"max_players":24,"Bots":0,"server_type":"Dedicated","server_os":"Linux","password":true,"vac":true,"version":"7932396","steam_id":85568392924469993,"keywords":["cp","nocrits","nodmgspread","uncletopia"],"game_id":440,"stv_port":27016,"stv_name":"Uncletopia | New York City | 1 | All Maps | STV","players":null},{"server_id":14,"name":"Uncletopia | New York City | 2 | All Maps","name_short":"nyc-2","host":"nyc-1.us.uncletopia.com","port":27025,"enabled":true,"region":"us-east","cc":"us","latitude":40.73061,"longitude":-73.93524,"reserved":0,"last_update":"0001-01-01T00:00:00Z","name_a2s":"Uncletopia | New York City | 2 | All Maps","protocol":17,"map":"koth_lakeside_final","folder":"tf","game":"Team Fortress","app_id":440,"player_count":0,"max_players":24,"Bots":0,"server_type":"Dedicated","server_os":"Linux","password":true,"vac":true,"version":"7932396","steam_id":85568392924469994,"keywords":["cp","nocrits","nodmgspread","uncletopia"],"game_id":440,"stv_port":27026,"stv_name":"Uncletopia | New York City | 2 | All Maps | STV","players":null},{"server_id":15,"name":"Uncletopia | New York City | 3 | Stopwatch Beta","name_short":"nyc-3","host":"nyc-1.us.uncletopia.com","port":27035,"enabled":true,"region":"us-east","cc":"us","latitude":40.73061,"longitude":-73.93524,"reserved":0,"last_update":"0001-01-01T00:00:00Z","name_a2s":"Uncletopia | New York City | 3 | Stopwatch Beta","protocol":17,"map":"cp_sunshine","folder":"tf","game":"Team Fortress","app_id":440,"player_count":0,"max_players":24,"Bots":0,"server_type":"Dedicated","server_os":"Linux","password":true,"vac":true,"version":"7932396","steam_id":85568392924742820,"keywords":["cp","nocrits","nodmgspread","uncletopia"],"game_id":440,"stv_port":27036,"stv_name":"Uncletopia | New York City | 3 | Stopwatch Beta | STV","players":null},{"server_id":16,"name":"Uncletopia | New York City | 4 | Community","name_short":"nyc-4","host":"nyc-1.us.uncletopia.com","port":27045,"enabled":true,"region":"us-east","cc":"us","latitude":40.73061,"longitude":-73.93524,"reserved":0,"last_update":"0001-01-01T00:00:00Z","name_a2s":"Uncletopia | New York City | 4 | Community","protocol":17,"map":"pl_barnblitz","folder":"tf","game":"Team Fortress","app_id":440,"player_count":0,"max_players":24,"Bots":0,"server_type":"Dedicated","server_os":"Linux","password":true,"vac":true,"version":"7932396","steam_id":85568392924742821,"keywords":["nocrits","nodmgspread","payload","uncletopia"],"game_id":440,"stv_port":27046,"stv_name":"Uncletopia | New York City | 4 | Community | STV","players":null},{"server_id":142,"name":"Uncletopia | S√£o Paulo | 1 | All Maps","name_short":"sao-1","host":"sao-1.br.uncletopia.com","port":27015,"enabled":true,"region":"sa","cc":"br","latitude":-23.533773,"longitude":-46.62529,"reserved":0,"last_update":"0001-01-01T00:00:00Z","name_a2s":"Uncletopia | S√£o Paulo | 1 | All Maps","protocol":17,"map":"pl_badwater","folder":"tf","game":"Team Fortress","app_id":440,"player_count":0,"max_players":24,"Bots":0,"server_type":"Dedicated","server_os":"Linux","password":true,"vac":true,"version":"7932396","steam_id":85568392924469996,"keywords":["nocrits","nodmgspread","payload","uncletopia"],"game_id":440,"stv_port":27016,"stv_name":"Uncletopia | S√£o Paulo | 1 | All Maps | STV","players":null},{"server_id":143,"name":"Uncletopia | S√£o Paulo | 2 | All Maps","name_short":"sao-2","host":"sao-2.br.uncletopia.com","port":27015,"enabled":true,"region":"sa","cc":"br","latitude":-23.533773,"longitude":-46.62529,"reserved":0,"last_update":"0001-01-01T00:00:00Z","name_a2s":"Uncletopia | S√£o Paulo | 2 | All Maps","protocol":17,"map":"pl_swiftwater_final1","folder":"tf","game":"Team Fortress","app_id":440,"player_count":0,"max_players":24,"Bots":0,"server_type":"Dedicated","server_os":"Linux","password":true,"vac":true,"version":"7932396","steam_id":85568392924485349,"keywords":["nocrits","nodmgspread","payload","uncletopia"],"game_id":440,"stv_port":27016,"stv_name":"Uncletopia | S√£o Paulo | 2 | All Maps | STV","players":null},{"server_id":7,"name":"Uncletopia | Seattle | 1 | All Maps","name_short":"sea-1","host":"sea-1.us.uncletopia.com","port":27015,"enabled":true,"region":"us-west","cc":"us","latitude":47.608013,"longitude":-122.33517,"reserved":0,"last_update":"0001-01-01T00:00:00Z","name_a2s":"Uncletopia | Seattle | 1 | All Maps","protocol":17,"map":"pl_borneo","folder":"tf","game":"Team Fortress","app_id":440,"player_count":21,"max_players":24,"Bots":0,"server_type":"Dedicated","server_os":"Linux","password":true,"vac":true,"version":"7932396","steam_id":85568392924469997,"keywords":["nocrits","nodmgspread","payload","uncletopia"],"game_id":440,"stv_port":27016,"stv_name":"Uncletopia | Seattle | 1 | All Maps | STV","players":[{"user_id":841,"name":"Headmouth","steam_id":76561198019789855,"connected_time":560000000000,"state":"active","ping":183},{"user_id":777,"name":"Crunchy","steam_id":76561198240523882,"connected_time":5933000000000,"state":"active","ping":80},{"user_id":824,"name":"voot .. ..voot","steam_id":76561198041936377,"connected_time":1619000000000,"state":"active","ping":181},{"user_id":789,"name":"Shadoe","steam_id":76561198218577281,"connected_time":4904000000000,"state":"active","ping":98},{"user_id":846,"name":"Jack Horner in a F-16","steam_id":76561198062438923,"connected_time":49000000000,"state":"active","ping":117},{"user_id":786,"name":"uncle grandpa gaming","steam_id":76561198063024859,"connected_time":4939000000000,"state":"active","ping":128},{"user_id":814,"name":"Sterling Nano","steam_id":76561198048580088,"connected_time":2487000000000,"state":"active","ping":103},{"user_id":815,"name":"Patio","steam_id":76561197986082608,"connected_time":2475000000000,"state":"active","ping":58},{"user_id":845,"name":"NAHBUTLIKE???","steam_id":76561199471794973,"connected_time":263000000000,"state":"active","ping":896},{"user_id":803,"name":"Pipes_","steam_id":76561198104938603,"connected_time":3606000000000,"state":"active","ping":60},{"user_id":834,"name":"Skeleton","steam_id":76561198045293487,"connected_time":1126000000000,"state":"active","ping":119},{"user_id":843,"name":"Disciple of Crazy Steve","steam_id":76561198870068763,"connected_time":462000000000,"state":"active","ping":131},{"user_id":830,"name":"Maxx","steam_id":76561198045405304,"connected_time":1268000000000,"state":"active","ping":45},{"user_id":840,"name":"Bingleton","steam_id":76561197998930473,"connected_time":774000000000,"state":"active","ping":32},{"user_id":832,"name":"Reague","steam_id":76561199092175631,"connected_time":1242000000000,"state":"active","ping":104},{"user_id":821,"name":"Provocator","steam_id":76561197961830410,"connected_time":2221000000000,"state":"active","ping":130},{"user_id":833,"name":"Security Chief Boper","steam_id":76561198218558897,"connected_time":1232000000000,"state":"active","ping":72},{"user_id":837,"name":"Presidential Gaming","steam_id":76561198378380956,"connected_time":863000000000,"state":"active","ping":140},{"user_id":810,"name":"IMM0RTAL","steam_id":76561198013747901,"connected_time":3097000000000,"state":"active","ping":114},{"user_id":807,"name":"..flop","steam_id":76561197989058876,"connected_time":3543000000000,"state":"active","ping":80},{"user_id":838,"name":"MrMunchieCrunchie","steam_id":76561198154001590,"connected_time":833000000000,"state":"active","ping":77}]},{"server_id":119,"name":"Uncletopia | Seattle | 2 | All Maps","name_short":"sea-2","host":"sea-1.us.uncletopia.com","port":27025,"enabled":true,"region":"us-west","cc":"us","latitude":47.608013,"longitude":-122.33517,"reserved":0,"last_update":"0001-01-01T00:00:00Z","name_a2s":"Uncletopia | Seattle | 2 | All Maps","protocol":17,"map":"pl_snowycoast","folder":"tf","game":"Team Fortress","app_id":440,"player_count":0,"max_players":24,"Bots":0,"server_type":"Dedicated","server_os":"Linux","password":true,"vac":true,"version":"7932396","steam_id":85568392924469998,"keywords":["nocrits","nodmgspread","payload","uncletopia"],"game_id":440,"stv_port":27026,"stv_name":"Uncletopia | Seattle | 2 | All Maps | STV","players":null},{"server_id":406,"name":"Uncletopia | Seattle | 3 | Stopwatch Beta","name_short":"sea-3","host":"sea-1.us.uncletopia.com","port":27035,"enabled":true,"region":"us-west","cc":"us","latitude":47.608013,"longitude":-122.33517,"reserved":0,"last_update":"0001-01-01T00:00:00Z","name_a2s":"Uncletopia | Seattle | 3 | Stopwatch Beta","protocol":17,"map":"workshop/koth_clearcut_b15.ugc2107050255","folder":"tf","game":"Team Fortress","app_id":440,"player_count":0,"max_players":24,"Bots":0,"server_type":"Dedicated","server_os":"Linux","password":true,"vac":true,"version":"7932396","steam_id":85568392924515217,"keywords":["cp","nocrits","nodmgspread","uncletopia"],"game_id":440,"stv_port":27036,"stv_name":"Uncletopia | Seattle | 3 | Stopwatch Beta | STV","players":null},{"server_id":17,"name":"Uncletopia | San Francisco | 1 | All Maps","name_short":"sfo-1","host":"sfo-1.us.uncletopia.com","port":27015,"enabled":true,"region":"us-west","cc":"us","latitude":37.77397,"longitude":-122.4313,"reserved":0,"last_update":"0001-01-01T00:00:00Z","name_a2s":"Uncletopia | San Francisco | 1 | All Maps","protocol":17,"map":"koth_highpass","folder":"tf","game":"Team Fortress","app_id":440,"player_count":0,"max_players":24,"Bots":0,"server_type":"Dedicated","server_os":"Linux","password":true,"vac":true,"version":"7932396","steam_id":85568392924469999,"keywords":["cp","nocrits","nodmgspread","uncletopia"],"game_id":440,"stv_port":27016,"stv_name":"Uncletopia | San Francisco | 1 | All Maps | STV","players":null},{"server_id":18,"name":"Uncletopia | San Francisco | 2 | All Maps","name_short":"sfo-2","host":"sfo-1.us.uncletopia.com","port":27025,"enabled":true,"region":"us-west","cc":"us","latitude":37.77397,"longitude":-122.4313,"reserved":0,"last_update":"0001-01-01T00:00:00Z","name_a2s":"Uncletopia | San Francisco | 2 | All Maps","protocol":17,"map":"cp_altitude","folder":"tf","game":"Team Fortress","app_id":440,"player_count":0,"max_players":24,"Bots":0,"server_type":"Dedicated","server_os":"Linux","password":true,"vac":true,"version":"7932396","steam_id":85568392924470000,"keywords":["cp","nocrits","nodmgspread","uncletopia"],"game_id":440,"stv_port":27026,"stv_name":"Uncletopia | San Francisco | 2 | All Maps | STV","players":null},{"server_id":19,"name":"Uncletopia | San Francisco | 3 | Stopwatch Beta","name_short":"sfo-3","host":"sfo-1.us.uncletopia.com","port":27035,"enabled":true,"region":"us-west","cc":"us","latitude":37.77397,"longitude":-122.4313,"reserved":0,"last_update":"0001-01-01T00:00:00Z","name_a2s":"Uncletopia | San Francisco | 3 | Stopwatch Beta","protocol":17,"map":"workshop/pl_badwater_pro_v12.ugc2142942074","folder":"tf","game":"Team Fortress","app_id":440,"player_count":0,"max_players":24,"Bots":0,"server_type":"Dedicated","server_os":"Linux","password":true,"vac":true,"version":"7932396","steam_id":85568392924742824,"keywords":["nocrits","nodmgspread","payload","uncletopia"],"game_id":440,"stv_port":27036,"stv_name":"Uncletopia | San Francisco | 3 | Stopwatch Beta | STV","players":null},{"server_id":20,"name":"Uncletopia | San Francisco | 4 | Community","name_short":"sfo-4","host":"sfo-1.us.uncletopia.com","port":27045,"enabled":true,"region":"us-west","cc":"us","latitude":37.77397,"longitude":-122.4313,"reserved":0,"last_update":"0001-01-01T00:00:00Z","name_a2s":"Uncletopia | San Francisco | 4 | Community","protocol":17,"map":"workshop/koth_trenchfoot_b1a.ugc731436616","folder":"tf","game":"Team Fortress","app_id":440,"player_count":0,"max_players":24,"Bots":0,"server_type":"Dedicated","server_os":"Linux","password":true,"vac":true,"version":"7932396","steam_id":85568392924742826,"keywords":["cp","nocrits","nodmgspread","uncletopia"],"game_id":440,"stv_port":27046,"stv_name":"Uncletopia | San Francisco | 4 | Community | STV","players":null},{"server_id":141,"name":"Uncletopia | Sydney | 1 | All Maps","name_short":"syd-1","host":"syd-1.au.uncletopia.com","port":27015,"enabled":true,"region":"au","cc":"au","latitude":-33.865143,"longitude":151.2099,"reserved":0,"last_update":"0001-01-01T00:00:00Z","name_a2s":"Uncletopia | Sydney | 1 | All Maps","protocol":17,"map":"pl_goldrush","folder":"tf","game":"Team Fortress","app_id":440,"player_count":24,"max_players":24,"Bots":0,"server_type":"Dedicated","server_os":"Linux","password":true,"vac":true,"version":"7932396","steam_id":85568392924470001,"keywords":["nocrits","nodmgspread","payload","uncletopia"],"game_id":440,"stv_port":27016,"stv_name":"Uncletopia | Sydney | 1 | All Maps | STV","players":[{"user_id":255,"name":"Original Glazed (Krispy/Kreme)","steam_id":76561197997362731,"connected_time":1411000000000,"state":"active","ping":45},{"user_id":137,"name":"jim :)","steam_id":76561198127508905,"connected_time":11192000000000,"state":"active","ping":36},{"user_id":242,"name":"Lumalee ‚ù§","steam_id":76561198157613299,"connected_time":2794000000000,"state":"active","ping":73},{"user_id":265,"name":"Pat","steam_id":76561198244663182,"connected_time":325000000000,"state":"active","ping":67},{"user_id":204,"name":"Doctor Estonia","steam_id":76561198057365089,"connected_time":5806000000000,"state":"active","ping":78},{"user_id":241,"name":"miyamoto is daddy","steam_id":76561199483818230,"connected_time":2836000000000,"state":"active","ping":71},{"user_id":206,"name":"Jodelk√∂nig Franzl Lang","steam_id":76561198007667830,"connected_time":5622000000000,"state":"active","ping":59},{"user_id":251,"name":"Breadstick Boy","steam_id":76561198061468933,"connected_time":2407000000000,"state":"active","ping":86},{"user_id":266,"name":"dreamydoggy","steam_id":76561198448243169,"connected_time":60000000000,"state":"active","ping":57},{"user_id":246,"name":"Matt","steam_id":76561198006791420,"connected_time":2724000000000,"state":"active","ping":98},{"user_id":235,"name":"Bin","steam_id":76561199117653318,"connected_time":3339000000000,"state":"active","ping":64},{"user_id":247,"name":"Curie","steam_id":76561198132928417,"connected_time":2690000000000,"state":"active","ping":62},{"user_id":237,"name":"doctor morbin' (real)","steam_id":76561199365241695,"connected_time":3265000000000,"state":"active","ping":128},{"user_id":262,"name":"mature username","steam_id":76561198827405684,"connected_time":421000000000,"state":"active","ping":71},{"user_id":252,"name":"Del Davis (Del Davis)","steam_id":76561199365669004,"connected_time":2394000000000,"state":"active","ping":58},{"user_id":264,"name":"Nemgu","steam_id":76561198243952386,"connected_time":415000000000,"state":"active","ping":56},{"user_id":260,"name":"Cooperdoo","steam_id":76561198024740321,"connected_time":428000000000,"state":"active","ping":102},{"user_id":219,"name":"Pompadouraus","steam_id":76561198327530525,"connected_time":5097000000000,"state":"active","ping":75},{"user_id":263,"name":"Giant Rat","steam_id":76561198110170714,"connected_time":420000000000,"state":"active","ping":61},{"user_id":248,"name":"Murgath","steam_id":76561198870475930,"connected_time":2650000000000,"state":"active","ping":115},{"user_id":228,"name":"Teflon","steam_id":76561198001224301,"connected_time":4132000000000,"state":"active","ping":80},{"user_id":240,"name":"JayCatnip","steam_id":76561198125106357,"connected_time":3055000000000,"state":"active","ping":76},{"user_id":254,"name":"steezus christ","steam_id":76561198048064049,"connected_time":2244000000000,"state":"active","ping":84},{"user_id":244,"name":"Pug","steam_id":76561198136794372,"connected_time":2783000000000,"state":"active","ping":83}]},{"server_id":123,"name":"Uncletopia | Sydney | 2 | All Maps","name_short":"syd-2","host":"syd-1.au.uncletopia.com","port":27025,"enabled":true,"region":"au","cc":"au","latitude":-33.865143,"longitude":151.2099,"reserved":0,"last_update":"0001-01-01T00:00:00Z","name_a2s":"Uncletopia | Sydney | 2 | All Maps","protocol":17,"map":"ctf_2fort","folder":"tf","game":"Team Fortress","app_id":440,"player_count":6,"max_players":24,"Bots":0,"server_type":"Dedicated","server_os":"Linux","password":true,"vac":true,"version":"7932396","steam_id":85568392924470002,"keywords":["ctf","nocrits","nodmgspread","uncletopia"],"game_id":440,"stv_port":27026,"stv_name":"Uncletopia | Sydney | 2 | All Maps | STV","players":[{"user_id":100,"name":"–ü-–†-–ê-–ü-–ê-P","steam_id":76561198374667835,"connected_time":883000000000,"state":"active","ping":365},{"user_id":17,"name":"tim88435","steam_id":76561198089653987,"connected_time":8487000000000,"state":"active","ping":51},{"user_id":106,"name":"RickDog","steam_id":76561198160382607,"connected_time":11000000000,"state":"active","ping":52},{"user_id":103,"name":"Johngamer2418","steam_id":76561198377832282,"connected_time":347000000000,"state":"active","ping":59},{"user_id":84,"name":"Benskii","steam_id":76561198070130470,"connected_time":3391000000000,"state":"active","ping":53},{"user_id":51,"name":"cool38","steam_id":76561198288970258,"connected_time":4779000000000,"state":"active","ping":45}]},{"server_id":395,"name":"Uncletopia | Sydney | 3 | All Maps","name_short":"syd-3","host":"syd-1.au.uncletopia.com","port":27035,"enabled":true,"region":"au","cc":"au","latitude":-33.865143,"longitude":151.2099,"reserved":0,"last_update":"0001-01-01T00:00:00Z","name_a2s":"Uncletopia | Sydney | 3 | All Maps","protocol":17,"map":"ctf_2fort","folder":"tf","game":"Team Fortress","app_id":440,"player_count":0,"max_players":24,"Bots":0,"server_type":"Dedicated","server_os":"Linux","password":true,"vac":true,"version":"7932396","steam_id":85568392925194467,"keywords":["ctf","nocrits","nodmgspread","uncletopia"],"game_id":440,"stv_port":27036,"stv_name":"Uncletopia | Sydney | 3 | All Maps | STV","players":null},{"server_id":396,"name":"Uncletopia | Sydney | 4 | All Maps","name_short":"syd-4","host":"syd-1.au.uncletopia.com","port":27045,"enabled":true,"region":"au","cc":"au","latitude":-33.865143,"longitude":151.2099,"reserved":0,"last_update":"0001-01-01T00:00:00Z","name_a2s":"Uncletopia | Sydney | 4 | All Maps","protocol":17,"map":"koth_lakeside_final","folder":"tf","game":"Team Fortress","app_id":440,"player_count":0,"max_players":24,"Bots":0,"server_type":"Dedicated","server_os":"Linux","password":true,"vac":true,"version":"7932396","steam_id":85568392925397958,"keywords":["cp","nocrits","nodmgspread","uncletopia"],"game_id":440,"stv_port":27046,"stv_name":"Uncletopia | Sydney | 4 | All Maps | STV","players":null},{"server_id":58,"name":"Uncletopia | Sydney | 5 | Stopwatch Beta","name_short":"syd-5","host":"syd-1.au.uncletopia.com","port":27055,"enabled":true,"region":"au","cc":"au","latitude":-33.865143,"longitude":151.2099,"reserved":0,"last_update":"0001-01-01T00:00:00Z","name_a2s":"Uncletopia | Sydney | 5 | Stopwatch Beta","protocol":17,"map":"pl_borneo","folder":"tf","game":"Team Fortress","app_id":440,"player_count":0,"max_players":24,"Bots":0,"server_type":"Dedicated","server_os":"Linux","password":true,"vac":true,"version":"7932396","steam_id":85568392925397959,"keywords":["nocrits","nodmgspread","payload","uncletopia"],"game_id":440,"stv_port":27056,"stv_name":"Uncletopia | Sydney | 5 | Stopwatch Beta | STV","players":null},{"server_id":59,"name":"Uncletopia | Sydney | 6 | Community","name_short":"syd-6","host":"syd-1.au.uncletopia.com","port":27065,"enabled":true,"region":"au","cc":"au","latitude":-33.865143,"longitude":151.2099,"reserved":0,"last_update":"0001-01-01T00:00:00Z","name_a2s":"Uncletopia | Sydney | 6 | Community","protocol":17,"map":"workshop/cp_sulfur_rc2.ugc619869471","folder":"tf","game":"Team Fortress","app_id":440,"player_count":0,"max_players":24,"Bots":0,"server_type":"Dedicated","server_os":"Linux","password":true,"vac":true,"version":"7932396","steam_id":85568392925397960,"keywords":["cp","nocrits","nodmgspread","uncletopia"],"game_id":440,"stv_port":27066,"stv_name":"Uncletopia | Sydney | 6 | Community | STV","players":null},{"server_id":49,"name":"Uncletopia | Warsaw | 1 | All Maps","name_short":"waw-1","host":"waw-1.pl.uncletopia.com","port":27015,"enabled":true,"region":"eu","cc":"pl","latitude":52.2297,"longitude":21.017532,"reserved":0,"last_update":"0001-01-01T00:00:00Z","name_a2s":"","protocol":0,"map":"","folder":"","game":"","app_id":0,"player_count":0,"max_players":0,"Bots":0,"server_type":"","server_os":"","password":false,"vac":false,"version":"","steam_id":0,"keywords":null,"game_id":0,"stv_port":0,"stv_name":"","players":null},{"server_id":50,"name":"Uncletopia | Warsaw | 2 | All Maps","name_short":"waw-2","host":"waw-1.pl.uncletopia.com","port":27025,"enabled":true,"region":"eu","cc":"pl","latitude":52.2297,"longitude":21.017532,"reserved":0,"last_update":"0001-01-01T00:00:00Z","name_a2s":"Uncletopia | Warsaw | 2 | All Maps","protocol":17,"map":"koth_cascade","folder":"tf","game":"Team Fortress","app_id":440,"player_count":0,"max_players":24,"Bots":0,"server_type":"Dedicated","server_os":"Linux","password":true,"vac":true,"version":"7932396","steam_id":85568392925397851,"keywords":["cp","nocrits","nodmgspread","uncletopia"],"game_id":440,"stv_port":27026,"stv_name":"Uncletopia | Warsaw | 2 | All Maps | STV","players":null},{"server_id":51,"name":"Uncletopia | Warsaw | 3 | All Maps","name_short":"waw-3","host":"waw-1.pl.uncletopia.com","port":27035,"enabled":true,"region":"eu","cc":"pl","latitude":52.2297,"longitude":21.017532,"reserved":0,"last_update":"0001-01-01T00:00:00Z","name_a2s":"Uncletopia | Warsaw | 3 | All Maps","protocol":17,"map":"koth_lakeside_final","folder":"tf","game":"Team Fortress","app_id":440,"player_count":0,"max_players":24,"Bots":0,"server_type":"Dedicated","server_os":"Linux","password":true,"vac":true,"version":"7932396","steam_id":85568392925397852,"keywords":["cp","nocrits","nodmgspread","uncletopia"],"game_id":440,"stv_port":27036,"stv_name":"Uncletopia | Warsaw | 3 | All Maps | STV","players":null},{"server_id":52,"name":"Uncletopia | Warsaw | 4 | All Maps","name_short":"waw-4","host":"waw-1.pl.uncletopia.com","port":27045,"enabled":true,"region":"eu","cc":"pl","latitude":52.2297,"longitude":21.017532,"reserved":0,"last_update":"0001-01-01T00:00:00Z","name_a2s":"Uncletopia | Warsaw | 4 | All Maps","protocol":17,"map":"pl_swiftwater_final1","folder":"tf","game":"Team Fortress","app_id":440,"player_count":0,"max_players":24,"Bots":0,"server_type":"Dedicated","server_os":"Linux","password":true,"vac":true,"version":"7932396","steam_id":85568392925397853,"keywords":["nocrits","nodmgspread","payload","uncletopia"],"game_id":440,"stv_port":27046,"stv_name":"Uncletopia | Warsaw | 4 | All Maps | STV","players":null},{"server_id":53,"name":"Uncletopia | Warsaw | 5 | Stopwatch Beta","name_short":"waw-5","host":"waw-1.pl.uncletopia.com","port":27055,"enabled":true,"region":"eu","cc":"pl","latitude":52.2297,"longitude":21.017532,"reserved":0,"last_update":"0001-01-01T00:00:00Z","name_a2s":"Uncletopia | Warsaw | 5 | Stopwatch Beta","protocol":17,"map":"koth_highpass","folder":"tf","game":"Team Fortress","app_id":440,"player_count":0,"max_players":24,"Bots":0,"server_type":"Dedicated","server_os":"Linux","password":true,"vac":true,"version":"7932396","steam_id":85568392925397854,"keywords":["cp","nocrits","nodmgspread","uncletopia"],"game_id":440,"stv_port":27056,"stv_name":"Uncletopia | Warsaw | 5 | Stopwatch Beta | STV","players":null},{"server_id":54,"name":"Uncletopia | Warsaw | 6 | Community","name_short":"waw-6","host":"waw-1.pl.uncletopia.com","port":27065,"enabled":true,"region":"eu","cc":"pl","latitude":52.2297,"longitude":21.017532,"reserved":0,"last_update":"0001-01-01T00:00:00Z","name_a2s":"Uncletopia | Warsaw | 6 | Community","protocol":17,"map":"pl_upward","folder":"tf","game":"Team Fortress","app_id":440,"player_count":0,"max_players":24,"Bots":0,"server_type":"Dedicated","server_os":"Linux","password":true,"vac":true,"version":"7932396","steam_id":85568392925397856,"keywords":["nocrits","nodmgspread","payload","uncletopia"],"game_id":440,"stv_port":27066,"stv_name":"Uncletopia | Warsaw | 6 | Community | STV","players":null}]}