{"status":true,"message":"","result":[{"server_id":9,"name":"Uncletopia | Atlanta | 1 | All Maps","name_short":"atl-1","host":"atl-1.us.uncletopia.com","port":27015,"enabled":true,"region":"us-east","cc":"us","latitude":33.753746,"longitude":-84.38633,"reserved":0,"last_update":"0001-01-01T00:00:00Z","name_a2s":"Uncletopia | Atlanta | 1 | All Maps","protocol":17,"map":"pl_upward","folder":"tf","game":"Team Fortress","app_id":440,"player_count":15,"max_players":24,"Bots":0,"server_type":"Dedicated","server_os":"Linux","password":true,"vac":true,"version":"7757534","steam_id":85568392924469982,"keywords":["nocrits","nodmgspread","payload","uncletopia"],"game_id":440,"stv_port":27016,"stv_name":"Uncletopia | Atlanta | 1 | All Maps | STV","players":[{"user_id":714,"name":"Mountain","steam_id":76561198023660393,"connected_time":520000000000,"state":"active","ping":175},{"user_id":664,"name":"Saikou!!!","steam_id":76561198044045406,"connected_time":7045000000000,"state":"active","ping":74},{"user_id":709,"name":"Fatass","steam_id":76561199209403512,"connected_time":1555000000000,"state":"active","ping":44},{"user_id":717,"name":"Gogo","steam_id":76561198172430633,"connected_time":104000000000,"state":"active","ping":86},{"user_id":718,"name":"GuyGoom","steam_id":76561198254522178,"connected_time":97000000000,"state":"active","ping":75},{"user_id":715,"name":"Kagerou123","steam_id":76561198044277460,"connected_time":498000000000,"state":"active","ping":71},{"user_id":702,"name":"tacofever","steam_id":76561198010966507,"connected_time":1763000000000,"state":"active","ping":105},{"user_id":684,"name":"dzcreeper","steam_id":76561198072250723,"connected_time":3701000000000,"state":"active","ping":105},{"user_id":704,"name":"PackingPeanutt :)","steam_id":76561199053229413,"connected_time":1659000000000,"state":"active","ping":81},{"user_id":685,"name":"Xen","steam_id":76561198025311844,"connected_time":3680000000000,"state":"active","ping":86},{"user_id":711,"name":"AlexLovesYou","steam_id":76561199163263543,"connected_time":1214000000000,"state":"active","ping":66},{"user_id":712,"name":"Wren","steam_id":76561198071109787,"connected_time":952000000000,"state":"active","ping":75},{"user_id":713,"name":"Yoloisnotded","steam_id":76561198995043589,"connected_time":766000000000,"state":"active","ping":76},{"user_id":716,"name":"Papi Pescado","steam_id":76561198039500575,"connected_time":179000000000,"state":"active","ping":59},{"user_id":671,"name":"Cosmic sR","steam_id":76561198081738675,"connected_time":5178000000000,"state":"active","ping":56}]},{"server_id":104,"name":"Uncletopia | Atlanta | 2 | All Maps","name_short":"atl-2","host":"atl-1.us.uncletopia.com","port":27025,"enabled":true,"region":"us-east","cc":"us","latitude":33.753746,"longitude":-84.38633,"reserved":0,"last_update":"0001-01-01T00:00:00Z","name_a2s":"Uncletopia | Atlanta | 2 | All Maps","protocol":17,"map":"pl_barnblitz","folder":"tf","game":"Team Fortress","app_id":440,"player_count":0,"max_players":24,"Bots":0,"server_type":"Dedicated","server_os":"Linux","password":true,"vac":true,"version":"7757534","steam_id":85568392924469983,"keywords":["nocrits","nodmgspread","payload","uncletopia"],"game_id":440,"stv_port":27026,"stv_name":"Uncletopia | Atlanta | 2 | All Maps | STV","players":null},{"server_id":400,"name":"Uncletopia | Atlanta | 3 | Community","name_short":"atl-3","host":"atl-1.us.uncletopia.com","port":27035,"enabled":true,"region":"us-east","cc":"us","latitude":33.753746,"longitude":-84.38633,"reserved":0,"last_update":"0001-01-01T00:00:00Z","name_a2s":"Uncletopia | Atlanta | 3 | Community","protocol":17,"map":"workshop/cp_alloy_rc3.ugc592805587","folder":"tf","game":"Team Fortress","app_id":440,"player_count":0,"max_players":24,"Bots":0,"server_type":"Dedicated","server_os":"Linux","password":true,"vac":true,"version":"7757534","steam_id":85568392924515187,"keywords":["cp","nocrits","nodmgspread","uncletopia"],"game_id":440,"stv_port":27036,"stv_name":"Uncletopia | Atlanta | 3 | Community | STV","players":null},{"server_id":401,"name":"Uncletopia | Atlanta | 4 | No Payload","name_short":"atl-4","host":"atl-1.us.uncletopia.com","port":27045,"enabled":true,"region":"us-east","cc":"us","latitude":33.753746,"longitude":-84.38633,"reserved":0,"last_update":"0001-01-01T00:00:00Z","name_a2s":"","protocol":0,"map":"","folder":"","game":"","app_id":0,"player_count":0,"max_players":0,"Bots":0,"server_type":"","server_os":"","password":false,"vac":false,"version":"","steam_id":0,"keywords":null,"game_id":0,"stv_port":0,"stv_name":"","players":null},{"server_id":2,"name":"Uncletopia | Chicago | 1 | All Maps","name_short":"chi-1","host":"chi-1.us.uncletopia.com","port":27015,"enabled":true,"region":"us-central","cc":"us","latitude":41.881832,"longitude":-87.62318,"reserved":0,"last_update":"0001-01-01T00:00:00Z","name_a2s":"Uncletopia | Chicago | 1 | All Maps","protocol":17,"map":"pl_swiftwater_final1","folder":"tf","game":"Team Fortress","app_id":440,"player_count":23,"max_players":24,"Bots":0,"server_type":"Dedicated","server_os":"Linux","password":true,"vac":true,"version":"7757534","steam_id":85568392924469984,"keywords":["nocrits","nodmgspread","payload","uncletopia"],"game_id":440,"stv_port":27016,"stv_name":"Uncletopia | Chicago | 1 | All Maps | STV","players":[{"user_id":748,"name":"Aeterna Victrix","steam_id":76561198067701236,"connected_time":1502000000000,"state":"active","ping":53},{"user_id":628,"name":"Cutie","steam_id":76561198126686695,"connected_time":11989000000000,"state":"active","ping":71},{"user_id":731,"name":"|101|Royal_Pain_[Qc]","steam_id":76561197966298863,"connected_time":3478000000000,"state":"active","ping":70},{"user_id":749,"name":"Kamin","steam_id":76561198255299559,"connected_time":1490000000000,"state":"active","ping":79},{"user_id":708,"name":"TheWhoman","steam_id":76561198103921750,"connected_time":4716000000000,"state":"active","ping":89},{"user_id":757,"name":"RapidXenophage","steam_id":76561198175149973,"connected_time":1181000000000,"state":"active","ping":105},{"user_id":768,"name":"Whimsical Gnome","steam_id":76561198413125750,"connected_time":7000000000,"state":"spawning","ping":69},{"user_id":761,"name":"J0hN","steam_id":76561198055972894,"connected_time":940000000000,"state":"active","ping":76},{"user_id":706,"name":"enmgxcltayiqoacx","steam_id":76561197974965536,"connected_time":4781000000000,"state":"active","ping":70},{"user_id":765,"name":"Adam","steam_id":76561198106007342,"connected_time":605000000000,"state":"active","ping":69},{"user_id":729,"name":"Mr.Guy","steam_id":76561198810472054,"connected_time":3636000000000,"state":"active","ping":84},{"user_id":753,"name":"Dask","steam_id":76561198043385839,"connected_time":1352000000000,"state":"active","ping":47},{"user_id":766,"name":"10cc","steam_id":76561198052009876,"connected_time":525000000000,"state":"active","ping":175},{"user_id":718,"name":"Lemon Drop","steam_id":76561198023684559,"connected_time":4061000000000,"state":"active","ping":89},{"user_id":754,"name":"oat milf","steam_id":76561198805266653,"connected_time":1340000000000,"state":"active","ping":87},{"user_id":755,"name":"hermit wizard","steam_id":76561198015156743,"connected_time":1293000000000,"state":"active","ping":72},{"user_id":675,"name":"Steve Burns","steam_id":76561198069968316,"connected_time":8172000000000,"state":"active","ping":95},{"user_id":746,"name":"milo","steam_id":76561199061380038,"connected_time":1889000000000,"state":"active","ping":73},{"user_id":756,"name":"TomsM","steam_id":76561198295153503,"connected_time":1187000000000,"state":"active","ping":152},{"user_id":760,"name":"hud_saytext_time 0","steam_id":76561198010327228,"connected_time":1003000000000,"state":"active","ping":163},{"user_id":764,"name":"Thequirka","steam_id":76561198968058652,"connected_time":628000000000,"state":"active","ping":90},{"user_id":767,"name":"Lego","steam_id":76561198189663979,"connected_time":507000000000,"state":"active","ping":48},{"user_id":739,"name":"King Of The Chill","steam_id":76561197971394640,"connected_time":3274000000000,"state":"active","ping":95}]},{"server_id":106,"name":"Uncletopia | Chicago | 2 | All Maps","name_short":"chi-2","host":"chi-1.us.uncletopia.com","port":27025,"enabled":true,"region":"us-central","cc":"us","latitude":41.881832,"longitude":-87.62318,"reserved":0,"last_update":"0001-01-01T00:00:00Z","name_a2s":"Uncletopia | Chicago | 2 | All Maps","protocol":17,"map":"koth_cascade","folder":"tf","game":"Team Fortress","app_id":440,"player_count":0,"max_players":24,"Bots":0,"server_type":"Dedicated","server_os":"Linux","password":true,"vac":true,"version":"7757534","steam_id":85568392924469985,"keywords":["cp","nocrits","nodmgspread","uncletopia"],"game_id":440,"stv_port":27026,"stv_name":"Uncletopia | Chicago | 2 | All Maps | STV","players":null},{"server_id":402,"name":"Uncletopia | Chicago | 3 | All Maps","name_short":"chi-3","host":"chi-1.us.uncletopia.com","port":27035,"enabled":true,"region":"us-central","cc":"us","latitude":41.881832,"longitude":-87.62318,"reserved":0,"last_update":"0001-01-01T00:00:00Z","name_a2s":"Uncletopia | Chicago | 3 | All Maps","protocol":17,"map":"cp_process_final","folder":"tf","game":"Team Fortress","app_id":440,"player_count":21,"max_players":24,"Bots":0,"server_type":"Dedicated","server_os":"Linux","password":true,"vac":true,"version":"7757534","steam_id":85568392924515191,"keywords":["nocrits","nodmgspread","payload","uncletopia"],"game_id":440,"stv_port":27036,"stv_name":"Uncletopia | Chicago | 3 | All Maps | STV","players":[{"user_id":501,"name":"Stauxie","steam_id":76561198255030077,"connected_time":1325000000000,"state":"connecting","ping":96},{"user_id":503,"name":"vertical orientation correction","steam_id":76561198007464245,"connected_time":1010000000000,"state":"connecting","ping":100},{"user_id":491,"name":"cuppajoeman","steam_id":76561198095720174,"connected_time":2175000000000,"state":"connecting","ping":60},{"user_id":504,"name":"Kevin Edwards","steam_id":76561197998808319,"connected_time":913000000000,"state":"connecting","ping":65},{"user_id":505,"name":"HAT-WEARING™ Maggot Gamer Cat","steam_id":76561197973992705,"connected_time":839000000000,"state":"connecting","ping":113},{"user_id":523,"name":"Saucy Boy","steam_id":76561198178332031,"connected_time":200000000000,"state":"connecting","ping":81},{"user_id":506,"name":"[PINGU™] Tiny Tuna","steam_id":76561198193611579,"connected_time":786000000000,"state":"connecting","ping":103},{"user_id":507,"name":"Coke","steam_id":76561199350870177,"connected_time":763000000000,"state":"connecting","ping":78},{"user_id":490,"name":"kratomSnorter.1quarter","steam_id":76561198946987511,"connected_time":2302000000000,"state":"connecting","ping":98},{"user_id":474,"name":"Flesh Eating Turtle","steam_id":76561198116742139,"connected_time":3803000000000,"state":"connecting","ping":112},{"user_id":510,"name":"Hex405","steam_id":76561199060047875,"connected_time":611000000000,"state":"connecting","ping":119},{"user_id":511,"name":"mEch114","steam_id":76561198236936060,"connected_time":608000000000,"state":"connecting","ping":80},{"user_id":492,"name":"WhatisKetchup","steam_id":76561199211104298,"connected_time":2170000000000,"state":"connecting","ping":90},{"user_id":515,"name":"Lorgar Chadrelian","steam_id":76561198026533249,"connected_time":466000000000,"state":"connecting","ping":94},{"user_id":497,"name":"bedtime snack","steam_id":76561198046433719,"connected_time":1959000000000,"state":"connecting","ping":100},{"user_id":521,"name":"BEAD WORLD BEAD WORLD BEAD WORL","steam_id":76561199142204857,"connected_time":344000000000,"state":"connecting","ping":203},{"user_id":518,"name":"Jesus Skelly","steam_id":76561198388292957,"connected_time":418000000000,"state":"connecting","ping":124},{"user_id":520,"name":"a chicken","steam_id":76561198313121580,"connected_time":391000000000,"state":"connecting","ping":119},{"user_id":522,"name":"MANN EGG","steam_id":76561198270975739,"connected_time":329000000000,"state":"connecting","ping":134}]},{"server_id":403,"name":"Uncletopia | Chicago | 4 | All Maps","name_short":"chi-4","host":"chi-1.us.uncletopia.com","port":27045,"enabled":true,"region":"us-central","cc":"us","latitude":41.881832,"longitude":-87.62318,"reserved":0,"last_update":"0001-01-01T00:00:00Z","name_a2s":"Uncletopia | Chicago | 4 | All Maps","protocol":17,"map":"koth_lakeside_final","folder":"tf","game":"Team Fortress","app_id":440,"player_count":0,"max_players":24,"Bots":0,"server_type":"Dedicated","server_os":"Linux","password":true,"vac":true,"version":"7757534","steam_id":85568392924515193,"keywords":["cp","nocrits","nodmgspread","uncletopia"],"game_id":440,"stv_port":27046,"stv_name":"Uncletopia | Chicago | 4 | All Maps | STV","players":null},{"server_id":36,"name":"Uncletopia | Chicago | 5 | All Maps","name_short":"chi-5","host":"chi-2.us.uncletopia.com","port":27015,"enabled":true,"region":"us-central","cc":"us","latitude":41.881832,"longitude":-87.62318,"reserved":0,"last_update":"0001-01-01T00:00:00Z","name_a2s":"Uncletopia | Chicago | 5 | All Maps","protocol":17,"map":"koth_cascade","folder":"tf","game":"Team Fortress","app_id":440,"player_count":0,"max_players":24,"Bots":0,"server_type":"Dedicated","server_os":"Linux","password":true,"vac":true,"version":"7757534","steam_id":85568392924866362,"keywords":["cp","nocrits","nodmgspread","uncletopia"],"game_id":440,"stv_port":27016,"stv_name":"Uncletopia | Chicago | 5 | All Maps | STV","players":null},{"server_id":37,"name":"Uncletopia | Chicago | 6 | All Maps","name_short":"chi-6","host":"chi-2.us.uncletopia.com","port":27025,"enabled":true,"region":"us-central","cc":"us","latitude":41.881832,"longitude":-87.62318,"reserved":0,"last_update":"0001-01-01T00:00:00Z","name_a2s":"Uncletopia | Chicago | 6 | All Maps","protocol":17,"map":"pl_snowycoast","folder":"tf","game":"Team Fortress","app_id":440,"player_count":0,"max_players":24,"Bots":0,"server_type":"Dedicated","server_os":"Linux","password":true,"vac":true,"version":"7757534","steam_id":85568392924866363,"keywords":["nocrits","nodmgspread","payload","uncletopia"],"game_id":440,"stv_port":27026,"stv_name":"Uncletopia | Chicago | 6 | All Maps | STV","players":null},{"server_id":38,"name":"Uncletopia | Chicago | 7 | Stopwatch Beta","name_short":"chi-7","host":"chi-2.us.uncletopia.com","port":27035,"enabled":true,"region":"us-central","cc":"us","latitude":41.881832,"longitude":-87.62318,"reserved":0,"last_update":"0001-01-01T00:00:00Z","name_a2s":"Uncletopia | Chicago | 7 | Stopwatch Beta","protocol":17,"map":"cp_granary","folder":"tf","game":"Team Fortress","app_id":440,"player_count":0,"max_players":24,"Bots":0,"server_type":"Dedicated","server_os":"Linux","password":true,"vac":true,"version":"7757534","steam_id":85568392924866364,"keywords":["cp","nocrits","nodmgspread","uncletopia"],"game_id":440,"stv_port":27036,"stv_name":"Uncletopia | Chicago | 7 | Stopwatch Beta | STV","players":null},{"server_id":39,"name":"Uncletopia | Chicago | 8 | Community","name_short":"chi-8","host":"chi-2.us.uncletopia.com","port":27045,"enabled":true,"region":"us-central","cc":"us","latitude":41.881832,"longitude":-87.62318,"reserved":0,"last_update":"0001-01-01T00:00:00Z","name_a2s":"Uncletopia | Chicago | 8 | Community","protocol":17,"map":"workshop/koth_ramjam_rc1.ugc459778887","folder":"tf","game":"Team Fortress","app_id":440,"player_count":0,"max_players":24,"Bots":0,"server_type":"Dedicated","server_os":"Linux","password":true,"vac":true,"version":"7757534","steam_id":85568392924866365,"keywords":["cp","nocrits","nodmgspread","uncletopia"],"game_id":440,"stv_port":27046,"stv_name":"Uncletopia | Chicago | 8 | Community | STV","players":null},{"server_id":8,"name":"Uncletopia | Dallas | 1 | All Maps","name_short":"dal-1","host":"dal-1.us.uncletopia.com","port":27015,"enabled":true,"region":"us-central","cc":"us","latitude":32.779167,"longitude":-96.80889,"reserved":0,"last_update":"0001-01-01T00:00:00Z","name_a2s":"Uncletopia | Dallas | 1 | All Maps","protocol":17,"map":"pl_goldrush","folder":"tf","game":"Team Fortress","app_id":440,"player_count":24,"max_players":24,"Bots":0,"server_type":"Dedicated","server_os":"Linux","password":true,"vac":true,"version":"7757534","steam_id":85568392924469986,"keywords":["nocrits","nodmgspread","payload","uncletopia"],"game_id":440,"stv_port":27016,"stv_name":"Uncletopia | Dallas | 1 | All Maps | STV","players":[{"user_id":509,"name":"Loki!","steam_id":76561198089201861,"connected_time":5672000000000,"state":"active","ping":66},{"user_id":565,"name":"BorstchBag","steam_id":76561198155294045,"connected_time":1519000000000,"state":"active","ping":113},{"user_id":569,"name":"Icarus the legend","steam_id":76561199013250091,"connected_time":1097000000000,"state":"active","ping":44},{"user_id":568,"name":"GoldtoothFour","steam_id":76561198055529332,"connected_time":1142000000000,"state":"active","ping":71},{"user_id":578,"name":"Manic","steam_id":76561198128149670,"connected_time":64000000000,"state":"active","ping":47},{"user_id":567,"name":"Hanako","steam_id":76561198133272179,"connected_time":1380000000000,"state":"active","ping":176},{"user_id":559,"name":"Punished Shitster","steam_id":76561198150452857,"connected_time":2164000000000,"state":"active","ping":47},{"user_id":571,"name":"Clear Sights","steam_id":76561198006215683,"connected_time":953000000000,"state":"active","ping":90},{"user_id":504,"name":"[Zero] Lag","steam_id":76561198983494186,"connected_time":6143000000000,"state":"active","ping":138},{"user_id":538,"name":"Xx-CostcoShopper-xX","steam_id":76561198066429444,"connected_time":3078000000000,"state":"active","ping":85},{"user_id":574,"name":"Venom","steam_id":76561198045500779,"connected_time":722000000000,"state":"active","ping":78},{"user_id":575,"name":"Mitt Romney","steam_id":76561198159840072,"connected_time":523000000000,"state":"active","ping":95},{"user_id":576,"name":"Hobo Joe","steam_id":76561197986838399,"connected_time":508000000000,"state":"active","ping":80},{"user_id":543,"name":"Pineapple Pizza","steam_id":76561197997233176,"connected_time":2987000000000,"state":"active","ping":108},{"user_id":544,"name":"TrueCharles","steam_id":76561198431098809,"connected_time":2979000000000,"state":"active","ping":74},{"user_id":577,"name":"T̵̲̒H̶̪̐E̴͉͂̊M̶̾͆\ufffd","steam_id":76561198091875604,"connected_time":126000000000,"state":"active","ping":76},{"user_id":514,"name":"MoePlaysTf2","steam_id":76561198316877833,"connected_time":5446000000000,"state":"active","ping":78},{"user_id":547,"name":"Purchase your tracks today","steam_id":76561198084422657,"connected_time":2904000000000,"state":"active","ping":87},{"user_id":548,"name":"Doc McBustin","steam_id":76561198256856633,"connected_time":2895000000000,"state":"active","ping":72},{"user_id":549,"name":"Nam","steam_id":76561198138253917,"connected_time":2891000000000,"state":"active","ping":67},{"user_id":579,"name":"porz","steam_id":76561198195711453,"connected_time":0,"state":"spawning","ping":26},{"user_id":519,"name":"Lane","steam_id":76561197965828506,"connected_time":5166000000000,"state":"active","ping":60},{"user_id":554,"name":"A Straw","steam_id":76561199367935846,"connected_time":2726000000000,"state":"active","ping":71},{"user_id":552,"name":"wavlog0124","steam_id":76561199079614516,"connected_time":2812000000000,"state":"active","ping":62}]},{"server_id":108,"name":"Uncletopia | Dallas | 2 | All Maps","name_short":"dal-2","host":"dal-1.us.uncletopia.com","port":27025,"enabled":true,"region":"us-central","cc":"us","latitude":32.779167,"longitude":-96.80889,"reserved":0,"last_update":"0001-01-01T00:00:00Z","name_a2s":"Uncletopia | Dallas | 2 | All Maps","protocol":17,"map":"cp_powerhouse","folder":"tf","game":"Team Fortress","app_id":440,"player_count":2,"max_players":24,"Bots":0,"server_type":"Dedicated","server_os":"Linux","password":true,"vac":true,"version":"7757534","steam_id":85568392924469988,"keywords":["cp","nocrits","nodmgspread","uncletopia"],"game_id":440,"stv_port":27026,"stv_name":"Uncletopia | Dallas | 2 | All Maps | STV","players":[{"user_id":806,"name":"Kedata","steam_id":76561198047750050,"connected_time":2414000000000,"state":"active","ping":60},{"user_id":782,"name":"Пепси","steam_id":76561198133834262,"connected_time":4937000000000,"state":"active","ping":60}]},{"server_id":5,"name":"Uncletopia | Frankfurt | 1 | All Maps","name_short":"frk-1","host":"frk-1.de.uncletopia.com","port":27015,"enabled":true,"region":"eu","cc":"de","latitude":50.110924,"longitude":8.682127,"reserved":0,"last_update":"0001-01-01T00:00:00Z","name_a2s":"Uncletopia | Frankfurt | 1 | All Maps","protocol":17,"map":"cp_sunshine","folder":"tf","game":"Team Fortress","app_id":440,"player_count":0,"max_players":24,"Bots":0,"server_type":"Dedicated","server_os":"Linux","password":true,"vac":true,"version":"7757534","steam_id":85568392924469989,"keywords":["cp","nocrits","nodmgspread","uncletopia"],"game_id":440,"stv_port":27016,"stv_name":"Uncletopia | Frankfurt | 1 | All Maps | STV","players":null},{"server_id":110,"name":"Uncletopia | Frankfurt | 2 | All Maps","name_short":"frk-2","host":"frk-1.de.uncletopia.com","port":27025,"enabled":true,"region":"eu","cc":"de","latitude":50.110924,"longitude":8.682127,"reserved":0,"last_update":"0001-01-01T00:00:00Z","name_a2s":"Uncletopia | Frankfurt | 2 | All Maps","protocol":17,"map":"cp_sunshine","folder":"tf","game":"Team Fortress","app_id":440,"player_count":0,"max_players":24,"Bots":0,"server_type":"Dedicated","server_os":"Linux","password":true,"vac":true,"version":"7757534","steam_id":85568392924469990,"keywords":["cp","nocrits","nodmgspread","uncletopia"],"game_id":440,"stv_port":27026,"stv_name":"Uncletopia | Frankfurt | 2 | All Maps | STV","players":null},{"server_id":308,"name":"Uncletopia | Frankfurt | 3 | All Maps","name_short":"frk-3","host":"frk-1.de.uncletopia.com","port":27035,"enabled":true,"region":"eu","cc":"de","latitude":50.110924,"longitude":8.682127,"reserved":0,"last_update":"0001-01-01T00:00:00Z","name_a2s":"Uncletopia | Frankfurt | 3 | All Maps","protocol":17,"map":"pl_swiftwater_final1","folder":"tf","game":"Team Fortress","app_id":440,"player_count":0,"max_players":24,"Bots":0,"server_type":"Dedicated","server_os":"Linux","password":true,"vac":true,"version":"7757534","steam_id":85568392924504274,"keywords":["nocrits","nodmgspread","payload","uncletopia"],"game_id":440,"stv_port":27036,"stv_name":"Uncletopia | Frankfurt | 3 | All Maps | STV","players":null},{"server_id":309,"name":"Uncletopia | Frankfurt | 4 | All Maps","name_short":"frk-4","host":"frk-1.de.uncletopia.com","port":27045,"enabled":true,"region":"eu","cc":"de","latitude":50.110924,"longitude":8.682127,"reserved":0,"last_update":"0001-01-01T00:00:00Z","name_a2s":"Uncletopia | Frankfurt | 4 | All Maps","protocol":17,"map":"pl_badwater","folder":"tf","game":"Team Fortress","app_id":440,"player_count":24,"max_players":24,"Bots":0,"server_type":"Dedicated","server_os":"Linux","password":true,"vac":true,"version":"7757534","steam_id":85568392924504275,"keywords":["nocrits","nodmgspread","payload","uncletopia"],"game_id":440,"stv_port":27046,"stv_name":"Uncletopia | Frankfurt | 4 | All Maps | STV","players":[{"user_id":78,"name":"Koli","steam_id":76561197992428783,"connected_time":337000000000,"state":"active","ping":45},{"user_id":40,"name":"Virgil","steam_id":76561198248786778,"connected_time":2979000000000,"state":"active","ping":116},{"user_id":67,"name":"Anlaki Koszmarek","steam_id":76561198074581818,"connected_time":1351000000000,"state":"active","ping":61},{"user_id":73,"name":"followthenight","steam_id":76561198017619752,"connected_time":1116000000000,"state":"active","ping":75},{"user_id":85,"name":"Sex Man TF2","steam_id":76561198798657045,"connected_time":29000000000,"state":"active","ping":73},{"user_id":83,"name":"lofimonkeyjazz","steam_id":76561198117059662,"connected_time":102000000000,"state":"active","ping":75},{"user_id":72,"name":"Corpus Christi","steam_id":76561198417999443,"connected_time":1172000000000,"state":"active","ping":102},{"user_id":16,"name":"Sybille Sirky","steam_id":76561198082407725,"connected_time":4605000000000,"state":"active","ping":58},{"user_id":80,"name":"cyka","steam_id":76561198152226220,"connected_time":274000000000,"state":"active","ping":75},{"user_id":82,"name":"Soya Suki","steam_id":76561197998106435,"connected_time":105000000000,"state":"active","ping":41},{"user_id":44,"name":"Rex Z'Beq","steam_id":76561199300590000,"connected_time":2772000000000,"state":"active","ping":85},{"user_id":64,"name":"daniel.novikov","steam_id":76561199172189811,"connected_time":1800000000000,"state":"active","ping":118},{"user_id":84,"name":"Ardaaaaaaaaaaaaaaaaaaaaaaaaaaa","steam_id":76561199004214779,"connected_time":78000000000,"state":"active","ping":85},{"user_id":60,"name":"2","steam_id":76561199149307190,"connected_time":1986000000000,"state":"active","ping":75},{"user_id":61,"name":"ok","steam_id":76561198052575567,"connected_time":1960000000000,"state":"active","ping":81},{"user_id":74,"name":"Spieller","steam_id":76561198057197847,"connected_time":1047000000000,"state":"active","ping":74},{"user_id":49,"name":"テイルス","steam_id":76561198022403271,"connected_time":2633000000000,"state":"active","ping":45},{"user_id":75,"name":"WATANG!","steam_id":76561198040478926,"connected_time":995000000000,"state":"active","ping":61},{"user_id":51,"name":"Leibeigener","steam_id":76561199275478305,"connected_time":2533000000000,"state":"active","ping":31},{"user_id":81,"name":"dafydd","steam_id":76561198052200325,"connected_time":127000000000,"state":"active","ping":75},{"user_id":55,"name":"JJose","steam_id":76561198167842131,"connected_time":2394000000000,"state":"active","ping":87},{"user_id":56,"name":"engineer drip","steam_id":76561198991032570,"connected_time":2374000000000,"state":"active","ping":92},{"user_id":71,"name":"悪","steam_id":76561198095879087,"connected_time":1228000000000,"state":"active","ping":59}]},{"server_id":310,"name":"Uncletopia | Frankfurt | 5 | All Maps","name_short":"frk-5","host":"frk-1.de.uncletopia.com","port":27055,"enabled":true,"region":"eu","cc":"de","latitude":50.110924,"longitude":8.682127,"reserved":0,"last_update":"0001-01-01T00:00:00Z","name_a2s":"Uncletopia | Frankfurt | 5 | All Maps","protocol":17,"map":"koth_lakeside_final","folder":"tf","game":"Team Fortress","app_id":440,"player_count":0,"max_players":24,"Bots":0,"server_type":"Dedicated","server_os":"Linux","password":true,"vac":true,"version":"7757534","steam_id":85568392924504277,"keywords":["cp","nocrits","nodmgspread","uncletopia"],"game_id":440,"stv_port":27056,"stv_name":"Uncletopia | Frankfurt | 5 | All Maps | STV","players":null},{"server_id":311,"name":"Uncletopia | Frankfurt | 6 | All Maps","name_short":"frk-6","host":"frk-1.de.uncletopia.com","port":27065,"enabled":true,"region":"eu","cc":"de","latitude":50.110924,"longitude":8.682127,"reserved":0,"last_update":"0001-01-01T00:00:00Z","name_a2s":"Uncletopia | Frankfurt | 6 | All Maps","protocol":17,"map":"pl_frontier_final","folder":"tf","game":"Team Fortress","app_id":440,"player_count":0,"max_players":24,"Bots":0,"server_type":"Dedicated","server_os":"Linux","password":true,"vac":true,"version":"7757534","steam_id":85568392924504278,"keywords":["nocrits","nodmgspread","payload","uncletopia"],"game_id":440,"stv_port":27066,"stv_name":"Uncletopia | Frankfurt | 6 | All Maps | STV","players":null},{"server_id":23,"name":"Uncletopia | Frankfurt | 7 | Stopwatch Beta","name_short":"frk-7","host":"frk-1.de.uncletopia.com","port":27075,"enabled":true,"region":"eu","cc":"de","latitude":50.110924,"longitude":8.682127,"reserved":0,"last_update":"0001-01-01T00:00:00Z","name_a2s":"Uncletopia | Frankfurt | 7 | Stopwatch Beta","protocol":17,"map":"cp_sunshine","folder":"tf","game":"Team Fortress","app_id":440,"player_count":0,"max_players":24,"Bots":0,"server_type":"Dedicated","server_os":"Linux","password":true,"vac":true,"version":"7757534","steam_id":85568392924742827,"keywords":["cp","nocrits","nodmgspread","uncletopia"],"game_id":440,"stv_port":27076,"stv_name":"Uncletopia | Frankfurt | 7 | Stopwatch Beta | STV","players":null},{"server_id":24,"name":"Uncletopia | Frankfurt | 8 | Community","name_short":"frk-8","host":"frk-1.de.uncletopia.com","port":27085,"enabled":true,"region":"eu","cc":"de","latitude":50.110924,"longitude":8.682127,"reserved":0,"last_update":"0001-01-01T00:00:00Z","name_a2s":"Uncletopia | Frankfurt | 8 | Community","protocol":17,"map":"workshop/cp_villa_b19.ugc2113052569","folder":"tf","game":"Team Fortress","app_id":440,"player_count":0,"max_players":24,"Bots":0,"server_type":"Dedicated","server_os":"Linux","password":true,"vac":true,"version":"7757534","steam_id":85568392924742828,"keywords":["cp","nocrits","nodmgspread","uncletopia"],"game_id":440,"stv_port":27086,"stv_name":"Uncletopia | Frankfurt | 8 | Community | STV","players":null},{"server_id":202,"name":"Uncletopia | Hong Kong | 1 | All Maps","name_short":"hgk-1","host":"hgk-1.hk.uncletopia.com","port":27015,"enabled":true,"region":"asia","cc":"hk","latitude":22.302711,"longitude":114.177216,"reserved":0,"last_update":"0001-01-01T00:00:00Z","name_a2s":"Uncletopia | Hong Kong | 1 | All Maps","protocol":17,"map":"pl_barnblitz","folder":"tf","game":"Team Fortress","app_id":440,"player_count":24,"max_players":24,"Bots":0,"server_type":"Dedicated","server_os":"Linux","password":true,"vac":true,"version":"7757534","steam_id":85568392924494504,"keywords":["nocrits","nodmgspread","payload","uncletopia"],"game_id":440,"stv_port":27016,"stv_name":"Uncletopia | Hong Kong | 1 | All Maps | STV","players":[{"user_id":214,"name":"Michael Scott","steam_id":76561198023082794,"connected_time":9783000000000,"state":"active","ping":45},{"user_id":236,"name":"spinach (old mouse)","steam_id":76561198042539541,"connected_time":6189000000000,"state":"active","ping":79},{"user_id":324,"name":"Hay","steam_id":76561199438952901,"connected_time":1461000000000,"state":"active","ping":52},{"user_id":333,"name":"tiden2000","steam_id":76561198092969425,"connected_time":863000000000,"state":"active","ping":104},{"user_id":225,"name":"Water = Soup","steam_id":76561198349949683,"connected_time":8778000000000,"state":"active","ping":45},{"user_id":201,"name":"silverhouse7","steam_id":76561198349634906,"connected_time":11242000000000,"state":"active","ping":91},{"user_id":345,"name":"Lelouch","steam_id":76561198828840546,"connected_time":83000000000,"state":"active","ping":73},{"user_id":342,"name":"WoChao","steam_id":76561198234487088,"connected_time":408000000000,"state":"active","ping":101},{"user_id":242,"name":"brainless bozo","steam_id":76561198055553140,"connected_time":5646000000000,"state":"active","ping":84},{"user_id":276,"name":"帕","steam_id":76561198439343999,"connected_time":3727000000000,"state":"active","ping":146},{"user_id":317,"name":"ღJun.","steam_id":76561198275846469,"connected_time":3268000000000,"state":"active","ping":81},{"user_id":318,"name":"sauceyert","steam_id":76561199085409122,"connected_time":2937000000000,"state":"active","ping":67},{"user_id":244,"name":"Windmill","steam_id":76561199230997986,"connected_time":5397000000000,"state":"active","ping":80},{"user_id":210,"name":"Stupid B","steam_id":76561198131423270,"connected_time":10447000000000,"state":"active","ping":119},{"user_id":279,"name":"3wfFbdrjEze5d2G","steam_id":76561198435900451,"connected_time":3716000000000,"state":"active","ping":127},{"user_id":320,"name":"쿠키","steam_id":76561197997220367,"connected_time":1817000000000,"state":"active","ping":53},{"user_id":321,"name":"im_0ff","steam_id":76561198339346695,"connected_time":1577000000000,"state":"active","ping":124},{"user_id":331,"name":"Male Detected!","steam_id":76561199082459598,"connected_time":1191000000000,"state":"active","ping":77},{"user_id":340,"name":"bathtub","steam_id":76561198967804087,"connected_time":439000000000,"state":"active","ping":106},{"user_id":323,"name":"LEGS","steam_id":76561199111623890,"connected_time":1473000000000,"state":"active","ping":109},{"user_id":326,"name":"Operate EX","steam_id":76561199351297136,"connected_time":1287000000000,"state":"active","ping":107},{"user_id":344,"name":"DevAllen The Racist","steam_id":76561198830629355,"connected_time":198000000000,"state":"active","ping":68},{"user_id":250,"name":"screaming sniper","steam_id":76561199085568674,"connected_time":4144000000000,"state":"active","ping":66},{"user_id":272,"name":"Dirt","steam_id":76561199445694770,"connected_time":3759000000000,"state":"active","ping":142}]},{"server_id":1,"name":"Uncletopia | Los Angeles | 1 | All Maps","name_short":"lax-1","host":"lax-1.us.uncletopia.com","port":27015,"enabled":true,"region":"us-west","cc":"us","latitude":33.94279,"longitude":-118.41004,"reserved":0,"last_update":"0001-01-01T00:00:00Z","name_a2s":"Uncletopia | Los Angeles | 1 | All Maps","protocol":17,"map":"pl_barnblitz","folder":"tf","game":"Team Fortress","app_id":440,"player_count":24,"max_players":24,"Bots":0,"server_type":"Dedicated","server_os":"Linux","password":true,"vac":true,"version":"7757534","steam_id":85568392924469991,"keywords":["nocrits","nodmgspread","payload","uncletopia"],"game_id":440,"stv_port":27016,"stv_name":"Uncletopia | Los Angeles | 1 | All Maps | STV","players":[{"user_id":166,"name":"ShadowDragon0125","steam_id":76561198343849022,"connected_time":5159000000000,"state":"active","ping":99},{"user_id":215,"name":"Idiotden","steam_id":76561199340950135,"connected_time":1255000000000,"state":"active","ping":44},{"user_id":208,"name":"Luv","steam_id":76561199200757524,"connected_time":1703000000000,"state":"active","ping":55},{"user_id":191,"name":"e8747e6c4e0dbcee55ae","steam_id":76561198091947841,"connected_time":3499000000000,"state":"active","ping":69},{"user_id":209,"name":"No Debeta","steam_id":76561198143209841,"connected_time":1702000000000,"state":"active","ping":86},{"user_id":229,"name":"EqBeatz.","steam_id":76561198053562203,"connected_time":342000000000,"state":"active","ping":43},{"user_id":185,"name":"Pave Rarty","steam_id":76561197967763174,"connected_time":3803000000000,"state":"active","ping":65},{"user_id":169,"name":"Suspiciously Black Spy","steam_id":76561198824851407,"connected_time":4705000000000,"state":"active","ping":33},{"user_id":227,"name":"Gammaplex","steam_id":76561198981228176,"connected_time":361000000000,"state":"active","ping":93},{"user_id":214,"name":"chip","steam_id":76561198296499297,"connected_time":1527000000000,"state":"active","ping":59},{"user_id":230,"name":"zaza addict","steam_id":76561198202982780,"connected_time":312000000000,"state":"active","ping":100},{"user_id":217,"name":"iSaH","steam_id":76561198305136202,"connected_time":1128000000000,"state":"active","ping":62},{"user_id":233,"name":"Slink","steam_id":76561198402873810,"connected_time":286000000000,"state":"active","ping":56},{"user_id":234,"name":"Bouncy_Knight","steam_id":76561199054714256,"connected_time":261000000000,"state":"active","ping":91},{"user_id":225,"name":"Fish Lambert","steam_id":76561198098279668,"connected_time":779000000000,"state":"active","ping":52},{"user_id":226,"name":"Da Bird","steam_id":76561198215677985,"connected_time":596000000000,"state":"active","ping":58},{"user_id":238,"name":"kite man","steam_id":76561198156336213,"connected_time":215000000000,"state":"active","ping":60},{"user_id":236,"name":"Vladimir Chirgin","steam_id":76561198170035235,"connected_time":250000000000,"state":"active","ping":86},{"user_id":237,"name":"MasterX","steam_id":76561198361808368,"connected_time":246000000000,"state":"active","ping":67},{"user_id":239,"name":"PageBoiSkull","steam_id":76561198237353578,"connected_time":214000000000,"state":"active","ping":69},{"user_id":240,"name":"GatorAIDS","steam_id":76561198043220092,"connected_time":184000000000,"state":"active","ping":89},{"user_id":242,"name":"Girthquake","steam_id":76561198301512687,"connected_time":149000000000,"state":"active","ping":82},{"user_id":244,"name":"portos bakery and cafe","steam_id":76561198319442494,"connected_time":72000000000,"state":"active","ping":56},{"user_id":245,"name":"Octo","steam_id":76561198024056355,"connected_time":12000000000,"state":"active","ping":50}]},{"server_id":112,"name":"Uncletopia | Los Angeles | 2 | All Maps","name_short":"lax-2","host":"lax-1.us.uncletopia.com","port":27025,"enabled":true,"region":"us-west","cc":"us","latitude":33.94279,"longitude":-118.41004,"reserved":0,"last_update":"0001-01-01T00:00:00Z","name_a2s":"Uncletopia | Los Angeles | 2 | All Maps","protocol":17,"map":"pl_swiftwater_final1","folder":"tf","game":"Team Fortress","app_id":440,"player_count":20,"max_players":24,"Bots":0,"server_type":"Dedicated","server_os":"Linux","password":true,"vac":true,"version":"7757534","steam_id":85568392924469992,"keywords":["nocrits","nodmgspread","payload","uncletopia"],"game_id":440,"stv_port":27026,"stv_name":"Uncletopia | Los Angeles | 2 | All Maps | STV","players":[{"user_id":587,"name":"cheeeezball","steam_id":76561198086461519,"connected_time":2959000000000,"state":"active","ping":54},{"user_id":595,"name":"Bludgeon","steam_id":76561198272009412,"connected_time":2359000000000,"state":"active","ping":51},{"user_id":603,"name":"who saw see who yeah sauce No.2","steam_id":76561199478835382,"connected_time":1007000000000,"state":"active","ping":108},{"user_id":610,"name":"Kaluka","steam_id":76561198036861445,"connected_time":44000000000,"state":"active","ping":98},{"user_id":564,"name":"Butterton","steam_id":76561198833286517,"connected_time":4215000000000,"state":"active","ping":66},{"user_id":604,"name":"HellaCopter","steam_id":76561198062313698,"connected_time":963000000000,"state":"active","ping":72},{"user_id":572,"name":"LX-24","steam_id":76561198016168993,"connected_time":3810000000000,"state":"active","ping":80},{"user_id":611,"name":"raya","steam_id":76561198051504581,"connected_time":33000000000,"state":"active","ping":75},{"user_id":555,"name":"Gut125Cin","steam_id":76561198101787225,"connected_time":5424000000000,"state":"active","ping":32},{"user_id":540,"name":"♥Cat in a Tub♥","steam_id":76561198170443243,"connected_time":6609000000000,"state":"active","ping":46},{"user_id":585,"name":"Dr. Evil","steam_id":76561198149369302,"connected_time":2981000000000,"state":"active","ping":96},{"user_id":602,"name":"Gundam Guy","steam_id":76561198178453993,"connected_time":1054000000000,"state":"active","ping":69},{"user_id":605,"name":"bad","steam_id":76561198090531755,"connected_time":738000000000,"state":"active","ping":63},{"user_id":593,"name":"Spring Heeled Jack","steam_id":76561198285772643,"connected_time":2679000000000,"state":"active","ping":113},{"user_id":558,"name":"cat","steam_id":76561198302651200,"connected_time":5102000000000,"state":"active","ping":111},{"user_id":596,"name":"ChieF BEEF QueeF","steam_id":76561198078294539,"connected_time":1741000000000,"state":"active","ping":55},{"user_id":583,"name":"brucking","steam_id":76561198348213337,"connected_time":3378000000000,"state":"active","ping":57},{"user_id":483,"name":"gregory house m.d.","steam_id":76561199117672749,"connected_time":10915000000000,"state":"active","ping":85},{"user_id":598,"name":"MEATBALL MAN","steam_id":76561198062962998,"connected_time":1674000000000,"state":"active","ping":66},{"user_id":579,"name":"Vintage TV","steam_id":76561198800334545,"connected_time":3483000000000,"state":"active","ping":41}]},{"server_id":324,"name":"Uncletopia | Los Angeles | 3 | All Maps","name_short":"lax-3","host":"lax-1.us.uncletopia.com","port":27035,"enabled":true,"region":"us-west","cc":"us","latitude":33.94279,"longitude":-118.41004,"reserved":0,"last_update":"0001-01-01T00:00:00Z","name_a2s":"Uncletopia | Los Angeles | 3 | All Maps","protocol":17,"map":"koth_lakeside_final","folder":"tf","game":"Team Fortress","app_id":440,"player_count":0,"max_players":24,"Bots":0,"server_type":"Dedicated","server_os":"Linux","password":true,"vac":true,"version":"7757534","steam_id":85568392924510198,"keywords":["cp","nocrits","nodmgspread","uncletopia"],"game_id":440,"stv_port":27036,"stv_name":"Uncletopia | Los Angeles | 3 | All Maps | STV","players":null},{"server_id":25,"name":"Uncletopia | Los Angeles | 4 | Stopwatch Beta","name_short":"lax-4","host":"lax-1.us.uncletopia.com","port":27045,"enabled":true,"region":"us-west","cc":"us","latitude":33.94279,"longitude":-118.41004,"reserved":0,"last_update":"0001-01-01T00:00:00Z","name_a2s":"Uncletopia | Los Angeles | 4 | Stopwatch Beta","protocol":17,"map":"workshop/pl_badwater_pro_v12.ugc2142942074","folder":"tf","game":"Team Fortress","app_id":440,"player_count":0,"max_players":24,"Bots":0,"server_type":"Dedicated","server_os":"Linux","password":true,"vac":true,"version":"7757534","steam_id":85568392924510199,"keywords":["nocrits","nodmgspread","payload","uncletopia"],"game_id":440,"stv_port":27046,"stv_name":"Uncletopia | Los Angeles | 4 | Stopwatch Beta | STV","players":null},{"server_id":11,"name":"Uncletopia | London | 1 | All Maps","name_short":"lon-1","host":"lon-1.uk.uncletopia.com","port":27015,"enabled":true,"region":"eu","cc":"gb","latitude":51.509865,"longitude":-0.118092,"reserved":0,"last_update":"0001-01-01T00:00:00Z","name_a2s":"Uncletopia | London | 1 | All Maps","protocol":17,"map":"koth_highpass","folder":"tf","game":"Team Fortress","app_id":440,"player_count":0,"max_players":24,"Bots":0,"server_type":"Dedicated","server_os":"Linux","password":true,"vac":true,"version":"7757534","steam_id":85568392924367362,"keywords":["cp","nocrits","nodmgspread","uncletopia"],"game_id":440,"stv_port":27016,"stv_name":"Uncletopia | London | 1 | All Maps | STV","players":null},{"server_id":114,"name":"Uncletopia | London | 2 | All Maps","name_short":"lon-2","host":"lon-1.uk.uncletopia.com","port":27025,"enabled":true,"region":"eu","cc":"gb","latitude":51.509865,"longitude":-0.118092,"reserved":0,"last_update":"0001-01-01T00:00:00Z","name_a2s":"Uncletopia | London | 2 | All Maps","protocol":17,"map":"pl_upward","folder":"tf","game":"Team Fortress","app_id":440,"player_count":0,"max_players":24,"Bots":0,"server_type":"Dedicated","server_os":"Linux","password":true,"vac":true,"version":"7757534","steam_id":85568392924470941,"keywords":["nocrits","nodmgspread","payload","uncletopia"],"game_id":440,"stv_port":27026,"stv_name":"Uncletopia | London | 2 | All Maps | STV","players":null},{"server_id":320,"name":"Uncletopia | London | 3 | All Maps","name_short":"lon-3","host":"lon-1.uk.uncletopia.com","port":27035,"enabled":true,"region":"eu","cc":"gb","latitude":51.509865,"longitude":-0.118092,"reserved":0,"last_update":"0001-01-01T00:00:00Z","name_a2s":"Uncletopia | London | 3 | All Maps","protocol":17,"map":"cp_dustbowl","folder":"tf","game":"Team Fortress","app_id":440,"player_count":0,"max_players":24,"Bots":0,"server_type":"Dedicated","server_os":"Linux","password":true,"vac":true,"version":"7757534","steam_id":85568392924510192,"keywords":["cp","nocrits","nodmgspread","uncletopia"],"game_id":440,"stv_port":27036,"stv_name":"Uncletopia | London | 3 | All Maps | STV","players":null},{"server_id":321,"name":"Uncletopia | London | 4 | All Maps","name_short":"lon-4","host":"lon-1.uk.uncletopia.com","port":27045,"enabled":true,"region":"eu","cc":"gb","latitude":51.509865,"longitude":-0.118092,"reserved":0,"last_update":"0001-01-01T00:00:00Z","name_a2s":"Uncletopia | London | 4 | All Maps","protocol":17,"map":"cp_sunshine","folder":"tf","game":"Team Fortress","app_id":440,"player_count":0,"max_players":24,"Bots":0,"server_type":"Dedicated","server_os":"Linux","password":true,"vac":true,"version":"7757534","steam_id":85568392924510193,"keywords":["cp","nocrits","nodmgspread","uncletopia"],"game_id":440,"stv_port":27046,"stv_name":"Uncletopia | London | 4 | All Maps | STV","players":null},{"server_id":21,"name":"Uncletopia | London | 5 | All Maps","name_short":"lon-5","host":"lon-1.uk.uncletopia.com","port":27055,"enabled":true,"region":"eu","cc":"gb","latitude":51.509865,"longitude":-0.118092,"reserved":0,"last_update":"0001-01-01T00:00:00Z","name_a2s":"Uncletopia | London | 5 | All Maps","protocol":17,"map":"koth_cascade","folder":"tf","game":"Team Fortress","app_id":440,"player_count":0,"max_players":24,"Bots":0,"server_type":"Dedicated","server_os":"Linux","password":true,"vac":true,"version":"7757534","steam_id":85568392924742829,"keywords":["cp","nocrits","nodmgspread","uncletopia"],"game_id":440,"stv_port":27056,"stv_name":"Uncletopia | London | 5 | All Maps | STV","players":null},{"server_id":22,"name":"Uncletopia | London | 6 | All Maps","name_short":"lon-6","host":"lon-1.uk.uncletopia.com","port":27065,"enabled":true,"region":"eu","cc":"gb","latitude":51.509865,"longitude":-0.118092,"reserved":0,"last_update":"0001-01-01T00:00:00Z","name_a2s":"Uncletopia | London | 6 | All Maps","protocol":17,"map":"cp_mountainlab","folder":"tf","game":"Team Fortress","app_id":440,"player_count":0,"max_players":24,"Bots":0,"server_type":"Dedicated","server_os":"Linux","password":true,"vac":true,"version":"7757534","steam_id":85568392924742830,"keywords":["cp","nocrits","nodmgspread","uncletopia"],"game_id":440,"stv_port":27066,"stv_name":"Uncletopia | London | 6 | All Maps | STV","players":null},{"server_id":40,"name":"Uncletopia | London | 7 | No Payload","name_short":"lon-7","host":"lon-1.uk.uncletopia.com","port":27075,"enabled":true,"region":"eu","cc":"gb","latitude":51.509865,"longitude":-0.118092,"reserved":0,"last_update":"0001-01-01T00:00:00Z","name_a2s":"Uncletopia | London | 7 | No Payload","protocol":17,"map":"koth_sawmill","folder":"tf","game":"Team Fortress","app_id":440,"player_count":24,"max_players":24,"Bots":0,"server_type":"Dedicated","server_os":"Linux","password":true,"vac":true,"version":"7757534","steam_id":85568392924964314,"keywords":["cp","nocrits","nodmgspread","uncletopia"],"game_id":440,"stv_port":27076,"stv_name":"Uncletopia | London | 7 | No Payload | STV","players":[{"user_id":111,"name":"ayadam","steam_id":76561198161515769,"connected_time":368000000000,"state":"active","ping":113},{"user_id":104,"name":"f3ejb","steam_id":76561198970454091,"connected_time":622000000000,"state":"active","ping":54},{"user_id":106,"name":"Osmo","steam_id":76561199286764992,"connected_time":551000000000,"state":"active","ping":87},{"user_id":112,"name":"\u003c(sur)\u003esquigly","steam_id":76561198134646151,"connected_time":330000000000,"state":"active","ping":98},{"user_id":96,"name":"Arcweld","steam_id":76561198816060720,"connected_time":1222000000000,"state":"active","ping":63},{"user_id":90,"name":"yard man","steam_id":76561198019477093,"connected_time":1582000000000,"state":"active","ping":75},{"user_id":108,"name":"Mac Bean","steam_id":76561198133782205,"connected_time":484000000000,"state":"active","ping":133},{"user_id":91,"name":"Catfish","steam_id":76561198334119099,"connected_time":1575000000000,"state":"active","ping":52},{"user_id":75,"name":"murderwow","steam_id":76561198024566944,"connected_time":2919000000000,"state":"active","ping":107},{"user_id":113,"name":"Taijny","steam_id":76561198200178861,"connected_time":312000000000,"state":"active","ping":81},{"user_id":116,"name":"Big choke daddy","steam_id":76561197986387044,"connected_time":21000000000,"state":"active","ping":62},{"user_id":17,"name":"ツNekomaruツ","steam_id":76561199011677545,"connected_time":7237000000000,"state":"active","ping":113},{"user_id":57,"name":"tchcea","steam_id":76561198444307012,"connected_time":4617000000000,"state":"active","ping":110},{"user_id":37,"name":"Helon","steam_id":76561198050761682,"connected_time":5755000000000,"state":"active","ping":64},{"user_id":73,"name":"apples","steam_id":76561198032787233,"connected_time":3259000000000,"state":"active","ping":85},{"user_id":107,"name":"Five Finger Discount","steam_id":76561197994556857,"connected_time":527000000000,"state":"active","ping":65},{"user_id":98,"name":"Croissant au chocolatine","steam_id":76561198162063872,"connected_time":1182000000000,"state":"active","ping":63},{"user_id":99,"name":"GizmoTheDude","steam_id":76561198078150251,"connected_time":1170000000000,"state":"active","ping":70},{"user_id":76,"name":"Ritzy","steam_id":76561198381955342,"connected_time":2916000000000,"state":"active","ping":47},{"user_id":109,"name":"Spoockybro","steam_id":76561198257695061,"connected_time":445000000000,"state":"active","ping":91},{"user_id":87,"name":"Tom Wadinger","steam_id":76561198292003338,"connected_time":1831000000000,"state":"active","ping":58},{"user_id":110,"name":"ice cream","steam_id":76561198087718730,"connected_time":413000000000,"state":"active","ping":53},{"user_id":115,"name":"Der Geist des Hans Rosling","steam_id":76561198049231109,"connected_time":224000000000,"state":"active","ping":69},{"user_id":101,"name":"Švarcas","steam_id":76561198841646694,"connected_time":935000000000,"state":"active","ping":71}]},{"server_id":41,"name":"Uncletopia | London | 8 | Community","name_short":"lon-8","host":"lon-1.uk.uncletopia.com","port":27085,"enabled":true,"region":"eu","cc":"gb","latitude":51.509865,"longitude":-0.118092,"reserved":0,"last_update":"0001-01-01T00:00:00Z","name_a2s":"Uncletopia | London | 8 | Community","protocol":17,"map":"workshop/cp_indulge.ugc528106646","folder":"tf","game":"Team Fortress","app_id":440,"player_count":0,"max_players":24,"Bots":0,"server_type":"Dedicated","server_os":"Linux","password":true,"vac":true,"version":"7757534","steam_id":85568392924964315,"keywords":["cp","nocrits","nodmgspread","uncletopia"],"game_id":440,"stv_port":27086,"stv_name":"Uncletopia | London | 8 | Community | STV","players":null},{"server_id":300,"name":"Uncletopia | Montréal | 1 | All Maps","name_short":"mtl-1","host":"mtl-1.ca.uncletopia.com","port":27015,"enabled":true,"region":"us-east","cc":"ca","latitude":45.50889,"longitude":-73.56167,"reserved":0,"last_update":"0001-01-01T00:00:00Z","name_a2s":"Uncletopia | Montréal | 1 | All Maps","protocol":17,"map":"cp_altitude","folder":"tf","game":"Team Fortress","app_id":440,"player_count":0,"max_players":24,"Bots":0,"server_type":"Dedicated","server_os":"Linux","password":true,"vac":true,"version":"7757534","steam_id":85568392924500087,"keywords":["cp","nocrits","nodmgspread","uncletopia"],"game_id":440,"stv_port":27016,"stv_name":"Uncletopia | Montréal | 1 | All Maps | STV","players":null},{"server_id":301,"name":"Uncletopia | Montréal | 2 | All Maps","name_short":"mtl-2","host":"mtl-1.ca.uncletopia.com","port":27025,"enabled":true,"region":"us-east","cc":"ca","latitude":45.50889,"longitude":-73.56167,"reserved":0,"last_update":"0001-01-01T00:00:00Z","name_a2s":"Uncletopia | Montréal | 2 | All Maps","protocol":17,"map":"koth_viaduct","folder":"tf","game":"Team Fortress","app_id":440,"player_count":0,"max_players":24,"Bots":0,"server_type":"Dedicated","server_os":"Linux","password":true,"vac":true,"version":"7757534","steam_id":85568392924500088,"keywords":["cp","nocrits","nodmgspread","uncletopia"],"game_id":440,"stv_port":27026,"stv_name":"Uncletopia | Montréal | 2 | All Maps | STV","players":null},{"server_id":302,"name":"Uncletopia | Montréal | 3 | All Maps","name_short":"mtl-3","host":"mtl-1.ca.uncletopia.com","port":27035,"enabled":true,"region":"us-east","cc":"ca","latitude":45.50889,"longitude":-73.56167,"reserved":0,"last_update":"0001-01-01T00:00:00Z","name_a2s":"Uncletopia | Montréal | 3 | All Maps","protocol":17,"map":"cp_sunshine","folder":"tf","game":"Team Fortress","app_id":440,"player_count":0,"max_players":24,"Bots":0,"server_type":"Dedicated","server_os":"Linux","password":true,"vac":true,"version":"7757534","steam_id":85568392924500089,"keywords":["cp","nocrits","nodmgspread","uncletopia"],"game_id":440,"stv_port":27036,"stv_name":"Uncletopia | Montréal | 3 | All Maps | STV","players":null},{"server_id":303,"name":"Uncletopia | Montréal | 4 | No Payload","name_short":"mtl-4","host":"mtl-1.ca.uncletopia.com","port":27045,"enabled":true,"region":"us-east","cc":"ca","latitude":45.50889,"longitude":-73.56167,"reserved":0,"last_update":"0001-01-01T00:00:00Z","name_a2s":"Uncletopia | Montréal | 4 | No Payload","protocol":17,"map":"cp_gorge","folder":"tf","game":"Team Fortress","app_id":440,"player_count":0,"max_players":24,"Bots":0,"server_type":"Dedicated","server_os":"Linux","password":true,"vac":true,"version":"7757534","steam_id":85568392924500090,"keywords":["cp","nocrits","nodmgspread","uncletopia"],"game_id":440,"stv_port":27046,"stv_name":"Uncletopia | Montréal | 4 | No Payload | STV","players":null},{"server_id":13,"name":"Uncletopia | New York City | 1 | All Maps","name_short":"nyc-1","host":"nyc-1.us.uncletopia.com","port":27015,"enabled":true,"region":"us-east","cc":"us","latitude":40.73061,"longitude":-73.93524,"reserved":0,"last_update":"0001-01-01T00:00:00Z","name_a2s":"Uncletopia | New York City | 1 | All Maps","protocol":17,"map":"koth_harvest_final","folder":"tf","game":"Team Fortress","app_id":440,"player_count":0,"max_players":24,"Bots":0,"server_type":"Dedicated","server_os":"Linux","password":true,"vac":true,"version":"7757534","steam_id":85568392924469993,"keywords":["cp","nocrits","nodmgspread","uncletopia"],"game_id":440,"stv_port":27016,"stv_name":"Uncletopia | New York City | 1 | All Maps | STV","players":null},{"server_id":14,"name":"Uncletopia | New York City | 2 | All Maps","name_short":"nyc-2","host":"nyc-1.us.uncletopia.com","port":27025,"enabled":true,"region":"us-east","cc":"us","latitude":40.73061,"longitude":-73.93524,"reserved":0,"last_update":"0001-01-01T00:00:00Z","name_a2s":"Uncletopia | New York City | 2 | All Maps","protocol":17,"map":"pl_upward","folder":"tf","game":"Team Fortress","app_id":440,"player_count":0,"max_players":24,"Bots":0,"server_type":"Dedicated","server_os":"Linux","password":true,"vac":true,"version":"7757534","steam_id":85568392924469994,"keywords":["nocrits","nodmgspread","payload","uncletopia"],"game_id":440,"stv_port":27026,"stv_name":"Uncletopia | New York City | 2 | All Maps | STV","players":null},{"server_id":15,"name":"Uncletopia | New York City | 3 | Stopwatch Beta","name_short":"nyc-3","host":"nyc-1.us.uncletopia.com","port":27035,"enabled":true,"region":"us-east","cc":"us","latitude":40.73061,"longitude":-73.93524,"reserved":0,"last_update":"0001-01-01T00:00:00Z","name_a2s":"Uncletopia | New York City | 3 | Stopwatch Beta","protocol":17,"map":"workshop/koth_product_final.ugc454272353","folder":"tf","game":"Team Fortress","app_id":440,"player_count":0,"max_players":24,"Bots":0,"server_type":"Dedicated","server_os":"Linux","password":true,"vac":true,"version":"7757534","steam_id":85568392924742820,"keywords":["cp","nocrits","nodmgspread","uncletopia"],"game_id":440,"stv_port":27036,"stv_name":"Uncletopia | New York City | 3 | Stopwatch Beta | STV","players":null},{"server_id":16,"name":"Uncletopia | New York City | 4 | Community","name_short":"nyc-4","host":"nyc-1.us.uncletopia.com","port":27045,"enabled":true,"region":"us-east","cc":"us","latitude":40.73061,"longitude":-73.93524,"reserved":0,"last_update":"0001-01-01T00:00:00Z","name_a2s":"Uncletopia | New York City | 4 | Community","protocol":17,"map":"workshop/pl_fifthcurve_rc1.ugc648227046","folder":"tf","game":"Team Fortress","app_id":440,"player_count":0,"max_players":24,"Bots":0,"server_type":"Dedicated","server_os":"Linux","password":true,"vac":true,"version":"7757534","steam_id":85568392924742821,"keywords":["nocrits","nodmgspread","payload","uncletopia"],"game_id":440,"stv_port":27046,"stv_name":"Uncletopia | New York City | 4 | Community | STV","players":null},{"server_id":142,"name":"Uncletopia | São Paulo | 1 | All Maps","name_short":"sao-1","host":"sao-1.br.uncletopia.com","port":27015,"enabled":true,"region":"sa","cc":"br","latitude":-23.533773,"longitude":-46.62529,"reserved":0,"last_update":"0001-01-01T00:00:00Z","name_a2s":"Uncletopia | São Paulo | 1 | All Maps","protocol":17,"map":"koth_lakeside_final","folder":"tf","game":"Team Fortress","app_id":440,"player_count":0,"max_players":24,"Bots":0,"server_type":"Dedicated","server_os":"Linux","password":true,"vac":true,"version":"7757534","steam_id":85568392924469996,"keywords":["cp","nocrits","nodmgspread","uncletopia"],"game_id":440,"stv_port":27016,"stv_name":"Uncletopia | São Paulo | 1 | All Maps | STV","players":null},{"server_id":143,"name":"Uncletopia | São Paulo | 2 | All Maps","name_short":"sao-2","host":"sao-2.br.uncletopia.com","port":27015,"enabled":true,"region":"sa","cc":"br","latitude":-23.533773,"longitude":-46.62529,"reserved":0,"last_update":"0001-01-01T00:00:00Z","name_a2s":"Uncletopia | São Paulo | 2 | All Maps","protocol":17,"map":"pl_borneo","folder":"tf","game":"Team Fortress","app_id":440,"player_count":0,"max_players":24,"Bots":0,"server_type":"Dedicated","server_os":"Linux","password":true,"vac":true,"version":"7757534","steam_id":85568392924485349,"keywords":["nocrits","nodmgspread","payload","uncletopia"],"game_id":440,"stv_port":27016,"stv_name":"Uncletopia | São Paulo | 2 | All Maps | STV","players":null},{"server_id":7,"name":"Uncletopia | Seattle | 1 | All Maps","name_short":"sea-1","host":"sea-1.us.uncletopia.com","port":27015,"enabled":true,"region":"us-west","cc":"us","latitude":47.608013,"longitude":-122.33517,"reserved":0,"last_update":"0001-01-01T00:00:00Z","name_a2s":"Uncletopia | Seattle | 1 | All Maps","protocol":17,"map":"koth_lakeside_final","folder":"tf","game":"Team Fortress","app_id":440,"player_count":20,"max_players":24,"Bots":0,"server_type":"Dedicated","server_os":"Linux","password":true,"vac":true,"version":"7757534","steam_id":85568392924469997,"keywords":["cp","nocrits","nodmgspread","uncletopia"],"game_id":440,"stv_port":27016,"stv_name":"Uncletopia | Seattle | 1 | All Maps | STV","players":[{"user_id":817,"name":"nfseskimo","steam_id":76561198078745666,"connected_time":1788000000000,"state":"spawning","ping":44},{"user_id":810,"name":"sudoku_fiend","steam_id":76561198152029104,"connected_time":2195000000000,"state":"spawning","ping":86},{"user_id":826,"name":"lavender","steam_id":76561199069518286,"connected_time":1380000000000,"state":"spawning","ping":67},{"user_id":845,"name":"Shnakes","steam_id":76561198201649518,"connected_time":111000000000,"state":"spawning","ping":136},{"user_id":837,"name":"Mormon Discoball","steam_id":76561198028006216,"connected_time":335000000000,"state":"spawning","ping":51},{"user_id":838,"name":"Punished Jeff (Drain Messiah)","steam_id":76561198304252584,"connected_time":334000000000,"state":"spawning","ping":63},{"user_id":848,"name":"Spicy Mcgee","steam_id":76561198072237373,"connected_time":69000000000,"state":"spawning","ping":95},{"user_id":815,"name":"CEOlifestyle","steam_id":76561198025747866,"connected_time":1882000000000,"state":"spawning","ping":155},{"user_id":819,"name":"Tea","steam_id":76561198004133638,"connected_time":1757000000000,"state":"spawning","ping":79},{"user_id":831,"name":"Mania","steam_id":76561198116313064,"connected_time":1179000000000,"state":"spawning","ping":62},{"user_id":840,"name":"Spuntino","steam_id":76561199057107767,"connected_time":264000000000,"state":"spawning","ping":69},{"user_id":841,"name":"fancyfreak","steam_id":76561198326466375,"connected_time":244000000000,"state":"spawning","ping":123},{"user_id":805,"name":"Clit Yeastwood","steam_id":76561199042672094,"connected_time":2604000000000,"state":"spawning","ping":55},{"user_id":806,"name":"Element 38","steam_id":76561198112056276,"connected_time":2579000000000,"state":"spawning","ping":338},{"user_id":825,"name":"cracky","steam_id":76561197971365444,"connected_time":1425000000000,"state":"spawning","ping":74},{"user_id":827,"name":"NotThatGuyPal","steam_id":76561199127607812,"connected_time":1371000000000,"state":"spawning","ping":64},{"user_id":829,"name":"the fool","steam_id":76561198133933158,"connected_time":1223000000000,"state":"spawning","ping":64},{"user_id":833,"name":"Scout Gaming","steam_id":76561198349052266,"connected_time":1022000000000,"state":"spawning","ping":70},{"user_id":807,"name":"Ricken","steam_id":76561198144964981,"connected_time":2577000000000,"state":"spawning","ping":64},{"user_id":844,"name":"fwoov","steam_id":76561198129166260,"connected_time":184000000000,"state":"spawning","ping":245}]},{"server_id":119,"name":"Uncletopia | Seattle | 2 | All Maps","name_short":"sea-2","host":"sea-1.us.uncletopia.com","port":27025,"enabled":true,"region":"us-west","cc":"us","latitude":47.608013,"longitude":-122.33517,"reserved":0,"last_update":"0001-01-01T00:00:00Z","name_a2s":"Uncletopia | Seattle | 2 | All Maps","protocol":17,"map":"koth_harvest_final","folder":"tf","game":"Team Fortress","app_id":440,"player_count":18,"max_players":24,"Bots":0,"server_type":"Dedicated","server_os":"Linux","password":true,"vac":true,"version":"7757534","steam_id":85568392924469998,"keywords":["cp","nocrits","nodmgspread","uncletopia"],"game_id":440,"stv_port":27026,"stv_name":"Uncletopia | Seattle | 2 | All Maps | STV","players":[{"user_id":495,"name":"oil","steam_id":76561198099980149,"connected_time":7415000000000,"state":"active","ping":75},{"user_id":556,"name":"Rain","steam_id":76561198065612273,"connected_time":399000000000,"state":"active","ping":45},{"user_id":558,"name":"Ruben","steam_id":76561198048508642,"connected_time":139000000000,"state":"active","ping":45},{"user_id":557,"name":"Marge \"ZaZa\" Simpson","steam_id":76561198156496197,"connected_time":369000000000,"state":"active","ping":106},{"user_id":479,"name":"delight","steam_id":76561197980280272,"connected_time":8565000000000,"state":"active","ping":45},{"user_id":504,"name":"Ducks","steam_id":76561198130038345,"connected_time":5347000000000,"state":"active","ping":62},{"user_id":560,"name":"Butthole Surfer","steam_id":76561198020526407,"connected_time":120000000000,"state":"active","ping":77},{"user_id":561,"name":"Kipper","steam_id":76561198008515450,"connected_time":102000000000,"state":"active","ping":76},{"user_id":353,"name":"Pneumo.","steam_id":76561197987911883,"connected_time":19474000000000,"state":"active","ping":68},{"user_id":520,"name":"ROFLMAOLOLXD!","steam_id":76561199472748548,"connected_time":3503000000000,"state":"active","ping":80},{"user_id":554,"name":"jeffus","steam_id":76561199347238848,"connected_time":989000000000,"state":"active","ping":69},{"user_id":537,"name":"goldhed","steam_id":76561198051751133,"connected_time":2278000000000,"state":"active","ping":59},{"user_id":507,"name":"resh","steam_id":76561198239598834,"connected_time":5334000000000,"state":"active","ping":131},{"user_id":523,"name":"profile name","steam_id":76561198032625036,"connected_time":3427000000000,"state":"active","ping":59},{"user_id":552,"name":"GOON","steam_id":76561198327993003,"connected_time":1054000000000,"state":"active","ping":57},{"user_id":542,"name":"green cupcake","steam_id":76561198114030795,"connected_time":1853000000000,"state":"active","ping":59},{"user_id":490,"name":"jorts","steam_id":76561199041179985,"connected_time":7611000000000,"state":"active","ping":57},{"user_id":500,"name":"rorywashere /ᐠ - ˕ -マ Ⳋ","steam_id":76561198065825165,"connected_time":7218000000000,"state":"active","ping":103}]},{"server_id":406,"name":"Uncletopia | Seattle | 3 | Stopwatch Beta","name_short":"sea-3","host":"sea-1.us.uncletopia.com","port":27035,"enabled":true,"region":"us-west","cc":"us","latitude":47.608013,"longitude":-122.33517,"reserved":0,"last_update":"0001-01-01T00:00:00Z","name_a2s":"Uncletopia | Seattle | 3 | Stopwatch Beta","protocol":17,"map":"cp_process_final","folder":"tf","game":"Team Fortress","app_id":440,"player_count":0,"max_players":24,"Bots":0,"server_type":"Dedicated","server_os":"Linux","password":true,"vac":true,"version":"7757534","steam_id":85568392924515217,"keywords":["cp","nocrits","nodmgspread","uncletopia"],"game_id":440,"stv_port":27036,"stv_name":"Uncletopia | Seattle | 3 | Stopwatch Beta | STV","players":null},{"server_id":17,"name":"Uncletopia | San Francisco | 1 | All Maps","name_short":"sfo-1","host":"sfo-1.us.uncletopia.com","port":27015,"enabled":true,"region":"us-west","cc":"us","latitude":37.77397,"longitude":-122.4313,"reserved":0,"last_update":"0001-01-01T00:00:00Z","name_a2s":"Uncletopia | San Francisco | 1 | All Maps","protocol":17,"map":"pl_borneo","folder":"tf","game":"Team Fortress","app_id":440,"player_count":19,"max_players":24,"Bots":0,"server_type":"Dedicated","server_os":"Linux","password":true,"vac":true,"version":"7757534","steam_id":85568392924469999,"keywords":["nocrits","nodmgspread","payload","uncletopia"],"game_id":440,"stv_port":27016,"stv_name":"Uncletopia | San Francisco | 1 | All Maps | STV","players":[{"user_id":504,"name":"Ryuujin","steam_id":76561198000897946,"connected_time":4410000000000,"state":"active","ping":90},{"user_id":551,"name":"Mr. Swampert","steam_id":76561198065157321,"connected_time":234000000000,"state":"active","ping":55},{"user_id":552,"name":"Sleuth","steam_id":76561198418288939,"connected_time":213000000000,"state":"active","ping":59},{"user_id":547,"name":"psy·cho·so·cial","steam_id":76561197962696818,"connected_time":477000000000,"state":"active","ping":107},{"user_id":537,"name":"deokemi","steam_id":76561199480055194,"connected_time":827000000000,"state":"active","ping":59},{"user_id":543,"name":"luna","steam_id":76561198327390236,"connected_time":632000000000,"state":"active","ping":52},{"user_id":553,"name":"Thrackerzod","steam_id":76561198130870200,"connected_time":200000000000,"state":"active","ping":114},{"user_id":503,"name":"ovenfresh01","steam_id":76561199086062124,"connected_time":4717000000000,"state":"active","ping":68},{"user_id":515,"name":"Lychee","steam_id":76561198403878342,"connected_time":2736000000000,"state":"active","ping":43},{"user_id":544,"name":"loser","steam_id":76561198132182386,"connected_time":625000000000,"state":"active","ping":57},{"user_id":554,"name":"XxX420UwUMaster666XxX","steam_id":76561199351137762,"connected_time":89000000000,"state":"active","ping":74},{"user_id":555,"name":"Auggy","steam_id":76561198041816037,"connected_time":84000000000,"state":"active","ping":57},{"user_id":556,"name":"Big Jon","steam_id":76561198402285099,"connected_time":84000000000,"state":"active","ping":57},{"user_id":519,"name":"noelle","steam_id":76561198842577534,"connected_time":2475000000000,"state":"active","ping":83},{"user_id":516,"name":"HiggsBoson","steam_id":76561198356538323,"connected_time":2557000000000,"state":"active","ping":61},{"user_id":520,"name":"HammerHead","steam_id":76561197975668646,"connected_time":2459000000000,"state":"active","ping":74},{"user_id":549,"name":"MonkeyNobody","steam_id":76561199451266605,"connected_time":425000000000,"state":"active","ping":58},{"user_id":557,"name":"Alice in Rubberland","steam_id":76561198087328346,"connected_time":77000000000,"state":"active","ping":106},{"user_id":502,"name":"The Deders","steam_id":76561198002639950,"connected_time":4720000000000,"state":"active","ping":73}]},{"server_id":18,"name":"Uncletopia | San Francisco | 2 | All Maps","name_short":"sfo-2","host":"sfo-1.us.uncletopia.com","port":27025,"enabled":true,"region":"us-west","cc":"us","latitude":37.77397,"longitude":-122.4313,"reserved":0,"last_update":"0001-01-01T00:00:00Z","name_a2s":"Uncletopia | San Francisco | 2 | All Maps","protocol":17,"map":"pl_barnblitz","folder":"tf","game":"Team Fortress","app_id":440,"player_count":11,"max_players":24,"Bots":0,"server_type":"Dedicated","server_os":"Linux","password":true,"vac":true,"version":"7757534","steam_id":85568392924470000,"keywords":["nocrits","nodmgspread","payload","uncletopia"],"game_id":440,"stv_port":27026,"stv_name":"Uncletopia | San Francisco | 2 | All Maps | STV","players":[{"user_id":235,"name":"Messi","steam_id":76561198121023233,"connected_time":209000000000,"state":"active","ping":114},{"user_id":230,"name":"Project_Counter","steam_id":76561198152786076,"connected_time":1113000000000,"state":"active","ping":104},{"user_id":204,"name":"Ken-Sama","steam_id":76561198040465331,"connected_time":3065000000000,"state":"active","ping":63},{"user_id":137,"name":"OlimarsDisciple","steam_id":76561198798700505,"connected_time":9692000000000,"state":"active","ping":70},{"user_id":186,"name":"Aqua Tofana","steam_id":76561198351183381,"connected_time":5288000000000,"state":"active","ping":70},{"user_id":184,"name":"lastknight","steam_id":76561197990421969,"connected_time":5430000000000,"state":"active","ping":44},{"user_id":216,"name":"MrChonte47","steam_id":76561198048141130,"connected_time":2138000000000,"state":"active","ping":64},{"user_id":188,"name":"John Smith","steam_id":76561198185776555,"connected_time":5225000000000,"state":"active","ping":59},{"user_id":218,"name":"tweet","steam_id":76561198166515735,"connected_time":2028000000000,"state":"active","ping":44},{"user_id":199,"name":"Vlad","steam_id":76561198072334604,"connected_time":4049000000000,"state":"active","ping":67},{"user_id":219,"name":"countwarning99","steam_id":76561198134106449,"connected_time":2025000000000,"state":"active","ping":56}]},{"server_id":19,"name":"Uncletopia | San Francisco | 3 | Stopwatch Beta","name_short":"sfo-3","host":"sfo-1.us.uncletopia.com","port":27035,"enabled":true,"region":"us-west","cc":"us","latitude":37.77397,"longitude":-122.4313,"reserved":0,"last_update":"0001-01-01T00:00:00Z","name_a2s":"Uncletopia | San Francisco | 3 | Stopwatch Beta","protocol":17,"map":"workshop/koth_ashville_final.ugc2130459942","folder":"tf","game":"Team Fortress","app_id":440,"player_count":0,"max_players":24,"Bots":0,"server_type":"Dedicated","server_os":"Linux","password":true,"vac":true,"version":"7757534","steam_id":85568392924742824,"keywords":["cp","nocrits","nodmgspread","uncletopia"],"game_id":440,"stv_port":27036,"stv_name":"Uncletopia | San Francisco | 3 | Stopwatch Beta | STV","players":null},{"server_id":20,"name":"Uncletopia | San Francisco | 4 | Community","name_short":"sfo-4","host":"sfo-1.us.uncletopia.com","port":27045,"enabled":true,"region":"us-west","cc":"us","latitude":37.77397,"longitude":-122.4313,"reserved":0,"last_update":"0001-01-01T00:00:00Z","name_a2s":"Uncletopia | San Francisco | 4 | Community","protocol":17,"map":"cp_altitude","folder":"tf","game":"Team Fortress","app_id":440,"player_count":0,"max_players":24,"Bots":0,"server_type":"Dedicated","server_os":"Linux","password":true,"vac":true,"version":"7757534","steam_id":85568392924742826,"keywords":["cp","nocrits","nodmgspread","uncletopia"],"game_id":440,"stv_port":27046,"stv_name":"Uncletopia | San Francisco | 4 | Community | STV","players":null},{"server_id":141,"name":"Uncletopia | Sydney | 1 | All Maps","name_short":"syd-1","host":"syd-1.au.uncletopia.com","port":27015,"enabled":true,"region":"au","cc":"au","latitude":-33.865143,"longitude":151.2099,"reserved":0,"last_update":"0001-01-01T00:00:00Z","name_a2s":"Uncletopia | Sydney | 1 | All Maps","protocol":17,"map":"pl_snowycoast","folder":"tf","game":"Team Fortress","app_id":440,"player_count":24,"max_players":24,"Bots":0,"server_type":"Dedicated","server_os":"Linux","password":true,"vac":true,"version":"7757534","steam_id":85568392924470001,"keywords":["nocrits","nodmgspread","payload","uncletopia"],"game_id":440,"stv_port":27016,"stv_name":"Uncletopia | Sydney | 1 | All Maps | STV","players":[{"user_id":499,"name":"Jetfire","steam_id":76561198047370036,"connected_time":6036000000000,"state":"active","ping":89},{"user_id":595,"name":"JustGaming","steam_id":76561198086431902,"connected_time":591000000000,"state":"active","ping":41},{"user_id":597,"name":"Sentry Gun (EpicGuy4227)","steam_id":76561198094132328,"connected_time":359000000000,"state":"active","ping":66},{"user_id":589,"name":"Verveeld","steam_id":76561198245980544,"connected_time":954000000000,"state":"active","ping":61},{"user_id":518,"name":"perturb","steam_id":76561198085124297,"connected_time":5343000000000,"state":"active","ping":55},{"user_id":580,"name":"ETHICAL CONSUMPTION","steam_id":76561198035066643,"connected_time":1259000000000,"state":"active","ping":94},{"user_id":535,"name":"Crimea River","steam_id":76561198105725563,"connected_time":4021000000000,"state":"active","ping":86},{"user_id":593,"name":"Rodan","steam_id":76561198038401873,"connected_time":764000000000,"state":"active","ping":80},{"user_id":581,"name":"Milk Boi","steam_id":76561198238708000,"connected_time":1226000000000,"state":"active","ping":88},{"user_id":571,"name":"Sexy Turtle","steam_id":76561198256865969,"connected_time":2106000000000,"state":"active","ping":44},{"user_id":582,"name":"maeday","steam_id":76561198260204906,"connected_time":1173000000000,"state":"active","ping":64},{"user_id":583,"name":"BritishPropagandaMachine","steam_id":76561198189424557,"connected_time":1172000000000,"state":"active","ping":60},{"user_id":584,"name":"Don Cheezel","steam_id":76561198321407264,"connected_time":1160000000000,"state":"active","ping":58},{"user_id":588,"name":"whiteshaq","steam_id":76561198131988811,"connected_time":1000000000000,"state":"active","ping":49},{"user_id":576,"name":"Hippity_Hoppity","steam_id":76561198861050395,"connected_time":1763000000000,"state":"active","ping":69},{"user_id":547,"name":"Pompadouraus","steam_id":76561198327530525,"connected_time":3650000000000,"state":"active","ping":74},{"user_id":586,"name":"courtesy","steam_id":76561198248550514,"connected_time":1079000000000,"state":"active","ping":57},{"user_id":596,"name":"Toucan Rizz","steam_id":76561198150760829,"connected_time":479000000000,"state":"active","ping":42},{"user_id":549,"name":"Up and Coming Crackhead","steam_id":76561199174449723,"connected_time":3559000000000,"state":"active","ping":150},{"user_id":526,"name":"pissmaster","steam_id":76561197990537324,"connected_time":4634000000000,"state":"active","ping":109},{"user_id":587,"name":"Ratbagus","steam_id":76561197993827486,"connected_time":1036000000000,"state":"active","ping":76},{"user_id":545,"name":"Bay Goy","steam_id":76561197989541221,"connected_time":3676000000000,"state":"active","ping":69},{"user_id":594,"name":"Wolflord2","steam_id":76561198256449795,"connected_time":740000000000,"state":"active","ping":62},{"user_id":591,"name":"Treefingers","steam_id":76561199436707447,"connected_time":852000000000,"state":"active","ping":49}]},{"server_id":123,"name":"Uncletopia | Sydney | 2 | All Maps","name_short":"syd-2","host":"syd-1.au.uncletopia.com","port":27025,"enabled":true,"region":"au","cc":"au","latitude":-33.865143,"longitude":151.2099,"reserved":0,"last_update":"0001-01-01T00:00:00Z","name_a2s":"Uncletopia | Sydney | 2 | All Maps","protocol":17,"map":"cp_snakewater_final1","folder":"tf","game":"Team Fortress","app_id":440,"player_count":8,"max_players":24,"Bots":0,"server_type":"Dedicated","server_os":"Linux","password":true,"vac":true,"version":"7757534","steam_id":85568392924470002,"keywords":["cp","nocrits","nodmgspread","uncletopia"],"game_id":440,"stv_port":27026,"stv_name":"Uncletopia | Sydney | 2 | All Maps | STV","players":[{"user_id":318,"name":"Sanu","steam_id":76561198169942706,"connected_time":227000000000,"state":"active","ping":83},{"user_id":317,"name":"Irish Car (Bomb) Salesman","steam_id":76561198132758545,"connected_time":311000000000,"state":"active","ping":59},{"user_id":319,"name":"Tiger_Tan","steam_id":76561198221733844,"connected_time":117000000000,"state":"active","ping":72},{"user_id":321,"name":"lem","steam_id":76561199119233603,"connected_time":15000000000,"state":"spawning","ping":57},{"user_id":315,"name":"Stock™","steam_id":76561198089242483,"connected_time":726000000000,"state":"active","ping":45},{"user_id":301,"name":"yousifwbh","steam_id":76561199474418098,"connected_time":2031000000000,"state":"active","ping":81},{"user_id":316,"name":"GappyZero","steam_id":76561199270883180,"connected_time":567000000000,"state":"active","ping":272},{"user_id":306,"name":"Muon","steam_id":76561198031870803,"connected_time":1729000000000,"state":"active","ping":61}]},{"server_id":395,"name":"Uncletopia | Sydney | 3 | All Maps","name_short":"syd-3","host":"syd-1.au.uncletopia.com","port":27035,"enabled":true,"region":"au","cc":"au","latitude":-33.865143,"longitude":151.2099,"reserved":0,"last_update":"0001-01-01T00:00:00Z","name_a2s":"Uncletopia | Sydney | 3 | All Maps","protocol":17,"map":"koth_viaduct","folder":"tf","game":"Team Fortress","app_id":440,"player_count":0,"max_players":24,"Bots":0,"server_type":"Dedicated","server_os":"Linux","password":true,"vac":true,"version":"7757534","steam_id":85568392925194467,"keywords":["cp","nocrits","nodmgspread","uncletopia"],"game_id":440,"stv_port":27036,"stv_name":"Uncletopia | Sydney | 3 | All Maps | STV","players":null},{"server_id":396,"name":"Uncletopia | Sydney | 4 | All Maps","name_short":"syd-4","host":"syd-1.au.uncletopia.com","port":27045,"enabled":true,"region":"au","cc":"au","latitude":-33.865143,"longitude":151.2099,"reserved":0,"last_update":"0001-01-01T00:00:00Z","name_a2s":"Uncletopia | Sydney | 4 | All Maps","protocol":17,"map":"koth_highpass","folder":"tf","game":"Team Fortress","app_id":440,"player_count":0,"max_players":24,"Bots":0,"server_type":"Dedicated","server_os":"Linux","password":true,"vac":true,"version":"7757534","steam_id":85568392925397958,"keywords":["cp","nocrits","nodmgspread","uncletopia"],"game_id":440,"stv_port":27046,"stv_name":"Uncletopia | Sydney | 4 | All Maps | STV","players":null},{"server_id":58,"name":"Uncletopia | Sydney | 5 | Stopwatch Beta","name_short":"syd-5","host":"syd-1.au.uncletopia.com","port":27055,"enabled":true,"region":"au","cc":"au","latitude":-33.865143,"longitude":151.2099,"reserved":0,"last_update":"0001-01-01T00:00:00Z","name_a2s":"Uncletopia | Sydney | 5 | Stopwatch Beta","protocol":17,"map":"pl_upward","folder":"tf","game":"Team Fortress","app_id":440,"player_count":0,"max_players":24,"Bots":0,"server_type":"Dedicated","server_os":"Linux","password":true,"vac":true,"version":"7757534","steam_id":85568392925397959,"keywords":["nocrits","nodmgspread","payload","uncletopia"],"game_id":440,"stv_port":27056,"stv_name":"Uncletopia | Sydney | 5 | Stopwatch Beta | STV","players":null},{"server_id":59,"name":"Uncletopia | Sydney | 6 | Community","name_short":"syd-6","host":"syd-1.au.uncletopia.com","port":27065,"enabled":true,"region":"au","cc":"au","latitude":-33.865143,"longitude":151.2099,"reserved":0,"last_update":"0001-01-01T00:00:00Z","name_a2s":"Uncletopia | Sydney | 6 | Community","protocol":17,"map":"workshop/pl_boundary_final1.ugc456799153","folder":"tf","game":"Team Fortress","app_id":440,"player_count":0,"max_players":24,"Bots":0,"server_type":"Dedicated","server_os":"Linux","password":true,"vac":true,"version":"7757534","steam_id":85568392925397960,"keywords":["nocrits","nodmgspread","payload","uncletopia"],"game_id":440,"stv_port":27066,"stv_name":"Uncletopia | Sydney | 6 | Community | STV","players":null},{"server_id":49,"name":"Uncletopia | Warsaw | 1 | All Maps","name_short":"waw-1","host":"waw-1.pl.uncletopia.com","port":27015,"enabled":true,"region":"eu","cc":"pl","latitude":52.2297,"longitude":21.017532,"reserved":0,"last_update":"0001-01-01T00:00:00Z","name_a2s":"","protocol":0,"map":"","folder":"","game":"","app_id":0,"player_count":0,"max_players":0,"Bots":0,"server_type":"","server_os":"","password":false,"vac":false,"version":"","steam_id":0,"keywords":null,"game_id":0,"stv_port":0,"stv_name":"","players":null},{"server_id":50,"name":"Uncletopia | Warsaw | 2 | All Maps","name_short":"waw-2","host":"waw-1.pl.uncletopia.com","port":27025,"enabled":true,"region":"eu","cc":"pl","latitude":52.2297,"longitude":21.017532,"reserved":0,"last_update":"0001-01-01T00:00:00Z","name_a2s":"Uncletopia | Warsaw | 2 | All Maps","protocol":17,"map":"koth_viaduct","folder":"tf","game":"Team Fortress","app_id":440,"player_count":0,"max_players":24,"Bots":0,"server_type":"Dedicated","server_os":"Linux","password":true,"vac":true,"version":"7757534","steam_id":85568392925397851,"keywords":["cp","nocrits","nodmgspread","uncletopia"],"game_id":440,"stv_port":27026,"stv_name":"Uncletopia | Warsaw | 2 | All Maps | STV","players":null},{"server_id":51,"name":"Uncletopia | Warsaw | 3 | All Maps","name_short":"waw-3","host":"waw-1.pl.uncletopia.com","port":27035,"enabled":true,"region":"eu","cc":"pl","latitude":52.2297,"longitude":21.017532,"reserved":0,"last_update":"0001-01-01T00:00:00Z","name_a2s":"Uncletopia | Warsaw | 3 | All Maps","protocol":17,"map":"pl_badwater","folder":"tf","game":"Team Fortress","app_id":440,"player_count":0,"max_players":24,"Bots":0,"server_type":"Dedicated","server_os":"Linux","password":true,"vac":true,"version":"7757534","steam_id":85568392925397852,"keywords":["nocrits","nodmgspread","payload","uncletopia"],"game_id":440,"stv_port":27036,"stv_name":"Uncletopia | Warsaw | 3 | All Maps | STV","players":null},{"server_id":52,"name":"Uncletopia | Warsaw | 4 | All Maps","name_short":"waw-4","host":"waw-1.pl.uncletopia.com","port":27045,"enabled":true,"region":"eu","cc":"pl","latitude":52.2297,"longitude":21.017532,"reserved":0,"last_update":"0001-01-01T00:00:00Z","name_a2s":"Uncletopia | Warsaw | 4 | All Maps","protocol":17,"map":"koth_lakeside_final","folder":"tf","game":"Team Fortress","app_id":440,"player_count":0,"max_players":24,"Bots":0,"server_type":"Dedicated","server_os":"Linux","password":true,"vac":true,"version":"7757534","steam_id":85568392925397853,"keywords":["cp","nocrits","nodmgspread","uncletopia"],"game_id":440,"stv_port":27046,"stv_name":"Uncletopia | Warsaw | 4 | All Maps | STV","players":null},{"server_id":53,"name":"Uncletopia | Warsaw | 5 | Stopwatch Beta","name_short":"waw-5","host":"waw-1.pl.uncletopia.com","port":27055,"enabled":true,"region":"eu","cc":"pl","latitude":52.2297,"longitude":21.017532,"reserved":0,"last_update":"0001-01-01T00:00:00Z","name_a2s":"Uncletopia | Warsaw | 5 | Stopwatch Beta","protocol":17,"map":"pl_borneo","folder":"tf","game":"Team Fortress","app_id":440,"player_count":0,"max_players":24,"Bots":0,"server_type":"Dedicated","server_os":"Linux","password":true,"vac":true,"version":"7757534","steam_id":85568392925397854,"keywords":["nocrits","nodmgspread","payload","uncletopia"],"game_id":440,"stv_port":27056,"stv_name":"Uncletopia | Warsaw | 5 | Stopwatch Beta | STV","players":null},{"server_id":54,"name":"Uncletopia | Warsaw | 6 | Community","name_short":"waw-6","host":"waw-1.pl.uncletopia.com","port":27065,"enabled":true,"region":"eu","cc":"pl","latitude":52.2297,"longitude":21.017532,"reserved":0,"last_update":"0001-01-01T00:00:00Z","name_a2s":"Uncletopia | Warsaw | 6 | Community","protocol":17,"map":"koth_lakeside_final","folder":"tf","game":"Team Fortress","app_id":440,"player_count":0,"max_players":24,"Bots":0,"server_type":"Dedicated","server_os":"Linux","password":true,"vac":true,"version":"7757534","steam_id":85568392925397856,"keywords":["cp","nocrits","nodmgspread","uncletopia"],"game_id":440,"stv_port":27066,"stv_name":"Uncletopia | Warsaw | 6 | Community | STV","players":null}]}