{"status":true,"message":"","result":[{"server_id":9,"name":"Uncletopia | Atlanta | 1 | All Maps","name_short":"atl-1","host":"atl-1.us.uncletopia.com","port":27015,"enabled":true,"region":"us-east","cc":"us","latitude":33.753746,"longitude":-84.38633,"reserved":0,"last_update":"0001-01-01T00:00:00Z","name_a2s":"Uncletopia | Atlanta | 1 | All Maps","protocol":17,"map":"pl_badwater","folder":"tf","game":"Team Fortress","app_id":440,"player_count":24,"max_players":24,"Bots":0,"server_type":"Dedicated","server_os":"Linux","password":true,"vac":true,"version":"7961495","steam_id":85568392924469982,"keywords":["nocrits","nodmgspread","payload","uncletopia"],"game_id":440,"stv_port":27016,"stv_name":"Uncletopia | Atlanta | 1 | All Maps | STV","players":null},{"server_id":104,"name":"Uncletopia | Atlanta | 2 | All Maps","name_short":"atl-2","host":"atl-1.us.uncletopia.com","port":27025,"enabled":true,"region":"us-east","cc":"us","latitude":33.753746,"longitude":-84.38633,"reserved":0,"last_update":"0001-01-01T00:00:00Z","name_a2s":"Uncletopia | Atlanta | 2 | All Maps","protocol":17,"map":"pl_borneo","folder":"tf","game":"Team Fortress","app_id":440,"player_count":24,"max_players":24,"Bots":0,"server_type":"Dedicated","server_os":"Linux","password":true,"vac":true,"version":"7961495","steam_id":85568392924469983,"keywords":["nocrits","nodmgspread","payload","uncletopia"],"game_id":440,"stv_port":27026,"stv_name":"Uncletopia | Atlanta | 2 | All Maps | STV","players":null},{"server_id":400,"name":"Uncletopia | Atlanta | 3 | Stopwatch","name_short":"atl-3","host":"atl-1.us.uncletopia.com","port":27035,"enabled":true,"region":"us-east","cc":"us","latitude":33.753746,"longitude":-84.38633,"reserved":0,"last_update":"0001-01-01T00:00:00Z","name_a2s":"Uncletopia | Atlanta | 3 | Stopwatch","protocol":17,"map":"koth_clearcut_b15","folder":"tf","game":"Team Fortress","app_id":440,"player_count":0,"max_players":24,"Bots":0,"server_type":"Dedicated","server_os":"Linux","password":true,"vac":true,"version":"7961495","steam_id":85568392924515187,"keywords":["cp","nocrits","nodmgspread","uncletopia"],"game_id":440,"stv_port":27036,"stv_name":"Uncletopia | Atlanta | 3 | Stopwatch | STV","players":null},{"server_id":401,"name":"Uncletopia | Atlanta | 4 | Community","name_short":"atl-4","host":"atl-1.us.uncletopia.com","port":27045,"enabled":true,"region":"us-east","cc":"us","latitude":33.753746,"longitude":-84.38633,"reserved":0,"last_update":"0001-01-01T00:00:00Z","name_a2s":"Uncletopia | Atlanta | 4 | Community","protocol":17,"map":"pl_cactuscanyon_redux_final2","folder":"tf","game":"Team Fortress","app_id":440,"player_count":0,"max_players":24,"Bots":0,"server_type":"Dedicated","server_os":"Linux","password":true,"vac":true,"version":"7961495","steam_id":85568392924515188,"keywords":["nocrits","nodmgspread","payload","uncletopia"],"game_id":440,"stv_port":27046,"stv_name":"Uncletopia | Atlanta | 4 | Community | STV","players":null},{"server_id":2,"name":"Uncletopia | Chicago | 1 | All Maps","name_short":"chi-1","host":"chi-1.us.uncletopia.com","port":27015,"enabled":true,"region":"us-central","cc":"us","latitude":41.881832,"longitude":-87.62318,"reserved":0,"last_update":"0001-01-01T00:00:00Z","name_a2s":"Uncletopia | Chicago | 1 | All Maps","protocol":17,"map":"pl_upward","folder":"tf","game":"Team Fortress","app_id":440,"player_count":24,"max_players":24,"Bots":0,"server_type":"Dedicated","server_os":"Linux","password":true,"vac":true,"version":"7961495","steam_id":85568392924469984,"keywords":["nocrits","nodmgspread","payload","uncletopia"],"game_id":440,"stv_port":27016,"stv_name":"Uncletopia | Chicago | 1 | All Maps | STV","players":[{"user_id":329,"name":"Hyperactivedimwit","steam_id":76561198134221704,"connected_time":782000000000,"state":"active","ping":47},{"user_id":330,"name":"Ark","steam_id":76561198053000340,"connected_time":751000000000,"state":"active","ping":57},{"user_id":339,"name":"THE RADIANCE","steam_id":76561198871897563,"connected_time":343000000000,"state":"active","ping":54},{"user_id":327,"name":"lili of the valley","steam_id":76561198253172399,"connected_time":790000000000,"state":"active","ping":64},{"user_id":219,"name":"monstertimescary","steam_id":76561198079303767,"connected_time":9335000000000,"state":"active","ping":61},{"user_id":289,"name":"Sunny D+","steam_id":76561197999371052,"connected_time":2637000000000,"state":"active","ping":80},{"user_id":328,"name":"Carton","steam_id":76561198989473391,"connected_time":789000000000,"state":"active","ping":65},{"user_id":313,"name":"Fresh Lychee","steam_id":76561198045399559,"connected_time":1931000000000,"state":"active","ping":58},{"user_id":309,"name":"THORNFIELDGAMER","steam_id":76561199087167473,"connected_time":2271000000000,"state":"active","ping":89},{"user_id":296,"name":"NoobsSlayer","steam_id":76561199102765122,"connected_time":2531000000000,"state":"active","ping":141},{"user_id":338,"name":"Acro","steam_id":76561198092451804,"connected_time":402000000000,"state":"active","ping":69},{"user_id":335,"name":"Andallfor","steam_id":76561198350143349,"connected_time":521000000000,"state":"active","ping":60},{"user_id":311,"name":"B.","steam_id":76561198040445907,"connected_time":2023000000000,"state":"active","ping":73},{"user_id":306,"name":"Digit","steam_id":76561198156589157,"connected_time":2469000000000,"state":"active","ping":78},{"user_id":275,"name":"BiggFoot","steam_id":76561197998605599,"connected_time":4756000000000,"state":"active","ping":74},{"user_id":340,"name":"big tim","steam_id":76561198075510786,"connected_time":340000000000,"state":"active","ping":76},{"user_id":323,"name":"The World's Softest Sandwich","steam_id":76561198015577707,"connected_time":1396000000000,"state":"active","ping":78},{"user_id":286,"name":"Boxpipe","steam_id":76561197964501915,"connected_time":2984000000000,"state":"active","ping":47},{"user_id":287,"name":"CoconutRice","steam_id":76561198114909164,"connected_time":2944000000000,"state":"active","ping":52},{"user_id":336,"name":"Lovedaddy","steam_id":76561198006569710,"connected_time":501000000000,"state":"active","ping":81},{"user_id":331,"name":"Flyinglab","steam_id":76561198042161408,"connected_time":745000000000,"state":"active","ping":75},{"user_id":326,"name":"og biden pack cart","steam_id":76561198253731826,"connected_time":1224000000000,"state":"active","ping":63},{"user_id":307,"name":"TAKEOVER","steam_id":76561198056432756,"connected_time":2464000000000,"state":"active","ping":72},{"user_id":312,"name":"GrapeFieldGamer","steam_id":76561199382834868,"connected_time":2012000000000,"state":"active","ping":70}]},{"server_id":106,"name":"Uncletopia | Chicago | 2 | All Maps","name_short":"chi-2","host":"chi-1.us.uncletopia.com","port":27025,"enabled":true,"region":"us-central","cc":"us","latitude":41.881832,"longitude":-87.62318,"reserved":0,"last_update":"0001-01-01T00:00:00Z","name_a2s":"Uncletopia | Chicago | 2 | All Maps","protocol":17,"map":"pl_borneo","folder":"tf","game":"Team Fortress","app_id":440,"player_count":24,"max_players":24,"Bots":0,"server_type":"Dedicated","server_os":"Linux","password":true,"vac":true,"version":"7961495","steam_id":85568392924469985,"keywords":["nocrits","nodmgspread","payload","uncletopia"],"game_id":440,"stv_port":27026,"stv_name":"Uncletopia | Chicago | 2 | All Maps | STV","players":[{"user_id":261,"name":"Howard Hamlin","steam_id":76561198881039861,"connected_time":1466000000000,"state":"active","ping":61},{"user_id":256,"name":"Cadance Loves","steam_id":76561198257874590,"connected_time":1610000000000,"state":"active","ping":74},{"user_id":273,"name":"+03e","steam_id":76561198147970180,"connected_time":792000000000,"state":"active","ping":52},{"user_id":268,"name":"Action Bastard","steam_id":76561198059552170,"connected_time":1050000000000,"state":"active","ping":70},{"user_id":267,"name":"Fredrick","steam_id":76561197981419964,"connected_time":1116000000000,"state":"active","ping":69},{"user_id":237,"name":"Breakaway","steam_id":76561198089308523,"connected_time":2959000000000,"state":"active","ping":85},{"user_id":272,"name":"dota player 74712","steam_id":76561198193746389,"connected_time":871000000000,"state":"active","ping":78},{"user_id":236,"name":"Narz","steam_id":76561198076240365,"connected_time":2965000000000,"state":"active","ping":62},{"user_id":262,"name":"MechaSixVII","steam_id":76561198014927379,"connected_time":1464000000000,"state":"active","ping":84},{"user_id":255,"name":"Rafl","steam_id":76561198055222756,"connected_time":1726000000000,"state":"active","ping":62},{"user_id":219,"name":"CinnamonBoy","steam_id":76561198882330338,"connected_time":4302000000000,"state":"active","ping":68},{"user_id":257,"name":"triple_range_merge","steam_id":76561198991225026,"connected_time":1610000000000,"state":"active","ping":76},{"user_id":235,"name":"chen","steam_id":76561198064872330,"connected_time":2987000000000,"state":"active","ping":66},{"user_id":260,"name":"tobrehto","steam_id":76561198097544038,"connected_time":1558000000000,"state":"active","ping":90},{"user_id":238,"name":"Beany","steam_id":76561198102299438,"connected_time":2757000000000,"state":"active","ping":58},{"user_id":274,"name":"real","steam_id":76561198259963310,"connected_time":621000000000,"state":"active","ping":65},{"user_id":253,"name":"hobojoemama","steam_id":76561198108345568,"connected_time":1848000000000,"state":"active","ping":80},{"user_id":243,"name":"car crash compilation #34","steam_id":76561198042773724,"connected_time":2473000000000,"state":"active","ping":97},{"user_id":217,"name":"Fanatic","steam_id":76561198036960509,"connected_time":4412000000000,"state":"active","ping":65},{"user_id":245,"name":"Psionara","steam_id":76561198211684263,"connected_time":2218000000000,"state":"active","ping":112},{"user_id":276,"name":"Plinko","steam_id":76561197968530638,"connected_time":300000000000,"state":"active","ping":58},{"user_id":258,"name":"Fluffeline","steam_id":76561198352909489,"connected_time":1609000000000,"state":"active","ping":143},{"user_id":254,"name":"Ceige LFT","steam_id":76561198068538473,"connected_time":1804000000000,"state":"active","ping":76},{"user_id":278,"name":"hi ping","steam_id":76561198383636396,"connected_time":286000000000,"state":"active","ping":136}]},{"server_id":402,"name":"Uncletopia | Chicago | 3 | All Maps","name_short":"chi-3","host":"chi-1.us.uncletopia.com","port":27035,"enabled":true,"region":"us-central","cc":"us","latitude":41.881832,"longitude":-87.62318,"reserved":0,"last_update":"0001-01-01T00:00:00Z","name_a2s":"Uncletopia | Chicago | 3 | All Maps","protocol":17,"map":"koth_cascade","folder":"tf","game":"Team Fortress","app_id":440,"player_count":23,"max_players":24,"Bots":0,"server_type":"Dedicated","server_os":"Linux","password":true,"vac":true,"version":"7961495","steam_id":85568392924515191,"keywords":["cp","nocrits","nodmgspread","uncletopia"],"game_id":440,"stv_port":27036,"stv_name":"Uncletopia | Chicago | 3 | All Maps | STV","players":[{"user_id":291,"name":"Eiss","steam_id":76561198343183806,"connected_time":2221000000000,"state":"active","ping":66},{"user_id":292,"name":"Wendy's Brand Trash","steam_id":76561198328346670,"connected_time":2218000000000,"state":"active","ping":29},{"user_id":293,"name":"ultralisk52","steam_id":76561198051666604,"connected_time":1179000000000,"state":"active","ping":61},{"user_id":320,"name":"Huntpk","steam_id":76561198340591674,"connected_time":170000000000,"state":"active","ping":35},{"user_id":296,"name":"LemonCitron","steam_id":76561199009438984,"connected_time":813000000000,"state":"active","ping":96},{"user_id":297,"name":"MrTroll","steam_id":76561199027009716,"connected_time":787000000000,"state":"active","ping":86},{"user_id":298,"name":"Vv","steam_id":76561199052196750,"connected_time":775000000000,"state":"active","ping":76},{"user_id":299,"name":"wasd","steam_id":76561198397615445,"connected_time":750000000000,"state":"active","ping":97},{"user_id":308,"name":"The Jar","steam_id":76561198146013385,"connected_time":440000000000,"state":"active","ping":72},{"user_id":325,"name":"thecal","steam_id":76561198307893384,"connected_time":95000000000,"state":"active","ping":49},{"user_id":304,"name":"Fucked Up Scout","steam_id":76561199075186597,"connected_time":552000000000,"state":"active","ping":69},{"user_id":305,"name":"Armoreddude","steam_id":76561198058739073,"connected_time":509000000000,"state":"active","ping":57},{"user_id":311,"name":"neet","steam_id":76561197968115168,"connected_time":344000000000,"state":"active","ping":55},{"user_id":312,"name":"DJ Pierce","steam_id":76561198394241466,"connected_time":283000000000,"state":"active","ping":72},{"user_id":310,"name":"Argo","steam_id":76561198353725622,"connected_time":354000000000,"state":"active","ping":81},{"user_id":313,"name":"Zeaky","steam_id":76561198068736138,"connected_time":281000000000,"state":"active","ping":60},{"user_id":315,"name":"Fobby #Savetf2","steam_id":76561198047681469,"connected_time":262000000000,"state":"active","ping":78},{"user_id":316,"name":"dansal","steam_id":76561197997042510,"connected_time":260000000000,"state":"active","ping":86},{"user_id":317,"name":"37 septillion tapeworms","steam_id":76561198186128723,"connected_time":258000000000,"state":"active","ping":72},{"user_id":322,"name":"Architect","steam_id":76561198015242016,"connected_time":116000000000,"state":"active","ping":39},{"user_id":319,"name":"El Güey","steam_id":76561197970450546,"connected_time":189000000000,"state":"active","ping":108},{"user_id":321,"name":"Elliot","steam_id":76561198052843856,"connected_time":149000000000,"state":"active","ping":67},{"user_id":324,"name":"The destroyer of foreskin","steam_id":76561198135275966,"connected_time":116000000000,"state":"active","ping":71}]},{"server_id":403,"name":"Uncletopia | Chicago | 4 | All Maps","name_short":"chi-4","host":"chi-1.us.uncletopia.com","port":27045,"enabled":true,"region":"us-central","cc":"us","latitude":41.881832,"longitude":-87.62318,"reserved":0,"last_update":"0001-01-01T00:00:00Z","name_a2s":"Uncletopia | Chicago | 4 | All Maps","protocol":17,"map":"koth_cascade","folder":"tf","game":"Team Fortress","app_id":440,"player_count":0,"max_players":24,"Bots":0,"server_type":"Dedicated","server_os":"Linux","password":true,"vac":true,"version":"7961495","steam_id":85568392924515193,"keywords":["cp","nocrits","nodmgspread","uncletopia"],"game_id":440,"stv_port":27046,"stv_name":"Uncletopia | Chicago | 4 | All Maps | STV","players":null},{"server_id":36,"name":"Uncletopia | Chicago | 5 | All Maps","name_short":"chi-5","host":"chi-2.us.uncletopia.com","port":27015,"enabled":true,"region":"us-central","cc":"us","latitude":41.881832,"longitude":-87.62318,"reserved":0,"last_update":"0001-01-01T00:00:00Z","name_a2s":"Uncletopia | Chicago | 5 | All Maps","protocol":17,"map":"pl_swiftwater_final1","folder":"tf","game":"Team Fortress","app_id":440,"player_count":24,"max_players":24,"Bots":0,"server_type":"Dedicated","server_os":"Linux","password":true,"vac":true,"version":"7961495","steam_id":85568392924866362,"keywords":["nocrits","nodmgspread","payload","uncletopia"],"game_id":440,"stv_port":27016,"stv_name":"Uncletopia | Chicago | 5 | All Maps | STV","players":[{"user_id":154,"name":"housy","steam_id":76561198080008210,"connected_time":161000000000,"state":"active","ping":142},{"user_id":131,"name":"Brocklee","steam_id":76561198189330642,"connected_time":1697000000000,"state":"active","ping":105},{"user_id":141,"name":"rudy","steam_id":76561198088712799,"connected_time":832000000000,"state":"active","ping":104},{"user_id":105,"name":"Hazeyboi","steam_id":76561198130687838,"connected_time":4184000000000,"state":"active","ping":45},{"user_id":109,"name":"Schnabel","steam_id":76561198226159564,"connected_time":4162000000000,"state":"active","ping":103},{"user_id":137,"name":"Ninjoth","steam_id":76561198038611753,"connected_time":872000000000,"state":"active","ping":85},{"user_id":117,"name":"The_Dominator47","steam_id":76561198170443759,"connected_time":3291000000000,"state":"active","ping":116},{"user_id":142,"name":"Scorpianswag","steam_id":76561198260651036,"connected_time":809000000000,"state":"active","ping":90},{"user_id":139,"name":"marguerite","steam_id":76561198170873495,"connected_time":854000000000,"state":"active","ping":57},{"user_id":152,"name":"stall","steam_id":76561199152861652,"connected_time":459000000000,"state":"active","ping":58},{"user_id":151,"name":"Magik","steam_id":76561198099726660,"connected_time":611000000000,"state":"active","ping":92},{"user_id":121,"name":"Toxic Ron","steam_id":76561198089302972,"connected_time":3033000000000,"state":"active","ping":68},{"user_id":124,"name":"pinky","steam_id":76561199109784776,"connected_time":2142000000000,"state":"active","ping":56},{"user_id":97,"name":"njokuani","steam_id":76561199061380038,"connected_time":5284000000000,"state":"active","ping":73},{"user_id":136,"name":"bee","steam_id":76561198025553902,"connected_time":921000000000,"state":"active","ping":45},{"user_id":145,"name":"momazos diegos","steam_id":76561199220257695,"connected_time":797000000000,"state":"active","ping":154},{"user_id":93,"name":"sloth (be nice im cringe)","steam_id":76561198047098172,"connected_time":5757000000000,"state":"active","ping":77},{"user_id":119,"name":"DerpyNate","steam_id":76561198100249037,"connected_time":3264000000000,"state":"active","ping":43},{"user_id":140,"name":"dicksnip","steam_id":76561198356515396,"connected_time":854000000000,"state":"active","ping":79},{"user_id":148,"name":"Tyler The Creator","steam_id":76561199489411291,"connected_time":726000000000,"state":"active","ping":104},{"user_id":153,"name":"IAmAProfesonal","steam_id":76561199171858953,"connected_time":257000000000,"state":"active","ping":50},{"user_id":108,"name":"Mythic","steam_id":76561198028616665,"connected_time":4175000000000,"state":"active","ping":64},{"user_id":100,"name":"cotton candy ghooost","steam_id":76561198058998371,"connected_time":4502000000000,"state":"active","ping":65},{"user_id":112,"name":"munch","steam_id":76561198820480684,"connected_time":4158000000000,"state":"active","ping":62}]},{"server_id":37,"name":"Uncletopia | Chicago | 6 | All Maps","name_short":"chi-6","host":"chi-2.us.uncletopia.com","port":27025,"enabled":true,"region":"us-central","cc":"us","latitude":41.881832,"longitude":-87.62318,"reserved":0,"last_update":"0001-01-01T00:00:00Z","name_a2s":"Uncletopia | Chicago | 6 | All Maps","protocol":17,"map":"cp_snakewater_final1","folder":"tf","game":"Team Fortress","app_id":440,"player_count":0,"max_players":24,"Bots":0,"server_type":"Dedicated","server_os":"Linux","password":true,"vac":true,"version":"7961495","steam_id":85568392924866363,"keywords":["cp","nocrits","nodmgspread","uncletopia"],"game_id":440,"stv_port":27026,"stv_name":"Uncletopia | Chicago | 6 | All Maps | STV","players":null},{"server_id":38,"name":"Uncletopia | Chicago | 7 | Stopwatch","name_short":"chi-7","host":"chi-2.us.uncletopia.com","port":27035,"enabled":true,"region":"us-central","cc":"us","latitude":41.881832,"longitude":-87.62318,"reserved":0,"last_update":"0001-01-01T00:00:00Z","name_a2s":"Uncletopia | Chicago | 7 | Stopwatch","protocol":17,"map":"workshop/koth_ramjam_rc1.ugc459778887","folder":"tf","game":"Team Fortress","app_id":440,"player_count":0,"max_players":24,"Bots":0,"server_type":"Dedicated","server_os":"Linux","password":true,"vac":true,"version":"7961495","steam_id":85568392924866364,"keywords":["cp","nocrits","nodmgspread","uncletopia"],"game_id":440,"stv_port":27036,"stv_name":"Uncletopia | Chicago | 7 | Stopwatch | STV","players":null},{"server_id":39,"name":"Uncletopia | Chicago | 8 | Community","name_short":"chi-8","host":"chi-2.us.uncletopia.com","port":27045,"enabled":true,"region":"us-central","cc":"us","latitude":41.881832,"longitude":-87.62318,"reserved":0,"last_update":"0001-01-01T00:00:00Z","name_a2s":"Uncletopia | Chicago | 8 | Community","protocol":17,"map":"pl_pier","folder":"tf","game":"Team Fortress","app_id":440,"player_count":0,"max_players":24,"Bots":0,"server_type":"Dedicated","server_os":"Linux","password":true,"vac":true,"version":"7961495","steam_id":85568392924866365,"keywords":["nocrits","nodmgspread","payload","uncletopia"],"game_id":440,"stv_port":27046,"stv_name":"Uncletopia | Chicago | 8 | Community | STV","players":null},{"server_id":8,"name":"Uncletopia | Dallas | 1 | All Maps","name_short":"dal-1","host":"dal-1.us.uncletopia.com","port":27015,"enabled":true,"region":"us-central","cc":"us","latitude":32.779167,"longitude":-96.80889,"reserved":0,"last_update":"0001-01-01T00:00:00Z","name_a2s":"Uncletopia | Dallas | 1 | All Maps","protocol":17,"map":"koth_viaduct","folder":"tf","game":"Team Fortress","app_id":440,"player_count":24,"max_players":24,"Bots":0,"server_type":"Dedicated","server_os":"Linux","password":true,"vac":true,"version":"7961495","steam_id":85568392924469986,"keywords":["cp","nocrits","nodmgspread","uncletopia"],"game_id":440,"stv_port":27016,"stv_name":"Uncletopia | Dallas | 1 | All Maps | STV","players":[{"user_id":236,"name":"ThreatLvl 9 (she/her)","steam_id":76561198079410533,"connected_time":535000000000,"state":"active","ping":91},{"user_id":241,"name":"BOUZENZEL","steam_id":76561198095000722,"connected_time":211000000000,"state":"active","ping":38},{"user_id":171,"name":"lazy catboy","steam_id":76561198359994674,"connected_time":4858000000000,"state":"active","ping":134},{"user_id":221,"name":"harold of rock salt kingdom","steam_id":76561199016285746,"connected_time":1089000000000,"state":"active","ping":61},{"user_id":240,"name":"lobotomized","steam_id":76561198135559825,"connected_time":277000000000,"state":"active","ping":56},{"user_id":213,"name":"Oopsie Daisy ❋","steam_id":76561198042144492,"connected_time":1825000000000,"state":"active","ping":77},{"user_id":21,"name":"small meth pouch","steam_id":76561198130412963,"connected_time":12608000000000,"state":"active","ping":69},{"user_id":153,"name":"Rob","steam_id":76561199187786660,"connected_time":6252000000000,"state":"active","ping":56},{"user_id":214,"name":"Theus117 [ チルノ⑨]","steam_id":76561198108902928,"connected_time":1823000000000,"state":"active","ping":46},{"user_id":173,"name":"Someone1251","steam_id":76561198798977695,"connected_time":4804000000000,"state":"active","ping":74},{"user_id":219,"name":"THRONGLER","steam_id":76561198198563466,"connected_time":1147000000000,"state":"active","ping":45},{"user_id":229,"name":"Cornsauce","steam_id":76561198085007342,"connected_time":782000000000,"state":"active","ping":92},{"user_id":230,"name":"whorgampus","steam_id":76561198043610132,"connected_time":772000000000,"state":"active","ping":76},{"user_id":231,"name":"Peckett","steam_id":76561198433962127,"connected_time":655000000000,"state":"active","ping":53},{"user_id":242,"name":"NOM","steam_id":76561199059006203,"connected_time":58000000000,"state":"active","ping":85},{"user_id":233,"name":"I.C.","steam_id":76561198049256017,"connected_time":618000000000,"state":"active","ping":59},{"user_id":234,"name":"Greasy Guavas","steam_id":76561198089650428,"connected_time":564000000000,"state":"active","ping":78},{"user_id":235,"name":"kmlat277","steam_id":76561199239999016,"connected_time":548000000000,"state":"active","ping":85},{"user_id":210,"name":"w a o w","steam_id":76561198060769385,"connected_time":2161000000000,"state":"active","ping":97},{"user_id":237,"name":"Joe","steam_id":76561198290315229,"connected_time":527000000000,"state":"active","ping":106},{"user_id":238,"name":"Takeover","steam_id":76561197996081461,"connected_time":498000000000,"state":"active","ping":79},{"user_id":222,"name":"carrot cake","steam_id":76561198055174915,"connected_time":1047000000000,"state":"active","ping":92},{"user_id":239,"name":"Owl Pacino","steam_id":76561197979970666,"connected_time":484000000000,"state":"active","ping":80},{"user_id":197,"name":"Abysa.","steam_id":76561198424398862,"connected_time":2858000000000,"state":"active","ping":149}]},{"server_id":108,"name":"Uncletopia | Dallas | 2 | All Maps","name_short":"dal-2","host":"dal-1.us.uncletopia.com","port":27025,"enabled":true,"region":"us-central","cc":"us","latitude":32.779167,"longitude":-96.80889,"reserved":0,"last_update":"0001-01-01T00:00:00Z","name_a2s":"Uncletopia | Dallas | 2 | All Maps","protocol":17,"map":"pl_pier","folder":"tf","game":"Team Fortress","app_id":440,"player_count":24,"max_players":24,"Bots":0,"server_type":"Dedicated","server_os":"Linux","password":true,"vac":true,"version":"7961495","steam_id":85568392924469988,"keywords":["nocrits","nodmgspread","payload","uncletopia"],"game_id":440,"stv_port":27026,"stv_name":"Uncletopia | Dallas | 2 | All Maps | STV","players":[{"user_id":120,"name":"Asfedia","steam_id":76561199386836351,"connected_time":902000000000,"state":"active","ping":185},{"user_id":94,"name":"Lee?","steam_id":76561199060892634,"connected_time":3373000000000,"state":"active","ping":65},{"user_id":103,"name":"Big Yoshi","steam_id":76561199160576376,"connected_time":2809000000000,"state":"active","ping":96},{"user_id":121,"name":"Momo Ria","steam_id":76561198339572476,"connected_time":853000000000,"state":"active","ping":107},{"user_id":125,"name":"SolmonFish","steam_id":76561198942169006,"connected_time":581000000000,"state":"active","ping":104},{"user_id":118,"name":"Fishstall","steam_id":76561198038126034,"connected_time":1125000000000,"state":"active","ping":68},{"user_id":126,"name":"Engineer who laughs at water","steam_id":76561199061965517,"connected_time":183000000000,"state":"active","ping":61},{"user_id":117,"name":"Big Time","steam_id":76561198171527091,"connected_time":1409000000000,"state":"active","ping":58},{"user_id":102,"name":"Dirtbike rider","steam_id":76561198030457066,"connected_time":2938000000000,"state":"active","ping":65},{"user_id":124,"name":"Loogus","steam_id":76561198811561721,"connected_time":837000000000,"state":"active","ping":75},{"user_id":51,"name":"kermitcreeper(ZAZA)","steam_id":76561199222829972,"connected_time":7156000000000,"state":"active","ping":66},{"user_id":113,"name":"Lincs","steam_id":76561198049851872,"connected_time":1989000000000,"state":"active","ping":87},{"user_id":29,"name":"Transgender Guy Fieri","steam_id":76561198801467075,"connected_time":7783000000000,"state":"active","ping":60},{"user_id":92,"name":"Polygunner","steam_id":76561199165741650,"connected_time":3416000000000,"state":"active","ping":93},{"user_id":119,"name":"Grape-kun","steam_id":76561198299696217,"connected_time":1004000000000,"state":"active","ping":77},{"user_id":115,"name":"Poo","steam_id":76561198265144507,"connected_time":1742000000000,"state":"active","ping":100},{"user_id":106,"name":"Temujin","steam_id":76561198030936583,"connected_time":2709000000000,"state":"active","ping":70},{"user_id":109,"name":"hforce11","steam_id":76561198087647130,"connected_time":2458000000000,"state":"active","ping":69},{"user_id":107,"name":"hobbit","steam_id":76561198033205721,"connected_time":2566000000000,"state":"active","ping":60},{"user_id":60,"name":"Stupid","steam_id":76561198167318640,"connected_time":6815000000000,"state":"active","ping":42},{"user_id":38,"name":"Darling","steam_id":76561198127525888,"connected_time":7669000000000,"state":"active","ping":48},{"user_id":39,"name":"caRat","steam_id":76561198859267372,"connected_time":7668000000000,"state":"active","ping":77},{"user_id":116,"name":"Ðιяту BɄβblє","steam_id":76561198382555244,"connected_time":1502000000000,"state":"active","ping":55},{"user_id":122,"name":"AmazingPlasma","steam_id":76561199005527586,"connected_time":846000000000,"state":"active","ping":95}]},{"server_id":404,"name":"Uncletopia | Dallas | 3 | All Maps","name_short":"dal-3","host":"dal-1.us.uncletopia.com","port":27035,"enabled":true,"region":"us-central","cc":"us","latitude":32.779167,"longitude":-96.80889,"reserved":0,"last_update":"0001-01-01T00:00:00Z","name_a2s":"Uncletopia | Dallas | 3 | All Maps","protocol":17,"map":"pl_pier","folder":"tf","game":"Team Fortress","app_id":440,"player_count":0,"max_players":24,"Bots":0,"server_type":"Dedicated","server_os":"Linux","password":true,"vac":true,"version":"7961495","steam_id":85568392924515219,"keywords":["nocrits","nodmgspread","payload","uncletopia"],"game_id":440,"stv_port":27036,"stv_name":"Uncletopia | Dallas | 3 | All Maps | STV","players":null},{"server_id":405,"name":"Uncletopia | Dallas | 4 | Community","name_short":"dal-4","host":"dal-1.us.uncletopia.com","port":27045,"enabled":true,"region":"us-central","cc":"us","latitude":32.779167,"longitude":-96.80889,"reserved":0,"last_update":"0001-01-01T00:00:00Z","name_a2s":"Uncletopia | Dallas | 4 | Community","protocol":17,"map":"workshop/cp_sulfur_rc2.ugc619869471","folder":"tf","game":"Team Fortress","app_id":440,"player_count":0,"max_players":24,"Bots":0,"server_type":"Dedicated","server_os":"Linux","password":true,"vac":true,"version":"7961495","steam_id":85568392924515220,"keywords":["cp","nocrits","nodmgspread","uncletopia"],"game_id":440,"stv_port":27046,"stv_name":"Uncletopia | Dallas | 4 | Community | STV","players":null},{"server_id":5,"name":"Uncletopia | Frankfurt | 1 | All Maps","name_short":"frk-1","host":"frk-1.de.uncletopia.com","port":27015,"enabled":true,"region":"eu","cc":"de","latitude":50.110924,"longitude":8.682127,"reserved":0,"last_update":"0001-01-01T00:00:00Z","name_a2s":"Uncletopia | Frankfurt | 1 | All Maps","protocol":17,"map":"cp_process_final","folder":"tf","game":"Team Fortress","app_id":440,"player_count":24,"max_players":24,"Bots":0,"server_type":"Dedicated","server_os":"Linux","password":true,"vac":true,"version":"7961495","steam_id":85568392924469989,"keywords":["cp","nocrits","nodmgspread","uncletopia"],"game_id":440,"stv_port":27016,"stv_name":"Uncletopia | Frankfurt | 1 | All Maps | STV","players":[{"user_id":452,"name":"Jesus (real)","steam_id":76561199106262610,"connected_time":2934000000000,"state":"active","ping":57},{"user_id":495,"name":"lexa","steam_id":76561198153381971,"connected_time":352000000000,"state":"active","ping":70},{"user_id":413,"name":"else1","steam_id":76561197996558319,"connected_time":5721000000000,"state":"active","ping":76},{"user_id":493,"name":"Der Geist des Hans Rosling","steam_id":76561198049231109,"connected_time":431000000000,"state":"active","ping":58},{"user_id":416,"name":"DanonArmagedon","steam_id":76561199448191521,"connected_time":5554000000000,"state":"active","ping":107},{"user_id":431,"name":"booba","steam_id":76561198158018284,"connected_time":4501000000000,"state":"active","ping":57},{"user_id":489,"name":"Conan the Librarian","steam_id":76561198007224654,"connected_time":596000000000,"state":"active","ping":57},{"user_id":500,"name":"Fridge","steam_id":76561198071665589,"connected_time":73000000000,"state":"active","ping":89},{"user_id":463,"name":"Doritoshredder","steam_id":76561198826710752,"connected_time":2718000000000,"state":"active","ping":118},{"user_id":477,"name":"pepega","steam_id":76561198210509251,"connected_time":1528000000000,"state":"active","ping":106},{"user_id":451,"name":"Mister","steam_id":76561199049647854,"connected_time":3019000000000,"state":"active","ping":47},{"user_id":418,"name":"UpsetPuppy11","steam_id":76561199060288033,"connected_time":5341000000000,"state":"active","ping":95},{"user_id":490,"name":"Borger Dog (real)","steam_id":76561199232839385,"connected_time":521000000000,"state":"active","ping":112},{"user_id":466,"name":"Mr_Pulse_","steam_id":76561198095001602,"connected_time":2385000000000,"state":"active","ping":89},{"user_id":497,"name":"tiia (fool)","steam_id":76561198046196005,"connected_time":322000000000,"state":"active","ping":42},{"user_id":480,"name":"flr","steam_id":76561198249327786,"connected_time":1493000000000,"state":"active","ping":60},{"user_id":391,"name":"EndZR0","steam_id":76561198207649880,"connected_time":7652000000000,"state":"active","ping":92},{"user_id":498,"name":"DavidRcv","steam_id":76561198119522337,"connected_time":289000000000,"state":"active","ping":105},{"user_id":491,"name":"The Lady","steam_id":76561198029895809,"connected_time":492000000000,"state":"active","ping":75},{"user_id":499,"name":"Friendly slayer","steam_id":76561198991545173,"connected_time":258000000000,"state":"active","ping":86},{"user_id":399,"name":"BabyYodaIsMySoda","steam_id":76561198321846861,"connected_time":6736000000000,"state":"active","ping":83},{"user_id":483,"name":"Jhare","steam_id":76561198211794225,"connected_time":1402000000000,"state":"active","ping":46},{"user_id":501,"name":"Rob","steam_id":76561198234139612,"connected_time":64000000000,"state":"spawning","ping":76},{"user_id":487,"name":"wG auto","steam_id":76561198062247888,"connected_time":981000000000,"state":"active","ping":74}]},{"server_id":110,"name":"Uncletopia | Frankfurt | 2 | All Maps","name_short":"frk-2","host":"frk-1.de.uncletopia.com","port":27025,"enabled":true,"region":"eu","cc":"de","latitude":50.110924,"longitude":8.682127,"reserved":0,"last_update":"0001-01-01T00:00:00Z","name_a2s":"Uncletopia | Frankfurt | 2 | All Maps","protocol":17,"map":"cp_altitude","folder":"tf","game":"Team Fortress","app_id":440,"player_count":22,"max_players":24,"Bots":0,"server_type":"Dedicated","server_os":"Linux","password":true,"vac":true,"version":"7961495","steam_id":85568392924469990,"keywords":["cp","nocrits","nodmgspread","uncletopia"],"game_id":440,"stv_port":27026,"stv_name":"Uncletopia | Frankfurt | 2 | All Maps | STV","players":[{"user_id":351,"name":"ThatFezGuy","steam_id":76561198205537964,"connected_time":957000000000,"state":"active","ping":64},{"user_id":290,"name":"pyro gaming","steam_id":76561198087970118,"connected_time":5274000000000,"state":"active","ping":65},{"user_id":370,"name":"CBT","steam_id":76561199439141531,"connected_time":204000000000,"state":"active","ping":123},{"user_id":354,"name":"jerkwaterberg","steam_id":76561198134165667,"connected_time":810000000000,"state":"active","ping":74},{"user_id":369,"name":"Skatnaset","steam_id":76561198298457353,"connected_time":382000000000,"state":"active","ping":82},{"user_id":356,"name":"Pinkchup","steam_id":76561198106802803,"connected_time":761000000000,"state":"active","ping":72},{"user_id":357,"name":"emir","steam_id":76561198113089831,"connected_time":757000000000,"state":"active","ping":86},{"user_id":372,"name":"Zm4j","steam_id":76561198259465946,"connected_time":172000000000,"state":"active","ping":77},{"user_id":359,"name":"professor sexual intercourse","steam_id":76561198267411149,"connected_time":731000000000,"state":"active","ping":59},{"user_id":373,"name":"highest noon","steam_id":76561199103959197,"connected_time":161000000000,"state":"active","ping":101},{"user_id":374,"name":"j","steam_id":76561198299474630,"connected_time":148000000000,"state":"active","ping":44},{"user_id":287,"name":"content maker","steam_id":76561198351077564,"connected_time":5323000000000,"state":"active","ping":93},{"user_id":366,"name":"Stefman","steam_id":76561199025104038,"connected_time":520000000000,"state":"active","ping":46},{"user_id":331,"name":"nyx","steam_id":76561198096016781,"connected_time":3761000000000,"state":"active","ping":82},{"user_id":293,"name":"Doctor Medic","steam_id":76561198100957443,"connected_time":5229000000000,"state":"active","ping":62},{"user_id":348,"name":"kurage","steam_id":76561198021221288,"connected_time":1880000000000,"state":"active","ping":56},{"user_id":339,"name":"Bhast","steam_id":76561198071620021,"connected_time":2731000000000,"state":"active","ping":70},{"user_id":362,"name":"siriusplay116","steam_id":76561199403847433,"connected_time":702000000000,"state":"active","ping":68},{"user_id":363,"name":"not my season","steam_id":76561198083588151,"connected_time":690000000000,"state":"active","ping":91},{"user_id":367,"name":"tim","steam_id":76561198053471230,"connected_time":447000000000,"state":"active","ping":105},{"user_id":365,"name":"Zanryiel","steam_id":76561198120723872,"connected_time":638000000000,"state":"active","ping":56},{"user_id":368,"name":"michalismallis6","steam_id":76561199191153072,"connected_time":446000000000,"state":"active","ping":95}]},{"server_id":308,"name":"Uncletopia | Frankfurt | 3 | All Maps","name_short":"frk-3","host":"frk-1.de.uncletopia.com","port":27035,"enabled":true,"region":"eu","cc":"de","latitude":50.110924,"longitude":8.682127,"reserved":0,"last_update":"0001-01-01T00:00:00Z","name_a2s":"Uncletopia | Frankfurt | 3 | All Maps","protocol":17,"map":"koth_viaduct","folder":"tf","game":"Team Fortress","app_id":440,"player_count":23,"max_players":24,"Bots":0,"server_type":"Dedicated","server_os":"Linux","password":true,"vac":true,"version":"7961495","steam_id":85568392924504274,"keywords":["cp","nocrits","nodmgspread","uncletopia"],"game_id":440,"stv_port":27036,"stv_name":"Uncletopia | Frankfurt | 3 | All Maps | STV","players":[{"user_id":350,"name":"peeka","steam_id":76561198221122068,"connected_time":1454000000000,"state":"active","ping":63},{"user_id":333,"name":"Feylo","steam_id":76561199149815448,"connected_time":2769000000000,"state":"active","ping":55},{"user_id":336,"name":"Relic","steam_id":76561199499093258,"connected_time":1742000000000,"state":"active","ping":42},{"user_id":370,"name":"CEO of Racism","steam_id":76561198042317958,"connected_time":761000000000,"state":"active","ping":58},{"user_id":343,"name":"Kenny","steam_id":76561198994898206,"connected_time":1619000000000,"state":"active","ping":67},{"user_id":344,"name":"no blocking no dodging","steam_id":76561198138208569,"connected_time":1574000000000,"state":"active","ping":151},{"user_id":341,"name":"󠀡󠀡","steam_id":76561198059375315,"connected_time":1686000000000,"state":"active","ping":65},{"user_id":366,"name":"ShadowTwin","steam_id":76561198046658200,"connected_time":1077000000000,"state":"active","ping":72},{"user_id":339,"name":"berkay","steam_id":76561199112328384,"connected_time":1718000000000,"state":"active","ping":85},{"user_id":325,"name":"Ozzie","steam_id":76561197992915315,"connected_time":4371000000000,"state":"active","ping":75},{"user_id":338,"name":"Worm","steam_id":76561198296497176,"connected_time":1732000000000,"state":"active","ping":62},{"user_id":355,"name":"Kolanciasty ♥","steam_id":76561198020042179,"connected_time":1341000000000,"state":"active","ping":80},{"user_id":269,"name":"Nikt Ważny (F2P)","steam_id":76561199273293257,"connected_time":8847000000000,"state":"active","ping":112},{"user_id":323,"name":"Syd","steam_id":76561198020515027,"connected_time":5233000000000,"state":"active","ping":89},{"user_id":376,"name":"Quodino Brostofaldo","steam_id":76561198258741488,"connected_time":191000000000,"state":"active","ping":72},{"user_id":327,"name":"HelwiiHill","steam_id":76561198066730552,"connected_time":3819000000000,"state":"active","ping":83},{"user_id":372,"name":"Major","steam_id":76561198086483282,"connected_time":662000000000,"state":"active","ping":59},{"user_id":353,"name":"unKr","steam_id":76561198342024316,"connected_time":1386000000000,"state":"active","ping":76},{"user_id":356,"name":"The cock","steam_id":76561198197304886,"connected_time":1341000000000,"state":"active","ping":114},{"user_id":375,"name":"Hildreth","steam_id":76561197995254867,"connected_time":423000000000,"state":"active","ping":57},{"user_id":373,"name":"Fex Tape","steam_id":76561198880223739,"connected_time":646000000000,"state":"active","ping":67},{"user_id":374,"name":"Speguda","steam_id":76561198104481543,"connected_time":605000000000,"state":"active","ping":112},{"user_id":364,"name":"dash.","steam_id":76561198084796149,"connected_time":1168000000000,"state":"active","ping":54}]},{"server_id":309,"name":"Uncletopia | Frankfurt | 4 | All Maps","name_short":"frk-4","host":"frk-1.de.uncletopia.com","port":27045,"enabled":true,"region":"eu","cc":"de","latitude":50.110924,"longitude":8.682127,"reserved":0,"last_update":"0001-01-01T00:00:00Z","name_a2s":"Uncletopia | Frankfurt | 4 | All Maps","protocol":17,"map":"pl_swiftwater_final1","folder":"tf","game":"Team Fortress","app_id":440,"player_count":23,"max_players":24,"Bots":0,"server_type":"Dedicated","server_os":"Linux","password":true,"vac":true,"version":"7961495","steam_id":85568392924504275,"keywords":["nocrits","nodmgspread","payload","uncletopia"],"game_id":440,"stv_port":27046,"stv_name":"Uncletopia | Frankfurt | 4 | All Maps | STV","players":[{"user_id":476,"name":"ArcX","steam_id":76561198805049375,"connected_time":1364000000000,"state":"active","ping":61},{"user_id":458,"name":"Towercat","steam_id":76561198013141793,"connected_time":2265000000000,"state":"active","ping":72},{"user_id":481,"name":"Cocsam","steam_id":76561198050827179,"connected_time":1147000000000,"state":"active","ping":59},{"user_id":490,"name":"prinzkorv","steam_id":76561198153068446,"connected_time":954000000000,"state":"active","ping":60},{"user_id":451,"name":"iirvas","steam_id":76561198095979063,"connected_time":2717000000000,"state":"active","ping":83},{"user_id":492,"name":"hawkblob","steam_id":76561198803720565,"connected_time":485000000000,"state":"active","ping":79},{"user_id":498,"name":"primordial soup enjoyer","steam_id":76561199163260578,"connected_time":126000000000,"state":"active","ping":60},{"user_id":482,"name":"I have no duck and I must quack","steam_id":76561198061920656,"connected_time":1138000000000,"state":"active","ping":79},{"user_id":480,"name":"Ziy???","steam_id":76561197995765491,"connected_time":1159000000000,"state":"active","ping":62},{"user_id":461,"name":"Game_Stormer","steam_id":76561199098016096,"connected_time":2197000000000,"state":"active","ping":161},{"user_id":483,"name":"lurid","steam_id":76561198063159528,"connected_time":1131000000000,"state":"active","ping":54},{"user_id":489,"name":"DwarfInYou","steam_id":76561198966341795,"connected_time":1015000000000,"state":"active","ping":54},{"user_id":496,"name":"Huggetz with cheese","steam_id":76561198144599511,"connected_time":214000000000,"state":"active","ping":195},{"user_id":499,"name":"Schiever","steam_id":76561198052136026,"connected_time":109000000000,"state":"active","ping":57},{"user_id":434,"name":"✡Cpruin✡","steam_id":76561198184924239,"connected_time":4002000000000,"state":"active","ping":98},{"user_id":485,"name":"Portal2Player","steam_id":76561198062870114,"connected_time":1091000000000,"state":"active","ping":158},{"user_id":465,"name":"That Phlog mfer","steam_id":76561198050416948,"connected_time":2158000000000,"state":"active","ping":60},{"user_id":454,"name":"Osek","steam_id":76561197972646003,"connected_time":2632000000000,"state":"active","ping":66},{"user_id":468,"name":"PelikaanEi","steam_id":76561198129780959,"connected_time":1883000000000,"state":"active","ping":70},{"user_id":487,"name":"Sirzen","steam_id":76561198170155434,"connected_time":1075000000000,"state":"active","ping":48},{"user_id":444,"name":"Theleomaster","steam_id":76561198342580499,"connected_time":3564000000000,"state":"active","ping":81},{"user_id":493,"name":"mmlock","steam_id":76561198069516191,"connected_time":443000000000,"state":"active","ping":47},{"user_id":495,"name":"HayLeX","steam_id":76561198130997343,"connected_time":284000000000,"state":"active","ping":98}]},{"server_id":310,"name":"Uncletopia | Frankfurt | 5 | All Maps","name_short":"frk-5","host":"frk-1.de.uncletopia.com","port":27055,"enabled":true,"region":"eu","cc":"de","latitude":50.110924,"longitude":8.682127,"reserved":0,"last_update":"0001-01-01T00:00:00Z","name_a2s":"Uncletopia | Frankfurt | 5 | All Maps","protocol":17,"map":"pl_swiftwater_final1","folder":"tf","game":"Team Fortress","app_id":440,"player_count":23,"max_players":24,"Bots":0,"server_type":"Dedicated","server_os":"Linux","password":true,"vac":true,"version":"7961495","steam_id":85568392924504277,"keywords":["nocrits","nodmgspread","payload","uncletopia"],"game_id":440,"stv_port":27056,"stv_name":"Uncletopia | Frankfurt | 5 | All Maps | STV","players":[{"user_id":152,"name":"Doctor Mobius","steam_id":76561197971281806,"connected_time":624000000000,"state":"active","ping":58},{"user_id":159,"name":"Average Anarchist","steam_id":76561199175442910,"connected_time":261000000000,"state":"active","ping":153},{"user_id":149,"name":"heddwch","steam_id":76561198076097983,"connected_time":753000000000,"state":"active","ping":73},{"user_id":165,"name":"Doggo336","steam_id":76561198166707002,"connected_time":120000000000,"state":"active","ping":48},{"user_id":166,"name":"Finnish Farmer","steam_id":76561198205366043,"connected_time":108000000000,"state":"active","ping":79},{"user_id":124,"name":"Penis Contortionist","steam_id":76561198073663784,"connected_time":2092000000000,"state":"active","ping":54},{"user_id":167,"name":"QR-M5TR","steam_id":76561198197626135,"connected_time":107000000000,"state":"active","ping":60},{"user_id":161,"name":"medicinal man","steam_id":76561198202668788,"connected_time":207000000000,"state":"active","ping":54},{"user_id":153,"name":"Dangerous Andrew","steam_id":76561198067218981,"connected_time":581000000000,"state":"active","ping":107},{"user_id":162,"name":"knyazF","steam_id":76561198163278585,"connected_time":184000000000,"state":"active","ping":70},{"user_id":164,"name":"John Bee","steam_id":76561198188756719,"connected_time":174000000000,"state":"active","ping":69},{"user_id":168,"name":"ion pula de om","steam_id":76561198992026574,"connected_time":54000000000,"state":"active","ping":53},{"user_id":157,"name":"KMP","steam_id":76561198278707199,"connected_time":308000000000,"state":"active","ping":66},{"user_id":169,"name":"B@yka","steam_id":76561198986736592,"connected_time":38000000000,"state":"active","ping":75},{"user_id":170,"name":"bonour74","steam_id":76561199089910337,"connected_time":30000000000,"state":"spawning","ping":175},{"user_id":171,"name":"Noob_with_source","steam_id":76561198870362103,"connected_time":26000000000,"state":"active","ping":60},{"user_id":158,"name":"Mr blue","steam_id":76561198281238533,"connected_time":289000000000,"state":"active","ping":71},{"user_id":172,"name":"Baba Sraka","steam_id":76561198128292318,"connected_time":22000000000,"state":"active","ping":128},{"user_id":110,"name":"minimurx","steam_id":76561198858102095,"connected_time":3353000000000,"state":"active","ping":56},{"user_id":160,"name":"m","steam_id":76561198074715695,"connected_time":251000000000,"state":"active","ping":60},{"user_id":173,"name":"Pan Prezydent","steam_id":76561198354738139,"connected_time":3000000000,"state":"spawning","ping":58},{"user_id":138,"name":"Reljadin","steam_id":76561198054997553,"connected_time":1024000000000,"state":"active","ping":88},{"user_id":154,"name":"I'm past the point of insanity","steam_id":76561198800954471,"connected_time":569000000000,"state":"active","ping":71}]},{"server_id":311,"name":"Uncletopia | Frankfurt | 6 | All Maps","name_short":"frk-6","host":"frk-1.de.uncletopia.com","port":27065,"enabled":true,"region":"eu","cc":"de","latitude":50.110924,"longitude":8.682127,"reserved":0,"last_update":"0001-01-01T00:00:00Z","name_a2s":"Uncletopia | Frankfurt | 6 | All Maps","protocol":17,"map":"pl_borneo","folder":"tf","game":"Team Fortress","app_id":440,"player_count":19,"max_players":24,"Bots":0,"server_type":"Dedicated","server_os":"Linux","password":true,"vac":true,"version":"7961495","steam_id":85568392924504278,"keywords":["nocrits","nodmgspread","payload","uncletopia"],"game_id":440,"stv_port":27066,"stv_name":"Uncletopia | Frankfurt | 6 | All Maps | STV","players":[{"user_id":20,"name":"David \"Crash\" Murphy","steam_id":76561198292845505,"connected_time":4263000000000,"state":"active","ping":94},{"user_id":85,"name":"Hoxton","steam_id":76561198129209505,"connected_time":1000000000,"state":"spawning","ping":84},{"user_id":26,"name":"Rodak","steam_id":76561199135986344,"connected_time":3963000000000,"state":"active","ping":52},{"user_id":69,"name":"Burak","steam_id":76561198441622971,"connected_time":1708000000000,"state":"active","ping":86},{"user_id":24,"name":"idenburg","steam_id":76561198063574956,"connected_time":4173000000000,"state":"active","ping":77},{"user_id":78,"name":"painting4","steam_id":76561198067554256,"connected_time":1217000000000,"state":"active","ping":66},{"user_id":28,"name":"Memz","steam_id":76561199126395488,"connected_time":3927000000000,"state":"active","ping":95},{"user_id":61,"name":"Rops","steam_id":76561198031608011,"connected_time":2270000000000,"state":"active","ping":74},{"user_id":31,"name":"Von Leining","steam_id":76561198859983504,"connected_time":3766000000000,"state":"active","ping":40},{"user_id":68,"name":"☸Koala99☸","steam_id":76561198375591154,"connected_time":2013000000000,"state":"active","ping":49},{"user_id":37,"name":"Sinay51","steam_id":76561198106429866,"connected_time":3700000000000,"state":"active","ping":42},{"user_id":75,"name":"Columban","steam_id":76561199202258284,"connected_time":1597000000000,"state":"active","ping":55},{"user_id":46,"name":"MilkAndBiscuits","steam_id":76561198022924626,"connected_time":3499000000000,"state":"active","ping":76},{"user_id":73,"name":"leonardini.w","steam_id":76561199097963071,"connected_time":1642000000000,"state":"active","ping":82},{"user_id":58,"name":"etc","steam_id":76561197998394797,"connected_time":2835000000000,"state":"active","ping":56},{"user_id":82,"name":"OpticalBlack","steam_id":76561198038624807,"connected_time":593000000000,"state":"active","ping":106},{"user_id":83,"name":"Peat","steam_id":76561197992168067,"connected_time":130000000000,"state":"active","ping":66},{"user_id":79,"name":"moseley519","steam_id":76561198045485374,"connected_time":1214000000000,"state":"active","ping":59},{"user_id":80,"name":"Rezlov","steam_id":76561198118549491,"connected_time":1210000000000,"state":"active","ping":102}]},{"server_id":23,"name":"Uncletopia | Frankfurt | 7 | Stopwatch","name_short":"frk-7","host":"frk-1.de.uncletopia.com","port":27075,"enabled":true,"region":"eu","cc":"de","latitude":50.110924,"longitude":8.682127,"reserved":0,"last_update":"0001-01-01T00:00:00Z","name_a2s":"Uncletopia | Frankfurt | 7 | Stopwatch","protocol":17,"map":"workshop/pl_summercoast_rc8e.ugc1761528829","folder":"tf","game":"Team Fortress","app_id":440,"player_count":0,"max_players":24,"Bots":0,"server_type":"Dedicated","server_os":"Linux","password":true,"vac":true,"version":"7961495","steam_id":85568392924742827,"keywords":["nocrits","nodmgspread","payload","uncletopia"],"game_id":440,"stv_port":27076,"stv_name":"Uncletopia | Frankfurt | 7 | Stopwatch | STV","players":null},{"server_id":24,"name":"Uncletopia | Frankfurt | 8 | Community","name_short":"frk-8","host":"frk-1.de.uncletopia.com","port":27085,"enabled":true,"region":"eu","cc":"de","latitude":50.110924,"longitude":8.682127,"reserved":0,"last_update":"0001-01-01T00:00:00Z","name_a2s":"Uncletopia | Frankfurt | 8 | Community","protocol":17,"map":"workshop/koth_slaughter_rc1.ugc1712845210","folder":"tf","game":"Team Fortress","app_id":440,"player_count":0,"max_players":24,"Bots":0,"server_type":"Dedicated","server_os":"Linux","password":true,"vac":true,"version":"7961495","steam_id":85568392924742828,"keywords":["cp","nocrits","nodmgspread","uncletopia"],"game_id":440,"stv_port":27086,"stv_name":"Uncletopia | Frankfurt | 8 | Community | STV","players":null},{"server_id":202,"name":"Uncletopia | Hong Kong | 1 | All Maps","name_short":"hgk-1","host":"hgk-1.hk.uncletopia.com","port":27015,"enabled":true,"region":"asia","cc":"hk","latitude":22.302711,"longitude":114.177216,"reserved":0,"last_update":"0001-01-01T00:00:00Z","name_a2s":"Uncletopia | Hong Kong | 1 | All Maps","protocol":17,"map":"cp_snakewater_final1","folder":"tf","game":"Team Fortress","app_id":440,"player_count":0,"max_players":24,"Bots":0,"server_type":"Dedicated","server_os":"Linux","password":true,"vac":true,"version":"7961495","steam_id":85568392924494504,"keywords":["cp","nocrits","nodmgspread","uncletopia"],"game_id":440,"stv_port":27016,"stv_name":"Uncletopia | Hong Kong | 1 | All Maps | STV","players":null},{"server_id":1,"name":"Uncletopia | Los Angeles | 1 | All Maps","name_short":"lax-1","host":"lax-1.us.uncletopia.com","port":27015,"enabled":true,"region":"us-west","cc":"us","latitude":33.94279,"longitude":-118.41004,"reserved":0,"last_update":"0001-01-01T00:00:00Z","name_a2s":"Uncletopia | Los Angeles | 1 | All Maps","protocol":17,"map":"cp_dustbowl","folder":"tf","game":"Team Fortress","app_id":440,"player_count":12,"max_players":24,"Bots":0,"server_type":"Dedicated","server_os":"Linux","password":true,"vac":true,"version":"7961495","steam_id":85568392924469991,"keywords":["cp","nocrits","nodmgspread","uncletopia"],"game_id":440,"stv_port":27016,"stv_name":"Uncletopia | Los Angeles | 1 | All Maps | STV","players":[{"user_id":17,"name":"TheDoctorIsIn","steam_id":76561198322058639,"connected_time":1912000000000,"state":"active","ping":92},{"user_id":28,"name":"Waterhorse928","steam_id":76561198268204050,"connected_time":582000000000,"state":"active","ping":65},{"user_id":15,"name":"KlassicLoL","steam_id":76561198081815303,"connected_time":2568000000000,"state":"active","ping":49},{"user_id":21,"name":"BotBoy","steam_id":76561198352580182,"connected_time":965000000000,"state":"active","ping":124},{"user_id":22,"name":"Insomniac","steam_id":76561199180653046,"connected_time":886000000000,"state":"active","ping":158},{"user_id":24,"name":"MegaMott","steam_id":76561199172245274,"connected_time":815000000000,"state":"active","ping":66},{"user_id":25,"name":"Gerbias","steam_id":76561198001002427,"connected_time":777000000000,"state":"active","ping":53},{"user_id":38,"name":"Woomy Just A Furry :3","steam_id":76561199199877614,"connected_time":8000000000,"state":"spawning","ping":74},{"user_id":33,"name":"Zelumie","steam_id":76561198147335801,"connected_time":123000000000,"state":"active","ping":95},{"user_id":31,"name":"Evaporated_373k","steam_id":76561199435266743,"connected_time":461000000000,"state":"active","ping":98},{"user_id":34,"name":"Demon Slayer","steam_id":76561198179806930,"connected_time":69000000000,"state":"active","ping":108},{"user_id":36,"name":"Sorry","steam_id":76561198040722720,"connected_time":54000000000,"state":"active","ping":117}]},{"server_id":112,"name":"Uncletopia | Los Angeles | 2 | All Maps","name_short":"lax-2","host":"lax-1.us.uncletopia.com","port":27025,"enabled":true,"region":"us-west","cc":"us","latitude":33.94279,"longitude":-118.41004,"reserved":0,"last_update":"0001-01-01T00:00:00Z","name_a2s":"Uncletopia | Los Angeles | 2 | All Maps","protocol":17,"map":"koth_cascade","folder":"tf","game":"Team Fortress","app_id":440,"player_count":1,"max_players":24,"Bots":0,"server_type":"Dedicated","server_os":"Linux","password":true,"vac":true,"version":"7961495","steam_id":85568392924469992,"keywords":["cp","nocrits","nodmgspread","uncletopia"],"game_id":440,"stv_port":27026,"stv_name":"Uncletopia | Los Angeles | 2 | All Maps | STV","players":[{"user_id":5,"name":"Pablo.Gonzalez.2007","steam_id":76561199083115222,"connected_time":237000000000,"state":"active","ping":100}]},{"server_id":324,"name":"Uncletopia | Los Angeles | 3 | All Maps","name_short":"lax-3","host":"lax-1.us.uncletopia.com","port":27035,"enabled":true,"region":"us-west","cc":"us","latitude":33.94279,"longitude":-118.41004,"reserved":0,"last_update":"0001-01-01T00:00:00Z","name_a2s":"Uncletopia | Los Angeles | 3 | All Maps","protocol":17,"map":"koth_viaduct","folder":"tf","game":"Team Fortress","app_id":440,"player_count":2,"max_players":24,"Bots":0,"server_type":"Dedicated","server_os":"Linux","password":true,"vac":true,"version":"7961495","steam_id":85568392924510198,"keywords":["cp","nocrits","nodmgspread","uncletopia"],"game_id":440,"stv_port":27036,"stv_name":"Uncletopia | Los Angeles | 3 | All Maps | STV","players":[{"user_id":5,"name":"Redcat79","steam_id":76561199109688591,"connected_time":1569000000000,"state":"active","ping":77},{"user_id":8,"name":"Aisforlike","steam_id":76561199482110668,"connected_time":462000000000,"state":"active","ping":61}]},{"server_id":25,"name":"Uncletopia | Los Angeles | 4 | Stopwatch","name_short":"lax-4","host":"lax-1.us.uncletopia.com","port":27045,"enabled":true,"region":"us-west","cc":"us","latitude":33.94279,"longitude":-118.41004,"reserved":0,"last_update":"0001-01-01T00:00:00Z","name_a2s":"Uncletopia | Los Angeles | 4 | Stopwatch","protocol":17,"map":"pl_barnblitz","folder":"tf","game":"Team Fortress","app_id":440,"player_count":0,"max_players":24,"Bots":0,"server_type":"Dedicated","server_os":"Linux","password":true,"vac":true,"version":"7961495","steam_id":85568392924510199,"keywords":["nocrits","nodmgspread","payload","uncletopia"],"game_id":440,"stv_port":27046,"stv_name":"Uncletopia | Los Angeles | 4 | Stopwatch | STV","players":null},{"server_id":11,"name":"Uncletopia | London | 1 | All Maps","name_short":"lon-1","host":"lon-1.uk.uncletopia.com","port":27015,"enabled":true,"region":"eu","cc":"gb","latitude":51.509865,"longitude":-0.118092,"reserved":0,"last_update":"0001-01-01T00:00:00Z","name_a2s":"Uncletopia | London | 1 | All Maps","protocol":17,"map":"cp_yukon_final","folder":"tf","game":"Team Fortress","app_id":440,"player_count":21,"max_players":24,"Bots":0,"server_type":"Dedicated","server_os":"Linux","password":true,"vac":true,"version":"7961495","steam_id":85568392924367362,"keywords":["cp","nocrits","nodmgspread","uncletopia"],"game_id":440,"stv_port":27016,"stv_name":"Uncletopia | London | 1 | All Maps | STV","players":[{"user_id":731,"name":"Hok","steam_id":76561198354431918,"connected_time":267000000000,"state":"active","ping":159},{"user_id":730,"name":"dirhs","steam_id":76561198383867611,"connected_time":399000000000,"state":"spawning","ping":47},{"user_id":719,"name":"Sherlock Bond","steam_id":76561198042045955,"connected_time":1004000000000,"state":"active","ping":130},{"user_id":708,"name":"Lux","steam_id":76561198060417740,"connected_time":2724000000000,"state":"spawning","ping":48},{"user_id":727,"name":"ddinsd","steam_id":76561198129153029,"connected_time":443000000000,"state":"active","ping":92},{"user_id":737,"name":"roLab","steam_id":76561198002416756,"connected_time":16000000000,"state":"spawning","ping":96},{"user_id":720,"name":"Kphi(i)","steam_id":76561198970587061,"connected_time":989000000000,"state":"active","ping":109},{"user_id":732,"name":"Berlin","steam_id":76561198171260045,"connected_time":194000000000,"state":"spawning","ping":73},{"user_id":736,"name":"owo","steam_id":76561198158209651,"connected_time":77000000000,"state":"active","ping":62},{"user_id":728,"name":"TOP G","steam_id":76561198138928548,"connected_time":436000000000,"state":"active","ping":285},{"user_id":714,"name":"bladerunner | Trade.tf","steam_id":76561198272175230,"connected_time":2074000000000,"state":"active","ping":41},{"user_id":729,"name":"that fucking bunny again","steam_id":76561198079962319,"connected_time":430000000000,"state":"active","ping":112},{"user_id":721,"name":"eMcP","steam_id":76561198382509396,"connected_time":988000000000,"state":"active","ping":137},{"user_id":698,"name":"❤ Sparx ❤","steam_id":76561198095009261,"connected_time":3219000000000,"state":"spawning","ping":33},{"user_id":717,"name":"Rx07","steam_id":76561199013720618,"connected_time":1524000000000,"state":"active","ping":93},{"user_id":663,"name":"dec","steam_id":76561198009660168,"connected_time":6491000000000,"state":"active","ping":127},{"user_id":716,"name":"BEDA","steam_id":76561198277943630,"connected_time":2031000000000,"state":"spawning","ping":217},{"user_id":686,"name":"Son Goku","steam_id":76561199383437138,"connected_time":4387000000000,"state":"active","ping":176},{"user_id":687,"name":"im jelqing","steam_id":76561198236015392,"connected_time":4362000000000,"state":"active","ping":125},{"user_id":726,"name":"Aaron","steam_id":76561197990046953,"connected_time":724000000000,"state":"active","ping":89},{"user_id":693,"name":"Shine","steam_id":76561198136297981,"connected_time":3499000000000,"state":"spawning","ping":73}]},{"server_id":114,"name":"Uncletopia | London | 2 | All Maps","name_short":"lon-2","host":"lon-1.uk.uncletopia.com","port":27025,"enabled":true,"region":"eu","cc":"gb","latitude":51.509865,"longitude":-0.118092,"reserved":0,"last_update":"0001-01-01T00:00:00Z","name_a2s":"Uncletopia | London | 2 | All Maps","protocol":17,"map":"pl_frontier_final","folder":"tf","game":"Team Fortress","app_id":440,"player_count":24,"max_players":24,"Bots":0,"server_type":"Dedicated","server_os":"Linux","password":true,"vac":true,"version":"7961495","steam_id":85568392924470941,"keywords":["nocrits","nodmgspread","payload","uncletopia"],"game_id":440,"stv_port":27026,"stv_name":"Uncletopia | London | 2 | All Maps | STV","players":[{"user_id":586,"name":"PootisGaming","steam_id":76561198415752818,"connected_time":2443000000000,"state":"active","ping":111},{"user_id":570,"name":"OrangeBanana","steam_id":76561199230233875,"connected_time":2774000000000,"state":"active","ping":47},{"user_id":516,"name":"finbar","steam_id":76561198056812396,"connected_time":6851000000000,"state":"active","ping":75},{"user_id":588,"name":"boombox","steam_id":76561198083122882,"connected_time":2412000000000,"state":"active","ping":40},{"user_id":571,"name":"wow","steam_id":76561198880454530,"connected_time":2765000000000,"state":"active","ping":44},{"user_id":563,"name":"Someone","steam_id":76561199030195879,"connected_time":3369000000000,"state":"active","ping":52},{"user_id":553,"name":"flamingosaurus","steam_id":76561198051455397,"connected_time":4132000000000,"state":"active","ping":41},{"user_id":565,"name":"Emray","steam_id":76561198012084328,"connected_time":2918000000000,"state":"active","ping":94},{"user_id":603,"name":"TylowStar","steam_id":76561198357107806,"connected_time":1139000000000,"state":"active","ping":75},{"user_id":589,"name":"hipster_doofus","steam_id":76561197970902697,"connected_time":2321000000000,"state":"active","ping":61},{"user_id":616,"name":"Circular","steam_id":76561198001536710,"connected_time":187000000000,"state":"active","ping":47},{"user_id":598,"name":"solus control unit","steam_id":76561198131944941,"connected_time":1183000000000,"state":"active","ping":62},{"user_id":611,"name":"mq","steam_id":76561198091888948,"connected_time":597000000000,"state":"active","ping":58},{"user_id":581,"name":"BiffenB","steam_id":76561198137724840,"connected_time":2676000000000,"state":"active","ping":75},{"user_id":600,"name":"Castellan","steam_id":76561197994861142,"connected_time":1179000000000,"state":"active","ping":69},{"user_id":615,"name":"Redmailbox","steam_id":76561198042930322,"connected_time":234000000000,"state":"active","ping":72},{"user_id":612,"name":"the sickest gamer (fever)","steam_id":76561198334042273,"connected_time":590000000000,"state":"active","ping":64},{"user_id":539,"name":"lillunya ♡","steam_id":76561198330418866,"connected_time":5209000000000,"state":"active","ping":71},{"user_id":591,"name":"❤︎WarMole❤","steam_id":76561198104248760,"connected_time":1893000000000,"state":"active","ping":71},{"user_id":605,"name":"El Hunter'os","steam_id":76561198024684138,"connected_time":1122000000000,"state":"active","ping":85},{"user_id":549,"name":"Kappa","steam_id":76561198089341471,"connected_time":4480000000000,"state":"active","ping":70},{"user_id":609,"name":"lord-carlos","steam_id":76561198025150761,"connected_time":971000000000,"state":"active","ping":62},{"user_id":610,"name":"woodenpcwarlord","steam_id":76561198037938833,"connected_time":964000000000,"state":"active","ping":50},{"user_id":580,"name":"powej","steam_id":76561198056381418,"connected_time":2682000000000,"state":"active","ping":43}]},{"server_id":320,"name":"Uncletopia | London | 3 | All Maps","name_short":"lon-3","host":"lon-1.uk.uncletopia.com","port":27035,"enabled":true,"region":"eu","cc":"gb","latitude":51.509865,"longitude":-0.118092,"reserved":0,"last_update":"0001-01-01T00:00:00Z","name_a2s":"Uncletopia | London | 3 | All Maps","protocol":17,"map":"pl_badwater","folder":"tf","game":"Team Fortress","app_id":440,"player_count":24,"max_players":24,"Bots":0,"server_type":"Dedicated","server_os":"Linux","password":true,"vac":true,"version":"7961495","steam_id":85568392924510192,"keywords":["nocrits","nodmgspread","payload","uncletopia"],"game_id":440,"stv_port":27036,"stv_name":"Uncletopia | London | 3 | All Maps | STV","players":[{"user_id":235,"name":"kiki","steam_id":76561198838277022,"connected_time":1740000000000,"state":"active","ping":73},{"user_id":213,"name":"decriminalise goblins","steam_id":76561198048257605,"connected_time":2391000000000,"state":"active","ping":67},{"user_id":241,"name":"Name","steam_id":76561197990757157,"connected_time":715000000000,"state":"active","ping":77},{"user_id":256,"name":"Haha?","steam_id":76561198056882245,"connected_time":55000000000,"state":"active","ping":42},{"user_id":245,"name":"Yip","steam_id":76561198946540436,"connected_time":645000000000,"state":"active","ping":55},{"user_id":248,"name":"ashley","steam_id":76561198448551449,"connected_time":411000000000,"state":"active","ping":39},{"user_id":233,"name":"Sir Crust","steam_id":76561199122077146,"connected_time":1757000000000,"state":"active","ping":62},{"user_id":257,"name":"H-say","steam_id":76561198177400362,"connected_time":4000000000,"state":"spawning","ping":74},{"user_id":236,"name":"Jaguaren","steam_id":76561198090993562,"connected_time":1726000000000,"state":"active","ping":60},{"user_id":239,"name":"Not Sussy Tanuki","steam_id":76561198137289375,"connected_time":881000000000,"state":"active","ping":105},{"user_id":219,"name":"Smilin' Wanderer","steam_id":76561198067698907,"connected_time":2146000000000,"state":"active","ping":66},{"user_id":222,"name":"jink","steam_id":76561198059511676,"connected_time":2080000000000,"state":"active","ping":54},{"user_id":247,"name":"syms","steam_id":76561198066679812,"connected_time":471000000000,"state":"active","ping":79},{"user_id":223,"name":"YupDeez","steam_id":76561198106424795,"connected_time":2078000000000,"state":"active","ping":59},{"user_id":128,"name":"Supercoxylac","steam_id":76561198376300138,"connected_time":9691000000000,"state":"active","ping":68},{"user_id":254,"name":"sad monkey","steam_id":76561198116530769,"connected_time":312000000000,"state":"active","ping":94},{"user_id":225,"name":"CatInTheFestiveHat","steam_id":76561198096468920,"connected_time":2024000000000,"state":"active","ping":48},{"user_id":246,"name":"Panzerwaffle","steam_id":76561198030382800,"connected_time":614000000000,"state":"active","ping":62},{"user_id":226,"name":"Saint","steam_id":76561198091864790,"connected_time":2016000000000,"state":"active","ping":50},{"user_id":204,"name":"pine cone","steam_id":76561198168254686,"connected_time":3375000000000,"state":"active","ping":104},{"user_id":198,"name":"Snowy","steam_id":76561198169992461,"connected_time":4043000000000,"state":"active","ping":50},{"user_id":242,"name":"Neeeiks","steam_id":76561198009156801,"connected_time":705000000000,"state":"active","ping":82},{"user_id":237,"name":"remi, she wrote.","steam_id":76561198044045655,"connected_time":1466000000000,"state":"active","ping":87},{"user_id":229,"name":"Skip ♥","steam_id":76561198197425385,"connected_time":2005000000000,"state":"active","ping":59}]},{"server_id":321,"name":"Uncletopia | London | 4 | All Maps","name_short":"lon-4","host":"lon-1.uk.uncletopia.com","port":27045,"enabled":true,"region":"eu","cc":"gb","latitude":51.509865,"longitude":-0.118092,"reserved":0,"last_update":"0001-01-01T00:00:00Z","name_a2s":"Uncletopia | London | 4 | All Maps","protocol":17,"map":"cp_mountainlab","folder":"tf","game":"Team Fortress","app_id":440,"player_count":24,"max_players":24,"Bots":0,"server_type":"Dedicated","server_os":"Linux","password":true,"vac":true,"version":"7961495","steam_id":85568392924510193,"keywords":["cp","nocrits","nodmgspread","uncletopia"],"game_id":440,"stv_port":27046,"stv_name":"Uncletopia | London | 4 | All Maps | STV","players":[{"user_id":404,"name":"Nooper_96","steam_id":76561199454809640,"connected_time":3207000000000,"state":"active","ping":142},{"user_id":475,"name":"hupa","steam_id":76561198241901284,"connected_time":308000000000,"state":"active","ping":69},{"user_id":454,"name":"dave.shotgun_2008","steam_id":76561199153146171,"connected_time":1351000000000,"state":"active","ping":56},{"user_id":409,"name":"Ye","steam_id":76561198354719262,"connected_time":3169000000000,"state":"active","ping":82},{"user_id":477,"name":"-Potato Chip-","steam_id":76561198369125058,"connected_time":271000000000,"state":"active","ping":74},{"user_id":468,"name":"XYQ NA JIVIQ","steam_id":76561198210840028,"connected_time":461000000000,"state":"active","ping":78},{"user_id":448,"name":"TriRИЌ","steam_id":76561198119622375,"connected_time":1606000000000,"state":"active","ping":81},{"user_id":447,"name":"troyfish2010","steam_id":76561199444139646,"connected_time":1650000000000,"state":"active","ping":160},{"user_id":459,"name":"femboy enjoyer","steam_id":76561199041737814,"connected_time":833000000000,"state":"active","ping":45},{"user_id":278,"name":"DiracDeltaFunction","steam_id":76561199201624841,"connected_time":5598000000000,"state":"active","ping":90},{"user_id":436,"name":"Bottle O' Scrumpy","steam_id":76561199244250562,"connected_time":1899000000000,"state":"active","ping":99},{"user_id":479,"name":"Big Al","steam_id":76561198079585198,"connected_time":227000000000,"state":"active","ping":58},{"user_id":449,"name":"JoFF","steam_id":76561198048623866,"connected_time":1572000000000,"state":"active","ping":85},{"user_id":439,"name":"Shoeman","steam_id":76561198126726364,"connected_time":1810000000000,"state":"active","ping":60},{"user_id":471,"name":"After8","steam_id":76561198090750865,"connected_time":413000000000,"state":"active","ping":75},{"user_id":440,"name":"on my way","steam_id":76561198816538971,"connected_time":1805000000000,"state":"active","ping":49},{"user_id":441,"name":"sloppy transgirl toppy","steam_id":76561198057092208,"connected_time":1802000000000,"state":"active","ping":70},{"user_id":473,"name":"gabagool","steam_id":76561198307111838,"connected_time":366000000000,"state":"active","ping":50},{"user_id":478,"name":"Hamedius","steam_id":76561199152512027,"connected_time":264000000000,"state":"active","ping":71},{"user_id":455,"name":"spake","steam_id":76561198109247682,"connected_time":1218000000000,"state":"active","ping":48},{"user_id":451,"name":"BearWithMe","steam_id":76561198032715989,"connected_time":1566000000000,"state":"active","ping":59},{"user_id":452,"name":"ScampSixteen","steam_id":76561198021771000,"connected_time":1563000000000,"state":"active","ping":52},{"user_id":480,"name":"Ricord","steam_id":76561198104369167,"connected_time":187000000000,"state":"active","ping":46},{"user_id":262,"name":"Onesemus","steam_id":76561198975108056,"connected_time":6184000000000,"state":"active","ping":75}]},{"server_id":21,"name":"Uncletopia | London | 5 | All Maps","name_short":"lon-5","host":"lon-1.uk.uncletopia.com","port":27055,"enabled":true,"region":"eu","cc":"gb","latitude":51.509865,"longitude":-0.118092,"reserved":0,"last_update":"0001-01-01T00:00:00Z","name_a2s":"Uncletopia | London | 5 | All Maps","protocol":17,"map":"pl_upward","folder":"tf","game":"Team Fortress","app_id":440,"player_count":24,"max_players":24,"Bots":0,"server_type":"Dedicated","server_os":"Linux","password":true,"vac":true,"version":"7961495","steam_id":85568392924742829,"keywords":["nocrits","nodmgspread","payload","uncletopia"],"game_id":440,"stv_port":27056,"stv_name":"Uncletopia | London | 5 | All Maps | STV","players":[{"user_id":461,"name":"MATTI","steam_id":76561198158031864,"connected_time":627000000000,"state":"active","ping":60},{"user_id":462,"name":"HUGO","steam_id":76561198317134996,"connected_time":623000000000,"state":"active","ping":87},{"user_id":413,"name":"yuck","steam_id":76561197987249568,"connected_time":3010000000000,"state":"active","ping":105},{"user_id":409,"name":"thefrenchfry","steam_id":76561198088945198,"connected_time":3648000000000,"state":"active","ping":125},{"user_id":472,"name":"Boxtrot","steam_id":76561198026321441,"connected_time":71000000000,"state":"active","ping":72},{"user_id":416,"name":"MrClyde","steam_id":76561198132627420,"connected_time":2930000000000,"state":"active","ping":75},{"user_id":464,"name":"LEGEND FUMO.","steam_id":76561198061033903,"connected_time":536000000000,"state":"active","ping":60},{"user_id":456,"name":"alpha","steam_id":76561198250491640,"connected_time":1143000000000,"state":"active","ping":50},{"user_id":471,"name":"cat","steam_id":76561198832231975,"connected_time":261000000000,"state":"active","ping":110},{"user_id":466,"name":"Ash","steam_id":76561198148738525,"connected_time":507000000000,"state":"active","ping":95},{"user_id":454,"name":"random_player691","steam_id":76561199209946306,"connected_time":1276000000000,"state":"active","ping":52},{"user_id":431,"name":"semaca","steam_id":76561198068027379,"connected_time":2359000000000,"state":"active","ping":85},{"user_id":448,"name":"High-Key Cat","steam_id":76561198012929012,"connected_time":1725000000000,"state":"active","ping":72},{"user_id":441,"name":"Dapper Pan Man","steam_id":76561197981874399,"connected_time":2065000000000,"state":"active","ping":86},{"user_id":459,"name":"D_Ink","steam_id":76561198267716662,"connected_time":768000000000,"state":"active","ping":38},{"user_id":452,"name":"Ynss","steam_id":76561198021472798,"connected_time":1291000000000,"state":"active","ping":58},{"user_id":356,"name":"Metrwo!","steam_id":76561199204954862,"connected_time":7803000000000,"state":"active","ping":90},{"user_id":449,"name":"limbicsystem","steam_id":76561198025612680,"connected_time":1689000000000,"state":"active","ping":63},{"user_id":467,"name":"[UwU] Blackblood909","steam_id":76561198079427660,"connected_time":485000000000,"state":"active","ping":73},{"user_id":370,"name":"Ziomek","steam_id":76561199131735098,"connected_time":6981000000000,"state":"active","ping":85},{"user_id":468,"name":"UPS Employee","steam_id":76561198998437878,"connected_time":481000000000,"state":"active","ping":383},{"user_id":443,"name":"John Noob","steam_id":76561197999170026,"connected_time":1957000000000,"state":"active","ping":92},{"user_id":469,"name":"Joo ♦","steam_id":76561197987609203,"connected_time":479000000000,"state":"active","ping":77},{"user_id":326,"name":"yuno appreciator","steam_id":76561198083286511,"connected_time":10405000000000,"state":"active","ping":42}]},{"server_id":22,"name":"Uncletopia | London | 6 | All Maps","name_short":"lon-6","host":"lon-1.uk.uncletopia.com","port":27065,"enabled":true,"region":"eu","cc":"gb","latitude":51.509865,"longitude":-0.118092,"reserved":0,"last_update":"0001-01-01T00:00:00Z","name_a2s":"Uncletopia | London | 6 | All Maps","protocol":17,"map":"pl_upward","folder":"tf","game":"Team Fortress","app_id":440,"player_count":23,"max_players":24,"Bots":0,"server_type":"Dedicated","server_os":"Linux","password":true,"vac":true,"version":"7961495","steam_id":85568392924742830,"keywords":["nocrits","nodmgspread","payload","uncletopia"],"game_id":440,"stv_port":27066,"stv_name":"Uncletopia | London | 6 | All Maps | STV","players":[{"user_id":211,"name":"Trapezoid","steam_id":76561198059369295,"connected_time":4910000000000,"state":"active","ping":79},{"user_id":245,"name":"Klaus","steam_id":76561198150394201,"connected_time":2180000000000,"state":"active","ping":96},{"user_id":258,"name":"Hugee  くコ:彡","steam_id":76561198245495152,"connected_time":1206000000000,"state":"active","ping":62},{"user_id":252,"name":"kilin streek.,","steam_id":76561198088125671,"connected_time":1632000000000,"state":"active","ping":63},{"user_id":249,"name":"kaiji_saleh","steam_id":76561199274325425,"connected_time":2045000000000,"state":"active","ping":143},{"user_id":253,"name":":3","steam_id":76561198169471853,"connected_time":1564000000000,"state":"active","ping":51},{"user_id":257,"name":"Rogelk56","steam_id":76561199107840817,"connected_time":1345000000000,"state":"active","ping":107},{"user_id":206,"name":"xavier","steam_id":76561198076494034,"connected_time":5236000000000,"state":"active","ping":48},{"user_id":234,"name":"Dromeka","steam_id":76561198963557200,"connected_time":2812000000000,"state":"active","ping":55},{"user_id":250,"name":"HaylingZar","steam_id":76561198053559897,"connected_time":2040000000000,"state":"active","ping":60},{"user_id":103,"name":"goop","steam_id":76561198190073005,"connected_time":12213000000000,"state":"active","ping":44},{"user_id":259,"name":"Udinese Dion","steam_id":76561198067931573,"connected_time":1085000000000,"state":"active","ping":66},{"user_id":219,"name":"XxBenShapiro420xX","steam_id":76561199229373972,"connected_time":4230000000000,"state":"active","ping":64},{"user_id":230,"name":"Woman (Real)","steam_id":76561199151823932,"connected_time":2961000000000,"state":"active","ping":85},{"user_id":261,"name":"healthykira","steam_id":76561198089641918,"connected_time":16000000000,"state":"active","ping":93},{"user_id":221,"name":"hbivnm#freeforsen","steam_id":76561197996468677,"connected_time":3901000000000,"state":"active","ping":64},{"user_id":182,"name":"Vershal Smershal","steam_id":76561198116223995,"connected_time":6640000000000,"state":"active","ping":57},{"user_id":210,"name":"Alyx","steam_id":76561198064654326,"connected_time":5050000000000,"state":"active","ping":63},{"user_id":205,"name":"eva","steam_id":76561198054474684,"connected_time":5274000000000,"state":"active","ping":89},{"user_id":251,"name":"Dr. Hannibal Erekter","steam_id":76561198256093319,"connected_time":1965000000000,"state":"active","ping":90},{"user_id":256,"name":"ChebJeb","steam_id":76561198981377081,"connected_time":1512000000000,"state":"active","ping":124},{"user_id":216,"name":"Zerfesh","steam_id":76561198117534358,"connected_time":4296000000000,"state":"active","ping":105},{"user_id":243,"name":"agent youppii","steam_id":76561198055264447,"connected_time":2363000000000,"state":"active","ping":56}]},{"server_id":40,"name":"Uncletopia | London | 7 | Stopwatch","name_short":"lon-7","host":"lon-1.uk.uncletopia.com","port":27075,"enabled":true,"region":"eu","cc":"gb","latitude":51.509865,"longitude":-0.118092,"reserved":0,"last_update":"0001-01-01T00:00:00Z","name_a2s":"Uncletopia | London | 7 | Stopwatch","protocol":17,"map":"workshop/koth_product_final.ugc454272353","folder":"tf","game":"Team Fortress","app_id":440,"player_count":1,"max_players":24,"Bots":0,"server_type":"Dedicated","server_os":"Linux","password":true,"vac":true,"version":"7961495","steam_id":85568392924964314,"keywords":["cp","nocrits","nodmgspread","uncletopia"],"game_id":440,"stv_port":27076,"stv_name":"Uncletopia | London | 7 | Stopwatch | STV","players":[{"user_id":21,"name":"_Context_","steam_id":76561199163359312,"connected_time":34000000000,"state":"active","ping":62}]},{"server_id":41,"name":"Uncletopia | London | 8 | Community","name_short":"lon-8","host":"lon-1.uk.uncletopia.com","port":27085,"enabled":true,"region":"eu","cc":"gb","latitude":51.509865,"longitude":-0.118092,"reserved":0,"last_update":"0001-01-01T00:00:00Z","name_a2s":"Uncletopia | London | 8 | Community","protocol":17,"map":"workshop/cp_coilblaze_rc7.ugc1272700588","folder":"tf","game":"Team Fortress","app_id":440,"player_count":0,"max_players":24,"Bots":0,"server_type":"Dedicated","server_os":"Linux","password":true,"vac":true,"version":"7961495","steam_id":85568392924964315,"keywords":["cp","nocrits","nodmgspread","uncletopia"],"game_id":440,"stv_port":27086,"stv_name":"Uncletopia | London | 8 | Community | STV","players":null},{"server_id":300,"name":"Uncletopia | Montréal | 1 | One Thousand Uncles","name_short":"mtl-1","host":"mtl-1.ca.uncletopia.com","port":27015,"enabled":true,"region":"us-east","cc":"ca","latitude":45.50889,"longitude":-73.56167,"reserved":0,"last_update":"0001-01-01T00:00:00Z","name_a2s":"","protocol":0,"map":"","folder":"","game":"","app_id":0,"player_count":2,"max_players":0,"Bots":0,"server_type":"","server_os":"","password":false,"vac":false,"version":"","steam_id":0,"keywords":null,"game_id":0,"stv_port":0,"stv_name":"","players":[{"user_id":147,"name":"Jared","steam_id":76561198020432651,"connected_time":1635000000000,"state":"active","ping":54},{"user_id":164,"name":"MuchoSexo123","steam_id":76561199096630569,"connected_time":820000000000,"state":"active","ping":169}]},{"server_id":301,"name":"Uncletopia | Montréal | 2 | One Thousand Uncles","name_short":"mtl-2","host":"mtl-1.ca.uncletopia.com","port":27025,"enabled":true,"region":"us-east","cc":"ca","latitude":45.50889,"longitude":-73.56167,"reserved":0,"last_update":"0001-01-01T00:00:00Z","name_a2s":"","protocol":0,"map":"","folder":"","game":"","app_id":0,"player_count":0,"max_players":0,"Bots":0,"server_type":"","server_os":"","password":false,"vac":false,"version":"","steam_id":0,"keywords":null,"game_id":0,"stv_port":0,"stv_name":"","players":null},{"server_id":302,"name":"Uncletopia | Montréal | 3 | One Thousand Uncles","name_short":"mtl-3","host":"mtl-1.ca.uncletopia.com","port":27035,"enabled":true,"region":"us-east","cc":"ca","latitude":45.50889,"longitude":-73.56167,"reserved":0,"last_update":"0001-01-01T00:00:00Z","name_a2s":"","protocol":0,"map":"","folder":"","game":"","app_id":0,"player_count":10,"max_players":0,"Bots":0,"server_type":"","server_os":"","password":false,"vac":false,"version":"","steam_id":0,"keywords":null,"game_id":0,"stv_port":0,"stv_name":"","players":[{"user_id":88,"name":".FRUCADE","steam_id":76561198415785034,"connected_time":11548000000000,"state":"active","ping":150},{"user_id":141,"name":"Lesbian Futa Mommy","steam_id":76561198130479030,"connected_time":923000000000,"state":"active","ping":120},{"user_id":144,"name":"walterfishing_17","steam_id":76561198976904099,"connected_time":518000000000,"state":"active","ping":82},{"user_id":128,"name":"melon soda","steam_id":76561198066748230,"connected_time":1910000000000,"state":"active","ping":74},{"user_id":129,"name":"Jake_Spencer","steam_id":76561198025176750,"connected_time":1887000000000,"state":"active","ping":99},{"user_id":126,"name":"Zombie From Half-Life 2","steam_id":76561199122143011,"connected_time":1932000000000,"state":"active","ping":73},{"user_id":125,"name":"oog","steam_id":76561199097175377,"connected_time":1953000000000,"state":"active","ping":54},{"user_id":136,"name":"Heartgold","steam_id":76561199062592062,"connected_time":1541000000000,"state":"active","ping":67},{"user_id":133,"name":"C Papi","steam_id":76561198027779564,"connected_time":1776000000000,"state":"active","ping":64},{"user_id":135,"name":"Kickpuncher","steam_id":76561198121528357,"connected_time":1719000000000,"state":"active","ping":60}]},{"server_id":13,"name":"Uncletopia | New York City | 1 | All Maps","name_short":"nyc-1","host":"nyc-1.us.uncletopia.com","port":27015,"enabled":true,"region":"us-east","cc":"us","latitude":40.73061,"longitude":-73.93524,"reserved":0,"last_update":"0001-01-01T00:00:00Z","name_a2s":"Uncletopia | New York City | 1 | All Maps","protocol":17,"map":"cp_process_final","folder":"tf","game":"Team Fortress","app_id":440,"player_count":25,"max_players":24,"Bots":0,"server_type":"Dedicated","server_os":"Linux","password":true,"vac":true,"version":"7961495","steam_id":85568392924469993,"keywords":["cp","nocrits","nodmgspread","uncletopia"],"game_id":440,"stv_port":27016,"stv_name":"Uncletopia | New York City | 1 | All Maps | STV","players":[{"user_id":405,"name":"Bucket Hat Trick","steam_id":76561198381785132,"connected_time":3018000000000,"state":"active","ping":95},{"user_id":435,"name":"doro","steam_id":76561198099041747,"connected_time":950000000000,"state":"active","ping":105},{"user_id":451,"name":"Incarnadine","steam_id":76561198119684930,"connected_time":117000000000,"state":"active","ping":78},{"user_id":425,"name":"JoHoQ","steam_id":76561198080594717,"connected_time":1391000000000,"state":"active","ping":80},{"user_id":439,"name":"mootier","steam_id":76561198030365192,"connected_time":679000000000,"state":"active","ping":59},{"user_id":433,"name":"MrKokonut","steam_id":76561198879575825,"connected_time":1213000000000,"state":"active","ping":75},{"user_id":452,"name":"BB Lorexav","steam_id":76561198207565988,"connected_time":86000000000,"state":"active","ping":88},{"user_id":340,"name":"Bother","steam_id":76561198336750909,"connected_time":7097000000000,"state":"active","ping":48},{"user_id":446,"name":"shrimp fries rice","steam_id":76561198974623886,"connected_time":274000000000,"state":"active","ping":72},{"user_id":426,"name":"ExtraSoap","steam_id":76561198008712409,"connected_time":1363000000000,"state":"active","ping":49},{"user_id":449,"name":"Pvt. Parts","steam_id":76561198228821544,"connected_time":236000000000,"state":"active","ping":86},{"user_id":453,"name":"category 5 girl moment","steam_id":76561198972801541,"connected_time":80000000000,"state":"active","ping":60},{"user_id":450,"name":"cas.sierrafamilia","steam_id":76561199230945873,"connected_time":183000000000,"state":"active","ping":72},{"user_id":429,"name":"Candy Sparkles","steam_id":76561198126871264,"connected_time":1320000000000,"state":"active","ping":76},{"user_id":454,"name":"Poyo","steam_id":76561199216556298,"connected_time":67000000000,"state":"active","ping":201},{"user_id":455,"name":"The Hoagie Hero","steam_id":76561198057569298,"connected_time":63000000000,"state":"active","ping":75},{"user_id":437,"name":"sirdagger","steam_id":76561198405460022,"connected_time":900000000000,"state":"active","ping":71},{"user_id":444,"name":"Nerrrd_","steam_id":76561198870129960,"connected_time":286000000000,"state":"active","ping":45},{"user_id":456,"name":"Acorn","steam_id":76561198353480153,"connected_time":31000000000,"state":"connecting","ping":0},{"user_id":431,"name":"ⒸⓆⒷ","steam_id":76561199068623664,"connected_time":1288000000000,"state":"active","ping":123},{"user_id":419,"name":"APOTATO","steam_id":76561198118199858,"connected_time":2400000000000,"state":"active","ping":120},{"user_id":457,"name":"Ask Me For Random Trivia!","steam_id":76561198087065165,"connected_time":27000000000,"state":"active","ping":67},{"user_id":440,"name":"dark souls boss","steam_id":76561198316610724,"connected_time":663000000000,"state":"active","ping":113},{"user_id":458,"name":"DeSynthed","steam_id":76561198098768007,"connected_time":11000000000,"state":"spawning","ping":56},{"user_id":445,"name":"garfielf","steam_id":76561199482149729,"connected_time":285000000000,"state":"active","ping":45}]},{"server_id":14,"name":"Uncletopia | New York City | 2 | All Maps","name_short":"nyc-2","host":"nyc-1.us.uncletopia.com","port":27025,"enabled":true,"region":"us-east","cc":"us","latitude":40.73061,"longitude":-73.93524,"reserved":0,"last_update":"0001-01-01T00:00:00Z","name_a2s":"Uncletopia | New York City | 2 | All Maps","protocol":17,"map":"cp_granary","folder":"tf","game":"Team Fortress","app_id":440,"player_count":15,"max_players":24,"Bots":0,"server_type":"Dedicated","server_os":"Linux","password":true,"vac":true,"version":"7961495","steam_id":85568392924469994,"keywords":["cp","nocrits","nodmgspread","uncletopia"],"game_id":440,"stv_port":27026,"stv_name":"Uncletopia | New York City | 2 | All Maps | STV","players":[{"user_id":64,"name":"L to the OG","steam_id":76561199215811448,"connected_time":885000000000,"state":"active","ping":109},{"user_id":90,"name":"PaD_Ding","steam_id":76561198831202965,"connected_time":26000000000,"state":"spawning","ping":184},{"user_id":89,"name":"PryZeF","steam_id":76561199374742535,"connected_time":52000000000,"state":"active","ping":74},{"user_id":18,"name":"your very own pocket medic","steam_id":76561199489320369,"connected_time":3636000000000,"state":"active","ping":57},{"user_id":75,"name":"eaglesfan609","steam_id":76561198151032242,"connected_time":559000000000,"state":"active","ping":33},{"user_id":57,"name":"BLØRG","steam_id":76561198036126673,"connected_time":1623000000000,"state":"active","ping":98},{"user_id":26,"name":"Myr1ad","steam_id":76561198072795505,"connected_time":3456000000000,"state":"active","ping":78},{"user_id":33,"name":"Serasil","steam_id":76561198279155246,"connected_time":3376000000000,"state":"active","ping":119},{"user_id":83,"name":"ZYNTERLINKED","steam_id":76561198241948526,"connected_time":352000000000,"state":"active","ping":57},{"user_id":63,"name":"CHIEF_JUSTICE_FUCKASS","steam_id":76561199261675844,"connected_time":1018000000000,"state":"active","ping":131},{"user_id":76,"name":"The Fiend","steam_id":76561199229771413,"connected_time":558000000000,"state":"active","ping":72},{"user_id":32,"name":"otw way to mars off the bars","steam_id":76561199085974120,"connected_time":3401000000000,"state":"active","ping":52},{"user_id":82,"name":"Lumi","steam_id":76561198089978036,"connected_time":368000000000,"state":"active","ping":56},{"user_id":86,"name":"THE STINK","steam_id":76561199226110975,"connected_time":244000000000,"state":"active","ping":85},{"user_id":47,"name":"OILE ???","steam_id":76561198127039453,"connected_time":2737000000000,"state":"active","ping":111}]},{"server_id":15,"name":"Uncletopia | New York City | 3 | Stopwatch","name_short":"nyc-3","host":"nyc-1.us.uncletopia.com","port":27035,"enabled":true,"region":"us-east","cc":"us","latitude":40.73061,"longitude":-73.93524,"reserved":0,"last_update":"0001-01-01T00:00:00Z","name_a2s":"Uncletopia | New York City | 3 | Stopwatch","protocol":17,"map":"workshop/koth_product_final.ugc454272353","folder":"tf","game":"Team Fortress","app_id":440,"player_count":0,"max_players":24,"Bots":0,"server_type":"Dedicated","server_os":"Linux","password":true,"vac":true,"version":"7961495","steam_id":85568392924742820,"keywords":["cp","nocrits","nodmgspread","uncletopia"],"game_id":440,"stv_port":27036,"stv_name":"Uncletopia | New York City | 3 | Stopwatch | STV","players":null},{"server_id":16,"name":"Uncletopia | New York City | 4 | Community","name_short":"nyc-4","host":"nyc-1.us.uncletopia.com","port":27045,"enabled":true,"region":"us-east","cc":"us","latitude":40.73061,"longitude":-73.93524,"reserved":0,"last_update":"0001-01-01T00:00:00Z","name_a2s":"Uncletopia | New York City | 4 | Community","protocol":17,"map":"cp_altitude","folder":"tf","game":"Team Fortress","app_id":440,"player_count":0,"max_players":24,"Bots":0,"server_type":"Dedicated","server_os":"Linux","password":true,"vac":true,"version":"7961495","steam_id":85568392924742821,"keywords":["cp","nocrits","nodmgspread","uncletopia"],"game_id":440,"stv_port":27046,"stv_name":"Uncletopia | New York City | 4 | Community | STV","players":null},{"server_id":142,"name":"Uncletopia | São Paulo | 1 | All Maps","name_short":"sao-1","host":"sao-1.br.uncletopia.com","port":27015,"enabled":true,"region":"sa","cc":"br","latitude":-23.533773,"longitude":-46.62529,"reserved":0,"last_update":"0001-01-01T00:00:00Z","name_a2s":"Uncletopia | São Paulo | 1 | All Maps","protocol":17,"map":"cp_altitude","folder":"tf","game":"Team Fortress","app_id":440,"player_count":0,"max_players":24,"Bots":0,"server_type":"Dedicated","server_os":"Linux","password":true,"vac":true,"version":"7961495","steam_id":85568392924469996,"keywords":["cp","nocrits","nodmgspread","uncletopia"],"game_id":440,"stv_port":27016,"stv_name":"Uncletopia | São Paulo | 1 | All Maps | STV","players":null},{"server_id":143,"name":"Uncletopia | São Paulo | 2 | Community","name_short":"sao-2","host":"sao-2.br.uncletopia.com","port":27015,"enabled":true,"region":"sa","cc":"br","latitude":-23.533773,"longitude":-46.62529,"reserved":0,"last_update":"0001-01-01T00:00:00Z","name_a2s":"Uncletopia | São Paulo | 2 | Community","protocol":17,"map":"workshop/pl_vigil_rc10.ugc1266210012","folder":"tf","game":"Team Fortress","app_id":440,"player_count":0,"max_players":24,"Bots":0,"server_type":"Dedicated","server_os":"Linux","password":true,"vac":true,"version":"7961495","steam_id":85568392924485349,"keywords":["nocrits","nodmgspread","payload","uncletopia"],"game_id":440,"stv_port":27016,"stv_name":"Uncletopia | São Paulo | 2 | Community | STV","players":null},{"server_id":7,"name":"Uncletopia | Seattle | 1 | All Maps","name_short":"sea-1","host":"sea-1.us.uncletopia.com","port":27015,"enabled":true,"region":"us-west","cc":"us","latitude":47.608013,"longitude":-122.33517,"reserved":0,"last_update":"0001-01-01T00:00:00Z","name_a2s":"Uncletopia | Seattle | 1 | All Maps","protocol":17,"map":"pl_badwater","folder":"tf","game":"Team Fortress","app_id":440,"player_count":24,"max_players":24,"Bots":0,"server_type":"Dedicated","server_os":"Linux","password":true,"vac":true,"version":"7961495","steam_id":85568392924469997,"keywords":["nocrits","nodmgspread","payload","uncletopia"],"game_id":440,"stv_port":27016,"stv_name":"Uncletopia | Seattle | 1 | All Maps | STV","players":[{"user_id":267,"name":"JayDuh","steam_id":76561198396293109,"connected_time":2750000000000,"state":"active","ping":100},{"user_id":265,"name":"rocketspires","steam_id":76561198800386026,"connected_time":2989000000000,"state":"active","ping":79},{"user_id":300,"name":"MrYadaization","steam_id":76561198050770818,"connected_time":89000000000,"state":"active","ping":45},{"user_id":284,"name":"MintyPawz","steam_id":76561198111430103,"connected_time":1110000000000,"state":"active","ping":95},{"user_id":294,"name":"do you like beans?","steam_id":76561199184000745,"connected_time":362000000000,"state":"active","ping":65},{"user_id":301,"name":"Barton","steam_id":76561198203088523,"connected_time":34000000000,"state":"active","ping":51},{"user_id":232,"name":"SwearWord","steam_id":76561199131184237,"connected_time":4884000000000,"state":"active","ping":46},{"user_id":224,"name":"U ω U","steam_id":76561198118802562,"connected_time":5399000000000,"state":"active","ping":76},{"user_id":298,"name":"Kaeo","steam_id":76561198066244086,"connected_time":297000000000,"state":"active","ping":49},{"user_id":295,"name":"Mr_Glitch","steam_id":76561199401322907,"connected_time":336000000000,"state":"active","ping":95},{"user_id":291,"name":"Darkgigglemonster","steam_id":76561198870649125,"connected_time":436000000000,"state":"active","ping":76},{"user_id":285,"name":"Mega_Man23","steam_id":76561198138341391,"connected_time":1103000000000,"state":"active","ping":119},{"user_id":299,"name":"Fungal","steam_id":76561198078973439,"connected_time":277000000000,"state":"active","ping":76},{"user_id":268,"name":"Jimmy","steam_id":76561198857959855,"connected_time":2382000000000,"state":"active","ping":74},{"user_id":290,"name":"triph","steam_id":76561198067196509,"connected_time":621000000000,"state":"active","ping":60},{"user_id":296,"name":"Szaint","steam_id":76561198165050614,"connected_time":332000000000,"state":"active","ping":52},{"user_id":272,"name":"DaBigA","steam_id":76561198326492538,"connected_time":1659000000000,"state":"active","ping":45},{"user_id":243,"name":"barefoot fruitscato","steam_id":76561198094225038,"connected_time":4584000000000,"state":"active","ping":107},{"user_id":260,"name":"NormanVillage","steam_id":76561198330337371,"connected_time":3208000000000,"state":"active","ping":95},{"user_id":297,"name":"Expand Dong","steam_id":76561198041183192,"connected_time":329000000000,"state":"active","ping":69},{"user_id":289,"name":"Havi","steam_id":76561198197832829,"connected_time":958000000000,"state":"active","ping":46},{"user_id":246,"name":"Toasterr","steam_id":76561197990169748,"connected_time":4374000000000,"state":"active","ping":69},{"user_id":264,"name":"PROFILE NAME","steam_id":76561199438851854,"connected_time":3080000000000,"state":"active","ping":50},{"user_id":253,"name":"Engineer Gaming Live","steam_id":76561198045914603,"connected_time":3631000000000,"state":"active","ping":67}]},{"server_id":119,"name":"Uncletopia | Seattle | 2 | All Maps","name_short":"sea-2","host":"sea-1.us.uncletopia.com","port":27025,"enabled":true,"region":"us-west","cc":"us","latitude":47.608013,"longitude":-122.33517,"reserved":0,"last_update":"0001-01-01T00:00:00Z","name_a2s":"Uncletopia | Seattle | 2 | All Maps","protocol":17,"map":"pl_snowycoast","folder":"tf","game":"Team Fortress","app_id":440,"player_count":24,"max_players":24,"Bots":0,"server_type":"Dedicated","server_os":"Linux","password":true,"vac":true,"version":"7961495","steam_id":85568392924469998,"keywords":["nocrits","nodmgspread","payload","uncletopia"],"game_id":440,"stv_port":27026,"stv_name":"Uncletopia | Seattle | 2 | All Maps | STV","players":[{"user_id":115,"name":"lukamine","steam_id":76561198166827208,"connected_time":2492000000000,"state":"active","ping":50},{"user_id":125,"name":"2 Point Tom","steam_id":76561198087617008,"connected_time":2066000000000,"state":"active","ping":53},{"user_id":145,"name":"Lucky","steam_id":76561198124910662,"connected_time":312000000000,"state":"active","ping":64},{"user_id":141,"name":"cubibluer","steam_id":76561198197405295,"connected_time":870000000000,"state":"active","ping":54},{"user_id":100,"name":"R0KKSTAR","steam_id":76561198206177593,"connected_time":3053000000000,"state":"active","ping":63},{"user_id":147,"name":"eli","steam_id":76561198375130918,"connected_time":280000000000,"state":"active","ping":69},{"user_id":133,"name":"Throat Goat","steam_id":76561198132532519,"connected_time":1366000000000,"state":"active","ping":67},{"user_id":104,"name":"squart guy","steam_id":76561199411560141,"connected_time":2935000000000,"state":"active","ping":52},{"user_id":121,"name":"♥Gothie♥","steam_id":76561198166814648,"connected_time":2247000000000,"state":"active","ping":65},{"user_id":137,"name":"Astronomical-Ravs","steam_id":76561197993919776,"connected_time":955000000000,"state":"active","ping":52},{"user_id":123,"name":"drewtky","steam_id":76561197961521535,"connected_time":2105000000000,"state":"active","ping":116},{"user_id":105,"name":"Pneumo.","steam_id":76561197987911883,"connected_time":2904000000000,"state":"active","ping":62},{"user_id":134,"name":"Beef Wellington","steam_id":76561197995635241,"connected_time":1280000000000,"state":"active","ping":179},{"user_id":93,"name":"Cherry Bomb!","steam_id":76561198017947020,"connected_time":3375000000000,"state":"active","ping":114},{"user_id":33,"name":"Batso","steam_id":76561198106589452,"connected_time":6484000000000,"state":"active","ping":77},{"user_id":132,"name":"Zano","steam_id":76561198066887048,"connected_time":1553000000000,"state":"active","ping":86},{"user_id":138,"name":"Tony Hawk Underground 2 for PSP","steam_id":76561197999901620,"connected_time":940000000000,"state":"active","ping":96},{"user_id":127,"name":"Panda ツ","steam_id":76561198004491689,"connected_time":2043000000000,"state":"active","ping":61},{"user_id":143,"name":"trackpad gaming | f2p","steam_id":76561198840414371,"connected_time":709000000000,"state":"active","ping":51},{"user_id":109,"name":"riSygneD","steam_id":76561198331618687,"connected_time":2851000000000,"state":"active","ping":66},{"user_id":139,"name":"hyaz, +rep.","steam_id":76561199100342013,"connected_time":931000000000,"state":"active","ping":73},{"user_id":144,"name":"𝓼𝓹𝓸𝓸𝓴𝔂","steam_id":76561198300009292,"connected_time":669000000000,"state":"active","ping":52},{"user_id":146,"name":"vfa","steam_id":76561198055729118,"connected_time":301000000000,"state":"active","ping":60},{"user_id":97,"name":"♥ Osana Najimi ♥ (Soupcan)","steam_id":76561198056269538,"connected_time":3124000000000,"state":"active","ping":51}]},{"server_id":406,"name":"Uncletopia | Seattle | 3 | Stopwatch","name_short":"sea-3","host":"sea-1.us.uncletopia.com","port":27035,"enabled":true,"region":"us-west","cc":"us","latitude":47.608013,"longitude":-122.33517,"reserved":0,"last_update":"0001-01-01T00:00:00Z","name_a2s":"Uncletopia | Seattle | 3 | Stopwatch","protocol":17,"map":"cp_granary","folder":"tf","game":"Team Fortress","app_id":440,"player_count":0,"max_players":24,"Bots":0,"server_type":"Dedicated","server_os":"Linux","password":true,"vac":true,"version":"7961495","steam_id":85568392924515217,"keywords":["cp","nocrits","nodmgspread","uncletopia"],"game_id":440,"stv_port":27036,"stv_name":"Uncletopia | Seattle | 3 | Stopwatch | STV","players":null},{"server_id":17,"name":"Uncletopia | San Francisco | 1 | All Maps","name_short":"sfo-1","host":"sfo-1.us.uncletopia.com","port":27015,"enabled":true,"region":"us-west","cc":"us","latitude":37.77397,"longitude":-122.4313,"reserved":0,"last_update":"0001-01-01T00:00:00Z","name_a2s":"Uncletopia | San Francisco | 1 | All Maps","protocol":17,"map":"koth_cascade","folder":"tf","game":"Team Fortress","app_id":440,"player_count":0,"max_players":24,"Bots":0,"server_type":"Dedicated","server_os":"Linux","password":true,"vac":true,"version":"7961495","steam_id":85568392924469999,"keywords":["cp","nocrits","nodmgspread","uncletopia"],"game_id":440,"stv_port":27016,"stv_name":"Uncletopia | San Francisco | 1 | All Maps | STV","players":null},{"server_id":18,"name":"Uncletopia | San Francisco | 2 | All Maps","name_short":"sfo-2","host":"sfo-1.us.uncletopia.com","port":27025,"enabled":true,"region":"us-west","cc":"us","latitude":37.77397,"longitude":-122.4313,"reserved":0,"last_update":"0001-01-01T00:00:00Z","name_a2s":"Uncletopia | San Francisco | 2 | All Maps","protocol":17,"map":"pl_frontier_final","folder":"tf","game":"Team Fortress","app_id":440,"player_count":0,"max_players":24,"Bots":0,"server_type":"Dedicated","server_os":"Linux","password":true,"vac":true,"version":"7961495","steam_id":85568392924470000,"keywords":["nocrits","nodmgspread","payload","uncletopia"],"game_id":440,"stv_port":27026,"stv_name":"Uncletopia | San Francisco | 2 | All Maps | STV","players":null},{"server_id":19,"name":"Uncletopia | San Francisco | 3 | Stopwatch","name_short":"sfo-3","host":"sfo-1.us.uncletopia.com","port":27035,"enabled":true,"region":"us-west","cc":"us","latitude":37.77397,"longitude":-122.4313,"reserved":0,"last_update":"0001-01-01T00:00:00Z","name_a2s":"Uncletopia | San Francisco | 3 | Stopwatch","protocol":17,"map":"workshop/koth_bagel_rc6.ugc2514036946","folder":"tf","game":"Team Fortress","app_id":440,"player_count":0,"max_players":24,"Bots":0,"server_type":"Dedicated","server_os":"Linux","password":true,"vac":true,"version":"7961495","steam_id":85568392924742824,"keywords":["cp","nocrits","nodmgspread","uncletopia"],"game_id":440,"stv_port":27036,"stv_name":"Uncletopia | San Francisco | 3 | Stopwatch | STV","players":null},{"server_id":20,"name":"Uncletopia | San Francisco | 4 | Community","name_short":"sfo-4","host":"sfo-1.us.uncletopia.com","port":27045,"enabled":true,"region":"us-west","cc":"us","latitude":37.77397,"longitude":-122.4313,"reserved":0,"last_update":"0001-01-01T00:00:00Z","name_a2s":"Uncletopia | San Francisco | 4 | Community","protocol":17,"map":"pl_pier","folder":"tf","game":"Team Fortress","app_id":440,"player_count":0,"max_players":24,"Bots":0,"server_type":"Dedicated","server_os":"Linux","password":true,"vac":true,"version":"7961495","steam_id":85568392924742826,"keywords":["nocrits","nodmgspread","payload","uncletopia"],"game_id":440,"stv_port":27046,"stv_name":"Uncletopia | San Francisco | 4 | Community | STV","players":null},{"server_id":141,"name":"Uncletopia | Sydney | 1 | All Maps","name_short":"syd-1","host":"syd-1.au.uncletopia.com","port":27015,"enabled":true,"region":"au","cc":"au","latitude":-33.865143,"longitude":151.2099,"reserved":0,"last_update":"0001-01-01T00:00:00Z","name_a2s":"Uncletopia | Sydney | 1 | All Maps","protocol":17,"map":"koth_viaduct","folder":"tf","game":"Team Fortress","app_id":440,"player_count":6,"max_players":24,"Bots":0,"server_type":"Dedicated","server_os":"Linux","password":true,"vac":true,"version":"7961495","steam_id":85568392924470001,"keywords":["cp","nocrits","nodmgspread","uncletopia"],"game_id":440,"stv_port":27016,"stv_name":"Uncletopia | Sydney | 1 | All Maps | STV","players":[{"user_id":3,"name":"BIGNATE","steam_id":76561199207791519,"connected_time":3219000000000,"state":"active","ping":88},{"user_id":4,"name":"Turret","steam_id":76561198054728921,"connected_time":3171000000000,"state":"active","ping":39},{"user_id":5,"name":"heisenbruger (real)","steam_id":76561199214747043,"connected_time":2849000000000,"state":"active","ping":46},{"user_id":7,"name":"SirGenn","steam_id":76561198427504511,"connected_time":1548000000000,"state":"active","ping":101},{"user_id":8,"name":"Pablo 62 (Cow Hater)","steam_id":76561199172717986,"connected_time":722000000000,"state":"active","ping":38},{"user_id":10,"name":"Burnz","steam_id":76561199170593893,"connected_time":211000000000,"state":"active","ping":54}]},{"server_id":123,"name":"Uncletopia | Sydney | 2 | All Maps","name_short":"syd-2","host":"syd-1.au.uncletopia.com","port":27025,"enabled":true,"region":"au","cc":"au","latitude":-33.865143,"longitude":151.2099,"reserved":0,"last_update":"0001-01-01T00:00:00Z","name_a2s":"Uncletopia | Sydney | 2 | All Maps","protocol":17,"map":"koth_lakeside_final","folder":"tf","game":"Team Fortress","app_id":440,"player_count":0,"max_players":24,"Bots":0,"server_type":"Dedicated","server_os":"Linux","password":true,"vac":true,"version":"7961495","steam_id":85568392924470002,"keywords":["cp","nocrits","nodmgspread","uncletopia"],"game_id":440,"stv_port":27026,"stv_name":"Uncletopia | Sydney | 2 | All Maps | STV","players":null},{"server_id":395,"name":"Uncletopia | Sydney | 3 | All Maps","name_short":"syd-3","host":"syd-1.au.uncletopia.com","port":27035,"enabled":true,"region":"au","cc":"au","latitude":-33.865143,"longitude":151.2099,"reserved":0,"last_update":"0001-01-01T00:00:00Z","name_a2s":"Uncletopia | Sydney | 3 | All Maps","protocol":17,"map":"pl_frontier_final","folder":"tf","game":"Team Fortress","app_id":440,"player_count":0,"max_players":24,"Bots":0,"server_type":"Dedicated","server_os":"Linux","password":true,"vac":true,"version":"7961495","steam_id":85568392925194467,"keywords":["nocrits","nodmgspread","payload","uncletopia"],"game_id":440,"stv_port":27036,"stv_name":"Uncletopia | Sydney | 3 | All Maps | STV","players":null},{"server_id":396,"name":"Uncletopia | Sydney | 4 | All Maps","name_short":"syd-4","host":"syd-1.au.uncletopia.com","port":27045,"enabled":true,"region":"au","cc":"au","latitude":-33.865143,"longitude":151.2099,"reserved":0,"last_update":"0001-01-01T00:00:00Z","name_a2s":"Uncletopia | Sydney | 4 | All Maps","protocol":17,"map":"cp_process_final","folder":"tf","game":"Team Fortress","app_id":440,"player_count":0,"max_players":24,"Bots":0,"server_type":"Dedicated","server_os":"Linux","password":true,"vac":true,"version":"7961495","steam_id":85568392925397958,"keywords":["cp","nocrits","nodmgspread","uncletopia"],"game_id":440,"stv_port":27046,"stv_name":"Uncletopia | Sydney | 4 | All Maps | STV","players":null},{"server_id":58,"name":"Uncletopia | Sydney | 5 | Stopwatch","name_short":"syd-5","host":"syd-1.au.uncletopia.com","port":27055,"enabled":true,"region":"au","cc":"au","latitude":-33.865143,"longitude":151.2099,"reserved":0,"last_update":"0001-01-01T00:00:00Z","name_a2s":"Uncletopia | Sydney | 5 | Stopwatch","protocol":17,"map":"pl_frontier_final","folder":"tf","game":"Team Fortress","app_id":440,"player_count":0,"max_players":24,"Bots":0,"server_type":"Dedicated","server_os":"Linux","password":true,"vac":true,"version":"7961495","steam_id":85568392925397959,"keywords":["nocrits","nodmgspread","payload","uncletopia"],"game_id":440,"stv_port":27056,"stv_name":"Uncletopia | Sydney | 5 | Stopwatch | STV","players":null},{"server_id":59,"name":"Uncletopia | Sydney | 6 | Community","name_short":"syd-6","host":"syd-1.au.uncletopia.com","port":27065,"enabled":true,"region":"au","cc":"au","latitude":-33.865143,"longitude":151.2099,"reserved":0,"last_update":"0001-01-01T00:00:00Z","name_a2s":"Uncletopia | Sydney | 6 | Community","protocol":17,"map":"cp_sunshine","folder":"tf","game":"Team Fortress","app_id":440,"player_count":0,"max_players":24,"Bots":0,"server_type":"Dedicated","server_os":"Linux","password":true,"vac":true,"version":"7961495","steam_id":85568392925397960,"keywords":["cp","nocrits","nodmgspread","uncletopia"],"game_id":440,"stv_port":27066,"stv_name":"Uncletopia | Sydney | 6 | Community | STV","players":null},{"server_id":49,"name":"Uncletopia | Warsaw | 1 | One Thousand Uncles","name_short":"waw-1","host":"waw-1.pl.uncletopia.com","port":27015,"enabled":true,"region":"eu","cc":"pl","latitude":52.2297,"longitude":21.017532,"reserved":0,"last_update":"0001-01-01T00:00:00Z","name_a2s":"Uncletopia | Warsaw | 1 | One Thousand Uncles","protocol":17,"map":"pl_hoodoo_final","folder":"tf","game":"Team Fortress","app_id":440,"player_count":25,"max_players":32,"Bots":16,"server_type":"Dedicated","server_os":"Linux","password":true,"vac":true,"version":"7961495","steam_id":85568392925397850,"keywords":["alltalk","bots","danepve","increased_maxplayers","nocrits","norespawntime","payload","uncletopia"],"game_id":440,"stv_port":0,"stv_name":"","players":[{"user_id":388,"name":"fioletowyvr","steam_id":76561199287898361,"connected_time":1773000000000,"state":"active","ping":346},{"user_id":398,"name":"[SQ UA] MartianDill","steam_id":76561198405382822,"connected_time":173000000000,"state":"active","ping":55},{"user_id":346,"name":"Gamer_X","steam_id":76561198085349286,"connected_time":5076000000000,"state":"active","ping":91},{"user_id":393,"name":"bp","steam_id":76561197988192258,"connected_time":700000000000,"state":"active","ping":65},{"user_id":354,"name":"Riky95","steam_id":76561198095289436,"connected_time":4508000000000,"state":"active","ping":61},{"user_id":358,"name":"Lopat","steam_id":76561198820264239,"connected_time":4100000000000,"state":"active","ping":102},{"user_id":390,"name":"elyas","steam_id":76561198964639269,"connected_time":1416000000000,"state":"active","ping":179},{"user_id":365,"name":"Max Power","steam_id":76561198019269089,"connected_time":2575000000000,"state":"active","ping":63},{"user_id":397,"name":"Teo_Something","steam_id":76561198073795492,"connected_time":271000000000,"state":"active","ping":132}]},{"server_id":50,"name":"Uncletopia | Warsaw | 2 | One Thousand Uncles","name_short":"waw-2","host":"waw-1.pl.uncletopia.com","port":27025,"enabled":true,"region":"eu","cc":"pl","latitude":52.2297,"longitude":21.017532,"reserved":0,"last_update":"0001-01-01T00:00:00Z","name_a2s":"Uncletopia | Warsaw | 2 | One Thousand Uncles","protocol":17,"map":"pl_chilly","folder":"tf","game":"Team Fortress","app_id":440,"player_count":19,"max_players":32,"Bots":16,"server_type":"Dedicated","server_os":"Linux","password":true,"vac":true,"version":"7961495","steam_id":85568392925397851,"keywords":["alltalk","bots","danepve","increased_maxplayers","nocrits","norespawntime","payload","uncletopia"],"game_id":440,"stv_port":0,"stv_name":"","players":[{"user_id":736,"name":"Smirire","steam_id":76561198879939942,"connected_time":452000000000,"state":"active","ping":80},{"user_id":693,"name":"TB23K1","steam_id":76561198799586871,"connected_time":3708000000000,"state":"active","ping":79},{"user_id":694,"name":"EmiChu","steam_id":76561198151112429,"connected_time":3645000000000,"state":"active","ping":71}]},{"server_id":51,"name":"Uncletopia | Warsaw | 3 | All Maps","name_short":"waw-3","host":"waw-1.pl.uncletopia.com","port":27035,"enabled":true,"region":"eu","cc":"pl","latitude":52.2297,"longitude":21.017532,"reserved":0,"last_update":"0001-01-01T00:00:00Z","name_a2s":"Uncletopia | Warsaw | 3 | All Maps","protocol":17,"map":"koth_lakeside_final","folder":"tf","game":"Team Fortress","app_id":440,"player_count":9,"max_players":24,"Bots":0,"server_type":"Dedicated","server_os":"Linux","password":true,"vac":true,"version":"7961495","steam_id":85568392925397852,"keywords":["cp","nocrits","nodmgspread","uncletopia"],"game_id":440,"stv_port":27036,"stv_name":"Uncletopia | Warsaw | 3 | All Maps | STV","players":[{"user_id":10,"name":"I-I","steam_id":76561198267969436,"connected_time":1901000000000,"state":"active","ping":60},{"user_id":11,"name":"SVT","steam_id":76561199238889745,"connected_time":1880000000000,"state":"active","ping":56},{"user_id":12,"name":"Laryssa","steam_id":76561198271084076,"connected_time":1122000000000,"state":"active","ping":45},{"user_id":13,"name":"Guthlaf","steam_id":76561198153564078,"connected_time":1083000000000,"state":"active","ping":51},{"user_id":14,"name":"Hrabia","steam_id":76561198164608139,"connected_time":1078000000000,"state":"active","ping":37},{"user_id":15,"name":"♦nudzeku♦","steam_id":76561199196336940,"connected_time":464000000000,"state":"active","ping":75},{"user_id":16,"name":"cheesyanchovy","steam_id":76561198357351645,"connected_time":332000000000,"state":"active","ping":67},{"user_id":17,"name":"when the","steam_id":76561198280828394,"connected_time":317000000000,"state":"active","ping":84},{"user_id":18,"name":"_ZaharBens_","steam_id":76561198266827543,"connected_time":297000000000,"state":"active","ping":97}]},{"server_id":52,"name":"Uncletopia | Warsaw | 4 | All Maps","name_short":"waw-4","host":"waw-1.pl.uncletopia.com","port":27045,"enabled":true,"region":"eu","cc":"pl","latitude":52.2297,"longitude":21.017532,"reserved":0,"last_update":"0001-01-01T00:00:00Z","name_a2s":"Uncletopia | Warsaw | 4 | All Maps","protocol":17,"map":"koth_viaduct","folder":"tf","game":"Team Fortress","app_id":440,"player_count":0,"max_players":24,"Bots":0,"server_type":"Dedicated","server_os":"Linux","password":true,"vac":true,"version":"7961495","steam_id":85568392925397853,"keywords":["cp","nocrits","nodmgspread","uncletopia"],"game_id":440,"stv_port":27046,"stv_name":"Uncletopia | Warsaw | 4 | All Maps | STV","players":null},{"server_id":53,"name":"Uncletopia | Warsaw | 5 | Stopwatch","name_short":"waw-5","host":"waw-1.pl.uncletopia.com","port":27055,"enabled":true,"region":"eu","cc":"pl","latitude":52.2297,"longitude":21.017532,"reserved":0,"last_update":"0001-01-01T00:00:00Z","name_a2s":"Uncletopia | Warsaw | 5 | Stopwatch","protocol":17,"map":"workshop/cp_reckoner_rc6.ugc674719999","folder":"tf","game":"Team Fortress","app_id":440,"player_count":0,"max_players":24,"Bots":0,"server_type":"Dedicated","server_os":"Linux","password":true,"vac":true,"version":"7961495","steam_id":85568392925397854,"keywords":["cp","nocrits","nodmgspread","uncletopia"],"game_id":440,"stv_port":27056,"stv_name":"Uncletopia | Warsaw | 5 | Stopwatch | STV","players":null},{"server_id":54,"name":"Uncletopia | Warsaw | 6 | Community","name_short":"waw-6","host":"waw-1.pl.uncletopia.com","port":27065,"enabled":true,"region":"eu","cc":"pl","latitude":52.2297,"longitude":21.017532,"reserved":0,"last_update":"0001-01-01T00:00:00Z","name_a2s":"Uncletopia | Warsaw | 6 | Community","protocol":17,"map":"workshop/pl_badwater_pro_v12.ugc2142942074","folder":"tf","game":"Team Fortress","app_id":440,"player_count":0,"max_players":24,"Bots":0,"server_type":"Dedicated","server_os":"Linux","password":true,"vac":true,"version":"7961495","steam_id":85568392925397856,"keywords":["nocrits","nodmgspread","payload","uncletopia"],"game_id":440,"stv_port":27066,"stv_name":"Uncletopia | Warsaw | 6 | Community | STV","players":null}]}