{"status":true,"message":"","result":[{"server_id":9,"name":"Uncletopia | Atlanta | 1 | All Maps","name_short":"atl-1","host":"atl-1.us.uncletopia.com","port":27015,"enabled":true,"region":"us-east","cc":"us","latitude":33.753746,"longitude":-84.38633,"reserved":0,"last_update":"0001-01-01T00:00:00Z","name_a2s":"Uncletopia | Atlanta | 1 | All Maps","protocol":17,"map":"pl_snowycoast","folder":"tf","game":"Team Fortress","app_id":440,"player_count":18,"max_players":24,"Bots":0,"server_type":"Dedicated","server_os":"Linux","password":true,"vac":true,"version":"7961495","steam_id":85568392924469982,"keywords":["nocrits","nodmgspread","payload","uncletopia"],"game_id":440,"stv_port":27016,"stv_name":"Uncletopia | Atlanta | 1 | All Maps | STV","players":null},{"server_id":104,"name":"Uncletopia | Atlanta | 2 | All Maps","name_short":"atl-2","host":"atl-1.us.uncletopia.com","port":27025,"enabled":true,"region":"us-east","cc":"us","latitude":33.753746,"longitude":-84.38633,"reserved":0,"last_update":"0001-01-01T00:00:00Z","name_a2s":"Uncletopia | Atlanta | 2 | All Maps","protocol":17,"map":"pl_barnblitz","folder":"tf","game":"Team Fortress","app_id":440,"player_count":0,"max_players":24,"Bots":0,"server_type":"Dedicated","server_os":"Linux","password":true,"vac":true,"version":"7961495","steam_id":85568392924469983,"keywords":["nocrits","nodmgspread","payload","uncletopia"],"game_id":440,"stv_port":27026,"stv_name":"Uncletopia | Atlanta | 2 | All Maps | STV","players":null},{"server_id":400,"name":"Uncletopia | Atlanta | 3 | Stopwatch","name_short":"atl-3","host":"atl-1.us.uncletopia.com","port":27035,"enabled":true,"region":"us-east","cc":"us","latitude":33.753746,"longitude":-84.38633,"reserved":0,"last_update":"0001-01-01T00:00:00Z","name_a2s":"Uncletopia | Atlanta | 3 | Stopwatch","protocol":17,"map":"koth_bagel_rc6","folder":"tf","game":"Team Fortress","app_id":440,"player_count":0,"max_players":24,"Bots":0,"server_type":"Dedicated","server_os":"Linux","password":true,"vac":true,"version":"7961495","steam_id":85568392924515187,"keywords":["cp","nocrits","nodmgspread","uncletopia"],"game_id":440,"stv_port":27036,"stv_name":"Uncletopia | Atlanta | 3 | Stopwatch | STV","players":null},{"server_id":401,"name":"Uncletopia | Atlanta | 4 | Community","name_short":"atl-4","host":"atl-1.us.uncletopia.com","port":27045,"enabled":true,"region":"us-east","cc":"us","latitude":33.753746,"longitude":-84.38633,"reserved":0,"last_update":"0001-01-01T00:00:00Z","name_a2s":"Uncletopia | Atlanta | 4 | Community","protocol":17,"map":"koth_ashville_final","folder":"tf","game":"Team Fortress","app_id":440,"player_count":0,"max_players":24,"Bots":0,"server_type":"Dedicated","server_os":"Linux","password":true,"vac":true,"version":"7961495","steam_id":85568392924515188,"keywords":["cp","nocrits","nodmgspread","uncletopia"],"game_id":440,"stv_port":27046,"stv_name":"Uncletopia | Atlanta | 4 | Community | STV","players":null},{"server_id":2,"name":"Uncletopia | Chicago | 1 | All Maps","name_short":"chi-1","host":"chi-1.us.uncletopia.com","port":27015,"enabled":true,"region":"us-central","cc":"us","latitude":41.881832,"longitude":-87.62318,"reserved":0,"last_update":"0001-01-01T00:00:00Z","name_a2s":"Uncletopia | Chicago | 1 | All Maps","protocol":17,"map":"pl_badwater","folder":"tf","game":"Team Fortress","app_id":440,"player_count":24,"max_players":24,"Bots":0,"server_type":"Dedicated","server_os":"Linux","password":true,"vac":true,"version":"7961495","steam_id":85568392924469984,"keywords":["nocrits","nodmgspread","payload","uncletopia"],"game_id":440,"stv_port":27016,"stv_name":"Uncletopia | Chicago | 1 | All Maps | STV","players":[{"user_id":901,"name":"Rukks","steam_id":76561197993918954,"connected_time":1074000000000,"state":"active","ping":87},{"user_id":886,"name":"TheHarmacist","steam_id":76561198068249096,"connected_time":2099000000000,"state":"active","ping":45},{"user_id":811,"name":"loser","steam_id":76561198259380127,"connected_time":8489000000000,"state":"active","ping":57},{"user_id":884,"name":"Cooler Ye","steam_id":76561198068830312,"connected_time":2389000000000,"state":"active","ping":45},{"user_id":904,"name":"dunk","steam_id":76561198132476501,"connected_time":790000000000,"state":"active","ping":52},{"user_id":894,"name":"Lawnmower","steam_id":76561198186680197,"connected_time":1708000000000,"state":"active","ping":84},{"user_id":837,"name":"mwee machine","steam_id":76561198047126327,"connected_time":6034000000000,"state":"active","ping":75},{"user_id":888,"name":":3","steam_id":76561198077449460,"connected_time":2051000000000,"state":"active","ping":60},{"user_id":867,"name":"Praise_to_the_Flashlight!","steam_id":76561199001728789,"connected_time":4320000000000,"state":"active","ping":60},{"user_id":905,"name":"AstraAegis","steam_id":76561198291319035,"connected_time":751000000000,"state":"active","ping":101},{"user_id":910,"name":"Major Woody","steam_id":76561198835541533,"connected_time":428000000000,"state":"active","ping":78},{"user_id":895,"name":"Sableye","steam_id":76561198061247147,"connected_time":1646000000000,"state":"active","ping":72},{"user_id":882,"name":"Toxic Ron","steam_id":76561198089302972,"connected_time":3111000000000,"state":"active","ping":63},{"user_id":906,"name":"Laventhey","steam_id":76561198977523626,"connected_time":708000000000,"state":"active","ping":70},{"user_id":897,"name":"KBoneski ♡","steam_id":76561198307409065,"connected_time":1290000000000,"state":"active","ping":85},{"user_id":873,"name":"None of that $9.99 bullshit","steam_id":76561198116169903,"connected_time":3906000000000,"state":"active","ping":48},{"user_id":908,"name":"Ryan's World","steam_id":76561198975076059,"connected_time":683000000000,"state":"active","ping":57},{"user_id":898,"name":"Mellow Yellow","steam_id":76561198406276981,"connected_time":1183000000000,"state":"active","ping":54},{"user_id":907,"name":"Voodo133","steam_id":76561198042670351,"connected_time":705000000000,"state":"active","ping":90},{"user_id":909,"name":"Tom","steam_id":76561198139202942,"connected_time":679000000000,"state":"active","ping":71},{"user_id":911,"name":"Acheo","steam_id":76561198068228498,"connected_time":125000000000,"state":"active","ping":64},{"user_id":852,"name":"stevie ape-shit","steam_id":76561198243965308,"connected_time":5452000000000,"state":"active","ping":73},{"user_id":830,"name":"HOMIE","steam_id":76561198057325155,"connected_time":6764000000000,"state":"active","ping":61},{"user_id":903,"name":"cotton candy ghooost","steam_id":76561198058998371,"connected_time":834000000000,"state":"active","ping":68}]},{"server_id":106,"name":"Uncletopia | Chicago | 2 | All Maps","name_short":"chi-2","host":"chi-1.us.uncletopia.com","port":27025,"enabled":true,"region":"us-central","cc":"us","latitude":41.881832,"longitude":-87.62318,"reserved":0,"last_update":"0001-01-01T00:00:00Z","name_a2s":"Uncletopia | Chicago | 2 | All Maps","protocol":17,"map":"koth_cascade","folder":"tf","game":"Team Fortress","app_id":440,"player_count":0,"max_players":24,"Bots":0,"server_type":"Dedicated","server_os":"Linux","password":true,"vac":true,"version":"7961495","steam_id":85568392924469985,"keywords":["cp","nocrits","nodmgspread","uncletopia"],"game_id":440,"stv_port":27026,"stv_name":"Uncletopia | Chicago | 2 | All Maps | STV","players":null},{"server_id":402,"name":"Uncletopia | Chicago | 3 | All Maps","name_short":"chi-3","host":"chi-1.us.uncletopia.com","port":27035,"enabled":true,"region":"us-central","cc":"us","latitude":41.881832,"longitude":-87.62318,"reserved":0,"last_update":"0001-01-01T00:00:00Z","name_a2s":"Uncletopia | Chicago | 3 | All Maps","protocol":17,"map":"pl_frontier_final","folder":"tf","game":"Team Fortress","app_id":440,"player_count":16,"max_players":24,"Bots":0,"server_type":"Dedicated","server_os":"Linux","password":true,"vac":true,"version":"7961495","steam_id":85568392924515191,"keywords":["nocrits","nodmgspread","payload","uncletopia"],"game_id":440,"stv_port":27036,"stv_name":"Uncletopia | Chicago | 3 | All Maps | STV","players":[{"user_id":487,"name":"Bombsgamer","steam_id":76561198350009050,"connected_time":11971000000000,"state":"active","ping":77},{"user_id":622,"name":"Very Small Giant","steam_id":76561199187337967,"connected_time":649000000000,"state":"active","ping":60},{"user_id":624,"name":"México","steam_id":76561198238059280,"connected_time":512000000000,"state":"active","ping":93},{"user_id":573,"name":"The Bruce the Ship","steam_id":76561198271907916,"connected_time":4898000000000,"state":"active","ping":59},{"user_id":626,"name":"Joebobio","steam_id":76561198024442760,"connected_time":365000000000,"state":"active","ping":69},{"user_id":632,"name":"Waylon","steam_id":76561198382429004,"connected_time":180000000000,"state":"active","ping":114},{"user_id":628,"name":"aero","steam_id":76561198297202459,"connected_time":329000000000,"state":"active","ping":60},{"user_id":629,"name":"St. Michael","steam_id":76561198037611052,"connected_time":325000000000,"state":"active","ping":65},{"user_id":618,"name":"ImmortalProphet","steam_id":76561198012352477,"connected_time":1768000000000,"state":"active","ping":44},{"user_id":630,"name":"Duke nukem","steam_id":76561199058944087,"connected_time":247000000000,"state":"active","ping":91},{"user_id":631,"name":"Fanatic","steam_id":76561198036960509,"connected_time":194000000000,"state":"active","ping":60},{"user_id":619,"name":"Falcor","steam_id":76561198088330242,"connected_time":1413000000000,"state":"active","ping":39},{"user_id":609,"name":"captainskullet","steam_id":76561198314597170,"connected_time":2228000000000,"state":"active","ping":72},{"user_id":613,"name":"totoro","steam_id":76561198210420871,"connected_time":1928000000000,"state":"active","ping":46},{"user_id":614,"name":"beats nan annan na","steam_id":76561199245717718,"connected_time":1893000000000,"state":"active","ping":58},{"user_id":602,"name":"YASAI JUICE","steam_id":76561198131971992,"connected_time":2756000000000,"state":"active","ping":38}]},{"server_id":403,"name":"Uncletopia | Chicago | 4 | All Maps","name_short":"chi-4","host":"chi-1.us.uncletopia.com","port":27045,"enabled":true,"region":"us-central","cc":"us","latitude":41.881832,"longitude":-87.62318,"reserved":0,"last_update":"0001-01-01T00:00:00Z","name_a2s":"Uncletopia | Chicago | 4 | All Maps","protocol":17,"map":"pl_pier","folder":"tf","game":"Team Fortress","app_id":440,"player_count":20,"max_players":24,"Bots":0,"server_type":"Dedicated","server_os":"Linux","password":true,"vac":true,"version":"7961495","steam_id":85568392924515193,"keywords":["nocrits","nodmgspread","payload","uncletopia"],"game_id":440,"stv_port":27046,"stv_name":"Uncletopia | Chicago | 4 | All Maps | STV","players":[{"user_id":555,"name":"MaurbaTTV","steam_id":76561198396244334,"connected_time":376000000000,"state":"active","ping":67},{"user_id":554,"name":"caption cool","steam_id":76561197990612056,"connected_time":416000000000,"state":"active","ping":45},{"user_id":505,"name":"sfoster","steam_id":76561197993895857,"connected_time":3504000000000,"state":"active","ping":91},{"user_id":546,"name":"Chestnnut","steam_id":76561198077782729,"connected_time":1197000000000,"state":"active","ping":70},{"user_id":448,"name":"Stosh on Jream","steam_id":76561198043256782,"connected_time":6290000000000,"state":"active","ping":75},{"user_id":556,"name":"ShadowBolt","steam_id":76561198061610985,"connected_time":297000000000,"state":"active","ping":97},{"user_id":559,"name":"BigNugs","steam_id":76561198056402610,"connected_time":112000000000,"state":"active","ping":64},{"user_id":558,"name":"BlazingWaters","steam_id":76561198136322660,"connected_time":213000000000,"state":"active","ping":125},{"user_id":560,"name":"4 Inches Away From My Wits End","steam_id":76561198055542546,"connected_time":77000000000,"state":"active","ping":57},{"user_id":456,"name":"IMM0RTAL","steam_id":76561198013747901,"connected_time":5285000000000,"state":"active","ping":74},{"user_id":464,"name":"feudal","steam_id":76561198057374871,"connected_time":4528000000000,"state":"active","ping":60},{"user_id":523,"name":"TheDwellerFrom13","steam_id":76561198269640574,"connected_time":2687000000000,"state":"active","ping":75},{"user_id":542,"name":"Meat Dragon","steam_id":76561198120319256,"connected_time":1481000000000,"state":"active","ping":56},{"user_id":548,"name":"Grasshopper506","steam_id":76561198111633418,"connected_time":1095000000000,"state":"active","ping":69},{"user_id":561,"name":"Thane","steam_id":76561198402645718,"connected_time":1000000000,"state":"spawning","ping":77},{"user_id":524,"name":"Potato Masher","steam_id":76561198056712845,"connected_time":2657000000000,"state":"active","ping":65},{"user_id":410,"name":"Triple Lizard","steam_id":76561198188459654,"connected_time":8122000000000,"state":"active","ping":80},{"user_id":551,"name":"whitr","steam_id":76561198043981478,"connected_time":1036000000000,"state":"active","ping":106},{"user_id":553,"name":"Bee","steam_id":76561198074681324,"connected_time":705000000000,"state":"active","ping":66},{"user_id":552,"name":"shoobs","steam_id":76561198042507255,"connected_time":777000000000,"state":"active","ping":85}]},{"server_id":36,"name":"Uncletopia | Chicago | 5 | All Maps","name_short":"chi-5","host":"chi-2.us.uncletopia.com","port":27015,"enabled":true,"region":"us-central","cc":"us","latitude":41.881832,"longitude":-87.62318,"reserved":0,"last_update":"0001-01-01T00:00:00Z","name_a2s":"Uncletopia | Chicago | 5 | All Maps","protocol":17,"map":"pl_swiftwater_final1","folder":"tf","game":"Team Fortress","app_id":440,"player_count":0,"max_players":24,"Bots":0,"server_type":"Dedicated","server_os":"Linux","password":true,"vac":true,"version":"7961495","steam_id":85568392924866362,"keywords":["nocrits","nodmgspread","payload","uncletopia"],"game_id":440,"stv_port":27016,"stv_name":"Uncletopia | Chicago | 5 | All Maps | STV","players":null},{"server_id":37,"name":"Uncletopia | Chicago | 6 | All Maps","name_short":"chi-6","host":"chi-2.us.uncletopia.com","port":27025,"enabled":true,"region":"us-central","cc":"us","latitude":41.881832,"longitude":-87.62318,"reserved":0,"last_update":"0001-01-01T00:00:00Z","name_a2s":"Uncletopia | Chicago | 6 | All Maps","protocol":17,"map":"pl_pier","folder":"tf","game":"Team Fortress","app_id":440,"player_count":19,"max_players":24,"Bots":0,"server_type":"Dedicated","server_os":"Linux","password":true,"vac":true,"version":"7961495","steam_id":85568392924866363,"keywords":["nocrits","nodmgspread","payload","uncletopia"],"game_id":440,"stv_port":27026,"stv_name":"Uncletopia | Chicago | 6 | All Maps | STV","players":[{"user_id":819,"name":"feed lips","steam_id":76561197971152439,"connected_time":1954000000000,"state":"active","ping":59},{"user_id":794,"name":"goblin?","steam_id":76561198007192438,"connected_time":4608000000000,"state":"active","ping":64},{"user_id":822,"name":"Rein","steam_id":76561198300340427,"connected_time":1524000000000,"state":"active","ping":61},{"user_id":808,"name":"DistantJragon","steam_id":76561198117563641,"connected_time":3052000000000,"state":"active","ping":38},{"user_id":790,"name":"AnnieM","steam_id":76561199435467297,"connected_time":4759000000000,"state":"active","ping":73},{"user_id":842,"name":"Person","steam_id":76561198093244204,"connected_time":310000000000,"state":"active","ping":73},{"user_id":840,"name":"Howard Hamlin","steam_id":76561198881039861,"connected_time":322000000000,"state":"active","ping":99},{"user_id":843,"name":"Baby Yae Extreme","steam_id":76561198983838790,"connected_time":101000000000,"state":"active","ping":84},{"user_id":844,"name":"4 Inches Away From My Wits End","steam_id":76561198055542546,"connected_time":77000000000,"state":"connecting","ping":0},{"user_id":776,"name":"Ryoko","steam_id":76561198084725087,"connected_time":5275000000000,"state":"active","ping":70},{"user_id":826,"name":"PillowOfBricks","steam_id":76561198111052116,"connected_time":1446000000000,"state":"active","ping":78},{"user_id":827,"name":"PirateJet","steam_id":76561198050858744,"connected_time":1417000000000,"state":"active","ping":111},{"user_id":810,"name":"Matthew Lewis MJ","steam_id":76561199014695287,"connected_time":2988000000000,"state":"active","ping":147},{"user_id":831,"name":"wise","steam_id":76561198030066204,"connected_time":1314000000000,"state":"active","ping":58},{"user_id":835,"name":"austinsmith","steam_id":76561198167838540,"connected_time":1038000000000,"state":"active","ping":86},{"user_id":796,"name":"Gram Tokers Count Doinkula","steam_id":76561198112811565,"connected_time":4400000000000,"state":"active","ping":74},{"user_id":836,"name":"Octovaitor","steam_id":76561198004658451,"connected_time":1028000000000,"state":"active","ping":60},{"user_id":839,"name":"9gon Danmar33","steam_id":76561198056453091,"connected_time":657000000000,"state":"active","ping":60},{"user_id":715,"name":"Hindmost","steam_id":76561199081837220,"connected_time":9177000000000,"state":"active","ping":82}]},{"server_id":38,"name":"Uncletopia | Chicago | 7 | Stopwatch","name_short":"chi-7","host":"chi-2.us.uncletopia.com","port":27035,"enabled":true,"region":"us-central","cc":"us","latitude":41.881832,"longitude":-87.62318,"reserved":0,"last_update":"0001-01-01T00:00:00Z","name_a2s":"Uncletopia | Chicago | 7 | Stopwatch","protocol":17,"map":"workshop/koth_ashville_final.ugc2130459942","folder":"tf","game":"Team Fortress","app_id":440,"player_count":0,"max_players":24,"Bots":0,"server_type":"Dedicated","server_os":"Linux","password":true,"vac":true,"version":"7961495","steam_id":85568392924866364,"keywords":["cp","nocrits","nodmgspread","uncletopia"],"game_id":440,"stv_port":27036,"stv_name":"Uncletopia | Chicago | 7 | Stopwatch | STV","players":null},{"server_id":39,"name":"Uncletopia | Chicago | 8 | Community","name_short":"chi-8","host":"chi-2.us.uncletopia.com","port":27045,"enabled":true,"region":"us-central","cc":"us","latitude":41.881832,"longitude":-87.62318,"reserved":0,"last_update":"0001-01-01T00:00:00Z","name_a2s":"Uncletopia | Chicago | 8 | Community","protocol":17,"map":"workshop/pl_cactuscanyon_redux_final2.ugc2579644293","folder":"tf","game":"Team Fortress","app_id":440,"player_count":24,"max_players":24,"Bots":0,"server_type":"Dedicated","server_os":"Linux","password":true,"vac":true,"version":"7961495","steam_id":85568392924866365,"keywords":["nocrits","nodmgspread","payload","uncletopia"],"game_id":440,"stv_port":27046,"stv_name":"Uncletopia | Chicago | 8 | Community | STV","players":[{"user_id":258,"name":"Deck Gaming","steam_id":76561198159579919,"connected_time":548000000000,"state":"active","ping":57},{"user_id":257,"name":"machineclone","steam_id":76561198076320219,"connected_time":594000000000,"state":"active","ping":141},{"user_id":197,"name":"Ace Chromatica","steam_id":76561198042211131,"connected_time":5268000000000,"state":"active","ping":62},{"user_id":192,"name":"Blehnder","steam_id":76561198172097526,"connected_time":5348000000000,"state":"active","ping":89},{"user_id":244,"name":"menta fresca","steam_id":76561198086666486,"connected_time":1369000000000,"state":"active","ping":109},{"user_id":239,"name":"he suckin on my rick til i mort","steam_id":76561198310711692,"connected_time":2153000000000,"state":"active","ping":174},{"user_id":246,"name":"Smosh Ian","steam_id":76561198018093835,"connected_time":1270000000000,"state":"active","ping":74},{"user_id":203,"name":"roddy ricch - ballin","steam_id":76561198111290441,"connected_time":4541000000000,"state":"active","ping":57},{"user_id":260,"name":"Sweatshirt","steam_id":76561198087631219,"connected_time":232000000000,"state":"active","ping":110},{"user_id":247,"name":"Tenzin Gyatso","steam_id":76561198258980884,"connected_time":1155000000000,"state":"active","ping":104},{"user_id":249,"name":"gravity bong","steam_id":76561198211062267,"connected_time":1007000000000,"state":"active","ping":62},{"user_id":216,"name":"Spy Muncher","steam_id":76561198348965524,"connected_time":4108000000000,"state":"active","ping":74},{"user_id":235,"name":"zpalmtree","steam_id":76561198134307620,"connected_time":2326000000000,"state":"active","ping":60},{"user_id":250,"name":"SN0W","steam_id":76561198153665468,"connected_time":971000000000,"state":"active","ping":65},{"user_id":162,"name":"❀Rami❀","steam_id":76561198993652475,"connected_time":8548000000000,"state":"active","ping":71},{"user_id":219,"name":"SuperEnderGuy","steam_id":76561198352732164,"connected_time":3992000000000,"state":"active","ping":113},{"user_id":251,"name":"The Trash Man","steam_id":76561198071375772,"connected_time":966000000000,"state":"active","ping":59},{"user_id":223,"name":"Dr. Marvello","steam_id":76561198107573800,"connected_time":3916000000000,"state":"active","ping":70},{"user_id":224,"name":"SilentFootba11","steam_id":76561199006570947,"connected_time":3854000000000,"state":"active","ping":71},{"user_id":225,"name":"IgnisGlasses","steam_id":76561198133064411,"connected_time":3850000000000,"state":"active","ping":55},{"user_id":252,"name":"portal robewrtson big fan","steam_id":76561198150428763,"connected_time":966000000000,"state":"active","ping":104},{"user_id":254,"name":"Based Hadrian","steam_id":76561197989062069,"connected_time":687000000000,"state":"active","ping":93},{"user_id":240,"name":"pyrotechnic","steam_id":76561198043558709,"connected_time":2058000000000,"state":"active","ping":91},{"user_id":232,"name":"I am a mooshroom","steam_id":76561198104198295,"connected_time":3383000000000,"state":"active","ping":91}]},{"server_id":8,"name":"Uncletopia | Dallas | 1 | All Maps","name_short":"dal-1","host":"dal-1.us.uncletopia.com","port":27015,"enabled":true,"region":"us-central","cc":"us","latitude":32.779167,"longitude":-96.80889,"reserved":0,"last_update":"0001-01-01T00:00:00Z","name_a2s":"Uncletopia | Dallas | 1 | All Maps","protocol":17,"map":"pl_hoodoo_final","folder":"tf","game":"Team Fortress","app_id":440,"player_count":23,"max_players":24,"Bots":0,"server_type":"Dedicated","server_os":"Linux","password":true,"vac":true,"version":"7961495","steam_id":85568392924469986,"keywords":["nocrits","nodmgspread","payload","uncletopia"],"game_id":440,"stv_port":27016,"stv_name":"Uncletopia | Dallas | 1 | All Maps | STV","players":[{"user_id":610,"name":"(TPT) Ghost","steam_id":76561198123262873,"connected_time":1092000000000,"state":"active","ping":95},{"user_id":614,"name":"rocketspires","steam_id":76561198800386026,"connected_time":456000000000,"state":"active","ping":108},{"user_id":549,"name":"Bcuz","steam_id":76561197981318027,"connected_time":5350000000000,"state":"active","ping":93},{"user_id":562,"name":"Jo","steam_id":76561198060447015,"connected_time":3850000000000,"state":"active","ping":76},{"user_id":616,"name":"5869","steam_id":76561198799616739,"connected_time":17000000000,"state":"active","ping":83},{"user_id":587,"name":"[S]Mr. X [No Monitor]","steam_id":76561197963746035,"connected_time":2659000000000,"state":"active","ping":121},{"user_id":591,"name":"mac_cheese","steam_id":76561198071334162,"connected_time":2350000000000,"state":"active","ping":105},{"user_id":553,"name":"Baby gaming","steam_id":76561198867319323,"connected_time":5001000000000,"state":"active","ping":89},{"user_id":524,"name":"THRONGLER","steam_id":76561198198563466,"connected_time":8229000000000,"state":"active","ping":41},{"user_id":550,"name":"Sweet Tooth","steam_id":76561198830158092,"connected_time":5162000000000,"state":"active","ping":88},{"user_id":592,"name":"Just Chuck","steam_id":76561198121697504,"connected_time":2346000000000,"state":"active","ping":75},{"user_id":612,"name":"werecat","steam_id":76561198005091213,"connected_time":970000000000,"state":"active","ping":79},{"user_id":589,"name":"Gwando","steam_id":76561198294629124,"connected_time":2584000000000,"state":"active","ping":52},{"user_id":605,"name":"AT✪MIC","steam_id":76561198100385184,"connected_time":1312000000000,"state":"active","ping":101},{"user_id":579,"name":"elyk37","steam_id":76561198124135253,"connected_time":3083000000000,"state":"active","ping":105},{"user_id":606,"name":"Wessle T","steam_id":76561198295353875,"connected_time":1306000000000,"state":"active","ping":97},{"user_id":582,"name":"Samrizo el Chorizo","steam_id":76561198009838162,"connected_time":3016000000000,"state":"active","ping":92},{"user_id":611,"name":"allahsdroptop","steam_id":76561198133195238,"connected_time":1090000000000,"state":"active","ping":100},{"user_id":593,"name":"Milk T34","steam_id":76561198116115227,"connected_time":2346000000000,"state":"active","ping":83},{"user_id":608,"name":"BitPieStudios","steam_id":76561198059216393,"connected_time":1249000000000,"state":"active","ping":90},{"user_id":604,"name":"Aesede","steam_id":76561198002024762,"connected_time":1504000000000,"state":"active","ping":127},{"user_id":613,"name":"J.C. Leyendenton","steam_id":76561198096306325,"connected_time":926000000000,"state":"active","ping":93},{"user_id":570,"name":"UNIT 220","steam_id":76561198042243497,"connected_time":3496000000000,"state":"active","ping":89}]},{"server_id":108,"name":"Uncletopia | Dallas | 2 | All Maps","name_short":"dal-2","host":"dal-1.us.uncletopia.com","port":27025,"enabled":true,"region":"us-central","cc":"us","latitude":32.779167,"longitude":-96.80889,"reserved":0,"last_update":"0001-01-01T00:00:00Z","name_a2s":"Uncletopia | Dallas | 2 | All Maps","protocol":17,"map":"plr_nightfall_final","folder":"tf","game":"Team Fortress","app_id":440,"player_count":19,"max_players":24,"Bots":0,"server_type":"Dedicated","server_os":"Linux","password":true,"vac":true,"version":"7961495","steam_id":85568392924469988,"keywords":["cp","nocrits","nodmgspread","uncletopia"],"game_id":440,"stv_port":27026,"stv_name":"Uncletopia | Dallas | 2 | All Maps | STV","players":[{"user_id":564,"name":"Killerfish360","steam_id":76561198115029584,"connected_time":2384000000000,"state":"connecting","ping":95},{"user_id":592,"name":"canine defecation","steam_id":76561198115656778,"connected_time":563000000000,"state":"connecting","ping":99},{"user_id":597,"name":"The Caretaker","steam_id":76561198125241411,"connected_time":117000000000,"state":"connecting","ping":124},{"user_id":531,"name":"Manic","steam_id":76561198128149670,"connected_time":4390000000000,"state":"connecting","ping":55},{"user_id":558,"name":"euphoricfilth","steam_id":76561198100160865,"connected_time":2899000000000,"state":"connecting","ping":89},{"user_id":593,"name":"Nez","steam_id":76561197963109059,"connected_time":395000000000,"state":"connecting","ping":77},{"user_id":583,"name":"+","steam_id":76561198262422184,"connected_time":1298000000000,"state":"connecting","ping":54},{"user_id":594,"name":"aphip","steam_id":76561198084621244,"connected_time":321000000000,"state":"connecting","ping":93},{"user_id":562,"name":"porz","steam_id":76561198195711453,"connected_time":2544000000000,"state":"connecting","ping":54},{"user_id":585,"name":"All 579 Hawaiians in Wyoming","steam_id":76561199361622525,"connected_time":1238000000000,"state":"connecting","ping":83},{"user_id":595,"name":"Sun_Su","steam_id":76561198158458879,"connected_time":302000000000,"state":"connecting","ping":103},{"user_id":588,"name":"Bigchungass","steam_id":76561198835394693,"connected_time":945000000000,"state":"connecting","ping":72},{"user_id":591,"name":"Mayan","steam_id":76561198087915957,"connected_time":631000000000,"state":"connecting","ping":91},{"user_id":577,"name":"dave","steam_id":76561198135961731,"connected_time":1917000000000,"state":"connecting","ping":59},{"user_id":581,"name":"frank","steam_id":76561198137777483,"connected_time":1719000000000,"state":"connecting","ping":110},{"user_id":576,"name":"aisu","steam_id":76561198043768507,"connected_time":2002000000000,"state":"connecting","ping":106},{"user_id":587,"name":"EvilPi99let","steam_id":76561197987243470,"connected_time":1014000000000,"state":"connecting","ping":94},{"user_id":589,"name":"2002 Toyota Corolla VE","steam_id":76561198149172070,"connected_time":746000000000,"state":"connecting","ping":61},{"user_id":586,"name":"shnowshner","steam_id":76561198066450438,"connected_time":1196000000000,"state":"connecting","ping":116}]},{"server_id":404,"name":"Uncletopia | Dallas | 3 | All Maps","name_short":"dal-3","host":"dal-1.us.uncletopia.com","port":27035,"enabled":true,"region":"us-central","cc":"us","latitude":32.779167,"longitude":-96.80889,"reserved":0,"last_update":"0001-01-01T00:00:00Z","name_a2s":"Uncletopia | Dallas | 3 | All Maps","protocol":17,"map":"pl_upward","folder":"tf","game":"Team Fortress","app_id":440,"player_count":2,"max_players":24,"Bots":0,"server_type":"Dedicated","server_os":"Linux","password":true,"vac":true,"version":"7961495","steam_id":85568392924515219,"keywords":["nocrits","nodmgspread","payload","uncletopia"],"game_id":440,"stv_port":27036,"stv_name":"Uncletopia | Dallas | 3 | All Maps | STV","players":[{"user_id":379,"name":"Medic!!!!!!!!!","steam_id":76561199392481372,"connected_time":933000000000,"state":"active","ping":86},{"user_id":334,"name":"Fermenting Kiwi","steam_id":76561198253303497,"connected_time":4931000000000,"state":"active","ping":61}]},{"server_id":405,"name":"Uncletopia | Dallas | 4 | Community","name_short":"dal-4","host":"dal-1.us.uncletopia.com","port":27045,"enabled":true,"region":"us-central","cc":"us","latitude":32.779167,"longitude":-96.80889,"reserved":0,"last_update":"0001-01-01T00:00:00Z","name_a2s":"Uncletopia | Dallas | 4 | Community","protocol":17,"map":"workshop/koth_product_final.ugc454272353","folder":"tf","game":"Team Fortress","app_id":440,"player_count":2,"max_players":24,"Bots":0,"server_type":"Dedicated","server_os":"Linux","password":true,"vac":true,"version":"7961495","steam_id":85568392924515220,"keywords":["cp","nocrits","nodmgspread","uncletopia"],"game_id":440,"stv_port":27046,"stv_name":"Uncletopia | Dallas | 4 | Community | STV","players":[{"user_id":96,"name":"Hypno_Kitty","steam_id":76561198978367946,"connected_time":4425000000000,"state":"active","ping":69},{"user_id":98,"name":"captainspatklz","steam_id":76561198432167270,"connected_time":4158000000000,"state":"active","ping":68}]},{"server_id":5,"name":"Uncletopia | Frankfurt | 1 | All Maps","name_short":"frk-1","host":"frk-1.de.uncletopia.com","port":27015,"enabled":true,"region":"eu","cc":"de","latitude":50.110924,"longitude":8.682127,"reserved":0,"last_update":"0001-01-01T00:00:00Z","name_a2s":"Uncletopia | Frankfurt | 1 | All Maps","protocol":17,"map":"koth_highpass","folder":"tf","game":"Team Fortress","app_id":440,"player_count":0,"max_players":24,"Bots":0,"server_type":"Dedicated","server_os":"Linux","password":true,"vac":true,"version":"7961495","steam_id":85568392924469989,"keywords":["cp","nocrits","nodmgspread","uncletopia"],"game_id":440,"stv_port":27016,"stv_name":"Uncletopia | Frankfurt | 1 | All Maps | STV","players":null},{"server_id":110,"name":"Uncletopia | Frankfurt | 2 | All Maps","name_short":"frk-2","host":"frk-1.de.uncletopia.com","port":27025,"enabled":true,"region":"eu","cc":"de","latitude":50.110924,"longitude":8.682127,"reserved":0,"last_update":"0001-01-01T00:00:00Z","name_a2s":"Uncletopia | Frankfurt | 2 | All Maps","protocol":17,"map":"pl_badwater","folder":"tf","game":"Team Fortress","app_id":440,"player_count":0,"max_players":24,"Bots":0,"server_type":"Dedicated","server_os":"Linux","password":true,"vac":true,"version":"7961495","steam_id":85568392924469990,"keywords":["nocrits","nodmgspread","payload","uncletopia"],"game_id":440,"stv_port":27026,"stv_name":"Uncletopia | Frankfurt | 2 | All Maps | STV","players":null},{"server_id":308,"name":"Uncletopia | Frankfurt | 3 | All Maps","name_short":"frk-3","host":"frk-1.de.uncletopia.com","port":27035,"enabled":true,"region":"eu","cc":"de","latitude":50.110924,"longitude":8.682127,"reserved":0,"last_update":"0001-01-01T00:00:00Z","name_a2s":"Uncletopia | Frankfurt | 3 | All Maps","protocol":17,"map":"pl_barnblitz","folder":"tf","game":"Team Fortress","app_id":440,"player_count":0,"max_players":24,"Bots":0,"server_type":"Dedicated","server_os":"Linux","password":true,"vac":true,"version":"7961495","steam_id":85568392924504274,"keywords":["nocrits","nodmgspread","payload","uncletopia"],"game_id":440,"stv_port":27036,"stv_name":"Uncletopia | Frankfurt | 3 | All Maps | STV","players":null},{"server_id":309,"name":"Uncletopia | Frankfurt | 4 | All Maps","name_short":"frk-4","host":"frk-1.de.uncletopia.com","port":27045,"enabled":true,"region":"eu","cc":"de","latitude":50.110924,"longitude":8.682127,"reserved":0,"last_update":"0001-01-01T00:00:00Z","name_a2s":"Uncletopia | Frankfurt | 4 | All Maps","protocol":17,"map":"koth_highpass","folder":"tf","game":"Team Fortress","app_id":440,"player_count":0,"max_players":24,"Bots":0,"server_type":"Dedicated","server_os":"Linux","password":true,"vac":true,"version":"7961495","steam_id":85568392924504275,"keywords":["cp","nocrits","nodmgspread","uncletopia"],"game_id":440,"stv_port":27046,"stv_name":"Uncletopia | Frankfurt | 4 | All Maps | STV","players":null},{"server_id":310,"name":"Uncletopia | Frankfurt | 5 | All Maps","name_short":"frk-5","host":"frk-1.de.uncletopia.com","port":27055,"enabled":true,"region":"eu","cc":"de","latitude":50.110924,"longitude":8.682127,"reserved":0,"last_update":"0001-01-01T00:00:00Z","name_a2s":"Uncletopia | Frankfurt | 5 | All Maps","protocol":17,"map":"pl_badwater","folder":"tf","game":"Team Fortress","app_id":440,"player_count":0,"max_players":24,"Bots":0,"server_type":"Dedicated","server_os":"Linux","password":true,"vac":true,"version":"7961495","steam_id":85568392924504277,"keywords":["nocrits","nodmgspread","payload","uncletopia"],"game_id":440,"stv_port":27056,"stv_name":"Uncletopia | Frankfurt | 5 | All Maps | STV","players":null},{"server_id":311,"name":"Uncletopia | Frankfurt | 6 | All Maps","name_short":"frk-6","host":"frk-1.de.uncletopia.com","port":27065,"enabled":true,"region":"eu","cc":"de","latitude":50.110924,"longitude":8.682127,"reserved":0,"last_update":"0001-01-01T00:00:00Z","name_a2s":"Uncletopia | Frankfurt | 6 | All Maps","protocol":17,"map":"cp_altitude","folder":"tf","game":"Team Fortress","app_id":440,"player_count":0,"max_players":24,"Bots":0,"server_type":"Dedicated","server_os":"Linux","password":true,"vac":true,"version":"7961495","steam_id":85568392924504278,"keywords":["cp","nocrits","nodmgspread","uncletopia"],"game_id":440,"stv_port":27066,"stv_name":"Uncletopia | Frankfurt | 6 | All Maps | STV","players":null},{"server_id":23,"name":"Uncletopia | Frankfurt | 7 | Stopwatch","name_short":"frk-7","host":"frk-1.de.uncletopia.com","port":27075,"enabled":true,"region":"eu","cc":"de","latitude":50.110924,"longitude":8.682127,"reserved":0,"last_update":"0001-01-01T00:00:00Z","name_a2s":"Uncletopia | Frankfurt | 7 | Stopwatch","protocol":17,"map":"pl_frontier_final","folder":"tf","game":"Team Fortress","app_id":440,"player_count":0,"max_players":24,"Bots":0,"server_type":"Dedicated","server_os":"Linux","password":true,"vac":true,"version":"7961495","steam_id":85568392924742827,"keywords":["nocrits","nodmgspread","payload","uncletopia"],"game_id":440,"stv_port":27076,"stv_name":"Uncletopia | Frankfurt | 7 | Stopwatch | STV","players":null},{"server_id":24,"name":"Uncletopia | Frankfurt | 8 | Community","name_short":"frk-8","host":"frk-1.de.uncletopia.com","port":27085,"enabled":true,"region":"eu","cc":"de","latitude":50.110924,"longitude":8.682127,"reserved":0,"last_update":"0001-01-01T00:00:00Z","name_a2s":"Uncletopia | Frankfurt | 8 | Community","protocol":17,"map":"cp_mountainlab","folder":"tf","game":"Team Fortress","app_id":440,"player_count":0,"max_players":24,"Bots":0,"server_type":"Dedicated","server_os":"Linux","password":true,"vac":true,"version":"7961495","steam_id":85568392924742828,"keywords":["cp","nocrits","nodmgspread","uncletopia"],"game_id":440,"stv_port":27086,"stv_name":"Uncletopia | Frankfurt | 8 | Community | STV","players":null},{"server_id":202,"name":"Uncletopia | Hong Kong | 1 | All Maps","name_short":"hgk-1","host":"hgk-1.hk.uncletopia.com","port":27015,"enabled":true,"region":"asia","cc":"hk","latitude":22.302711,"longitude":114.177216,"reserved":0,"last_update":"0001-01-01T00:00:00Z","name_a2s":"Uncletopia | Hong Kong | 1 | All Maps","protocol":17,"map":"koth_harvest_final","folder":"tf","game":"Team Fortress","app_id":440,"player_count":0,"max_players":24,"Bots":0,"server_type":"Dedicated","server_os":"Linux","password":true,"vac":true,"version":"7961495","steam_id":85568392924494504,"keywords":["cp","nocrits","nodmgspread","uncletopia"],"game_id":440,"stv_port":27016,"stv_name":"Uncletopia | Hong Kong | 1 | All Maps | STV","players":null},{"server_id":1,"name":"Uncletopia | Los Angeles | 1 | All Maps","name_short":"lax-1","host":"lax-1.us.uncletopia.com","port":27015,"enabled":true,"region":"us-west","cc":"us","latitude":33.94279,"longitude":-118.41004,"reserved":0,"last_update":"0001-01-01T00:00:00Z","name_a2s":"Uncletopia | Los Angeles | 1 | All Maps","protocol":17,"map":"pl_barnblitz","folder":"tf","game":"Team Fortress","app_id":440,"player_count":24,"max_players":24,"Bots":0,"server_type":"Dedicated","server_os":"Linux","password":true,"vac":true,"version":"7961495","steam_id":85568392924469991,"keywords":["nocrits","nodmgspread","payload","uncletopia"],"game_id":440,"stv_port":27016,"stv_name":"Uncletopia | Los Angeles | 1 | All Maps | STV","players":[{"user_id":345,"name":"Legokek.Ducc","steam_id":76561198077176221,"connected_time":1006000000000,"state":"active","ping":45},{"user_id":299,"name":"exx","steam_id":76561198090552145,"connected_time":4672000000000,"state":"active","ping":48},{"user_id":318,"name":"Stupid dumb orange idiot","steam_id":76561198046266326,"connected_time":2419000000000,"state":"active","ping":52},{"user_id":353,"name":"awesome","steam_id":76561198338739253,"connected_time":617000000000,"state":"active","ping":54},{"user_id":359,"name":"Meso","steam_id":76561199088153190,"connected_time":5000000000,"state":"spawning","ping":94},{"user_id":342,"name":"FI LO","steam_id":76561198976530881,"connected_time":1354000000000,"state":"active","ping":43},{"user_id":337,"name":"Man boobs","steam_id":76561198254816291,"connected_time":1534000000000,"state":"active","ping":62},{"user_id":338,"name":"R0KKSTAR","steam_id":76561198206177593,"connected_time":1527000000000,"state":"active","ping":45},{"user_id":331,"name":"Human Resources Manager","steam_id":76561198066386411,"connected_time":1725000000000,"state":"active","ping":65},{"user_id":356,"name":"Gerbias","steam_id":76561198001002427,"connected_time":517000000000,"state":"active","ping":66},{"user_id":311,"name":"Looge","steam_id":76561198155483586,"connected_time":2773000000000,"state":"active","ping":98},{"user_id":312,"name":"Mr. Noodle","steam_id":76561198025280658,"connected_time":2601000000000,"state":"active","ping":59},{"user_id":334,"name":"Dirtbomb","steam_id":76561198002403301,"connected_time":1596000000000,"state":"active","ping":75},{"user_id":354,"name":"Harven Cosset","steam_id":76561198399526024,"connected_time":613000000000,"state":"active","ping":125},{"user_id":305,"name":"Jest","steam_id":76561198170173062,"connected_time":3855000000000,"state":"active","ping":57},{"user_id":344,"name":"Wiggs is the Shiggs","steam_id":76561198078379719,"connected_time":1234000000000,"state":"active","ping":63},{"user_id":320,"name":"Shook","steam_id":76561198054064995,"connected_time":2355000000000,"state":"active","ping":106},{"user_id":349,"name":"birds","steam_id":76561198131531646,"connected_time":789000000000,"state":"active","ping":118},{"user_id":357,"name":"Infentdegree211","steam_id":76561198385234127,"connected_time":347000000000,"state":"active","ping":55},{"user_id":321,"name":"John16Mark","steam_id":76561198119445407,"connected_time":2348000000000,"state":"active","ping":97},{"user_id":355,"name":"buhn","steam_id":76561198106117196,"connected_time":613000000000,"state":"active","ping":55},{"user_id":259,"name":"Duckpin","steam_id":76561198147503700,"connected_time":9083000000000,"state":"active","ping":55},{"user_id":263,"name":"cool beans","steam_id":76561198045758072,"connected_time":8809000000000,"state":"active","ping":56},{"user_id":303,"name":"FROYO b4nny","steam_id":76561197970669109,"connected_time":4063000000000,"state":"active","ping":46}]},{"server_id":112,"name":"Uncletopia | Los Angeles | 2 | All Maps","name_short":"lax-2","host":"lax-1.us.uncletopia.com","port":27025,"enabled":true,"region":"us-west","cc":"us","latitude":33.94279,"longitude":-118.41004,"reserved":0,"last_update":"0001-01-01T00:00:00Z","name_a2s":"Uncletopia | Los Angeles | 2 | All Maps","protocol":17,"map":"cp_dustbowl","folder":"tf","game":"Team Fortress","app_id":440,"player_count":23,"max_players":24,"Bots":0,"server_type":"Dedicated","server_os":"Linux","password":true,"vac":true,"version":"7961495","steam_id":85568392924469992,"keywords":["cp","nocrits","nodmgspread","uncletopia"],"game_id":440,"stv_port":27026,"stv_name":"Uncletopia | Los Angeles | 2 | All Maps | STV","players":[{"user_id":460,"name":"The 654 Pound Man","steam_id":76561198164279539,"connected_time":352000000000,"state":"active","ping":74},{"user_id":461,"name":"Mr. Enforce","steam_id":76561198362168020,"connected_time":322000000000,"state":"active","ping":99},{"user_id":462,"name":"An00bis","steam_id":76561198044084508,"connected_time":314000000000,"state":"active","ping":82},{"user_id":463,"name":"blue of days","steam_id":76561199113013688,"connected_time":265000000000,"state":"active","ping":45},{"user_id":464,"name":"Hector Salamanca","steam_id":76561199103213955,"connected_time":265000000000,"state":"active","ping":67},{"user_id":448,"name":"Monkey","steam_id":76561198155272972,"connected_time":1154000000000,"state":"active","ping":104},{"user_id":465,"name":"BL00DFUCKER1","steam_id":76561198085036623,"connected_time":248000000000,"state":"active","ping":117},{"user_id":456,"name":"Schully__ - New Vid Out","steam_id":76561198041329791,"connected_time":588000000000,"state":"active","ping":46},{"user_id":467,"name":"DragonJimmy","steam_id":76561198272966565,"connected_time":181000000000,"state":"active","ping":80},{"user_id":395,"name":"sobaka","steam_id":76561198116008934,"connected_time":6651000000000,"state":"active","ping":62},{"user_id":425,"name":"Buswolley","steam_id":76561197995205571,"connected_time":3315000000000,"state":"active","ping":60},{"user_id":459,"name":"potaddiction24","steam_id":76561198197643703,"connected_time":494000000000,"state":"active","ping":72},{"user_id":436,"name":"Fujiwara no Mokou","steam_id":76561198063315650,"connected_time":2666000000000,"state":"active","ping":33},{"user_id":443,"name":"Skribbles","steam_id":76561198373073766,"connected_time":1816000000000,"state":"active","ping":60},{"user_id":438,"name":"ttv/californjoe","steam_id":76561197965047795,"connected_time":2652000000000,"state":"active","ping":55},{"user_id":458,"name":"killer fly","steam_id":76561198846480611,"connected_time":559000000000,"state":"active","ping":75},{"user_id":450,"name":"Galactamarx","steam_id":76561198028065755,"connected_time":1122000000000,"state":"active","ping":99},{"user_id":469,"name":"bladee","steam_id":76561198162688146,"connected_time":156000000000,"state":"active","ping":61},{"user_id":470,"name":"TwoForFlinching","steam_id":76561198073814209,"connected_time":121000000000,"state":"active","ping":101},{"user_id":471,"name":"TheNixedOne","steam_id":76561198119167278,"connected_time":91000000000,"state":"active","ping":119},{"user_id":472,"name":"shoes","steam_id":76561198044104086,"connected_time":75000000000,"state":"active","ping":78},{"user_id":473,"name":"Pidgeon","steam_id":76561198024773331,"connected_time":53000000000,"state":"active","ping":47},{"user_id":474,"name":"lime creator","steam_id":76561198074047574,"connected_time":27000000000,"state":"active","ping":71}]},{"server_id":324,"name":"Uncletopia | Los Angeles | 3 | All Maps","name_short":"lax-3","host":"lax-1.us.uncletopia.com","port":27035,"enabled":true,"region":"us-west","cc":"us","latitude":33.94279,"longitude":-118.41004,"reserved":0,"last_update":"0001-01-01T00:00:00Z","name_a2s":"Uncletopia | Los Angeles | 3 | All Maps","protocol":17,"map":"pl_badwater","folder":"tf","game":"Team Fortress","app_id":440,"player_count":0,"max_players":24,"Bots":0,"server_type":"Dedicated","server_os":"Linux","password":true,"vac":true,"version":"7961495","steam_id":85568392924510198,"keywords":["nocrits","nodmgspread","payload","uncletopia"],"game_id":440,"stv_port":27036,"stv_name":"Uncletopia | Los Angeles | 3 | All Maps | STV","players":null},{"server_id":25,"name":"Uncletopia | Los Angeles | 4 | Stopwatch","name_short":"lax-4","host":"lax-1.us.uncletopia.com","port":27045,"enabled":true,"region":"us-west","cc":"us","latitude":33.94279,"longitude":-118.41004,"reserved":0,"last_update":"0001-01-01T00:00:00Z","name_a2s":"Uncletopia | Los Angeles | 4 | Stopwatch","protocol":17,"map":"workshop/koth_ramjam_rc1.ugc459778887","folder":"tf","game":"Team Fortress","app_id":440,"player_count":0,"max_players":24,"Bots":0,"server_type":"Dedicated","server_os":"Linux","password":true,"vac":true,"version":"7961495","steam_id":85568392924510199,"keywords":["cp","nocrits","nodmgspread","uncletopia"],"game_id":440,"stv_port":27046,"stv_name":"Uncletopia | Los Angeles | 4 | Stopwatch | STV","players":null},{"server_id":11,"name":"Uncletopia | London | 1 | All Maps","name_short":"lon-1","host":"lon-1.uk.uncletopia.com","port":27015,"enabled":true,"region":"eu","cc":"gb","latitude":51.509865,"longitude":-0.118092,"reserved":0,"last_update":"0001-01-01T00:00:00Z","name_a2s":"Uncletopia | London | 1 | All Maps","protocol":17,"map":"pl_frontier_final","folder":"tf","game":"Team Fortress","app_id":440,"player_count":23,"max_players":24,"Bots":0,"server_type":"Dedicated","server_os":"Linux","password":true,"vac":true,"version":"7961495","steam_id":85568392924367362,"keywords":["nocrits","nodmgspread","payload","uncletopia"],"game_id":440,"stv_port":27016,"stv_name":"Uncletopia | London | 1 | All Maps | STV","players":[{"user_id":3,"name":"CHELOVEK_YAYCA","steam_id":76561198165428648,"connected_time":1824000000000,"state":"active","ping":133},{"user_id":4,"name":"murderwow","steam_id":76561198024566944,"connected_time":1824000000000,"state":"active","ping":109},{"user_id":36,"name":"Cesar","steam_id":76561199230635041,"connected_time":103000000000,"state":"active","ping":54},{"user_id":6,"name":"lagzer","steam_id":76561198029295449,"connected_time":1809000000000,"state":"active","ping":80},{"user_id":7,"name":"SmolJak","steam_id":76561199057045168,"connected_time":1797000000000,"state":"active","ping":58},{"user_id":37,"name":"abc","steam_id":76561198930125456,"connected_time":100000000000,"state":"active","ping":88},{"user_id":38,"name":"Xanics","steam_id":76561198187813929,"connected_time":91000000000,"state":"active","ping":70},{"user_id":10,"name":"grey","steam_id":76561199019327761,"connected_time":1792000000000,"state":"active","ping":114},{"user_id":11,"name":"king k rool","steam_id":76561199179040672,"connected_time":1792000000000,"state":"active","ping":51},{"user_id":29,"name":"ASDFASDFASDFASDF","steam_id":76561198078601337,"connected_time":728000000000,"state":"active","ping":106},{"user_id":39,"name":"yodel","steam_id":76561198138777659,"connected_time":88000000000,"state":"active","ping":56},{"user_id":40,"name":"rotanpuolikas","steam_id":76561198142598884,"connected_time":72000000000,"state":"active","ping":76},{"user_id":26,"name":"㋡ BLIND DEATH ㋡","steam_id":76561198965998351,"connected_time":1025000000000,"state":"active","ping":99},{"user_id":17,"name":"Darim","steam_id":76561198097062529,"connected_time":1756000000000,"state":"active","ping":131},{"user_id":18,"name":"Turbo","steam_id":76561197973697756,"connected_time":1753000000000,"state":"active","ping":45},{"user_id":20,"name":"Squash Banana","steam_id":76561198055480280,"connected_time":1406000000000,"state":"active","ping":99},{"user_id":21,"name":"nelom lulp","steam_id":76561198998684199,"connected_time":1396000000000,"state":"active","ping":158},{"user_id":30,"name":"Gutsu_PRO","steam_id":76561198253321253,"connected_time":683000000000,"state":"active","ping":104},{"user_id":31,"name":"Enjoyer","steam_id":76561198147399855,"connected_time":647000000000,"state":"active","ping":130},{"user_id":32,"name":"vivid","steam_id":76561198346546144,"connected_time":636000000000,"state":"active","ping":49},{"user_id":33,"name":"Jmciano24","steam_id":76561198050723212,"connected_time":579000000000,"state":"active","ping":114},{"user_id":34,"name":"Zor","steam_id":76561198009851383,"connected_time":530000000000,"state":"active","ping":66},{"user_id":35,"name":"lilac brooch...","steam_id":76561198333718916,"connected_time":509000000000,"state":"active","ping":148}]},{"server_id":114,"name":"Uncletopia | London | 2 | All Maps","name_short":"lon-2","host":"lon-1.uk.uncletopia.com","port":27025,"enabled":true,"region":"eu","cc":"gb","latitude":51.509865,"longitude":-0.118092,"reserved":0,"last_update":"0001-01-01T00:00:00Z","name_a2s":"Uncletopia | London | 2 | All Maps","protocol":17,"map":"koth_lakeside_final","folder":"tf","game":"Team Fortress","app_id":440,"player_count":0,"max_players":24,"Bots":0,"server_type":"Dedicated","server_os":"Linux","password":true,"vac":true,"version":"7961495","steam_id":85568392924470941,"keywords":["cp","nocrits","nodmgspread","uncletopia"],"game_id":440,"stv_port":27026,"stv_name":"Uncletopia | London | 2 | All Maps | STV","players":null},{"server_id":320,"name":"Uncletopia | London | 3 | All Maps","name_short":"lon-3","host":"lon-1.uk.uncletopia.com","port":27035,"enabled":true,"region":"eu","cc":"gb","latitude":51.509865,"longitude":-0.118092,"reserved":0,"last_update":"0001-01-01T00:00:00Z","name_a2s":"Uncletopia | London | 3 | All Maps","protocol":17,"map":"cp_process_final","folder":"tf","game":"Team Fortress","app_id":440,"player_count":0,"max_players":24,"Bots":0,"server_type":"Dedicated","server_os":"Linux","password":true,"vac":true,"version":"7961495","steam_id":85568392924510192,"keywords":["cp","nocrits","nodmgspread","uncletopia"],"game_id":440,"stv_port":27036,"stv_name":"Uncletopia | London | 3 | All Maps | STV","players":null},{"server_id":321,"name":"Uncletopia | London | 4 | All Maps","name_short":"lon-4","host":"lon-1.uk.uncletopia.com","port":27045,"enabled":true,"region":"eu","cc":"gb","latitude":51.509865,"longitude":-0.118092,"reserved":0,"last_update":"0001-01-01T00:00:00Z","name_a2s":"Uncletopia | London | 4 | All Maps","protocol":17,"map":"koth_cascade","folder":"tf","game":"Team Fortress","app_id":440,"player_count":0,"max_players":24,"Bots":0,"server_type":"Dedicated","server_os":"Linux","password":true,"vac":true,"version":"7961495","steam_id":85568392924510193,"keywords":["cp","nocrits","nodmgspread","uncletopia"],"game_id":440,"stv_port":27046,"stv_name":"Uncletopia | London | 4 | All Maps | STV","players":null},{"server_id":21,"name":"Uncletopia | London | 5 | All Maps","name_short":"lon-5","host":"lon-1.uk.uncletopia.com","port":27055,"enabled":true,"region":"eu","cc":"gb","latitude":51.509865,"longitude":-0.118092,"reserved":0,"last_update":"0001-01-01T00:00:00Z","name_a2s":"Uncletopia | London | 5 | All Maps","protocol":17,"map":"koth_lakeside_final","folder":"tf","game":"Team Fortress","app_id":440,"player_count":0,"max_players":24,"Bots":0,"server_type":"Dedicated","server_os":"Linux","password":true,"vac":true,"version":"7961495","steam_id":85568392924742829,"keywords":["cp","nocrits","nodmgspread","uncletopia"],"game_id":440,"stv_port":27056,"stv_name":"Uncletopia | London | 5 | All Maps | STV","players":null},{"server_id":22,"name":"Uncletopia | London | 6 | All Maps","name_short":"lon-6","host":"lon-1.uk.uncletopia.com","port":27065,"enabled":true,"region":"eu","cc":"gb","latitude":51.509865,"longitude":-0.118092,"reserved":0,"last_update":"0001-01-01T00:00:00Z","name_a2s":"Uncletopia | London | 6 | All Maps","protocol":17,"map":"cp_dustbowl","folder":"tf","game":"Team Fortress","app_id":440,"player_count":0,"max_players":24,"Bots":0,"server_type":"Dedicated","server_os":"Linux","password":true,"vac":true,"version":"7961495","steam_id":85568392924742830,"keywords":["cp","nocrits","nodmgspread","uncletopia"],"game_id":440,"stv_port":27066,"stv_name":"Uncletopia | London | 6 | All Maps | STV","players":null},{"server_id":40,"name":"Uncletopia | London | 7 | Stopwatch","name_short":"lon-7","host":"lon-1.uk.uncletopia.com","port":27075,"enabled":true,"region":"eu","cc":"gb","latitude":51.509865,"longitude":-0.118092,"reserved":0,"last_update":"0001-01-01T00:00:00Z","name_a2s":"Uncletopia | London | 7 | Stopwatch","protocol":17,"map":"koth_lakeside_final","folder":"tf","game":"Team Fortress","app_id":440,"player_count":0,"max_players":24,"Bots":0,"server_type":"Dedicated","server_os":"Linux","password":true,"vac":true,"version":"7961495","steam_id":85568392924964314,"keywords":["cp","nocrits","nodmgspread","uncletopia"],"game_id":440,"stv_port":27076,"stv_name":"Uncletopia | London | 7 | Stopwatch | STV","players":null},{"server_id":41,"name":"Uncletopia | London | 8 | Community","name_short":"lon-8","host":"lon-1.uk.uncletopia.com","port":27085,"enabled":true,"region":"eu","cc":"gb","latitude":51.509865,"longitude":-0.118092,"reserved":0,"last_update":"0001-01-01T00:00:00Z","name_a2s":"Uncletopia | London | 8 | Community","protocol":17,"map":"cp_snakewater_final1","folder":"tf","game":"Team Fortress","app_id":440,"player_count":0,"max_players":24,"Bots":0,"server_type":"Dedicated","server_os":"Linux","password":true,"vac":true,"version":"7961495","steam_id":85568392924964315,"keywords":["cp","nocrits","nodmgspread","uncletopia"],"game_id":440,"stv_port":27086,"stv_name":"Uncletopia | London | 8 | Community | STV","players":null},{"server_id":300,"name":"Uncletopia | Montréal | 1 | One Thousand Uncles","name_short":"mtl-1","host":"mtl-1.ca.uncletopia.com","port":27015,"enabled":true,"region":"us-east","cc":"ca","latitude":45.50889,"longitude":-73.56167,"reserved":0,"last_update":"0001-01-01T00:00:00Z","name_a2s":"","protocol":0,"map":"","folder":"","game":"","app_id":0,"player_count":0,"max_players":0,"Bots":0,"server_type":"","server_os":"","password":false,"vac":false,"version":"","steam_id":0,"keywords":null,"game_id":0,"stv_port":0,"stv_name":"","players":null},{"server_id":301,"name":"Uncletopia | Montréal | 2 | One Thousand Uncles","name_short":"mtl-2","host":"mtl-1.ca.uncletopia.com","port":27025,"enabled":true,"region":"us-east","cc":"ca","latitude":45.50889,"longitude":-73.56167,"reserved":0,"last_update":"0001-01-01T00:00:00Z","name_a2s":"","protocol":0,"map":"","folder":"","game":"","app_id":0,"player_count":0,"max_players":0,"Bots":0,"server_type":"","server_os":"","password":false,"vac":false,"version":"","steam_id":0,"keywords":null,"game_id":0,"stv_port":0,"stv_name":"","players":null},{"server_id":302,"name":"Uncletopia | Montréal | 3 | One Thousand Uncles","name_short":"mtl-3","host":"mtl-1.ca.uncletopia.com","port":27035,"enabled":true,"region":"us-east","cc":"ca","latitude":45.50889,"longitude":-73.56167,"reserved":0,"last_update":"0001-01-01T00:00:00Z","name_a2s":"","protocol":0,"map":"","folder":"","game":"","app_id":0,"player_count":0,"max_players":0,"Bots":0,"server_type":"","server_os":"","password":false,"vac":false,"version":"","steam_id":0,"keywords":null,"game_id":0,"stv_port":0,"stv_name":"","players":null},{"server_id":13,"name":"Uncletopia | New York City | 1 | All Maps","name_short":"nyc-1","host":"nyc-1.us.uncletopia.com","port":27015,"enabled":true,"region":"us-east","cc":"us","latitude":40.73061,"longitude":-73.93524,"reserved":0,"last_update":"0001-01-01T00:00:00Z","name_a2s":"Uncletopia | New York City | 1 | All Maps","protocol":17,"map":"ctf_sawmill","folder":"tf","game":"Team Fortress","app_id":440,"player_count":18,"max_players":24,"Bots":0,"server_type":"Dedicated","server_os":"Linux","password":true,"vac":true,"version":"7961495","steam_id":85568392924469993,"keywords":["ctf","nocrits","nodmgspread","uncletopia"],"game_id":440,"stv_port":27016,"stv_name":"Uncletopia | New York City | 1 | All Maps | STV","players":[{"user_id":597,"name":"Average tf2 enjoyer","steam_id":76561198846293277,"connected_time":142000000000,"state":"active","ping":72},{"user_id":598,"name":"Bigman","steam_id":76561198079891923,"connected_time":70000000000,"state":"active","ping":76},{"user_id":554,"name":"Isilawuli","steam_id":76561198084150503,"connected_time":3441000000000,"state":"active","ping":39},{"user_id":579,"name":"||:♩♩♩♪:|| Opplydead","steam_id":76561198028630334,"connected_time":1576000000000,"state":"active","ping":105},{"user_id":555,"name":"KnightMan","steam_id":76561198143531192,"connected_time":3417000000000,"state":"active","ping":84},{"user_id":581,"name":"jacking off","steam_id":76561198083497855,"connected_time":1346000000000,"state":"active","ping":73},{"user_id":580,"name":"Antwan","steam_id":76561198246200638,"connected_time":1535000000000,"state":"active","ping":75},{"user_id":517,"name":"ndvr","steam_id":76561199379200102,"connected_time":5294000000000,"state":"active","ping":43},{"user_id":596,"name":"Tycitron","steam_id":76561198120425074,"connected_time":175000000000,"state":"active","ping":66},{"user_id":571,"name":"Dr.CandyCane","steam_id":76561199238207915,"connected_time":2217000000000,"state":"active","ping":159},{"user_id":582,"name":"☤Medic Jesus†","steam_id":76561197967470975,"connected_time":1227000000000,"state":"active","ping":76},{"user_id":590,"name":"Happytoe","steam_id":76561198001295503,"connected_time":835000000000,"state":"active","ping":117},{"user_id":591,"name":"Grazzunk","steam_id":76561198290227691,"connected_time":675000000000,"state":"active","ping":44},{"user_id":595,"name":"Top Quacker","steam_id":76561198261316128,"connected_time":255000000000,"state":"active","ping":45},{"user_id":465,"name":"Gentoo Linux Gaming","steam_id":76561197999657118,"connected_time":9151000000000,"state":"active","ping":65},{"user_id":587,"name":"Boneless Avocado","steam_id":76561198973292169,"connected_time":1074000000000,"state":"active","ping":134},{"user_id":588,"name":"pipebombrater","steam_id":76561199029030831,"connected_time":1034000000000,"state":"active","ping":62},{"user_id":543,"name":"Ashton","steam_id":76561198300590302,"connected_time":4200000000000,"state":"active","ping":72}]},{"server_id":14,"name":"Uncletopia | New York City | 2 | All Maps","name_short":"nyc-2","host":"nyc-1.us.uncletopia.com","port":27025,"enabled":true,"region":"us-east","cc":"us","latitude":40.73061,"longitude":-73.93524,"reserved":0,"last_update":"0001-01-01T00:00:00Z","name_a2s":"Uncletopia | New York City | 2 | All Maps","protocol":17,"map":"pl_badwater","folder":"tf","game":"Team Fortress","app_id":440,"player_count":1,"max_players":24,"Bots":0,"server_type":"Dedicated","server_os":"Linux","password":true,"vac":true,"version":"7961495","steam_id":85568392924469994,"keywords":["nocrits","nodmgspread","payload","uncletopia"],"game_id":440,"stv_port":27026,"stv_name":"Uncletopia | New York City | 2 | All Maps | STV","players":[{"user_id":404,"name":"Cunt Force Trauma","steam_id":76561198086121413,"connected_time":38000000000,"state":"active","ping":39}]},{"server_id":15,"name":"Uncletopia | New York City | 3 | Stopwatch","name_short":"nyc-3","host":"nyc-1.us.uncletopia.com","port":27035,"enabled":true,"region":"us-east","cc":"us","latitude":40.73061,"longitude":-73.93524,"reserved":0,"last_update":"0001-01-01T00:00:00Z","name_a2s":"Uncletopia | New York City | 3 | Stopwatch","protocol":17,"map":"workshop/cp_process_f12.ugc2302948105","folder":"tf","game":"Team Fortress","app_id":440,"player_count":0,"max_players":24,"Bots":0,"server_type":"Dedicated","server_os":"Linux","password":true,"vac":true,"version":"7961495","steam_id":85568392924742820,"keywords":["cp","nocrits","nodmgspread","uncletopia"],"game_id":440,"stv_port":27036,"stv_name":"Uncletopia | New York City | 3 | Stopwatch | STV","players":null},{"server_id":16,"name":"Uncletopia | New York City | 4 | Community","name_short":"nyc-4","host":"nyc-1.us.uncletopia.com","port":27045,"enabled":true,"region":"us-east","cc":"us","latitude":40.73061,"longitude":-73.93524,"reserved":0,"last_update":"0001-01-01T00:00:00Z","name_a2s":"Uncletopia | New York City | 4 | Community","protocol":17,"map":"workshop/koth_product_final.ugc454272353","folder":"tf","game":"Team Fortress","app_id":440,"player_count":0,"max_players":24,"Bots":0,"server_type":"Dedicated","server_os":"Linux","password":true,"vac":true,"version":"7961495","steam_id":85568392924742821,"keywords":["cp","nocrits","nodmgspread","uncletopia"],"game_id":440,"stv_port":27046,"stv_name":"Uncletopia | New York City | 4 | Community | STV","players":null},{"server_id":142,"name":"Uncletopia | São Paulo | 1 | All Maps","name_short":"sao-1","host":"sao-1.br.uncletopia.com","port":27015,"enabled":true,"region":"sa","cc":"br","latitude":-23.533773,"longitude":-46.62529,"reserved":0,"last_update":"0001-01-01T00:00:00Z","name_a2s":"Uncletopia | São Paulo | 1 | All Maps","protocol":17,"map":"koth_viaduct","folder":"tf","game":"Team Fortress","app_id":440,"player_count":0,"max_players":24,"Bots":0,"server_type":"Dedicated","server_os":"Linux","password":true,"vac":true,"version":"7961495","steam_id":85568392924469996,"keywords":["cp","nocrits","nodmgspread","uncletopia"],"game_id":440,"stv_port":27016,"stv_name":"Uncletopia | São Paulo | 1 | All Maps | STV","players":null},{"server_id":143,"name":"Uncletopia | São Paulo | 2 | Community","name_short":"sao-2","host":"sao-2.br.uncletopia.com","port":27015,"enabled":true,"region":"sa","cc":"br","latitude":-23.533773,"longitude":-46.62529,"reserved":0,"last_update":"0001-01-01T00:00:00Z","name_a2s":"Uncletopia | São Paulo | 2 | Community","protocol":17,"map":"workshop/koth_product_final.ugc454272353","folder":"tf","game":"Team Fortress","app_id":440,"player_count":0,"max_players":24,"Bots":0,"server_type":"Dedicated","server_os":"Linux","password":true,"vac":true,"version":"7961495","steam_id":85568392924485349,"keywords":["cp","nocrits","nodmgspread","uncletopia"],"game_id":440,"stv_port":27016,"stv_name":"Uncletopia | São Paulo | 2 | Community | STV","players":null},{"server_id":7,"name":"Uncletopia | Seattle | 1 | All Maps","name_short":"sea-1","host":"sea-1.us.uncletopia.com","port":27015,"enabled":true,"region":"us-west","cc":"us","latitude":47.608013,"longitude":-122.33517,"reserved":0,"last_update":"0001-01-01T00:00:00Z","name_a2s":"Uncletopia | Seattle | 1 | All Maps","protocol":17,"map":"pl_borneo","folder":"tf","game":"Team Fortress","app_id":440,"player_count":25,"max_players":24,"Bots":0,"server_type":"Dedicated","server_os":"Linux","password":true,"vac":true,"version":"7961495","steam_id":85568392924469997,"keywords":["nocrits","nodmgspread","payload","uncletopia"],"game_id":440,"stv_port":27016,"stv_name":"Uncletopia | Seattle | 1 | All Maps | STV","players":[{"user_id":606,"name":"Juuichi11","steam_id":76561198141955085,"connected_time":8234000000000,"state":"active","ping":46},{"user_id":690,"name":"[I.R.I.S]","steam_id":76561199247095754,"connected_time":404000000000,"state":"active","ping":59},{"user_id":677,"name":"fungi","steam_id":76561198169755734,"connected_time":1715000000000,"state":"active","ping":64},{"user_id":653,"name":"NEBULA","steam_id":76561198086878595,"connected_time":4837000000000,"state":"active","ping":71},{"user_id":668,"name":"mmmBoyo","steam_id":76561198821360261,"connected_time":2873000000000,"state":"active","ping":34},{"user_id":681,"name":"Lord Hater","steam_id":76561199158148782,"connected_time":1259000000000,"state":"active","ping":61},{"user_id":670,"name":"Lily Thorn","steam_id":76561198305488625,"connected_time":2718000000000,"state":"active","ping":58},{"user_id":630,"name":"lavender","steam_id":76561199069518286,"connected_time":6082000000000,"state":"active","ping":75},{"user_id":679,"name":"onionman0106","steam_id":76561199067766868,"connected_time":1292000000000,"state":"active","ping":56},{"user_id":648,"name":"Daz","steam_id":76561198041431938,"connected_time":5135000000000,"state":"active","ping":52},{"user_id":686,"name":"Dextersbrain","steam_id":76561198011831579,"connected_time":532000000000,"state":"active","ping":59},{"user_id":669,"name":"soup","steam_id":76561198043209046,"connected_time":2872000000000,"state":"active","ping":66},{"user_id":655,"name":"ShiningForce","steam_id":76561198026039048,"connected_time":4032000000000,"state":"active","ping":76},{"user_id":691,"name":"Havi","steam_id":76561198197832829,"connected_time":262000000000,"state":"active","ping":54},{"user_id":661,"name":"ismellgood","steam_id":76561199005142939,"connected_time":3848000000000,"state":"active","ping":52},{"user_id":663,"name":"Cheezbeargur","steam_id":76561198164702899,"connected_time":3622000000000,"state":"active","ping":70},{"user_id":612,"name":"Sweets","steam_id":76561198998446307,"connected_time":7759000000000,"state":"active","ping":71},{"user_id":656,"name":"MyMonkeyBaby","steam_id":76561198046896670,"connected_time":4027000000000,"state":"active","ping":45},{"user_id":674,"name":"mega","steam_id":76561198089520959,"connected_time":2043000000000,"state":"active","ping":99},{"user_id":644,"name":"SadFapping","steam_id":76561198076651049,"connected_time":5192000000000,"state":"active","ping":57},{"user_id":684,"name":"Brathic","steam_id":76561198966232163,"connected_time":824000000000,"state":"active","ping":80},{"user_id":689,"name":"rushy :))","steam_id":76561198065825165,"connected_time":455000000000,"state":"active","ping":351},{"user_id":672,"name":"Dog","steam_id":76561198041841128,"connected_time":2320000000000,"state":"active","ping":76},{"user_id":685,"name":"rat gets the cheese","steam_id":76561198031234032,"connected_time":823000000000,"state":"active","ping":97},{"user_id":692,"name":"jorts (zoot)","steam_id":76561199041179985,"connected_time":182000000000,"state":"active","ping":56}]},{"server_id":119,"name":"Uncletopia | Seattle | 2 | All Maps","name_short":"sea-2","host":"sea-1.us.uncletopia.com","port":27025,"enabled":true,"region":"us-west","cc":"us","latitude":47.608013,"longitude":-122.33517,"reserved":0,"last_update":"0001-01-01T00:00:00Z","name_a2s":"Uncletopia | Seattle | 2 | All Maps","protocol":17,"map":"pl_pier","folder":"tf","game":"Team Fortress","app_id":440,"player_count":24,"max_players":24,"Bots":0,"server_type":"Dedicated","server_os":"Linux","password":true,"vac":true,"version":"7961495","steam_id":85568392924469998,"keywords":["nocrits","nodmgspread","payload","uncletopia"],"game_id":440,"stv_port":27026,"stv_name":"Uncletopia | Seattle | 2 | All Maps | STV","players":[{"user_id":250,"name":"[UW] BobbyZimmerman","steam_id":76561197993835647,"connected_time":309000000000,"state":"active","ping":45},{"user_id":254,"name":"Krieg","steam_id":76561198094517450,"connected_time":235000000000,"state":"active","ping":39},{"user_id":237,"name":"scrapheap","steam_id":76561198202407087,"connected_time":1096000000000,"state":"active","ping":105},{"user_id":215,"name":"Poundcake","steam_id":76561198042196918,"connected_time":3385000000000,"state":"active","ping":49},{"user_id":239,"name":"S Q U I S H E  T H A T  C A T","steam_id":76561198293865429,"connected_time":1079000000000,"state":"active","ping":41},{"user_id":232,"name":"TRASHMASTER3000","steam_id":76561198118546107,"connected_time":1199000000000,"state":"active","ping":74},{"user_id":219,"name":"David Hubert Nutz III","steam_id":76561198799297598,"connected_time":3126000000000,"state":"active","ping":62},{"user_id":138,"name":"wmjledger","steam_id":76561198443046861,"connected_time":10214000000000,"state":"active","ping":51},{"user_id":233,"name":"ISA-17","steam_id":76561198202263501,"connected_time":1198000000000,"state":"active","ping":61},{"user_id":224,"name":"WillowWisp","steam_id":76561198049104842,"connected_time":2409000000000,"state":"active","ping":49},{"user_id":241,"name":"AilurosMajor88","steam_id":76561198350900640,"connected_time":1013000000000,"state":"active","ping":47},{"user_id":235,"name":"ICK369","steam_id":76561197999045629,"connected_time":1169000000000,"state":"active","ping":97},{"user_id":236,"name":"TastyWheat","steam_id":76561198855061918,"connected_time":1167000000000,"state":"active","ping":49},{"user_id":252,"name":"riSygneD","steam_id":76561198331618687,"connected_time":280000000000,"state":"active","ping":70},{"user_id":253,"name":"big car","steam_id":76561198067082350,"connected_time":279000000000,"state":"active","ping":86},{"user_id":185,"name":"netoc6","steam_id":76561199065312168,"connected_time":5725000000000,"state":"active","ping":103},{"user_id":238,"name":"THAT CAT","steam_id":76561198010828625,"connected_time":1093000000000,"state":"active","ping":45},{"user_id":242,"name":"cnoisy","steam_id":76561198043018600,"connected_time":984000000000,"state":"active","ping":105},{"user_id":246,"name":"HAT-WEARING™ Maggot Gamer Cat","steam_id":76561197973992705,"connected_time":900000000000,"state":"active","ping":67},{"user_id":203,"name":"Chicago Shoplifter","steam_id":76561197986530028,"connected_time":4758000000000,"state":"active","ping":104},{"user_id":244,"name":"Jauri","steam_id":76561197994448995,"connected_time":956000000000,"state":"active","ping":103},{"user_id":245,"name":"BrightOrangeMango","steam_id":76561198023144607,"connected_time":947000000000,"state":"active","ping":87},{"user_id":204,"name":"IRUMBLERI","steam_id":76561198285541599,"connected_time":4735000000000,"state":"active","ping":61},{"user_id":249,"name":"2 Point Tom","steam_id":76561198087617008,"connected_time":538000000000,"state":"active","ping":55}]},{"server_id":406,"name":"Uncletopia | Seattle | 3 | Stopwatch","name_short":"sea-3","host":"sea-1.us.uncletopia.com","port":27035,"enabled":true,"region":"us-west","cc":"us","latitude":47.608013,"longitude":-122.33517,"reserved":0,"last_update":"0001-01-01T00:00:00Z","name_a2s":"Uncletopia | Seattle | 3 | Stopwatch","protocol":17,"map":"workshop/pl_summercoast_rc8e.ugc1761528829","folder":"tf","game":"Team Fortress","app_id":440,"player_count":0,"max_players":24,"Bots":0,"server_type":"Dedicated","server_os":"Linux","password":true,"vac":true,"version":"7961495","steam_id":85568392924515217,"keywords":["nocrits","nodmgspread","payload","uncletopia"],"game_id":440,"stv_port":27036,"stv_name":"Uncletopia | Seattle | 3 | Stopwatch | STV","players":null},{"server_id":17,"name":"Uncletopia | San Francisco | 1 | All Maps","name_short":"sfo-1","host":"sfo-1.us.uncletopia.com","port":27015,"enabled":true,"region":"us-west","cc":"us","latitude":37.77397,"longitude":-122.4313,"reserved":0,"last_update":"0001-01-01T00:00:00Z","name_a2s":"Uncletopia | San Francisco | 1 | All Maps","protocol":17,"map":"koth_lakeside_final","folder":"tf","game":"Team Fortress","app_id":440,"player_count":23,"max_players":24,"Bots":0,"server_type":"Dedicated","server_os":"Linux","password":true,"vac":true,"version":"7961495","steam_id":85568392924469999,"keywords":["cp","nocrits","nodmgspread","uncletopia"],"game_id":440,"stv_port":27016,"stv_name":"Uncletopia | San Francisco | 1 | All Maps | STV","players":[{"user_id":226,"name":"오징어 화가","steam_id":76561198236004942,"connected_time":1771000000000,"state":"active","ping":49},{"user_id":232,"name":"Choctoling","steam_id":76561198351622498,"connected_time":1059000000000,"state":"active","ping":61},{"user_id":229,"name":"SK","steam_id":76561198133360797,"connected_time":1417000000000,"state":"active","ping":69},{"user_id":246,"name":"Muselk","steam_id":76561199289676387,"connected_time":221000000000,"state":"active","ping":100},{"user_id":164,"name":"Megatron G","steam_id":76561198168864083,"connected_time":6673000000000,"state":"active","ping":59},{"user_id":233,"name":"turn around","steam_id":76561198046526036,"connected_time":855000000000,"state":"active","ping":53},{"user_id":227,"name":"Optimore","steam_id":76561198047662990,"connected_time":1652000000000,"state":"active","ping":48},{"user_id":235,"name":"Moe Fugga","steam_id":76561198102044366,"connected_time":816000000000,"state":"active","ping":75},{"user_id":222,"name":"Captain Buggy","steam_id":76561198024444448,"connected_time":1878000000000,"state":"active","ping":65},{"user_id":248,"name":"Halo","steam_id":76561198144909435,"connected_time":29000000000,"state":"active","ping":68},{"user_id":243,"name":"hittign dabong","steam_id":76561198097588802,"connected_time":528000000000,"state":"active","ping":91},{"user_id":224,"name":"metrocity napalm","steam_id":76561197998630223,"connected_time":1854000000000,"state":"active","ping":131},{"user_id":210,"name":"bombs away!","steam_id":76561198140305247,"connected_time":2109000000000,"state":"active","ping":115},{"user_id":237,"name":"A UsedNom","steam_id":76561198402832756,"connected_time":782000000000,"state":"active","ping":37},{"user_id":238,"name":"happer","steam_id":76561198018252253,"connected_time":623000000000,"state":"active","ping":57},{"user_id":177,"name":"ZeeKThe3rd","steam_id":76561198190156546,"connected_time":5625000000000,"state":"active","ping":46},{"user_id":239,"name":"Weed Dealer","steam_id":76561198418604400,"connected_time":586000000000,"state":"active","ping":70},{"user_id":240,"name":"Creature","steam_id":76561198194585781,"connected_time":578000000000,"state":"active","ping":79},{"user_id":241,"name":"Phoenix","steam_id":76561199465534945,"connected_time":574000000000,"state":"active","ping":81},{"user_id":216,"name":"Thequirka","steam_id":76561198968058652,"connected_time":1977000000000,"state":"active","ping":68},{"user_id":242,"name":"SirEverything","steam_id":76561199152393848,"connected_time":551000000000,"state":"active","ping":98},{"user_id":218,"name":"Kingboo93","steam_id":76561198330676290,"connected_time":1954000000000,"state":"active","ping":104},{"user_id":244,"name":"SHADOW","steam_id":76561198207768148,"connected_time":358000000000,"state":"active","ping":66}]},{"server_id":18,"name":"Uncletopia | San Francisco | 2 | All Maps","name_short":"sfo-2","host":"sfo-1.us.uncletopia.com","port":27025,"enabled":true,"region":"us-west","cc":"us","latitude":37.77397,"longitude":-122.4313,"reserved":0,"last_update":"0001-01-01T00:00:00Z","name_a2s":"Uncletopia | San Francisco | 2 | All Maps","protocol":17,"map":"pl_frontier_final","folder":"tf","game":"Team Fortress","app_id":440,"player_count":24,"max_players":24,"Bots":0,"server_type":"Dedicated","server_os":"Linux","password":true,"vac":true,"version":"7961495","steam_id":85568392924470000,"keywords":["nocrits","nodmgspread","payload","uncletopia"],"game_id":440,"stv_port":27026,"stv_name":"Uncletopia | San Francisco | 2 | All Maps | STV","players":[{"user_id":95,"name":"⛧Alkahestry","steam_id":76561198109641497,"connected_time":1371000000000,"state":"active","ping":45},{"user_id":94,"name":"Alkemistt","steam_id":76561198147644202,"connected_time":1387000000000,"state":"active","ping":55},{"user_id":102,"name":"WillieMakit","steam_id":76561197985391684,"connected_time":872000000000,"state":"active","ping":68},{"user_id":96,"name":"Jack Kramer","steam_id":76561198074383743,"connected_time":1368000000000,"state":"active","ping":103},{"user_id":108,"name":"Assassin","steam_id":76561198321410235,"connected_time":13000000000,"state":"spawning","ping":45},{"user_id":66,"name":"Chaptain","steam_id":76561198452725739,"connected_time":3071000000000,"state":"active","ping":84},{"user_id":31,"name":"aBigPoo","steam_id":76561198425027856,"connected_time":4250000000000,"state":"active","ping":45},{"user_id":91,"name":"GallusVarius","steam_id":76561199467334502,"connected_time":1454000000000,"state":"active","ping":45},{"user_id":69,"name":"g0nk","steam_id":76561198838309024,"connected_time":2990000000000,"state":"active","ping":84},{"user_id":97,"name":"BroBoss64","steam_id":76561198995865904,"connected_time":1344000000000,"state":"active","ping":101},{"user_id":70,"name":"Bravo","steam_id":76561198985135308,"connected_time":2989000000000,"state":"active","ping":45},{"user_id":72,"name":"Szaint","steam_id":76561198165050614,"connected_time":2945000000000,"state":"active","ping":59},{"user_id":100,"name":"𝒆𝒗𝒊𝒍ArnoldGamingﾠ","steam_id":76561198040140247,"connected_time":893000000000,"state":"active","ping":120},{"user_id":105,"name":"Joseph Stalin","steam_id":76561199222594551,"connected_time":667000000000,"state":"active","ping":126},{"user_id":39,"name":"mentos14","steam_id":76561198097993629,"connected_time":3916000000000,"state":"active","ping":72},{"user_id":73,"name":"Fungal","steam_id":76561198078973439,"connected_time":2938000000000,"state":"active","ping":62},{"user_id":49,"name":"The","steam_id":76561198016479886,"connected_time":3635000000000,"state":"active","ping":39},{"user_id":106,"name":"Isa","steam_id":76561199497669852,"connected_time":600000000000,"state":"active","ping":45},{"user_id":74,"name":"Haven","steam_id":76561198087584756,"connected_time":2770000000000,"state":"active","ping":72},{"user_id":99,"name":"Nebula","steam_id":76561198288477896,"connected_time":1274000000000,"state":"active","ping":115},{"user_id":107,"name":"Magnamalo from Monster Hunter","steam_id":76561198110141944,"connected_time":587000000000,"state":"active","ping":70},{"user_id":76,"name":"firestabber","steam_id":76561198057055577,"connected_time":2732000000000,"state":"active","ping":64},{"user_id":92,"name":"Scampy","steam_id":76561198001506924,"connected_time":1446000000000,"state":"active","ping":75},{"user_id":59,"name":"greentop_","steam_id":76561198209650964,"connected_time":3483000000000,"state":"active","ping":68}]},{"server_id":19,"name":"Uncletopia | San Francisco | 3 | Stopwatch","name_short":"sfo-3","host":"sfo-1.us.uncletopia.com","port":27035,"enabled":true,"region":"us-west","cc":"us","latitude":37.77397,"longitude":-122.4313,"reserved":0,"last_update":"0001-01-01T00:00:00Z","name_a2s":"Uncletopia | San Francisco | 3 | Stopwatch","protocol":17,"map":"workshop/koth_ramjam_rc1.ugc459778887","folder":"tf","game":"Team Fortress","app_id":440,"player_count":11,"max_players":24,"Bots":0,"server_type":"Dedicated","server_os":"Linux","password":true,"vac":true,"version":"7961495","steam_id":85568392924742824,"keywords":["cp","nocrits","nodmgspread","uncletopia"],"game_id":440,"stv_port":27036,"stv_name":"Uncletopia | San Francisco | 3 | Stopwatch | STV","players":[{"user_id":24,"name":"Pyrolimited","steam_id":76561198195455657,"connected_time":2962000000000,"state":"active","ping":64},{"user_id":6,"name":"azureglxy","steam_id":76561198861388315,"connected_time":4866000000000,"state":"active","ping":44},{"user_id":18,"name":"Pimastr","steam_id":76561198230996464,"connected_time":3954000000000,"state":"active","ping":106},{"user_id":25,"name":"Trips","steam_id":76561198054581597,"connected_time":2764000000000,"state":"active","ping":45},{"user_id":26,"name":"Kamin","steam_id":76561198255299559,"connected_time":2416000000000,"state":"active","ping":104},{"user_id":29,"name":"FlexTape","steam_id":76561198871834867,"connected_time":1478000000000,"state":"active","ping":77},{"user_id":27,"name":"Mr. Wilson","steam_id":76561198162289380,"connected_time":2281000000000,"state":"active","ping":121},{"user_id":13,"name":"Villchip","steam_id":76561198198599982,"connected_time":4566000000000,"state":"active","ping":65},{"user_id":31,"name":"An Individual","steam_id":76561199164445513,"connected_time":793000000000,"state":"active","ping":68},{"user_id":32,"name":"atrick","steam_id":76561198381603908,"connected_time":545000000000,"state":"active","ping":113},{"user_id":35,"name":"Your Local Spirit Halloween","steam_id":76561198965464635,"connected_time":46000000000,"state":"active","ping":85}]},{"server_id":20,"name":"Uncletopia | San Francisco | 4 | Community","name_short":"sfo-4","host":"sfo-1.us.uncletopia.com","port":27045,"enabled":true,"region":"us-west","cc":"us","latitude":37.77397,"longitude":-122.4313,"reserved":0,"last_update":"0001-01-01T00:00:00Z","name_a2s":"Uncletopia | San Francisco | 4 | Community","protocol":17,"map":"workshop/rd_asteroid_redux_b1.ugc2154902912","folder":"tf","game":"Team Fortress","app_id":440,"player_count":0,"max_players":24,"Bots":0,"server_type":"Dedicated","server_os":"Linux","password":true,"vac":true,"version":"7961495","steam_id":85568392924742826,"keywords":["beta","nocrits","nodmgspread","rd","uncletopia"],"game_id":440,"stv_port":27046,"stv_name":"Uncletopia | San Francisco | 4 | Community | STV","players":null},{"server_id":141,"name":"Uncletopia | Sydney | 1 | All Maps","name_short":"syd-1","host":"syd-1.au.uncletopia.com","port":27015,"enabled":true,"region":"au","cc":"au","latitude":-33.865143,"longitude":151.2099,"reserved":0,"last_update":"0001-01-01T00:00:00Z","name_a2s":"Uncletopia | Sydney | 1 | All Maps","protocol":17,"map":"cp_altitude","folder":"tf","game":"Team Fortress","app_id":440,"player_count":24,"max_players":24,"Bots":0,"server_type":"Dedicated","server_os":"Linux","password":true,"vac":true,"version":"7961495","steam_id":85568392924470001,"keywords":["cp","nocrits","nodmgspread","uncletopia"],"game_id":440,"stv_port":27016,"stv_name":"Uncletopia | Sydney | 1 | All Maps | STV","players":[{"user_id":64,"name":"little raw meat boy","steam_id":76561199248254676,"connected_time":1175000000000,"state":"active","ping":55},{"user_id":58,"name":"Mutha Bukka","steam_id":76561198072964708,"connected_time":1590000000000,"state":"active","ping":58},{"user_id":54,"name":"76561199365669004","steam_id":76561199365669004,"connected_time":1735000000000,"state":"active","ping":58},{"user_id":65,"name":"moo","steam_id":76561198041907885,"connected_time":1091000000000,"state":"active","ping":75},{"user_id":72,"name":"yarbinator","steam_id":76561198204678828,"connected_time":416000000000,"state":"active","ping":50},{"user_id":47,"name":"sillygoofer","steam_id":76561199111421716,"connected_time":2045000000000,"state":"active","ping":85},{"user_id":28,"name":"SIRROM12 (SIRR)","steam_id":76561198116738329,"connected_time":3025000000000,"state":"active","ping":67},{"user_id":18,"name":"{Azura Sarah}","steam_id":76561197989210208,"connected_time":4435000000000,"state":"active","ping":51},{"user_id":69,"name":"Mooty","steam_id":76561198301293435,"connected_time":757000000000,"state":"active","ping":59},{"user_id":70,"name":"whiteshaq","steam_id":76561198131988811,"connected_time":536000000000,"state":"active","ping":47},{"user_id":73,"name":"Snowy","steam_id":76561198255720598,"connected_time":380000000000,"state":"active","ping":49},{"user_id":67,"name":"Spud","steam_id":76561198342600201,"connected_time":1029000000000,"state":"active","ping":53},{"user_id":56,"name":"Bluerazz Bandit","steam_id":76561198206325976,"connected_time":1626000000000,"state":"active","ping":49},{"user_id":38,"name":"JP","steam_id":76561198026221737,"connected_time":2535000000000,"state":"active","ping":60},{"user_id":74,"name":"Second Lieutenant Pisser","steam_id":76561198866538028,"connected_time":150000000000,"state":"active","ping":80},{"user_id":41,"name":"fuzz","steam_id":76561198156872898,"connected_time":2336000000000,"state":"active","ping":37},{"user_id":53,"name":"💀 💀","steam_id":76561198043634620,"connected_time":1749000000000,"state":"active","ping":104},{"user_id":43,"name":"Tetch","steam_id":76561198259803540,"connected_time":2257000000000,"state":"active","ping":74},{"user_id":59,"name":"TheGoodGuy","steam_id":76561197994105505,"connected_time":1588000000000,"state":"active","ping":54},{"user_id":68,"name":"Marmalade Cat","steam_id":76561198086309767,"connected_time":1011000000000,"state":"active","ping":61},{"user_id":60,"name":"kriojn","steam_id":76561198182545737,"connected_time":1559000000000,"state":"active","ping":58},{"user_id":61,"name":"DidjTerminator","steam_id":76561199152306885,"connected_time":1552000000000,"state":"active","ping":55},{"user_id":62,"name":"Carnage","steam_id":76561198017109954,"connected_time":1536000000000,"state":"active","ping":67},{"user_id":63,"name":"Selling Anti-Matter for $543","steam_id":76561198070708382,"connected_time":1462000000000,"state":"active","ping":50}]},{"server_id":123,"name":"Uncletopia | Sydney | 2 | All Maps","name_short":"syd-2","host":"syd-1.au.uncletopia.com","port":27025,"enabled":true,"region":"au","cc":"au","latitude":-33.865143,"longitude":151.2099,"reserved":0,"last_update":"0001-01-01T00:00:00Z","name_a2s":"Uncletopia | Sydney | 2 | All Maps","protocol":17,"map":"koth_lakeside_final","folder":"tf","game":"Team Fortress","app_id":440,"player_count":0,"max_players":24,"Bots":0,"server_type":"Dedicated","server_os":"Linux","password":true,"vac":true,"version":"7961495","steam_id":85568392924470002,"keywords":["cp","nocrits","nodmgspread","uncletopia"],"game_id":440,"stv_port":27026,"stv_name":"Uncletopia | Sydney | 2 | All Maps | STV","players":null},{"server_id":395,"name":"Uncletopia | Sydney | 3 | All Maps","name_short":"syd-3","host":"syd-1.au.uncletopia.com","port":27035,"enabled":true,"region":"au","cc":"au","latitude":-33.865143,"longitude":151.2099,"reserved":0,"last_update":"0001-01-01T00:00:00Z","name_a2s":"Uncletopia | Sydney | 3 | All Maps","protocol":17,"map":"pl_barnblitz","folder":"tf","game":"Team Fortress","app_id":440,"player_count":0,"max_players":24,"Bots":0,"server_type":"Dedicated","server_os":"Linux","password":true,"vac":true,"version":"7961495","steam_id":85568392925194467,"keywords":["nocrits","nodmgspread","payload","uncletopia"],"game_id":440,"stv_port":27036,"stv_name":"Uncletopia | Sydney | 3 | All Maps | STV","players":null},{"server_id":396,"name":"Uncletopia | Sydney | 4 | All Maps","name_short":"syd-4","host":"syd-1.au.uncletopia.com","port":27045,"enabled":true,"region":"au","cc":"au","latitude":-33.865143,"longitude":151.2099,"reserved":0,"last_update":"0001-01-01T00:00:00Z","name_a2s":"Uncletopia | Sydney | 4 | All Maps","protocol":17,"map":"cp_process_final","folder":"tf","game":"Team Fortress","app_id":440,"player_count":0,"max_players":24,"Bots":0,"server_type":"Dedicated","server_os":"Linux","password":true,"vac":true,"version":"7961495","steam_id":85568392925397958,"keywords":["cp","nocrits","nodmgspread","uncletopia"],"game_id":440,"stv_port":27046,"stv_name":"Uncletopia | Sydney | 4 | All Maps | STV","players":null},{"server_id":58,"name":"Uncletopia | Sydney | 5 | Stopwatch","name_short":"syd-5","host":"syd-1.au.uncletopia.com","port":27055,"enabled":true,"region":"au","cc":"au","latitude":-33.865143,"longitude":151.2099,"reserved":0,"last_update":"0001-01-01T00:00:00Z","name_a2s":"Uncletopia | Sydney | 5 | Stopwatch","protocol":17,"map":"pl_frontier_final","folder":"tf","game":"Team Fortress","app_id":440,"player_count":0,"max_players":24,"Bots":0,"server_type":"Dedicated","server_os":"Linux","password":true,"vac":true,"version":"7961495","steam_id":85568392925397959,"keywords":["nocrits","nodmgspread","payload","uncletopia"],"game_id":440,"stv_port":27056,"stv_name":"Uncletopia | Sydney | 5 | Stopwatch | STV","players":null},{"server_id":59,"name":"Uncletopia | Sydney | 6 | Community","name_short":"syd-6","host":"syd-1.au.uncletopia.com","port":27065,"enabled":true,"region":"au","cc":"au","latitude":-33.865143,"longitude":151.2099,"reserved":0,"last_update":"0001-01-01T00:00:00Z","name_a2s":"Uncletopia | Sydney | 6 | Community","protocol":17,"map":"workshop/rd_asteroid_redux_b1.ugc2154902912","folder":"tf","game":"Team Fortress","app_id":440,"player_count":0,"max_players":24,"Bots":0,"server_type":"Dedicated","server_os":"Linux","password":true,"vac":true,"version":"7961495","steam_id":85568392925397960,"keywords":["beta","nocrits","nodmgspread","rd","uncletopia"],"game_id":440,"stv_port":27066,"stv_name":"Uncletopia | Sydney | 6 | Community | STV","players":null},{"server_id":49,"name":"Uncletopia | Warsaw | 1 | One Thousand Uncles","name_short":"waw-1","host":"waw-1.pl.uncletopia.com","port":27015,"enabled":true,"region":"eu","cc":"pl","latitude":52.2297,"longitude":21.017532,"reserved":0,"last_update":"0001-01-01T00:00:00Z","name_a2s":"Uncletopia | Warsaw | 1 | One Thousand Uncles","protocol":17,"map":"koth_highpass","folder":"tf","game":"Team Fortress","app_id":440,"player_count":0,"max_players":32,"Bots":0,"server_type":"Dedicated","server_os":"Linux","password":true,"vac":true,"version":"7961495","steam_id":85568392925397850,"keywords":["alltalk","cp","danepve","increased_maxplayers","nocrits","norespawntime","uncletopia"],"game_id":440,"stv_port":0,"stv_name":"","players":null},{"server_id":50,"name":"Uncletopia | Warsaw | 2 | One Thousand Uncles","name_short":"waw-2","host":"waw-1.pl.uncletopia.com","port":27025,"enabled":true,"region":"eu","cc":"pl","latitude":52.2297,"longitude":21.017532,"reserved":0,"last_update":"0001-01-01T00:00:00Z","name_a2s":"Uncletopia | Warsaw | 2 | One Thousand Uncles","protocol":17,"map":"pl_goldrush","folder":"tf","game":"Team Fortress","app_id":440,"player_count":0,"max_players":32,"Bots":0,"server_type":"Dedicated","server_os":"Linux","password":true,"vac":true,"version":"7961495","steam_id":85568392925397851,"keywords":["alltalk","danepve","increased_maxplayers","nocrits","norespawntime","payload","uncletopia"],"game_id":440,"stv_port":0,"stv_name":"","players":null},{"server_id":51,"name":"Uncletopia | Warsaw | 3 | All Maps","name_short":"waw-3","host":"waw-1.pl.uncletopia.com","port":27035,"enabled":true,"region":"eu","cc":"pl","latitude":52.2297,"longitude":21.017532,"reserved":0,"last_update":"0001-01-01T00:00:00Z","name_a2s":"Uncletopia | Warsaw | 3 | All Maps","protocol":17,"map":"plr_pipeline","folder":"tf","game":"Team Fortress","app_id":440,"player_count":0,"max_players":24,"Bots":0,"server_type":"Dedicated","server_os":"Linux","password":true,"vac":true,"version":"7961495","steam_id":85568392925397852,"keywords":["nocrits","nodmgspread","payload","uncletopia"],"game_id":440,"stv_port":27036,"stv_name":"Uncletopia | Warsaw | 3 | All Maps | STV","players":null},{"server_id":52,"name":"Uncletopia | Warsaw | 4 | All Maps","name_short":"waw-4","host":"waw-1.pl.uncletopia.com","port":27045,"enabled":true,"region":"eu","cc":"pl","latitude":52.2297,"longitude":21.017532,"reserved":0,"last_update":"0001-01-01T00:00:00Z","name_a2s":"Uncletopia | Warsaw | 4 | All Maps","protocol":17,"map":"cp_coldfront","folder":"tf","game":"Team Fortress","app_id":440,"player_count":0,"max_players":24,"Bots":0,"server_type":"Dedicated","server_os":"Linux","password":true,"vac":true,"version":"7961495","steam_id":85568392925397853,"keywords":["cp","nocrits","nodmgspread","uncletopia"],"game_id":440,"stv_port":27046,"stv_name":"Uncletopia | Warsaw | 4 | All Maps | STV","players":null},{"server_id":53,"name":"Uncletopia | Warsaw | 5 | Stopwatch","name_short":"waw-5","host":"waw-1.pl.uncletopia.com","port":27055,"enabled":true,"region":"eu","cc":"pl","latitude":52.2297,"longitude":21.017532,"reserved":0,"last_update":"0001-01-01T00:00:00Z","name_a2s":"Uncletopia | Warsaw | 5 | Stopwatch","protocol":17,"map":"workshop/koth_bagel_rc6.ugc2514036946","folder":"tf","game":"Team Fortress","app_id":440,"player_count":0,"max_players":24,"Bots":0,"server_type":"Dedicated","server_os":"Linux","password":true,"vac":true,"version":"7961495","steam_id":85568392925397854,"keywords":["cp","nocrits","nodmgspread","uncletopia"],"game_id":440,"stv_port":27056,"stv_name":"Uncletopia | Warsaw | 5 | Stopwatch | STV","players":null},{"server_id":54,"name":"Uncletopia | Warsaw | 6 | Community","name_short":"waw-6","host":"waw-1.pl.uncletopia.com","port":27065,"enabled":true,"region":"eu","cc":"pl","latitude":52.2297,"longitude":21.017532,"reserved":0,"last_update":"0001-01-01T00:00:00Z","name_a2s":"Uncletopia | Warsaw | 6 | Community","protocol":17,"map":"workshop/pl_badwater_pro_v12.ugc2142942074","folder":"tf","game":"Team Fortress","app_id":440,"player_count":0,"max_players":24,"Bots":0,"server_type":"Dedicated","server_os":"Linux","password":true,"vac":true,"version":"7961495","steam_id":85568392925397856,"keywords":["nocrits","nodmgspread","payload","uncletopia"],"game_id":440,"stv_port":27066,"stv_name":"Uncletopia | Warsaw | 6 | Community | STV","players":null}]}