{"status":true,"message":"","result":[{"server_id":9,"name":"Uncletopia | Atlanta | 1 | All Maps","name_short":"atl-1","host":"atl-1.us.uncletopia.com","port":27015,"enabled":true,"region":"us-east","cc":"us","latitude":33.753746,"longitude":-84.38633,"reserved":0,"last_update":"0001-01-01T00:00:00Z","name_a2s":"Uncletopia | Atlanta | 1 | All Maps","protocol":17,"map":"pl_pier","folder":"tf","game":"Team Fortress","app_id":440,"player_count":24,"max_players":24,"Bots":0,"server_type":"Dedicated","server_os":"Linux","password":true,"vac":true,"version":"7757534","steam_id":85568392924469982,"keywords":["nocrits","nodmgspread","payload","uncletopia"],"game_id":440,"stv_port":27016,"stv_name":"Uncletopia | Atlanta | 1 | All Maps | STV","players":[{"user_id":76,"name":"Lilith","steam_id":76561198125102885,"connected_time":5989000000000,"state":"active","ping":62},{"user_id":120,"name":"Kazuta Neko","steam_id":76561198070470653,"connected_time":2789000000000,"state":"active","ping":73},{"user_id":138,"name":"A Trigger Happy Chipmunk","steam_id":76561198013608736,"connected_time":764000000000,"state":"active","ping":58},{"user_id":135,"name":"jim bob","steam_id":76561198815547064,"connected_time":1278000000000,"state":"active","ping":67},{"user_id":139,"name":"Shook","steam_id":76561198054064995,"connected_time":744000000000,"state":"active","ping":91},{"user_id":140,"name":"M9 Shyamalan","steam_id":76561198149425560,"connected_time":699000000000,"state":"active","ping":94},{"user_id":134,"name":"thriller","steam_id":76561198842903987,"connected_time":1302000000000,"state":"active","ping":68},{"user_id":143,"name":"Lil' Croissant","steam_id":76561198059494343,"connected_time":586000000000,"state":"active","ping":115},{"user_id":142,"name":"Genesis (SZ25)","steam_id":76561198388175532,"connected_time":646000000000,"state":"active","ping":100},{"user_id":156,"name":"Try Gardening","steam_id":76561198120311340,"connected_time":126000000000,"state":"active","ping":64},{"user_id":84,"name":"Phyzisist","steam_id":76561197983915993,"connected_time":5465000000000,"state":"active","ping":59},{"user_id":77,"name":"Reverie","steam_id":76561198987005784,"connected_time":5930000000000,"state":"active","ping":78},{"user_id":145,"name":"The Loveable CHI.I.BI.","steam_id":76561198039262228,"connected_time":516000000000,"state":"active","ping":54},{"user_id":107,"name":"anBee","steam_id":76561198050760807,"connected_time":4253000000000,"state":"active","ping":98},{"user_id":157,"name":"Derplish","steam_id":76561198831714443,"connected_time":91000000000,"state":"active","ping":72},{"user_id":146,"name":"Reaper ♡","steam_id":76561198064059275,"connected_time":509000000000,"state":"active","ping":129},{"user_id":151,"name":"wutzit2yuhツ","steam_id":76561198020534493,"connected_time":410000000000,"state":"active","ping":75},{"user_id":154,"name":"Albino Jellyfish","steam_id":76561198208561097,"connected_time":187000000000,"state":"active","ping":69},{"user_id":144,"name":"OKlWONT","steam_id":76561198060328407,"connected_time":559000000000,"state":"active","ping":89},{"user_id":158,"name":"SnazzyCelestial","steam_id":76561198328763813,"connected_time":10000000000,"state":"spawning","ping":50},{"user_id":79,"name":"4evr","steam_id":76561198064565304,"connected_time":5908000000000,"state":"active","ping":67},{"user_id":148,"name":"Ether","steam_id":76561198054806528,"connected_time":484000000000,"state":"active","ping":71},{"user_id":152,"name":"Your Lovely Medic","steam_id":76561198039326848,"connected_time":343000000000,"state":"active","ping":138},{"user_id":155,"name":"Sniper","steam_id":76561199482262282,"connected_time":175000000000,"state":"active","ping":90}]},{"server_id":104,"name":"Uncletopia | Atlanta | 2 | All Maps","name_short":"atl-2","host":"atl-1.us.uncletopia.com","port":27025,"enabled":true,"region":"us-east","cc":"us","latitude":33.753746,"longitude":-84.38633,"reserved":0,"last_update":"0001-01-01T00:00:00Z","name_a2s":"Uncletopia | Atlanta | 2 | All Maps","protocol":17,"map":"koth_cascade","folder":"tf","game":"Team Fortress","app_id":440,"player_count":0,"max_players":24,"Bots":0,"server_type":"Dedicated","server_os":"Linux","password":true,"vac":true,"version":"7757534","steam_id":85568392924469983,"keywords":["cp","nocrits","nodmgspread","uncletopia"],"game_id":440,"stv_port":27026,"stv_name":"Uncletopia | Atlanta | 2 | All Maps | STV","players":null},{"server_id":400,"name":"Uncletopia | Atlanta | 3 | Community","name_short":"atl-3","host":"atl-1.us.uncletopia.com","port":27035,"enabled":true,"region":"us-east","cc":"us","latitude":33.753746,"longitude":-84.38633,"reserved":0,"last_update":"0001-01-01T00:00:00Z","name_a2s":"Uncletopia | Atlanta | 3 | Community","protocol":17,"map":"workshop/pl_eruption_b9a.ugc2807898013","folder":"tf","game":"Team Fortress","app_id":440,"player_count":3,"max_players":24,"Bots":0,"server_type":"Dedicated","server_os":"Linux","password":true,"vac":true,"version":"7757534","steam_id":85568392924515187,"keywords":["nocrits","nodmgspread","payload","uncletopia"],"game_id":440,"stv_port":27036,"stv_name":"Uncletopia | Atlanta | 3 | Community | STV","players":[{"user_id":6,"name":"mari_","steam_id":76561198137855741,"connected_time":2788000000000,"state":"active","ping":66},{"user_id":9,"name":"some 7-11 Nachos","steam_id":76561199037688210,"connected_time":1556000000000,"state":"active","ping":119},{"user_id":11,"name":"Pyro Of The Lake","steam_id":76561199149576897,"connected_time":97000000000,"state":"active","ping":85}]},{"server_id":401,"name":"Uncletopia | Atlanta | 4 | No Payload","name_short":"atl-4","host":"atl-1.us.uncletopia.com","port":27045,"enabled":true,"region":"us-east","cc":"us","latitude":33.753746,"longitude":-84.38633,"reserved":0,"last_update":"0001-01-01T00:00:00Z","name_a2s":"","protocol":0,"map":"","folder":"","game":"","app_id":0,"player_count":0,"max_players":0,"Bots":0,"server_type":"","server_os":"","password":false,"vac":false,"version":"","steam_id":0,"keywords":null,"game_id":0,"stv_port":0,"stv_name":"","players":null},{"server_id":2,"name":"Uncletopia | Chicago | 1 | All Maps","name_short":"chi-1","host":"chi-1.us.uncletopia.com","port":27015,"enabled":true,"region":"us-central","cc":"us","latitude":41.881832,"longitude":-87.62318,"reserved":0,"last_update":"0001-01-01T00:00:00Z","name_a2s":"Uncletopia | Chicago | 1 | All Maps","protocol":17,"map":"pl_snowycoast","folder":"tf","game":"Team Fortress","app_id":440,"player_count":24,"max_players":24,"Bots":0,"server_type":"Dedicated","server_os":"Linux","password":true,"vac":true,"version":"7757534","steam_id":85568392924469984,"keywords":["nocrits","nodmgspread","payload","uncletopia"],"game_id":440,"stv_port":27016,"stv_name":"Uncletopia | Chicago | 1 | All Maps | STV","players":[{"user_id":90,"name":"ThatOneKnight","steam_id":76561198388583650,"connected_time":3603000000000,"state":"active","ping":53},{"user_id":101,"name":"Click","steam_id":76561198281717345,"connected_time":2747000000000,"state":"active","ping":74},{"user_id":136,"name":"twelve dollars girl","steam_id":76561199241555613,"connected_time":3000000000,"state":"spawning","ping":47},{"user_id":100,"name":"Sigma Balls","steam_id":76561198412592662,"connected_time":2820000000000,"state":"active","ping":70},{"user_id":57,"name":"Suspicious Doggo","steam_id":76561198871853577,"connected_time":5734000000000,"state":"active","ping":86},{"user_id":110,"name":"LEGALIZE NUCLEAR BOMBS","steam_id":76561198031675881,"connected_time":1717000000000,"state":"active","ping":36},{"user_id":135,"name":"Malikar (fake)","steam_id":76561199037497493,"connected_time":98000000000,"state":"active","ping":59},{"user_id":127,"name":"Notation","steam_id":76561198119509319,"connected_time":768000000000,"state":"active","ping":60},{"user_id":114,"name":"Bread_Box","steam_id":76561198090419068,"connected_time":1057000000000,"state":"active","ping":124},{"user_id":26,"name":"WatchWill","steam_id":76561198157237945,"connected_time":7555000000000,"state":"active","ping":69},{"user_id":27,"name":"FrogInShorts","steam_id":76561198081903213,"connected_time":7505000000000,"state":"active","ping":85},{"user_id":124,"name":"JebusTheSavior","steam_id":76561197970083444,"connected_time":867000000000,"state":"active","ping":67},{"user_id":115,"name":"Craig Isonychia","steam_id":76561198272013678,"connected_time":1043000000000,"state":"active","ping":68},{"user_id":66,"name":"ghoster","steam_id":76561199001918194,"connected_time":4963000000000,"state":"active","ping":138},{"user_id":125,"name":"_S","steam_id":76561198050136796,"connected_time":853000000000,"state":"active","ping":75},{"user_id":79,"name":"richard clock","steam_id":76561198048455671,"connected_time":3822000000000,"state":"active","ping":54},{"user_id":78,"name":"PKBEAST_7","steam_id":76561198177136537,"connected_time":4277000000000,"state":"active","ping":84},{"user_id":131,"name":"PBxJAY","steam_id":76561198402471788,"connected_time":456000000000,"state":"active","ping":119},{"user_id":126,"name":"Hot Milk + Sweet Delight","steam_id":76561197988989149,"connected_time":845000000000,"state":"active","ping":85},{"user_id":133,"name":"LVL 4 Dispenser Gaming","steam_id":76561198044244547,"connected_time":269000000000,"state":"active","ping":81},{"user_id":129,"name":"Ras","steam_id":76561198123546775,"connected_time":631000000000,"state":"active","ping":61},{"user_id":121,"name":"loose-shotgun","steam_id":76561198163072785,"connected_time":951000000000,"state":"active","ping":78},{"user_id":97,"name":"Scuot","steam_id":76561199195737328,"connected_time":3075000000000,"state":"active","ping":145},{"user_id":123,"name":"Wallet","steam_id":76561198081067377,"connected_time":937000000000,"state":"active","ping":63}]},{"server_id":106,"name":"Uncletopia | Chicago | 2 | All Maps","name_short":"chi-2","host":"chi-1.us.uncletopia.com","port":27025,"enabled":true,"region":"us-central","cc":"us","latitude":41.881832,"longitude":-87.62318,"reserved":0,"last_update":"0001-01-01T00:00:00Z","name_a2s":"Uncletopia | Chicago | 2 | All Maps","protocol":17,"map":"pl_upward","folder":"tf","game":"Team Fortress","app_id":440,"player_count":24,"max_players":24,"Bots":0,"server_type":"Dedicated","server_os":"Linux","password":true,"vac":true,"version":"7757534","steam_id":85568392924469985,"keywords":["nocrits","nodmgspread","payload","uncletopia"],"game_id":440,"stv_port":27026,"stv_name":"Uncletopia | Chicago | 2 | All Maps | STV","players":[{"user_id":169,"name":"Queen Frau the Round","steam_id":76561197999942134,"connected_time":3069000000000,"state":"active","ping":46},{"user_id":171,"name":"Fore","steam_id":76561198025814747,"connected_time":2808000000000,"state":"active","ping":75},{"user_id":130,"name":"mritea","steam_id":76561198872799796,"connected_time":6534000000000,"state":"active","ping":103},{"user_id":173,"name":"Pumpkin Spice","steam_id":76561198058356815,"connected_time":2791000000000,"state":"active","ping":68},{"user_id":189,"name":"Shwa","steam_id":76561198122613101,"connected_time":1784000000000,"state":"active","ping":74},{"user_id":193,"name":"BackwardsEagle","steam_id":76561199013712612,"connected_time":194000000000,"state":"active","ping":96},{"user_id":191,"name":"GIGAMODE","steam_id":76561198027140064,"connected_time":741000000000,"state":"active","ping":67},{"user_id":190,"name":"Spicy Within Reason","steam_id":76561198066700370,"connected_time":1626000000000,"state":"active","ping":86},{"user_id":180,"name":"SCATTER (she/her)","steam_id":76561198405168492,"connected_time":2013000000000,"state":"active","ping":76},{"user_id":194,"name":"Nekoknight","steam_id":76561198400058665,"connected_time":167000000000,"state":"active","ping":71},{"user_id":181,"name":"Jho-oh","steam_id":76561198062473436,"connected_time":2006000000000,"state":"active","ping":73},{"user_id":138,"name":"ObsessedNerd505","steam_id":76561199045531456,"connected_time":5626000000000,"state":"active","ping":61},{"user_id":157,"name":"VividDragon","steam_id":76561198050659285,"connected_time":3769000000000,"state":"active","ping":70},{"user_id":175,"name":"WhippedHook","steam_id":76561198069581138,"connected_time":2702000000000,"state":"active","ping":72},{"user_id":187,"name":"UmeKuma (He/They)","steam_id":76561198043602407,"connected_time":1882000000000,"state":"active","ping":71},{"user_id":161,"name":"SanitysEdge","steam_id":76561198130732813,"connected_time":3737000000000,"state":"active","ping":100},{"user_id":113,"name":"Krome","steam_id":76561198087317232,"connected_time":7779000000000,"state":"active","ping":62},{"user_id":149,"name":"AdorableMew","steam_id":76561198186706405,"connected_time":4251000000000,"state":"active","ping":71},{"user_id":69,"name":"Succubus_Lilith (She/They)","steam_id":76561198240578890,"connected_time":13641000000000,"state":"active","ping":75},{"user_id":192,"name":"Mogwr","steam_id":76561198124942972,"connected_time":660000000000,"state":"active","ping":80},{"user_id":186,"name":"Random Furret","steam_id":76561199021993235,"connected_time":1888000000000,"state":"active","ping":87},{"user_id":195,"name":"Ultimate_wizard","steam_id":76561198296520003,"connected_time":160000000000,"state":"active","ping":95},{"user_id":83,"name":"BuncusBeffer","steam_id":76561198285936616,"connected_time":11856000000000,"state":"active","ping":103},{"user_id":162,"name":"Training Arc","steam_id":76561198038832034,"connected_time":3737000000000,"state":"active","ping":105}]},{"server_id":402,"name":"Uncletopia | Chicago | 3 | All Maps","name_short":"chi-3","host":"chi-1.us.uncletopia.com","port":27035,"enabled":true,"region":"us-central","cc":"us","latitude":41.881832,"longitude":-87.62318,"reserved":0,"last_update":"0001-01-01T00:00:00Z","name_a2s":"Uncletopia | Chicago | 3 | All Maps","protocol":17,"map":"koth_viaduct","folder":"tf","game":"Team Fortress","app_id":440,"player_count":0,"max_players":24,"Bots":0,"server_type":"Dedicated","server_os":"Linux","password":true,"vac":true,"version":"7757534","steam_id":85568392924515191,"keywords":["cp","nocrits","nodmgspread","uncletopia"],"game_id":440,"stv_port":27036,"stv_name":"Uncletopia | Chicago | 3 | All Maps | STV","players":null},{"server_id":403,"name":"Uncletopia | Chicago | 4 | All Maps","name_short":"chi-4","host":"chi-1.us.uncletopia.com","port":27045,"enabled":true,"region":"us-central","cc":"us","latitude":41.881832,"longitude":-87.62318,"reserved":0,"last_update":"0001-01-01T00:00:00Z","name_a2s":"Uncletopia | Chicago | 4 | All Maps","protocol":17,"map":"koth_king","folder":"tf","game":"Team Fortress","app_id":440,"player_count":24,"max_players":24,"Bots":0,"server_type":"Dedicated","server_os":"Linux","password":true,"vac":true,"version":"7757534","steam_id":85568392924515193,"keywords":["cp","nocrits","nodmgspread","uncletopia"],"game_id":440,"stv_port":27046,"stv_name":"Uncletopia | Chicago | 4 | All Maps | STV","players":[{"user_id":19,"name":"Aeonspassed","steam_id":76561198014016451,"connected_time":2938000000000,"state":"active","ping":58},{"user_id":21,"name":"Ritzy","steam_id":76561198381955342,"connected_time":2910000000000,"state":"active","ping":138},{"user_id":20,"name":"Mask","steam_id":76561198877649728,"connected_time":2934000000000,"state":"active","ping":136},{"user_id":17,"name":"p","steam_id":76561198030291655,"connected_time":3031000000000,"state":"active","ping":43},{"user_id":57,"name":"Gavial the Invincible","steam_id":76561198348354629,"connected_time":35000000000,"state":"spawning","ping":136},{"user_id":14,"name":"magickxanadu","steam_id":76561199117360103,"connected_time":3537000000000,"state":"active","ping":89},{"user_id":10,"name":"illious","steam_id":76561198169925494,"connected_time":3735000000000,"state":"active","ping":70},{"user_id":23,"name":"The Gaper","steam_id":76561198053389698,"connected_time":2823000000000,"state":"active","ping":149},{"user_id":41,"name":"JustLooking","steam_id":76561198207877387,"connected_time":1862000000000,"state":"active","ping":67},{"user_id":54,"name":"KoolBucky","steam_id":76561198147927648,"connected_time":805000000000,"state":"active","ping":90},{"user_id":48,"name":"God","steam_id":76561199245320103,"connected_time":1587000000000,"state":"active","ping":64},{"user_id":28,"name":"lich gaming","steam_id":76561198299094088,"connected_time":2359000000000,"state":"active","ping":62},{"user_id":53,"name":"coms","steam_id":76561198359456881,"connected_time":1331000000000,"state":"active","ping":46},{"user_id":30,"name":"Phee","steam_id":76561198014317211,"connected_time":2271000000000,"state":"active","ping":159},{"user_id":58,"name":"Wizard Raccoon","steam_id":76561198072562591,"connected_time":28000000000,"state":"active","ping":83},{"user_id":59,"name":"CJDGuy","steam_id":76561198213009545,"connected_time":25000000000,"state":"spawning","ping":38},{"user_id":44,"name":"forkes","steam_id":76561198130478202,"connected_time":1772000000000,"state":"active","ping":40},{"user_id":45,"name":"big kahuna dynamite splash","steam_id":76561198094486651,"connected_time":1770000000000,"state":"active","ping":66},{"user_id":52,"name":"LinkFromDaPast","steam_id":76561198211437197,"connected_time":1395000000000,"state":"active","ping":86},{"user_id":38,"name":"King","steam_id":76561198039763676,"connected_time":1967000000000,"state":"active","ping":68},{"user_id":55,"name":"autumnal.messenger","steam_id":76561199345816635,"connected_time":269000000000,"state":"active","ping":103},{"user_id":40,"name":"heckeronald","steam_id":76561199249721278,"connected_time":1929000000000,"state":"active","ping":90},{"user_id":47,"name":"TJGSASQUATCH","steam_id":76561198077806921,"connected_time":1639000000000,"state":"active","ping":95},{"user_id":43,"name":"Lord Theodore XIII","steam_id":76561198085842797,"connected_time":1845000000000,"state":"active","ping":85}]},{"server_id":36,"name":"Uncletopia | Chicago | 5 | All Maps","name_short":"chi-5","host":"chi-2.us.uncletopia.com","port":27015,"enabled":true,"region":"us-central","cc":"us","latitude":41.881832,"longitude":-87.62318,"reserved":0,"last_update":"0001-01-01T00:00:00Z","name_a2s":"Uncletopia | Chicago | 5 | All Maps","protocol":17,"map":"koth_cascade","folder":"tf","game":"Team Fortress","app_id":440,"player_count":0,"max_players":24,"Bots":0,"server_type":"Dedicated","server_os":"Linux","password":true,"vac":true,"version":"7757534","steam_id":85568392924866362,"keywords":["cp","nocrits","nodmgspread","uncletopia"],"game_id":440,"stv_port":27016,"stv_name":"Uncletopia | Chicago | 5 | All Maps | STV","players":null},{"server_id":37,"name":"Uncletopia | Chicago | 6 | All Maps","name_short":"chi-6","host":"chi-2.us.uncletopia.com","port":27025,"enabled":true,"region":"us-central","cc":"us","latitude":41.881832,"longitude":-87.62318,"reserved":0,"last_update":"0001-01-01T00:00:00Z","name_a2s":"Uncletopia | Chicago | 6 | All Maps","protocol":17,"map":"koth_highpass","folder":"tf","game":"Team Fortress","app_id":440,"player_count":0,"max_players":24,"Bots":0,"server_type":"Dedicated","server_os":"Linux","password":true,"vac":true,"version":"7757534","steam_id":85568392924866363,"keywords":["cp","nocrits","nodmgspread","uncletopia"],"game_id":440,"stv_port":27026,"stv_name":"Uncletopia | Chicago | 6 | All Maps | STV","players":null},{"server_id":38,"name":"Uncletopia | Chicago | 7 | Stopwatch Beta","name_short":"chi-7","host":"chi-2.us.uncletopia.com","port":27035,"enabled":true,"region":"us-central","cc":"us","latitude":41.881832,"longitude":-87.62318,"reserved":0,"last_update":"0001-01-01T00:00:00Z","name_a2s":"Uncletopia | Chicago | 7 | Stopwatch Beta","protocol":17,"map":"workshop/koth_product_final.ugc454272353","folder":"tf","game":"Team Fortress","app_id":440,"player_count":0,"max_players":24,"Bots":0,"server_type":"Dedicated","server_os":"Linux","password":true,"vac":true,"version":"7757534","steam_id":85568392924866364,"keywords":["cp","nocrits","nodmgspread","uncletopia"],"game_id":440,"stv_port":27036,"stv_name":"Uncletopia | Chicago | 7 | Stopwatch Beta | STV","players":null},{"server_id":39,"name":"Uncletopia | Chicago | 8 | Community","name_short":"chi-8","host":"chi-2.us.uncletopia.com","port":27045,"enabled":true,"region":"us-central","cc":"us","latitude":41.881832,"longitude":-87.62318,"reserved":0,"last_update":"0001-01-01T00:00:00Z","name_a2s":"Uncletopia | Chicago | 8 | Community","protocol":17,"map":"koth_cascade","folder":"tf","game":"Team Fortress","app_id":440,"player_count":0,"max_players":24,"Bots":0,"server_type":"Dedicated","server_os":"Linux","password":true,"vac":true,"version":"7757534","steam_id":85568392924866365,"keywords":["cp","nocrits","nodmgspread","uncletopia"],"game_id":440,"stv_port":27046,"stv_name":"Uncletopia | Chicago | 8 | Community | STV","players":null},{"server_id":8,"name":"Uncletopia | Dallas | 1 | All Maps","name_short":"dal-1","host":"dal-1.us.uncletopia.com","port":27015,"enabled":true,"region":"us-central","cc":"us","latitude":32.779167,"longitude":-96.80889,"reserved":0,"last_update":"0001-01-01T00:00:00Z","name_a2s":"Uncletopia | Dallas | 1 | All Maps","protocol":17,"map":"koth_cascade","folder":"tf","game":"Team Fortress","app_id":440,"player_count":0,"max_players":24,"Bots":0,"server_type":"Dedicated","server_os":"Linux","password":true,"vac":true,"version":"7757534","steam_id":85568392924469986,"keywords":["cp","nocrits","nodmgspread","uncletopia"],"game_id":440,"stv_port":27016,"stv_name":"Uncletopia | Dallas | 1 | All Maps | STV","players":null},{"server_id":108,"name":"Uncletopia | Dallas | 2 | All Maps","name_short":"dal-2","host":"dal-1.us.uncletopia.com","port":27025,"enabled":true,"region":"us-central","cc":"us","latitude":32.779167,"longitude":-96.80889,"reserved":0,"last_update":"0001-01-01T00:00:00Z","name_a2s":"Uncletopia | Dallas | 2 | All Maps","protocol":17,"map":"pl_thundermountain","folder":"tf","game":"Team Fortress","app_id":440,"player_count":24,"max_players":24,"Bots":0,"server_type":"Dedicated","server_os":"Linux","password":true,"vac":true,"version":"7757534","steam_id":85568392924469988,"keywords":["nocrits","nodmgspread","payload","uncletopia"],"game_id":440,"stv_port":27026,"stv_name":"Uncletopia | Dallas | 2 | All Maps | STV","players":[{"user_id":373,"name":"He Who Owl","steam_id":76561198105374054,"connected_time":3690000000000,"state":"active","ping":92},{"user_id":410,"name":"soapboxracer360","steam_id":76561198316394688,"connected_time":420000000000,"state":"active","ping":98},{"user_id":405,"name":"California State Real ID","steam_id":76561198111293523,"connected_time":1062000000000,"state":"active","ping":89},{"user_id":356,"name":"CreepyCook","steam_id":76561198242874622,"connected_time":4826000000000,"state":"active","ping":61},{"user_id":403,"name":"trobin120","steam_id":76561199122420273,"connected_time":1084000000000,"state":"active","ping":81},{"user_id":400,"name":"oxbudy","steam_id":76561198022120207,"connected_time":1695000000000,"state":"active","ping":65},{"user_id":393,"name":"InfamousInvictis","steam_id":76561198209442004,"connected_time":1993000000000,"state":"active","ping":90},{"user_id":412,"name":"The indomitable human spirit","steam_id":76561198282395338,"connected_time":284000000000,"state":"active","ping":96},{"user_id":409,"name":"carrotcake","steam_id":76561198030997761,"connected_time":763000000000,"state":"active","ping":49},{"user_id":384,"name":"Phantom__Cobra","steam_id":76561198850713083,"connected_time":2817000000000,"state":"active","ping":45},{"user_id":379,"name":"Stick","steam_id":76561198123341834,"connected_time":3238000000000,"state":"active","ping":64},{"user_id":408,"name":"DawckyWawckyUwU","steam_id":76561198186154049,"connected_time":858000000000,"state":"active","ping":45},{"user_id":396,"name":"Almond_Milk","steam_id":76561198332977071,"connected_time":1892000000000,"state":"active","ping":71},{"user_id":382,"name":"WarMace","steam_id":76561198395937853,"connected_time":2991000000000,"state":"active","ping":96},{"user_id":397,"name":"Drapph","steam_id":76561199384213314,"connected_time":1890000000000,"state":"active","ping":83},{"user_id":402,"name":"life","steam_id":76561198142254567,"connected_time":1105000000000,"state":"active","ping":83},{"user_id":357,"name":"matt_rolltide","steam_id":76561198796727164,"connected_time":4805000000000,"state":"active","ping":63},{"user_id":413,"name":"Raptortastic","steam_id":76561198105613110,"connected_time":237000000000,"state":"active","ping":76},{"user_id":389,"name":"Cinnifox","steam_id":76561198068773971,"connected_time":2577000000000,"state":"active","ping":85},{"user_id":390,"name":"Qwerds","steam_id":76561198139150581,"connected_time":2559000000000,"state":"active","ping":110},{"user_id":404,"name":"baguette","steam_id":76561198041770884,"connected_time":1070000000000,"state":"active","ping":83},{"user_id":401,"name":"The Moon","steam_id":76561198082926682,"connected_time":1547000000000,"state":"active","ping":86},{"user_id":414,"name":"MontellWilliams","steam_id":76561198172143015,"connected_time":92000000000,"state":"active","ping":97},{"user_id":370,"name":"hoboways","steam_id":76561198168035195,"connected_time":3754000000000,"state":"active","ping":88}]},{"server_id":5,"name":"Uncletopia | Frankfurt | 1 | All Maps","name_short":"frk-1","host":"frk-1.de.uncletopia.com","port":27015,"enabled":true,"region":"eu","cc":"de","latitude":50.110924,"longitude":8.682127,"reserved":0,"last_update":"0001-01-01T00:00:00Z","name_a2s":"Uncletopia | Frankfurt | 1 | All Maps","protocol":17,"map":"pl_swiftwater_final1","folder":"tf","game":"Team Fortress","app_id":440,"player_count":24,"max_players":24,"Bots":0,"server_type":"Dedicated","server_os":"Linux","password":true,"vac":true,"version":"7757534","steam_id":85568392924469989,"keywords":["nocrits","nodmgspread","payload","uncletopia"],"game_id":440,"stv_port":27016,"stv_name":"Uncletopia | Frankfurt | 1 | All Maps | STV","players":[{"user_id":224,"name":"followthenight","steam_id":76561198017619752,"connected_time":2771000000000,"state":"active","ping":60},{"user_id":292,"name":"Intheweb33","steam_id":76561198082873786,"connected_time":122000000000,"state":"active","ping":77},{"user_id":245,"name":"minn","steam_id":76561198099101232,"connected_time":2156000000000,"state":"active","ping":67},{"user_id":287,"name":"leeloo","steam_id":76561199256962353,"connected_time":305000000000,"state":"active","ping":63},{"user_id":293,"name":"Fish","steam_id":76561199133635066,"connected_time":92000000000,"state":"active","ping":73},{"user_id":281,"name":"G/3","steam_id":76561198234844188,"connected_time":942000000000,"state":"active","ping":60},{"user_id":258,"name":"oj","steam_id":76561198109074418,"connected_time":1460000000000,"state":"active","ping":70},{"user_id":157,"name":"Artha","steam_id":76561198198453253,"connected_time":6274000000000,"state":"active","ping":86},{"user_id":283,"name":"dunduu","steam_id":76561198875240717,"connected_time":755000000000,"state":"active","ping":68},{"user_id":282,"name":"Kleiner Engel","steam_id":76561198009922500,"connected_time":855000000000,"state":"active","ping":54},{"user_id":275,"name":"cazador","steam_id":76561198123096922,"connected_time":1109000000000,"state":"active","ping":89},{"user_id":260,"name":"taima","steam_id":76561198281053248,"connected_time":1366000000000,"state":"active","ping":72},{"user_id":294,"name":"WolfmanCZ","steam_id":76561199157141414,"connected_time":69000000000,"state":"active","ping":69},{"user_id":280,"name":"Monkey Friend","steam_id":76561198144403074,"connected_time":1011000000000,"state":"active","ping":46},{"user_id":263,"name":"moulis","steam_id":76561198082177314,"connected_time":1351000000000,"state":"active","ping":75},{"user_id":264,"name":"Kamikrazy","steam_id":76561198044254918,"connected_time":1327000000000,"state":"active","ping":126},{"user_id":266,"name":"...","steam_id":76561198969234594,"connected_time":1280000000000,"state":"active","ping":70},{"user_id":237,"name":"RCST","steam_id":76561198174955254,"connected_time":2297000000000,"state":"active","ping":87},{"user_id":295,"name":"trolley","steam_id":76561199089765404,"connected_time":45000000000,"state":"active","ping":62},{"user_id":249,"name":"vadim_kotler","steam_id":76561199016634369,"connected_time":2058000000000,"state":"active","ping":114},{"user_id":276,"name":"Sushii","steam_id":76561198160962635,"connected_time":1104000000000,"state":"active","ping":46},{"user_id":284,"name":"r06u3","steam_id":76561198254099253,"connected_time":414000000000,"state":"active","ping":179},{"user_id":272,"name":"stozzy","steam_id":76561198085809880,"connected_time":1189000000000,"state":"active","ping":155},{"user_id":285,"name":"lamalakamala","steam_id":76561198314076661,"connected_time":413000000000,"state":"active","ping":102}]},{"server_id":110,"name":"Uncletopia | Frankfurt | 2 | All Maps","name_short":"frk-2","host":"frk-1.de.uncletopia.com","port":27025,"enabled":true,"region":"eu","cc":"de","latitude":50.110924,"longitude":8.682127,"reserved":0,"last_update":"0001-01-01T00:00:00Z","name_a2s":"Uncletopia | Frankfurt | 2 | All Maps","protocol":17,"map":"cp_process_final","folder":"tf","game":"Team Fortress","app_id":440,"player_count":23,"max_players":24,"Bots":0,"server_type":"Dedicated","server_os":"Linux","password":true,"vac":true,"version":"7757534","steam_id":85568392924469990,"keywords":["cp","nocrits","nodmgspread","uncletopia"],"game_id":440,"stv_port":27026,"stv_name":"Uncletopia | Frankfurt | 2 | All Maps | STV","players":[{"user_id":535,"name":"DaviK","steam_id":76561198246990590,"connected_time":360000000000,"state":"active","ping":36},{"user_id":521,"name":"Suspicious Viktor","steam_id":76561198136496249,"connected_time":1620000000000,"state":"active","ping":61},{"user_id":534,"name":"Cryptic (she/her)","steam_id":76561198306932001,"connected_time":431000000000,"state":"active","ping":63},{"user_id":449,"name":"Spectral Sloth","steam_id":76561198170083139,"connected_time":5953000000000,"state":"active","ping":79},{"user_id":522,"name":"Mircoxi","steam_id":76561199407632710,"connected_time":1562000000000,"state":"active","ping":71},{"user_id":523,"name":"Milca_11 [Wielder of Ham]","steam_id":76561198848650365,"connected_time":1524000000000,"state":"active","ping":98},{"user_id":515,"name":"Topia","steam_id":76561198163571788,"connected_time":2427000000000,"state":"active","ping":81},{"user_id":481,"name":"Kotra","steam_id":76561198182860169,"connected_time":4069000000000,"state":"active","ping":89},{"user_id":491,"name":"♥ aura ♥","steam_id":76561198066258544,"connected_time":3207000000000,"state":"active","ping":59},{"user_id":492,"name":"British Disapproval","steam_id":76561198001375260,"connected_time":3204000000000,"state":"active","ping":61},{"user_id":501,"name":"TJ1212","steam_id":76561199013575313,"connected_time":3015000000000,"state":"active","ping":56},{"user_id":536,"name":"Nithle","steam_id":76561198025372740,"connected_time":223000000000,"state":"active","ping":46},{"user_id":533,"name":"Razorback from Team Fortress 2","steam_id":76561199214163032,"connected_time":469000000000,"state":"spawning","ping":375},{"user_id":508,"name":"Greg","steam_id":76561198014131702,"connected_time":2761000000000,"state":"active","ping":113},{"user_id":490,"name":"Mr. Mustard","steam_id":76561198025185606,"connected_time":3280000000000,"state":"active","ping":71},{"user_id":525,"name":"HarMala","steam_id":76561198055298143,"connected_time":1458000000000,"state":"active","ping":83},{"user_id":530,"name":"Bred Sheeran (real)","steam_id":76561198045692016,"connected_time":1257000000000,"state":"active","ping":50},{"user_id":510,"name":"Fallen Dog","steam_id":76561198851387188,"connected_time":2743000000000,"state":"active","ping":81},{"user_id":538,"name":"mat987","steam_id":76561198152125214,"connected_time":194000000000,"state":"active","ping":56},{"user_id":459,"name":"увынск","steam_id":76561198172046813,"connected_time":5709000000000,"state":"active","ping":75},{"user_id":531,"name":"etc","steam_id":76561197998394797,"connected_time":928000000000,"state":"active","ping":50},{"user_id":519,"name":"Rosenmontag","steam_id":76561198079477964,"connected_time":1955000000000,"state":"active","ping":52},{"user_id":539,"name":"Kaktus_kak","steam_id":76561198250938524,"connected_time":193000000000,"state":"active","ping":58}]},{"server_id":308,"name":"Uncletopia | Frankfurt | 3 | All Maps","name_short":"frk-3","host":"frk-1.de.uncletopia.com","port":27035,"enabled":true,"region":"eu","cc":"de","latitude":50.110924,"longitude":8.682127,"reserved":0,"last_update":"0001-01-01T00:00:00Z","name_a2s":"Uncletopia | Frankfurt | 3 | All Maps","protocol":17,"map":"cp_gorge","folder":"tf","game":"Team Fortress","app_id":440,"player_count":0,"max_players":24,"Bots":0,"server_type":"Dedicated","server_os":"Linux","password":true,"vac":true,"version":"7757534","steam_id":85568392924504274,"keywords":["cp","nocrits","nodmgspread","uncletopia"],"game_id":440,"stv_port":27036,"stv_name":"Uncletopia | Frankfurt | 3 | All Maps | STV","players":null},{"server_id":309,"name":"Uncletopia | Frankfurt | 4 | All Maps","name_short":"frk-4","host":"frk-1.de.uncletopia.com","port":27045,"enabled":true,"region":"eu","cc":"de","latitude":50.110924,"longitude":8.682127,"reserved":0,"last_update":"0001-01-01T00:00:00Z","name_a2s":"Uncletopia | Frankfurt | 4 | All Maps","protocol":17,"map":"pl_goldrush","folder":"tf","game":"Team Fortress","app_id":440,"player_count":15,"max_players":24,"Bots":0,"server_type":"Dedicated","server_os":"Linux","password":true,"vac":true,"version":"7757534","steam_id":85568392924504275,"keywords":["nocrits","nodmgspread","payload","uncletopia"],"game_id":440,"stv_port":27046,"stv_name":"Uncletopia | Frankfurt | 4 | All Maps | STV","players":[{"user_id":170,"name":"Grim","steam_id":76561198141464555,"connected_time":1964000000000,"state":"active","ping":73},{"user_id":197,"name":"Drazmax","steam_id":76561198116750395,"connected_time":392000000000,"state":"active","ping":77},{"user_id":198,"name":"ムGeRmAn |×UA×ム","steam_id":76561199044754898,"connected_time":362000000000,"state":"active","ping":74},{"user_id":166,"name":"Hey, I´m Andy!","steam_id":76561198060337777,"connected_time":2888000000000,"state":"active","ping":70},{"user_id":171,"name":"Tonne","steam_id":76561197970856766,"connected_time":1951000000000,"state":"active","ping":60},{"user_id":201,"name":"nyanezt","steam_id":76561198253734265,"connected_time":304000000000,"state":"active","ping":96},{"user_id":199,"name":"ivaiyo_64_bg","steam_id":76561199035170387,"connected_time":355000000000,"state":"active","ping":96},{"user_id":200,"name":"Flying skyhigh","steam_id":76561198372971096,"connected_time":316000000000,"state":"active","ping":84},{"user_id":102,"name":"El Gato Volador","steam_id":76561198021296882,"connected_time":7193000000000,"state":"active","ping":75},{"user_id":202,"name":"Mandele","steam_id":76561199183213205,"connected_time":284000000000,"state":"active","ping":114},{"user_id":185,"name":"Rusty Pickaxe Head","steam_id":76561198039254636,"connected_time":1488000000000,"state":"active","ping":65},{"user_id":177,"name":"if you die to me then do 5 push","steam_id":76561198839843428,"connected_time":1729000000000,"state":"active","ping":119},{"user_id":179,"name":"WHUSSKEY","steam_id":76561198137827441,"connected_time":1691000000000,"state":"active","ping":67},{"user_id":188,"name":"Tegnerud","steam_id":76561198214185612,"connected_time":1356000000000,"state":"active","ping":76},{"user_id":190,"name":"squids a Grandmaster","steam_id":76561199200296010,"connected_time":1243000000000,"state":"active","ping":177}]},{"server_id":310,"name":"Uncletopia | Frankfurt | 5 | All Maps","name_short":"frk-5","host":"frk-1.de.uncletopia.com","port":27055,"enabled":true,"region":"eu","cc":"de","latitude":50.110924,"longitude":8.682127,"reserved":0,"last_update":"0001-01-01T00:00:00Z","name_a2s":"Uncletopia | Frankfurt | 5 | All Maps","protocol":17,"map":"pl_frontier_final","folder":"tf","game":"Team Fortress","app_id":440,"player_count":23,"max_players":24,"Bots":0,"server_type":"Dedicated","server_os":"Linux","password":true,"vac":true,"version":"7757534","steam_id":85568392924504277,"keywords":["nocrits","nodmgspread","payload","uncletopia"],"game_id":440,"stv_port":27056,"stv_name":"Uncletopia | Frankfurt | 5 | All Maps | STV","players":[{"user_id":259,"name":"The Sex Defender","steam_id":76561198165732391,"connected_time":862000000000,"state":"active","ping":97},{"user_id":250,"name":"jge","steam_id":76561198123186387,"connected_time":2228000000000,"state":"active","ping":51},{"user_id":227,"name":"Cars","steam_id":76561198173329977,"connected_time":3302000000000,"state":"active","ping":66},{"user_id":145,"name":"radek","steam_id":76561197998883721,"connected_time":7407000000000,"state":"active","ping":80},{"user_id":239,"name":"SK1FF","steam_id":76561199223765849,"connected_time":2946000000000,"state":"active","ping":68},{"user_id":196,"name":"Ladi","steam_id":76561198047735194,"connected_time":4836000000000,"state":"active","ping":67},{"user_id":189,"name":"Paweł","steam_id":76561198354235190,"connected_time":4943000000000,"state":"active","ping":93},{"user_id":190,"name":"Blue","steam_id":76561198405163789,"connected_time":4925000000000,"state":"active","ping":73},{"user_id":249,"name":"KenPendersOfficial","steam_id":76561198065112022,"connected_time":2291000000000,"state":"active","ping":104},{"user_id":175,"name":"Vezage","steam_id":76561198064916164,"connected_time":5801000000000,"state":"active","ping":79},{"user_id":255,"name":"ProfessorCrack","steam_id":76561199035475627,"connected_time":1601000000000,"state":"active","ping":87},{"user_id":245,"name":"Creature from the piss drawer","steam_id":76561198055949151,"connected_time":2524000000000,"state":"active","ping":59},{"user_id":253,"name":"EastmoreRandoms.","steam_id":76561198048921203,"connected_time":1919000000000,"state":"active","ping":67},{"user_id":252,"name":"Guru","steam_id":76561198093853069,"connected_time":1963000000000,"state":"active","ping":60},{"user_id":210,"name":"modavak","steam_id":76561198946290908,"connected_time":4251000000000,"state":"active","ping":91},{"user_id":230,"name":"$nØw","steam_id":76561198238781028,"connected_time":3187000000000,"state":"active","ping":100},{"user_id":260,"name":"Psycho","steam_id":76561198084918608,"connected_time":853000000000,"state":"active","ping":59},{"user_id":234,"name":"Toasty5050","steam_id":76561198073540881,"connected_time":3138000000000,"state":"active","ping":47},{"user_id":263,"name":"jovi_","steam_id":76561198449280552,"connected_time":416000000000,"state":"active","ping":67},{"user_id":262,"name":"kamekame","steam_id":76561198047108054,"connected_time":565000000000,"state":"active","ping":100},{"user_id":264,"name":"AmadStatistician","steam_id":76561198163654770,"connected_time":2000000000,"state":"spawning","ping":53},{"user_id":261,"name":"Deacon Dracul","steam_id":76561198046880663,"connected_time":800000000000,"state":"active","ping":101},{"user_id":251,"name":"Rimx","steam_id":76561198053034840,"connected_time":2101000000000,"state":"active","ping":95}]},{"server_id":311,"name":"Uncletopia | Frankfurt | 6 | All Maps","name_short":"frk-6","host":"frk-1.de.uncletopia.com","port":27065,"enabled":true,"region":"eu","cc":"de","latitude":50.110924,"longitude":8.682127,"reserved":0,"last_update":"0001-01-01T00:00:00Z","name_a2s":"Uncletopia | Frankfurt | 6 | All Maps","protocol":17,"map":"pl_badwater","folder":"tf","game":"Team Fortress","app_id":440,"player_count":24,"max_players":24,"Bots":0,"server_type":"Dedicated","server_os":"Linux","password":true,"vac":true,"version":"7757534","steam_id":85568392924504278,"keywords":["nocrits","nodmgspread","payload","uncletopia"],"game_id":440,"stv_port":27066,"stv_name":"Uncletopia | Frankfurt | 6 | All Maps | STV","players":[{"user_id":366,"name":"walluu","steam_id":76561198121830870,"connected_time":1550000000000,"state":"active","ping":72},{"user_id":294,"name":"Reichskanzlerl✙","steam_id":76561199010757888,"connected_time":5990000000000,"state":"active","ping":67},{"user_id":379,"name":"Mayor Wank from Wanker Town","steam_id":76561197998253588,"connected_time":920000000000,"state":"active","ping":45},{"user_id":380,"name":"G.R.E","steam_id":76561197979806514,"connected_time":906000000000,"state":"active","ping":44},{"user_id":316,"name":"suleli","steam_id":76561199006199283,"connected_time":4568000000000,"state":"active","ping":85},{"user_id":370,"name":"mary","steam_id":76561198014828037,"connected_time":1423000000000,"state":"active","ping":70},{"user_id":377,"name":"Josh","steam_id":76561198274546904,"connected_time":1048000000000,"state":"active","ping":154},{"user_id":369,"name":"Dio","steam_id":76561198117685434,"connected_time":1446000000000,"state":"active","ping":86},{"user_id":356,"name":"The Law","steam_id":76561198080974454,"connected_time":2361000000000,"state":"active","ping":159},{"user_id":319,"name":"Kocham Wode z Filtra","steam_id":76561198016042113,"connected_time":4520000000000,"state":"active","ping":78},{"user_id":361,"name":"usia","steam_id":76561198120406679,"connected_time":2206000000000,"state":"active","ping":88},{"user_id":381,"name":"LionKing","steam_id":76561198023399545,"connected_time":880000000000,"state":"active","ping":56},{"user_id":383,"name":"sup3rfr3ddy.","steam_id":76561198119371683,"connected_time":536000000000,"state":"active","ping":56},{"user_id":362,"name":"Popop","steam_id":76561198004793795,"connected_time":2160000000000,"state":"active","ping":55},{"user_id":358,"name":"XPullaHiiri","steam_id":76561198031652375,"connected_time":2297000000000,"state":"active","ping":97},{"user_id":375,"name":"Washburne","steam_id":76561198032810579,"connected_time":1229000000000,"state":"active","ping":66},{"user_id":385,"name":"proph","steam_id":76561197998803950,"connected_time":228000000000,"state":"active","ping":54},{"user_id":384,"name":"Lyncurion","steam_id":76561199260022725,"connected_time":270000000000,"state":"active","ping":82},{"user_id":310,"name":"Bullet","steam_id":76561198827294634,"connected_time":5360000000000,"state":"active","ping":72},{"user_id":382,"name":"RIFT","steam_id":76561198991622379,"connected_time":859000000000,"state":"active","ping":56},{"user_id":368,"name":"Strom","steam_id":76561198075293198,"connected_time":1526000000000,"state":"active","ping":74},{"user_id":378,"name":"Tohtori gerhard (official)","steam_id":76561198835081622,"connected_time":991000000000,"state":"active","ping":97},{"user_id":387,"name":"holykyckling","steam_id":76561198040661615,"connected_time":21000000000,"state":"active","ping":75},{"user_id":388,"name":"bad farter","steam_id":76561198261853441,"connected_time":21000000000,"state":"active","ping":103}]},{"server_id":23,"name":"Uncletopia | Frankfurt | 7 | Stopwatch Beta","name_short":"frk-7","host":"frk-1.de.uncletopia.com","port":27075,"enabled":true,"region":"eu","cc":"de","latitude":50.110924,"longitude":8.682127,"reserved":0,"last_update":"0001-01-01T00:00:00Z","name_a2s":"Uncletopia | Frankfurt | 7 | Stopwatch Beta","protocol":17,"map":"cp_sunshine","folder":"tf","game":"Team Fortress","app_id":440,"player_count":0,"max_players":24,"Bots":0,"server_type":"Dedicated","server_os":"Linux","password":true,"vac":true,"version":"7757534","steam_id":85568392924742827,"keywords":["cp","nocrits","nodmgspread","uncletopia"],"game_id":440,"stv_port":27076,"stv_name":"Uncletopia | Frankfurt | 7 | Stopwatch Beta | STV","players":null},{"server_id":24,"name":"Uncletopia | Frankfurt | 8 | Community","name_short":"frk-8","host":"frk-1.de.uncletopia.com","port":27085,"enabled":true,"region":"eu","cc":"de","latitude":50.110924,"longitude":8.682127,"reserved":0,"last_update":"0001-01-01T00:00:00Z","name_a2s":"Uncletopia | Frankfurt | 8 | Community","protocol":17,"map":"workshop/koth_trenchfoot_b1a.ugc731436616","folder":"tf","game":"Team Fortress","app_id":440,"player_count":4,"max_players":24,"Bots":0,"server_type":"Dedicated","server_os":"Linux","password":true,"vac":true,"version":"7757534","steam_id":85568392924742828,"keywords":["cp","nocrits","nodmgspread","uncletopia"],"game_id":440,"stv_port":27086,"stv_name":"Uncletopia | Frankfurt | 8 | Community | STV","players":[{"user_id":15,"name":"Kiz","steam_id":76561198811732820,"connected_time":121000000000,"state":"active","ping":79},{"user_id":16,"name":"DicyPicky","steam_id":76561198078873335,"connected_time":80000000000,"state":"active","ping":59},{"user_id":17,"name":"me potato","steam_id":76561199399647325,"connected_time":47000000000,"state":"active","ping":82},{"user_id":18,"name":"Monday","steam_id":76561198348366085,"connected_time":4000000000,"state":"spawning","ping":88}]},{"server_id":202,"name":"Uncletopia | Hong Kong | 1 | All Maps","name_short":"hgk-1","host":"hgk-1.hk.uncletopia.com","port":27015,"enabled":true,"region":"asia","cc":"hk","latitude":22.302711,"longitude":114.177216,"reserved":0,"last_update":"0001-01-01T00:00:00Z","name_a2s":"Uncletopia | Hong Kong | 1 | All Maps","protocol":17,"map":"koth_cascade","folder":"tf","game":"Team Fortress","app_id":440,"player_count":0,"max_players":24,"Bots":0,"server_type":"Dedicated","server_os":"Linux","password":true,"vac":true,"version":"7757534","steam_id":85568392924494504,"keywords":["cp","nocrits","nodmgspread","uncletopia"],"game_id":440,"stv_port":27016,"stv_name":"Uncletopia | Hong Kong | 1 | All Maps | STV","players":null},{"server_id":1,"name":"Uncletopia | Los Angeles | 1 | All Maps","name_short":"lax-1","host":"lax-1.us.uncletopia.com","port":27015,"enabled":true,"region":"us-west","cc":"us","latitude":33.94279,"longitude":-118.41004,"reserved":0,"last_update":"0001-01-01T00:00:00Z","name_a2s":"Uncletopia | Los Angeles | 1 | All Maps","protocol":17,"map":"pl_snowycoast","folder":"tf","game":"Team Fortress","app_id":440,"player_count":0,"max_players":24,"Bots":0,"server_type":"Dedicated","server_os":"Linux","password":true,"vac":true,"version":"7757534","steam_id":85568392924469991,"keywords":["nocrits","nodmgspread","payload","uncletopia"],"game_id":440,"stv_port":27016,"stv_name":"Uncletopia | Los Angeles | 1 | All Maps | STV","players":null},{"server_id":112,"name":"Uncletopia | Los Angeles | 2 | All Maps","name_short":"lax-2","host":"lax-1.us.uncletopia.com","port":27025,"enabled":true,"region":"us-west","cc":"us","latitude":33.94279,"longitude":-118.41004,"reserved":0,"last_update":"0001-01-01T00:00:00Z","name_a2s":"Uncletopia | Los Angeles | 2 | All Maps","protocol":17,"map":"pl_borneo","folder":"tf","game":"Team Fortress","app_id":440,"player_count":0,"max_players":24,"Bots":0,"server_type":"Dedicated","server_os":"Linux","password":true,"vac":true,"version":"7757534","steam_id":85568392924469992,"keywords":["nocrits","nodmgspread","payload","uncletopia"],"game_id":440,"stv_port":27026,"stv_name":"Uncletopia | Los Angeles | 2 | All Maps | STV","players":null},{"server_id":324,"name":"Uncletopia | Los Angeles | 3 | All Maps","name_short":"lax-3","host":"lax-1.us.uncletopia.com","port":27035,"enabled":true,"region":"us-west","cc":"us","latitude":33.94279,"longitude":-118.41004,"reserved":0,"last_update":"0001-01-01T00:00:00Z","name_a2s":"Uncletopia | Los Angeles | 3 | All Maps","protocol":17,"map":"cp_process_final","folder":"tf","game":"Team Fortress","app_id":440,"player_count":0,"max_players":24,"Bots":0,"server_type":"Dedicated","server_os":"Linux","password":true,"vac":true,"version":"7757534","steam_id":85568392924510198,"keywords":["cp","nocrits","nodmgspread","uncletopia"],"game_id":440,"stv_port":27036,"stv_name":"Uncletopia | Los Angeles | 3 | All Maps | STV","players":null},{"server_id":25,"name":"Uncletopia | Los Angeles | 4 | Stopwatch Beta","name_short":"lax-4","host":"lax-1.us.uncletopia.com","port":27045,"enabled":true,"region":"us-west","cc":"us","latitude":33.94279,"longitude":-118.41004,"reserved":0,"last_update":"0001-01-01T00:00:00Z","name_a2s":"Uncletopia | Los Angeles | 4 | Stopwatch Beta","protocol":17,"map":"pl_swiftwater_final1","folder":"tf","game":"Team Fortress","app_id":440,"player_count":0,"max_players":24,"Bots":0,"server_type":"Dedicated","server_os":"Linux","password":true,"vac":true,"version":"7757534","steam_id":85568392924510199,"keywords":["nocrits","nodmgspread","payload","uncletopia"],"game_id":440,"stv_port":27046,"stv_name":"Uncletopia | Los Angeles | 4 | Stopwatch Beta | STV","players":null},{"server_id":11,"name":"Uncletopia | London | 1 | All Maps","name_short":"lon-1","host":"lon-1.uk.uncletopia.com","port":27015,"enabled":true,"region":"eu","cc":"gb","latitude":51.509865,"longitude":-0.118092,"reserved":0,"last_update":"0001-01-01T00:00:00Z","name_a2s":"Uncletopia | London | 1 | All Maps","protocol":17,"map":"pl_borneo","folder":"tf","game":"Team Fortress","app_id":440,"player_count":22,"max_players":24,"Bots":0,"server_type":"Dedicated","server_os":"Linux","password":true,"vac":true,"version":"7757534","steam_id":85568392924367362,"keywords":["nocrits","nodmgspread","payload","uncletopia"],"game_id":440,"stv_port":27016,"stv_name":"Uncletopia | London | 1 | All Maps | STV","players":[{"user_id":616,"name":"| ThePro | People are afraid","steam_id":76561198089330547,"connected_time":645000000000,"state":"active","ping":54},{"user_id":607,"name":"Strafely","steam_id":76561199242567438,"connected_time":1104000000000,"state":"active","ping":75},{"user_id":623,"name":"skitarii enjoyer","steam_id":76561198220245604,"connected_time":518000000000,"state":"active","ping":65},{"user_id":563,"name":"goblinninja110","steam_id":76561198269159354,"connected_time":3899000000000,"state":"active","ping":60},{"user_id":617,"name":"rock","steam_id":76561198093488870,"connected_time":636000000000,"state":"active","ping":60},{"user_id":582,"name":"Ocelot","steam_id":76561198263386006,"connected_time":2458000000000,"state":"active","ping":113},{"user_id":627,"name":"RocK Knight","steam_id":76561198186054573,"connected_time":8000000000,"state":"spawning","ping":111},{"user_id":553,"name":"butts","steam_id":76561198060105180,"connected_time":4573000000000,"state":"active","ping":74},{"user_id":628,"name":"f2p","steam_id":76561198809697283,"connected_time":5000000000,"state":"spawning","ping":47},{"user_id":624,"name":"H...","steam_id":76561197984299377,"connected_time":511000000000,"state":"active","ping":29},{"user_id":614,"name":"trite","steam_id":76561197983765323,"connected_time":690000000000,"state":"active","ping":56},{"user_id":589,"name":"Smart Monkey","steam_id":76561198063930409,"connected_time":2381000000000,"state":"active","ping":80},{"user_id":605,"name":"69 ME 2NITE","steam_id":76561199124261801,"connected_time":1255000000000,"state":"active","ping":132},{"user_id":626,"name":"dr.schmecle","steam_id":76561198118407436,"connected_time":107000000000,"state":"active","ping":45},{"user_id":620,"name":"Dope","steam_id":76561198318858892,"connected_time":593000000000,"state":"active","ping":57},{"user_id":613,"name":"NuGs","steam_id":76561198305550934,"connected_time":849000000000,"state":"active","ping":80},{"user_id":592,"name":"wasto-/-™","steam_id":76561198102888038,"connected_time":2355000000000,"state":"active","ping":56},{"user_id":621,"name":"GUSSI","steam_id":76561198066837838,"connected_time":585000000000,"state":"active","ping":60},{"user_id":612,"name":"Kretur","steam_id":76561198161086266,"connected_time":874000000000,"state":"active","ping":103},{"user_id":594,"name":"ุ","steam_id":76561198045466919,"connected_time":2314000000000,"state":"active","ping":65},{"user_id":606,"name":"One Hop Dis Time *BWRAB*","steam_id":76561198146081601,"connected_time":1211000000000,"state":"active","ping":56},{"user_id":611,"name":"Accident","steam_id":76561198115160396,"connected_time":1020000000000,"state":"active","ping":67}]},{"server_id":114,"name":"Uncletopia | London | 2 | All Maps","name_short":"lon-2","host":"lon-1.uk.uncletopia.com","port":27025,"enabled":true,"region":"eu","cc":"gb","latitude":51.509865,"longitude":-0.118092,"reserved":0,"last_update":"0001-01-01T00:00:00Z","name_a2s":"Uncletopia | London | 2 | All Maps","protocol":17,"map":"pl_upward","folder":"tf","game":"Team Fortress","app_id":440,"player_count":24,"max_players":24,"Bots":0,"server_type":"Dedicated","server_os":"Linux","password":true,"vac":true,"version":"7757534","steam_id":85568392924470941,"keywords":["nocrits","nodmgspread","payload","uncletopia"],"game_id":440,"stv_port":27026,"stv_name":"Uncletopia | London | 2 | All Maps | STV","players":[{"user_id":625,"name":"Zenssei","steam_id":76561198209895623,"connected_time":244000000000,"state":"active","ping":101},{"user_id":604,"name":"big poo","steam_id":76561198129157178,"connected_time":666000000000,"state":"active","ping":89},{"user_id":607,"name":"Punchy","steam_id":76561197961020896,"connected_time":505000000000,"state":"active","ping":62},{"user_id":582,"name":"DeSepp","steam_id":76561198063149086,"connected_time":3321000000000,"state":"active","ping":68},{"user_id":618,"name":"quickfast","steam_id":76561199438900919,"connected_time":389000000000,"state":"active","ping":42},{"user_id":608,"name":"Agro | KritzKast","steam_id":76561197970498549,"connected_time":483000000000,"state":"active","ping":45},{"user_id":587,"name":"Lix","steam_id":76561198130779816,"connected_time":2714000000000,"state":"active","ping":58},{"user_id":614,"name":"Krabs","steam_id":76561198161679477,"connected_time":410000000000,"state":"active","ping":45},{"user_id":442,"name":"Ketich","steam_id":76561198021772703,"connected_time":9073000000000,"state":"active","ping":80},{"user_id":603,"name":"JOHN GAMING (#1 gunspy)","steam_id":76561199085822219,"connected_time":1069000000000,"state":"active","ping":86},{"user_id":609,"name":"TheJudgeShot","steam_id":76561198105060723,"connected_time":476000000000,"state":"active","ping":61},{"user_id":610,"name":"vadr","steam_id":76561198334528186,"connected_time":468000000000,"state":"active","ping":45},{"user_id":612,"name":"Yaire","steam_id":76561198017343510,"connected_time":446000000000,"state":"active","ping":55},{"user_id":615,"name":"Lurid","steam_id":76561198313976365,"connected_time":407000000000,"state":"active","ping":50},{"user_id":621,"name":"slightly drunk","steam_id":76561199184873889,"connected_time":365000000000,"state":"active","ping":70},{"user_id":487,"name":"It's a me Malario","steam_id":76561198176546013,"connected_time":7074000000000,"state":"active","ping":50},{"user_id":616,"name":"someone who bought Hogwarts","steam_id":76561198262182989,"connected_time":404000000000,"state":"active","ping":56},{"user_id":626,"name":"Joe","steam_id":76561197975480605,"connected_time":237000000000,"state":"active","ping":40},{"user_id":619,"name":"rák","steam_id":76561198175114914,"connected_time":389000000000,"state":"active","ping":78},{"user_id":623,"name":"Menny","steam_id":76561197992054834,"connected_time":331000000000,"state":"active","ping":60},{"user_id":622,"name":"G6 sherlock","steam_id":76561198802967796,"connected_time":360000000000,"state":"active","ping":109},{"user_id":624,"name":"acskama","steam_id":76561198136743845,"connected_time":326000000000,"state":"active","ping":75},{"user_id":599,"name":"The_Jaystone","steam_id":76561198126280691,"connected_time":1914000000000,"state":"active","ping":36}]},{"server_id":320,"name":"Uncletopia | London | 3 | All Maps","name_short":"lon-3","host":"lon-1.uk.uncletopia.com","port":27035,"enabled":true,"region":"eu","cc":"gb","latitude":51.509865,"longitude":-0.118092,"reserved":0,"last_update":"0001-01-01T00:00:00Z","name_a2s":"Uncletopia | London | 3 | All Maps","protocol":17,"map":"pl_upward","folder":"tf","game":"Team Fortress","app_id":440,"player_count":3,"max_players":24,"Bots":0,"server_type":"Dedicated","server_os":"Linux","password":true,"vac":true,"version":"7757534","steam_id":85568392924510192,"keywords":["nocrits","nodmgspread","payload","uncletopia"],"game_id":440,"stv_port":27036,"stv_name":"Uncletopia | London | 3 | All Maps | STV","players":[{"user_id":39,"name":"rrm#4395","steam_id":76561199225339381,"connected_time":176000000000,"state":"active","ping":47},{"user_id":33,"name":"penis gaming","steam_id":76561199198623988,"connected_time":1383000000000,"state":"active","ping":59},{"user_id":36,"name":"iamalpharius","steam_id":76561199122885239,"connected_time":1269000000000,"state":"active","ping":54}]},{"server_id":321,"name":"Uncletopia | London | 4 | All Maps","name_short":"lon-4","host":"lon-1.uk.uncletopia.com","port":27045,"enabled":true,"region":"eu","cc":"gb","latitude":51.509865,"longitude":-0.118092,"reserved":0,"last_update":"0001-01-01T00:00:00Z","name_a2s":"Uncletopia | London | 4 | All Maps","protocol":17,"map":"cp_sunshine","folder":"tf","game":"Team Fortress","app_id":440,"player_count":20,"max_players":24,"Bots":0,"server_type":"Dedicated","server_os":"Linux","password":true,"vac":true,"version":"7757534","steam_id":85568392924510193,"keywords":["cp","nocrits","nodmgspread","uncletopia"],"game_id":440,"stv_port":27046,"stv_name":"Uncletopia | London | 4 | All Maps | STV","players":[{"user_id":195,"name":"a convicted felon","steam_id":76561198058012525,"connected_time":986000000000,"state":"active","ping":77},{"user_id":156,"name":"chief keef*venomxhairs","steam_id":76561198083063005,"connected_time":1724000000000,"state":"active","ping":40},{"user_id":212,"name":"One Shiny Boi™","steam_id":76561198199193627,"connected_time":166000000000,"state":"active","ping":70},{"user_id":215,"name":"Wimpen","steam_id":76561198168324226,"connected_time":115000000000,"state":"active","ping":84},{"user_id":210,"name":"JULIUS","steam_id":76561198092223605,"connected_time":379000000000,"state":"active","ping":61},{"user_id":196,"name":"Envy","steam_id":76561198132723219,"connected_time":844000000000,"state":"active","ping":107},{"user_id":213,"name":"Panda","steam_id":76561198176342325,"connected_time":135000000000,"state":"active","ping":93},{"user_id":124,"name":"James","steam_id":76561198138558005,"connected_time":2400000000000,"state":"active","ping":47},{"user_id":199,"name":"Hoff","steam_id":76561198138540938,"connected_time":779000000000,"state":"active","ping":81},{"user_id":216,"name":"robotman5","steam_id":76561197996783330,"connected_time":95000000000,"state":"active","ping":143},{"user_id":162,"name":"sumire*venomxhairs","steam_id":76561198072250111,"connected_time":1575000000000,"state":"active","ping":47},{"user_id":201,"name":"flange","steam_id":76561198040182692,"connected_time":743000000000,"state":"active","ping":38},{"user_id":94,"name":"Doecheldorf","steam_id":76561198291628630,"connected_time":2972000000000,"state":"active","ping":59},{"user_id":45,"name":"kita ikuYOOOOOOOOOOOOOOOOOOOOOO","steam_id":76561198148074472,"connected_time":4616000000000,"state":"active","ping":45},{"user_id":182,"name":"🌭 peak*venomxhairs","steam_id":76561198088125671,"connected_time":1353000000000,"state":"active","ping":61},{"user_id":202,"name":"Pilaarius","steam_id":76561198120273212,"connected_time":734000000000,"state":"active","ping":100},{"user_id":47,"name":"Ita","steam_id":76561198147277460,"connected_time":4598000000000,"state":"active","ping":60},{"user_id":205,"name":"Not A Fake Uncletopia Server","steam_id":76561198152871288,"connected_time":601000000000,"state":"active","ping":63},{"user_id":154,"name":"Spamm","steam_id":76561198111432254,"connected_time":1756000000000,"state":"active","ping":77},{"user_id":188,"name":"owlsie","steam_id":76561198094883280,"connected_time":1255000000000,"state":"active","ping":59}]},{"server_id":21,"name":"Uncletopia | London | 5 | All Maps","name_short":"lon-5","host":"lon-1.uk.uncletopia.com","port":27055,"enabled":true,"region":"eu","cc":"gb","latitude":51.509865,"longitude":-0.118092,"reserved":0,"last_update":"0001-01-01T00:00:00Z","name_a2s":"Uncletopia | London | 5 | All Maps","protocol":17,"map":"pl_pier","folder":"tf","game":"Team Fortress","app_id":440,"player_count":1,"max_players":24,"Bots":0,"server_type":"Dedicated","server_os":"Linux","password":true,"vac":true,"version":"7757534","steam_id":85568392924742829,"keywords":["nocrits","nodmgspread","payload","uncletopia"],"game_id":440,"stv_port":27056,"stv_name":"Uncletopia | London | 5 | All Maps | STV","players":[{"user_id":10,"name":"TSM L9 [Crz]dokiichi*XD (et)","steam_id":76561198958441113,"connected_time":111000000000,"state":"active","ping":96}]},{"server_id":22,"name":"Uncletopia | London | 6 | All Maps","name_short":"lon-6","host":"lon-1.uk.uncletopia.com","port":27065,"enabled":true,"region":"eu","cc":"gb","latitude":51.509865,"longitude":-0.118092,"reserved":0,"last_update":"0001-01-01T00:00:00Z","name_a2s":"Uncletopia | London | 6 | All Maps","protocol":17,"map":"pl_borneo","folder":"tf","game":"Team Fortress","app_id":440,"player_count":24,"max_players":24,"Bots":0,"server_type":"Dedicated","server_os":"Linux","password":true,"vac":true,"version":"7757534","steam_id":85568392924742830,"keywords":["nocrits","nodmgspread","payload","uncletopia"],"game_id":440,"stv_port":27066,"stv_name":"Uncletopia | London | 6 | All Maps | STV","players":[{"user_id":356,"name":"『Dorarhim』","steam_id":76561198220232352,"connected_time":1753000000000,"state":"active","ping":59},{"user_id":374,"name":"Graytust Gaymar","steam_id":76561199057844390,"connected_time":163000000000,"state":"active","ping":189},{"user_id":357,"name":"Elix","steam_id":76561199072306920,"connected_time":1662000000000,"state":"active","ping":101},{"user_id":294,"name":"Aroo","steam_id":76561198132601368,"connected_time":6156000000000,"state":"active","ping":78},{"user_id":369,"name":"Creative","steam_id":76561198835034247,"connected_time":636000000000,"state":"active","ping":75},{"user_id":359,"name":"rmz.ssj","steam_id":76561198329613930,"connected_time":1576000000000,"state":"active","ping":52},{"user_id":367,"name":"Donlion","steam_id":76561198080999382,"connected_time":1072000000000,"state":"active","ping":45},{"user_id":324,"name":"JaneDoe","steam_id":76561198067081506,"connected_time":4477000000000,"state":"active","ping":86},{"user_id":373,"name":"bakker van't stad","steam_id":76561197976798170,"connected_time":225000000000,"state":"active","ping":53},{"user_id":372,"name":"KnugenIV","steam_id":76561198127091993,"connected_time":359000000000,"state":"active","ping":67},{"user_id":376,"name":"Michael","steam_id":76561198003146906,"connected_time":66000000000,"state":"active","ping":45},{"user_id":330,"name":"LOBZIK","steam_id":76561198114830120,"connected_time":4164000000000,"state":"active","ping":78},{"user_id":375,"name":"emo (real)","steam_id":76561198043836847,"connected_time":136000000000,"state":"active","ping":74},{"user_id":327,"name":"willus212","steam_id":76561199182615246,"connected_time":4340000000000,"state":"active","ping":98},{"user_id":345,"name":"flr","steam_id":76561198249327786,"connected_time":3209000000000,"state":"active","ping":61},{"user_id":338,"name":"Jan.","steam_id":76561197974066329,"connected_time":3495000000000,"state":"active","ping":60},{"user_id":365,"name":"fregaropa","steam_id":76561198150806166,"connected_time":1267000000000,"state":"active","ping":85},{"user_id":346,"name":"TekkiShodanPL","steam_id":76561198047064015,"connected_time":3195000000000,"state":"active","ping":52},{"user_id":352,"name":"TEN YEARS IN THE JOINT","steam_id":76561198393528841,"connected_time":2479000000000,"state":"active","ping":103},{"user_id":337,"name":"Aight","steam_id":76561198300453404,"connected_time":3515000000000,"state":"active","ping":78},{"user_id":332,"name":"silicon based life form","steam_id":76561199127121346,"connected_time":4108000000000,"state":"active","ping":57},{"user_id":350,"name":"Wir suchen dich!","steam_id":76561198307613521,"connected_time":2760000000000,"state":"active","ping":60},{"user_id":348,"name":"Oki (Bon)","steam_id":76561199047748534,"connected_time":3025000000000,"state":"active","ping":59},{"user_id":371,"name":"Croffsi","steam_id":76561198079985921,"connected_time":465000000000,"state":"active","ping":71}]},{"server_id":40,"name":"Uncletopia | London | 7 | No Payload","name_short":"lon-7","host":"lon-1.uk.uncletopia.com","port":27075,"enabled":true,"region":"eu","cc":"gb","latitude":51.509865,"longitude":-0.118092,"reserved":0,"last_update":"0001-01-01T00:00:00Z","name_a2s":"Uncletopia | London | 7 | No Payload","protocol":17,"map":"koth_lakeside_final","folder":"tf","game":"Team Fortress","app_id":440,"player_count":16,"max_players":24,"Bots":0,"server_type":"Dedicated","server_os":"Linux","password":true,"vac":true,"version":"7757534","steam_id":85568392924964314,"keywords":["cp","nocrits","nodmgspread","uncletopia"],"game_id":440,"stv_port":27076,"stv_name":"Uncletopia | London | 7 | No Payload | STV","players":[{"user_id":44,"name":"Quack","steam_id":76561198048712219,"connected_time":208000000000,"state":"active","ping":68},{"user_id":45,"name":"Glitch","steam_id":76561198309789756,"connected_time":159000000000,"state":"active","ping":70},{"user_id":13,"name":"Mobster Tortoise","steam_id":76561199036837091,"connected_time":3192000000000,"state":"active","ping":90},{"user_id":42,"name":"Famished Capybara","steam_id":76561198799282784,"connected_time":383000000000,"state":"active","ping":57},{"user_id":37,"name":"Man (Real)","steam_id":76561198170609049,"connected_time":1097000000000,"state":"active","ping":68},{"user_id":32,"name":"Fat Pigeon","steam_id":76561198817940142,"connected_time":1321000000000,"state":"active","ping":46},{"user_id":39,"name":"Magirby","steam_id":76561198818777390,"connected_time":773000000000,"state":"active","ping":111},{"user_id":19,"name":"NotFionn","steam_id":76561198890525176,"connected_time":2786000000000,"state":"active","ping":77},{"user_id":20,"name":"HADID_sex_god","steam_id":76561198302623594,"connected_time":2767000000000,"state":"active","ping":98},{"user_id":46,"name":"lulu","steam_id":76561199147764133,"connected_time":153000000000,"state":"active","ping":64},{"user_id":34,"name":"QuickMan","steam_id":76561199182954152,"connected_time":1205000000000,"state":"active","ping":170},{"user_id":47,"name":"thebananabomb00","steam_id":76561198296409283,"connected_time":120000000000,"state":"active","ping":89},{"user_id":40,"name":"cropping","steam_id":76561198026586456,"connected_time":651000000000,"state":"active","ping":58},{"user_id":38,"name":"mrkipcak","steam_id":76561199079282410,"connected_time":967000000000,"state":"active","ping":91},{"user_id":41,"name":"lark","steam_id":76561198091724522,"connected_time":616000000000,"state":"active","ping":48},{"user_id":48,"name":"Rat King","steam_id":76561198256783599,"connected_time":78000000000,"state":"active","ping":53}]},{"server_id":41,"name":"Uncletopia | London | 8 | Community","name_short":"lon-8","host":"lon-1.uk.uncletopia.com","port":27085,"enabled":true,"region":"eu","cc":"gb","latitude":51.509865,"longitude":-0.118092,"reserved":0,"last_update":"0001-01-01T00:00:00Z","name_a2s":"Uncletopia | London | 8 | Community","protocol":17,"map":"pl_barnblitz","folder":"tf","game":"Team Fortress","app_id":440,"player_count":0,"max_players":24,"Bots":0,"server_type":"Dedicated","server_os":"Linux","password":true,"vac":true,"version":"7757534","steam_id":85568392924964315,"keywords":["nocrits","nodmgspread","payload","uncletopia"],"game_id":440,"stv_port":27086,"stv_name":"Uncletopia | London | 8 | Community | STV","players":null},{"server_id":300,"name":"Uncletopia | Montréal | 1 | All Maps","name_short":"mtl-1","host":"mtl-1.ca.uncletopia.com","port":27015,"enabled":true,"region":"us-east","cc":"ca","latitude":45.50889,"longitude":-73.56167,"reserved":0,"last_update":"0001-01-01T00:00:00Z","name_a2s":"Uncletopia | Montréal | 1 | All Maps","protocol":17,"map":"pl_frontier_final","folder":"tf","game":"Team Fortress","app_id":440,"player_count":0,"max_players":24,"Bots":0,"server_type":"Dedicated","server_os":"Linux","password":true,"vac":true,"version":"7757534","steam_id":85568392924500087,"keywords":["nocrits","nodmgspread","payload","uncletopia"],"game_id":440,"stv_port":27016,"stv_name":"Uncletopia | Montréal | 1 | All Maps | STV","players":null},{"server_id":301,"name":"Uncletopia | Montréal | 2 | All Maps","name_short":"mtl-2","host":"mtl-1.ca.uncletopia.com","port":27025,"enabled":true,"region":"us-east","cc":"ca","latitude":45.50889,"longitude":-73.56167,"reserved":0,"last_update":"0001-01-01T00:00:00Z","name_a2s":"Uncletopia | Montréal | 2 | All Maps","protocol":17,"map":"pl_snowycoast","folder":"tf","game":"Team Fortress","app_id":440,"player_count":0,"max_players":24,"Bots":0,"server_type":"Dedicated","server_os":"Linux","password":true,"vac":true,"version":"7757534","steam_id":85568392924500088,"keywords":["nocrits","nodmgspread","payload","uncletopia"],"game_id":440,"stv_port":27026,"stv_name":"Uncletopia | Montréal | 2 | All Maps | STV","players":null},{"server_id":302,"name":"Uncletopia | Montréal | 3 | All Maps","name_short":"mtl-3","host":"mtl-1.ca.uncletopia.com","port":27035,"enabled":true,"region":"us-east","cc":"ca","latitude":45.50889,"longitude":-73.56167,"reserved":0,"last_update":"0001-01-01T00:00:00Z","name_a2s":"Uncletopia | Montréal | 3 | All Maps","protocol":17,"map":"pl_swiftwater_final1","folder":"tf","game":"Team Fortress","app_id":440,"player_count":0,"max_players":24,"Bots":0,"server_type":"Dedicated","server_os":"Linux","password":true,"vac":true,"version":"7757534","steam_id":85568392924500089,"keywords":["nocrits","nodmgspread","payload","uncletopia"],"game_id":440,"stv_port":27036,"stv_name":"Uncletopia | Montréal | 3 | All Maps | STV","players":null},{"server_id":303,"name":"Uncletopia | Montréal | 4 | No Payload","name_short":"mtl-4","host":"mtl-1.ca.uncletopia.com","port":27045,"enabled":true,"region":"us-east","cc":"ca","latitude":45.50889,"longitude":-73.56167,"reserved":0,"last_update":"0001-01-01T00:00:00Z","name_a2s":"Uncletopia | Montréal | 4 | No Payload","protocol":17,"map":"ctf_sawmill","folder":"tf","game":"Team Fortress","app_id":440,"player_count":0,"max_players":24,"Bots":0,"server_type":"Dedicated","server_os":"Linux","password":true,"vac":true,"version":"7757534","steam_id":85568392924500090,"keywords":["ctf","nocrits","nodmgspread","uncletopia"],"game_id":440,"stv_port":27046,"stv_name":"Uncletopia | Montréal | 4 | No Payload | STV","players":null},{"server_id":13,"name":"Uncletopia | New York City | 1 | All Maps","name_short":"nyc-1","host":"nyc-1.us.uncletopia.com","port":27015,"enabled":true,"region":"us-east","cc":"us","latitude":40.73061,"longitude":-73.93524,"reserved":0,"last_update":"0001-01-01T00:00:00Z","name_a2s":"Uncletopia | New York City | 1 | All Maps","protocol":17,"map":"pl_frontier_final","folder":"tf","game":"Team Fortress","app_id":440,"player_count":18,"max_players":24,"Bots":0,"server_type":"Dedicated","server_os":"Linux","password":true,"vac":true,"version":"7757534","steam_id":85568392924469993,"keywords":["nocrits","nodmgspread","payload","uncletopia"],"game_id":440,"stv_port":27016,"stv_name":"Uncletopia | New York City | 1 | All Maps | STV","players":[{"user_id":274,"name":"Kiwimpediment","steam_id":76561198322781400,"connected_time":219000000000,"state":"active","ping":83},{"user_id":278,"name":"PileofPolygons","steam_id":76561199321343460,"connected_time":11000000000,"state":"spawning","ping":59},{"user_id":241,"name":"booyah! cumshot!","steam_id":76561198044034546,"connected_time":2731000000000,"state":"active","ping":49},{"user_id":183,"name":"Monster","steam_id":76561198189429665,"connected_time":7509000000000,"state":"active","ping":75},{"user_id":255,"name":"African Despot","steam_id":76561198169966346,"connected_time":2074000000000,"state":"active","ping":68},{"user_id":270,"name":"Isilawuli","steam_id":76561198084150503,"connected_time":617000000000,"state":"active","ping":45},{"user_id":275,"name":"TDR","steam_id":76561198093243434,"connected_time":177000000000,"state":"active","ping":73},{"user_id":271,"name":"Bee","steam_id":76561198074681324,"connected_time":599000000000,"state":"active","ping":63},{"user_id":273,"name":"Maggyver01","steam_id":76561198355680278,"connected_time":503000000000,"state":"active","ping":145},{"user_id":276,"name":"(Mow)","steam_id":76561198370673794,"connected_time":49000000000,"state":"active","ping":106},{"user_id":277,"name":"taky0n","steam_id":76561198103759716,"connected_time":41000000000,"state":"active","ping":55},{"user_id":279,"name":"Amyxts36","steam_id":76561198872232094,"connected_time":3000000000,"state":"spawning","ping":92},{"user_id":265,"name":"Jeremopolis","steam_id":76561198079467492,"connected_time":913000000000,"state":"active","ping":94},{"user_id":209,"name":"puppy :3","steam_id":76561198011196264,"connected_time":5761000000000,"state":"active","ping":60},{"user_id":218,"name":"sqerkbo","steam_id":76561198080012700,"connected_time":5051000000000,"state":"active","ping":45},{"user_id":191,"name":"kasp","steam_id":76561198263271697,"connected_time":6992000000000,"state":"active","ping":50},{"user_id":263,"name":"'LaxAttack","steam_id":76561198044129346,"connected_time":1192000000000,"state":"active","ping":54},{"user_id":264,"name":"Mecha","steam_id":76561198014927379,"connected_time":1142000000000,"state":"active","ping":69}]},{"server_id":14,"name":"Uncletopia | New York City | 2 | All Maps","name_short":"nyc-2","host":"nyc-1.us.uncletopia.com","port":27025,"enabled":true,"region":"us-east","cc":"us","latitude":40.73061,"longitude":-73.93524,"reserved":0,"last_update":"0001-01-01T00:00:00Z","name_a2s":"Uncletopia | New York City | 2 | All Maps","protocol":17,"map":"koth_harvest_final","folder":"tf","game":"Team Fortress","app_id":440,"player_count":22,"max_players":24,"Bots":0,"server_type":"Dedicated","server_os":"Linux","password":true,"vac":true,"version":"7757534","steam_id":85568392924469994,"keywords":["cp","nocrits","nodmgspread","uncletopia"],"game_id":440,"stv_port":27026,"stv_name":"Uncletopia | New York City | 2 | All Maps | STV","players":[{"user_id":119,"name":"koompa_stomp","steam_id":76561198073081735,"connected_time":198000000000,"state":"active","ping":110},{"user_id":95,"name":"VALENCE","steam_id":76561198118492031,"connected_time":1383000000000,"state":"active","ping":85},{"user_id":100,"name":"The magic doo bus","steam_id":76561198243387974,"connected_time":1030000000000,"state":"active","ping":51},{"user_id":87,"name":"Alexhcgarヅ","steam_id":76561198085706389,"connected_time":2281000000000,"state":"active","ping":85},{"user_id":120,"name":"farteater22","steam_id":76561198848710113,"connected_time":144000000000,"state":"active","ping":61},{"user_id":118,"name":"lost in spaaaaace","steam_id":76561199085974120,"connected_time":615000000000,"state":"active","ping":67},{"user_id":102,"name":"QwilfishFan22","steam_id":76561198078565975,"connected_time":983000000000,"state":"active","ping":70},{"user_id":115,"name":"Zokie0","steam_id":76561198056035567,"connected_time":726000000000,"state":"active","ping":47},{"user_id":110,"name":"eCola","steam_id":76561199021286743,"connected_time":797000000000,"state":"active","ping":85},{"user_id":111,"name":"Pakidude","steam_id":76561198142093134,"connected_time":794000000000,"state":"active","ping":35},{"user_id":97,"name":"Mr. Call You Back","steam_id":76561198025172811,"connected_time":1316000000000,"state":"active","ping":40},{"user_id":38,"name":"Meeeeeddddddiiiiiiccccccc","steam_id":76561198092354979,"connected_time":4532000000000,"state":"active","ping":46},{"user_id":79,"name":"Dr. Enforcicle (real)","steam_id":76561198964471859,"connected_time":2525000000000,"state":"active","ping":70},{"user_id":121,"name":"Got Hat?","steam_id":76561197998486431,"connected_time":135000000000,"state":"active","ping":46},{"user_id":46,"name":"Goofball","steam_id":76561198074189084,"connected_time":4241000000000,"state":"active","ping":43},{"user_id":80,"name":"Flak Maniak","steam_id":76561198005653808,"connected_time":2522000000000,"state":"active","ping":54},{"user_id":112,"name":"DededeMain | trade.tf","steam_id":76561198310951632,"connected_time":791000000000,"state":"active","ping":62},{"user_id":114,"name":"spud stealer 2000","steam_id":76561199264293695,"connected_time":750000000000,"state":"active","ping":51},{"user_id":106,"name":"TheBurningPhoenix","steam_id":76561198123620770,"connected_time":918000000000,"state":"active","ping":76},{"user_id":107,"name":"golly gee willikers","steam_id":76561198069407799,"connected_time":908000000000,"state":"active","ping":74},{"user_id":91,"name":"Copter_Boy","steam_id":76561198322921312,"connected_time":1818000000000,"state":"active","ping":55},{"user_id":92,"name":"A Rhino with Coronavirus","steam_id":76561197999451366,"connected_time":1724000000000,"state":"active","ping":86}]},{"server_id":15,"name":"Uncletopia | New York City | 3 | Stopwatch Beta","name_short":"nyc-3","host":"nyc-1.us.uncletopia.com","port":27035,"enabled":true,"region":"us-east","cc":"us","latitude":40.73061,"longitude":-73.93524,"reserved":0,"last_update":"0001-01-01T00:00:00Z","name_a2s":"Uncletopia | New York City | 3 | Stopwatch Beta","protocol":17,"map":"pl_upward","folder":"tf","game":"Team Fortress","app_id":440,"player_count":0,"max_players":24,"Bots":0,"server_type":"Dedicated","server_os":"Linux","password":true,"vac":true,"version":"7757534","steam_id":85568392924742820,"keywords":["nocrits","nodmgspread","payload","uncletopia"],"game_id":440,"stv_port":27036,"stv_name":"Uncletopia | New York City | 3 | Stopwatch Beta | STV","players":null},{"server_id":16,"name":"Uncletopia | New York City | 4 | Community","name_short":"nyc-4","host":"nyc-1.us.uncletopia.com","port":27045,"enabled":true,"region":"us-east","cc":"us","latitude":40.73061,"longitude":-73.93524,"reserved":0,"last_update":"0001-01-01T00:00:00Z","name_a2s":"Uncletopia | New York City | 4 | Community","protocol":17,"map":"pl_swiftwater_final1","folder":"tf","game":"Team Fortress","app_id":440,"player_count":0,"max_players":24,"Bots":0,"server_type":"Dedicated","server_os":"Linux","password":true,"vac":true,"version":"7757534","steam_id":85568392924742821,"keywords":["nocrits","nodmgspread","payload","uncletopia"],"game_id":440,"stv_port":27046,"stv_name":"Uncletopia | New York City | 4 | Community | STV","players":null},{"server_id":142,"name":"Uncletopia | São Paulo | 1 | All Maps","name_short":"sao-1","host":"sao-1.br.uncletopia.com","port":27015,"enabled":true,"region":"sa","cc":"br","latitude":-23.533773,"longitude":-46.62529,"reserved":0,"last_update":"0001-01-01T00:00:00Z","name_a2s":"Uncletopia | São Paulo | 1 | All Maps","protocol":17,"map":"koth_lakeside_final","folder":"tf","game":"Team Fortress","app_id":440,"player_count":0,"max_players":24,"Bots":0,"server_type":"Dedicated","server_os":"Linux","password":true,"vac":true,"version":"7757534","steam_id":85568392924469996,"keywords":["cp","nocrits","nodmgspread","uncletopia"],"game_id":440,"stv_port":27016,"stv_name":"Uncletopia | São Paulo | 1 | All Maps | STV","players":null},{"server_id":143,"name":"Uncletopia | São Paulo | 2 | All Maps","name_short":"sao-2","host":"sao-2.br.uncletopia.com","port":27015,"enabled":true,"region":"sa","cc":"br","latitude":-23.533773,"longitude":-46.62529,"reserved":0,"last_update":"0001-01-01T00:00:00Z","name_a2s":"Uncletopia | São Paulo | 2 | All Maps","protocol":17,"map":"pl_barnblitz","folder":"tf","game":"Team Fortress","app_id":440,"player_count":0,"max_players":24,"Bots":0,"server_type":"Dedicated","server_os":"Linux","password":true,"vac":true,"version":"7757534","steam_id":85568392924485349,"keywords":["nocrits","nodmgspread","payload","uncletopia"],"game_id":440,"stv_port":27016,"stv_name":"Uncletopia | São Paulo | 2 | All Maps | STV","players":null},{"server_id":7,"name":"Uncletopia | Seattle | 1 | All Maps","name_short":"sea-1","host":"sea-1.us.uncletopia.com","port":27015,"enabled":true,"region":"us-west","cc":"us","latitude":47.608013,"longitude":-122.33517,"reserved":0,"last_update":"0001-01-01T00:00:00Z","name_a2s":"Uncletopia | Seattle | 1 | All Maps","protocol":17,"map":"pl_upward","folder":"tf","game":"Team Fortress","app_id":440,"player_count":24,"max_players":24,"Bots":0,"server_type":"Dedicated","server_os":"Linux","password":true,"vac":true,"version":"7757534","steam_id":85568392924469997,"keywords":["nocrits","nodmgspread","payload","uncletopia"],"game_id":440,"stv_port":27016,"stv_name":"Uncletopia | Seattle | 1 | All Maps | STV","players":[{"user_id":226,"name":"Tyler\u0026Fingers","steam_id":76561198085154485,"connected_time":6050000000000,"state":"active","ping":135},{"user_id":284,"name":"dare","steam_id":76561197960977496,"connected_time":1462000000000,"state":"active","ping":72},{"user_id":287,"name":"TwoBit","steam_id":76561198062437559,"connected_time":935000000000,"state":"active","ping":137},{"user_id":294,"name":"Semeka","steam_id":76561198405404117,"connected_time":286000000000,"state":"active","ping":43},{"user_id":276,"name":"cunt","steam_id":76561198118644686,"connected_time":1727000000000,"state":"active","ping":86},{"user_id":266,"name":"Mignyanne :3","steam_id":76561198048754056,"connected_time":2703000000000,"state":"active","ping":67},{"user_id":291,"name":"b4ss","steam_id":76561198116549222,"connected_time":473000000000,"state":"active","ping":82},{"user_id":267,"name":"Pink","steam_id":76561199093650594,"connected_time":2522000000000,"state":"active","ping":87},{"user_id":277,"name":"Smiles","steam_id":76561198107197973,"connected_time":1686000000000,"state":"active","ping":75},{"user_id":292,"name":"jayeskae","steam_id":76561198144220801,"connected_time":355000000000,"state":"active","ping":45},{"user_id":285,"name":"hello again, r/meth","steam_id":76561198271973658,"connected_time":1456000000000,"state":"active","ping":124},{"user_id":278,"name":"Dreamzapp","steam_id":76561199084936632,"connected_time":1598000000000,"state":"active","ping":99},{"user_id":279,"name":"Doppler Effect","steam_id":76561198046713998,"connected_time":1598000000000,"state":"active","ping":118},{"user_id":280,"name":"Drae Wulf","steam_id":76561198267422906,"connected_time":1588000000000,"state":"active","ping":120},{"user_id":281,"name":"Vincent Van Bro","steam_id":76561197966919802,"connected_time":1586000000000,"state":"active","ping":60},{"user_id":288,"name":"FerroDeus","steam_id":76561198294143707,"connected_time":892000000000,"state":"active","ping":48},{"user_id":283,"name":"Shay","steam_id":76561198108143601,"connected_time":1581000000000,"state":"active","ping":132},{"user_id":270,"name":"MisterManne","steam_id":76561198106598600,"connected_time":2039000000000,"state":"active","ping":61},{"user_id":181,"name":"oo","steam_id":76561198119626492,"connected_time":8619000000000,"state":"active","ping":75},{"user_id":269,"name":"tf3aflyingmouse","steam_id":76561198058134934,"connected_time":2291000000000,"state":"active","ping":110},{"user_id":271,"name":"Lochness_monster","steam_id":76561198417831973,"connected_time":2010000000000,"state":"active","ping":66},{"user_id":273,"name":"Closed.","steam_id":76561198212598967,"connected_time":1745000000000,"state":"active","ping":80},{"user_id":264,"name":"Keamy","steam_id":76561199471434875,"connected_time":2806000000000,"state":"active","ping":45},{"user_id":275,"name":"daBigBoss","steam_id":76561198120428029,"connected_time":1738000000000,"state":"active","ping":79}]},{"server_id":119,"name":"Uncletopia | Seattle | 2 | All Maps","name_short":"sea-2","host":"sea-1.us.uncletopia.com","port":27025,"enabled":true,"region":"us-west","cc":"us","latitude":47.608013,"longitude":-122.33517,"reserved":0,"last_update":"0001-01-01T00:00:00Z","name_a2s":"Uncletopia | Seattle | 2 | All Maps","protocol":17,"map":"cp_snakewater_final1","folder":"tf","game":"Team Fortress","app_id":440,"player_count":24,"max_players":24,"Bots":0,"server_type":"Dedicated","server_os":"Linux","password":true,"vac":true,"version":"7757534","steam_id":85568392924469998,"keywords":["cp","nocrits","nodmgspread","uncletopia"],"game_id":440,"stv_port":27026,"stv_name":"Uncletopia | Seattle | 2 | All Maps | STV","players":[{"user_id":32,"name":"Mount Wannahockaloogie","steam_id":76561198924316615,"connected_time":856000000000,"state":"active","ping":133},{"user_id":33,"name":"Plunge (orange)","steam_id":76561198454673850,"connected_time":734000000000,"state":"active","ping":120},{"user_id":11,"name":"moah380","steam_id":76561198090644581,"connected_time":3378000000000,"state":"active","ping":97},{"user_id":16,"name":"sunflowerofwar","steam_id":76561198940058271,"connected_time":1720000000000,"state":"active","ping":92},{"user_id":25,"name":"2Fort Cactus","steam_id":76561199273395913,"connected_time":1226000000000,"state":"active","ping":53},{"user_id":15,"name":"TinyGayGuitar","steam_id":76561198130737316,"connected_time":2370000000000,"state":"active","ping":110},{"user_id":20,"name":"keffers","steam_id":76561198202338796,"connected_time":1342000000000,"state":"active","ping":105},{"user_id":19,"name":"Rabblerouser","steam_id":76561198127930963,"connected_time":1407000000000,"state":"active","ping":66},{"user_id":30,"name":"toodles","steam_id":76561198025463883,"connected_time":1035000000000,"state":"active","ping":50},{"user_id":22,"name":"Mr. Moon","steam_id":76561198072800074,"connected_time":1285000000000,"state":"active","ping":88},{"user_id":26,"name":"Billosky Time Lord","steam_id":76561199159626560,"connected_time":1182000000000,"state":"active","ping":195},{"user_id":27,"name":"TopCookieRaider❤","steam_id":76561198061800783,"connected_time":1171000000000,"state":"active","ping":83},{"user_id":28,"name":"reiidaya","steam_id":76561198325306660,"connected_time":1169000000000,"state":"active","ping":102},{"user_id":38,"name":"Drainbow","steam_id":76561198421913648,"connected_time":570000000000,"state":"active","ping":53},{"user_id":34,"name":"FoxyTheFish","steam_id":76561199074190919,"connected_time":691000000000,"state":"active","ping":193},{"user_id":35,"name":"scrapheap","steam_id":76561198202407087,"connected_time":687000000000,"state":"active","ping":116},{"user_id":47,"name":"Kid named download","steam_id":76561199192074448,"connected_time":181000000000,"state":"active","ping":124},{"user_id":37,"name":"Goldensliv","steam_id":76561198161673891,"connected_time":599000000000,"state":"active","ping":88},{"user_id":39,"name":"Sprit ♥","steam_id":76561198268780781,"connected_time":568000000000,"state":"active","ping":102},{"user_id":43,"name":"FROYO WTF","steam_id":76561198170381402,"connected_time":453000000000,"state":"active","ping":105},{"user_id":41,"name":"Frogzilla","steam_id":76561198077657538,"connected_time":535000000000,"state":"active","ping":69},{"user_id":44,"name":"Junky","steam_id":76561198049612322,"connected_time":441000000000,"state":"active","ping":114},{"user_id":45,"name":"Purple Guy","steam_id":76561198968894382,"connected_time":380000000000,"state":"active","ping":111},{"user_id":46,"name":"Grugster","steam_id":76561199001735092,"connected_time":368000000000,"state":"active","ping":130}]},{"server_id":406,"name":"Uncletopia | Seattle | 3 | Stopwatch Beta","name_short":"sea-3","host":"sea-1.us.uncletopia.com","port":27035,"enabled":true,"region":"us-west","cc":"us","latitude":47.608013,"longitude":-122.33517,"reserved":0,"last_update":"0001-01-01T00:00:00Z","name_a2s":"Uncletopia | Seattle | 3 | Stopwatch Beta","protocol":17,"map":"cp_dustbowl","folder":"tf","game":"Team Fortress","app_id":440,"player_count":1,"max_players":24,"Bots":0,"server_type":"Dedicated","server_os":"Linux","password":true,"vac":true,"version":"7757534","steam_id":85568392924515217,"keywords":["cp","nocrits","nodmgspread","uncletopia"],"game_id":440,"stv_port":27036,"stv_name":"Uncletopia | Seattle | 3 | Stopwatch Beta | STV","players":[{"user_id":3,"name":"emissions_master","steam_id":76561198870649125,"connected_time":98000000000,"state":"active","ping":68}]},{"server_id":17,"name":"Uncletopia | San Francisco | 1 | All Maps","name_short":"sfo-1","host":"sfo-1.us.uncletopia.com","port":27015,"enabled":true,"region":"us-west","cc":"us","latitude":37.77397,"longitude":-122.4313,"reserved":0,"last_update":"0001-01-01T00:00:00Z","name_a2s":"Uncletopia | San Francisco | 1 | All Maps","protocol":17,"map":"koth_viaduct","folder":"tf","game":"Team Fortress","app_id":440,"player_count":0,"max_players":24,"Bots":0,"server_type":"Dedicated","server_os":"Linux","password":true,"vac":true,"version":"7757534","steam_id":85568392924469999,"keywords":["cp","nocrits","nodmgspread","uncletopia"],"game_id":440,"stv_port":27016,"stv_name":"Uncletopia | San Francisco | 1 | All Maps | STV","players":null},{"server_id":18,"name":"Uncletopia | San Francisco | 2 | All Maps","name_short":"sfo-2","host":"sfo-1.us.uncletopia.com","port":27025,"enabled":true,"region":"us-west","cc":"us","latitude":37.77397,"longitude":-122.4313,"reserved":0,"last_update":"0001-01-01T00:00:00Z","name_a2s":"Uncletopia | San Francisco | 2 | All Maps","protocol":17,"map":"koth_highpass","folder":"tf","game":"Team Fortress","app_id":440,"player_count":0,"max_players":24,"Bots":0,"server_type":"Dedicated","server_os":"Linux","password":true,"vac":true,"version":"7757534","steam_id":85568392924470000,"keywords":["cp","nocrits","nodmgspread","uncletopia"],"game_id":440,"stv_port":27026,"stv_name":"Uncletopia | San Francisco | 2 | All Maps | STV","players":null},{"server_id":19,"name":"Uncletopia | San Francisco | 3 | Stopwatch Beta","name_short":"sfo-3","host":"sfo-1.us.uncletopia.com","port":27035,"enabled":true,"region":"us-west","cc":"us","latitude":37.77397,"longitude":-122.4313,"reserved":0,"last_update":"0001-01-01T00:00:00Z","name_a2s":"Uncletopia | San Francisco | 3 | Stopwatch Beta","protocol":17,"map":"koth_lakeside_final","folder":"tf","game":"Team Fortress","app_id":440,"player_count":0,"max_players":24,"Bots":0,"server_type":"Dedicated","server_os":"Linux","password":true,"vac":true,"version":"7757534","steam_id":85568392924742824,"keywords":["cp","nocrits","nodmgspread","uncletopia"],"game_id":440,"stv_port":27036,"stv_name":"Uncletopia | San Francisco | 3 | Stopwatch Beta | STV","players":null},{"server_id":20,"name":"Uncletopia | San Francisco | 4 | Community","name_short":"sfo-4","host":"sfo-1.us.uncletopia.com","port":27045,"enabled":true,"region":"us-west","cc":"us","latitude":37.77397,"longitude":-122.4313,"reserved":0,"last_update":"0001-01-01T00:00:00Z","name_a2s":"Uncletopia | San Francisco | 4 | Community","protocol":17,"map":"cp_altitude","folder":"tf","game":"Team Fortress","app_id":440,"player_count":0,"max_players":24,"Bots":0,"server_type":"Dedicated","server_os":"Linux","password":true,"vac":true,"version":"7757534","steam_id":85568392924742826,"keywords":["cp","nocrits","nodmgspread","uncletopia"],"game_id":440,"stv_port":27046,"stv_name":"Uncletopia | San Francisco | 4 | Community | STV","players":null},{"server_id":141,"name":"Uncletopia | Sydney | 1 | All Maps","name_short":"syd-1","host":"syd-1.au.uncletopia.com","port":27015,"enabled":true,"region":"au","cc":"au","latitude":-33.865143,"longitude":151.2099,"reserved":0,"last_update":"0001-01-01T00:00:00Z","name_a2s":"Uncletopia | Sydney | 1 | All Maps","protocol":17,"map":"koth_viaduct","folder":"tf","game":"Team Fortress","app_id":440,"player_count":0,"max_players":24,"Bots":0,"server_type":"Dedicated","server_os":"Linux","password":true,"vac":true,"version":"7757534","steam_id":85568392924470001,"keywords":["cp","nocrits","nodmgspread","uncletopia"],"game_id":440,"stv_port":27016,"stv_name":"Uncletopia | Sydney | 1 | All Maps | STV","players":null},{"server_id":123,"name":"Uncletopia | Sydney | 2 | All Maps","name_short":"syd-2","host":"syd-1.au.uncletopia.com","port":27025,"enabled":true,"region":"au","cc":"au","latitude":-33.865143,"longitude":151.2099,"reserved":0,"last_update":"0001-01-01T00:00:00Z","name_a2s":"Uncletopia | Sydney | 2 | All Maps","protocol":17,"map":"cp_process_final","folder":"tf","game":"Team Fortress","app_id":440,"player_count":0,"max_players":24,"Bots":0,"server_type":"Dedicated","server_os":"Linux","password":true,"vac":true,"version":"7757534","steam_id":85568392924470002,"keywords":["cp","nocrits","nodmgspread","uncletopia"],"game_id":440,"stv_port":27026,"stv_name":"Uncletopia | Sydney | 2 | All Maps | STV","players":null},{"server_id":395,"name":"Uncletopia | Sydney | 3 | All Maps","name_short":"syd-3","host":"syd-1.au.uncletopia.com","port":27035,"enabled":true,"region":"au","cc":"au","latitude":-33.865143,"longitude":151.2099,"reserved":0,"last_update":"0001-01-01T00:00:00Z","name_a2s":"Uncletopia | Sydney | 3 | All Maps","protocol":17,"map":"pl_swiftwater_final1","folder":"tf","game":"Team Fortress","app_id":440,"player_count":0,"max_players":24,"Bots":0,"server_type":"Dedicated","server_os":"Linux","password":true,"vac":true,"version":"7757534","steam_id":85568392925194467,"keywords":["nocrits","nodmgspread","payload","uncletopia"],"game_id":440,"stv_port":27036,"stv_name":"Uncletopia | Sydney | 3 | All Maps | STV","players":null},{"server_id":396,"name":"Uncletopia | Sydney | 4 | All Maps","name_short":"syd-4","host":"syd-1.au.uncletopia.com","port":27045,"enabled":true,"region":"au","cc":"au","latitude":-33.865143,"longitude":151.2099,"reserved":0,"last_update":"0001-01-01T00:00:00Z","name_a2s":"Uncletopia | Sydney | 4 | All Maps","protocol":17,"map":"koth_highpass","folder":"tf","game":"Team Fortress","app_id":440,"player_count":0,"max_players":24,"Bots":0,"server_type":"Dedicated","server_os":"Linux","password":true,"vac":true,"version":"7757534","steam_id":85568392925397958,"keywords":["cp","nocrits","nodmgspread","uncletopia"],"game_id":440,"stv_port":27046,"stv_name":"Uncletopia | Sydney | 4 | All Maps | STV","players":null},{"server_id":58,"name":"Uncletopia | Sydney | 5 | Stopwatch Beta","name_short":"syd-5","host":"syd-1.au.uncletopia.com","port":27055,"enabled":true,"region":"au","cc":"au","latitude":-33.865143,"longitude":151.2099,"reserved":0,"last_update":"0001-01-01T00:00:00Z","name_a2s":"Uncletopia | Sydney | 5 | Stopwatch Beta","protocol":17,"map":"koth_cascade","folder":"tf","game":"Team Fortress","app_id":440,"player_count":0,"max_players":24,"Bots":0,"server_type":"Dedicated","server_os":"Linux","password":true,"vac":true,"version":"7757534","steam_id":85568392925397959,"keywords":["cp","nocrits","nodmgspread","uncletopia"],"game_id":440,"stv_port":27056,"stv_name":"Uncletopia | Sydney | 5 | Stopwatch Beta | STV","players":null},{"server_id":59,"name":"Uncletopia | Sydney | 6 | Community","name_short":"syd-6","host":"syd-1.au.uncletopia.com","port":27065,"enabled":true,"region":"au","cc":"au","latitude":-33.865143,"longitude":151.2099,"reserved":0,"last_update":"0001-01-01T00:00:00Z","name_a2s":"Uncletopia | Sydney | 6 | Community","protocol":17,"map":"cp_snakewater_final1","folder":"tf","game":"Team Fortress","app_id":440,"player_count":0,"max_players":24,"Bots":0,"server_type":"Dedicated","server_os":"Linux","password":true,"vac":true,"version":"7757534","steam_id":85568392925397960,"keywords":["cp","nocrits","nodmgspread","uncletopia"],"game_id":440,"stv_port":27066,"stv_name":"Uncletopia | Sydney | 6 | Community | STV","players":null},{"server_id":49,"name":"Uncletopia | Warsaw | 1 | All Maps","name_short":"waw-1","host":"waw-1.pl.uncletopia.com","port":27015,"enabled":true,"region":"eu","cc":"pl","latitude":52.2297,"longitude":21.017532,"reserved":0,"last_update":"0001-01-01T00:00:00Z","name_a2s":"","protocol":0,"map":"","folder":"","game":"","app_id":0,"player_count":0,"max_players":0,"Bots":0,"server_type":"","server_os":"","password":false,"vac":false,"version":"","steam_id":0,"keywords":null,"game_id":0,"stv_port":0,"stv_name":"","players":null},{"server_id":50,"name":"Uncletopia | Warsaw | 2 | All Maps","name_short":"waw-2","host":"waw-1.pl.uncletopia.com","port":27025,"enabled":true,"region":"eu","cc":"pl","latitude":52.2297,"longitude":21.017532,"reserved":0,"last_update":"0001-01-01T00:00:00Z","name_a2s":"Uncletopia | Warsaw | 2 | All Maps","protocol":17,"map":"cp_dustbowl","folder":"tf","game":"Team Fortress","app_id":440,"player_count":3,"max_players":24,"Bots":0,"server_type":"Dedicated","server_os":"Linux","password":true,"vac":true,"version":"7757534","steam_id":85568392925397851,"keywords":["cp","nocrits","nodmgspread","uncletopia"],"game_id":440,"stv_port":27026,"stv_name":"Uncletopia | Warsaw | 2 | All Maps | STV","players":[{"user_id":101,"name":"The","steam_id":76561199028541854,"connected_time":3694000000000,"state":"active","ping":101},{"user_id":103,"name":"Ангел Предохрани","steam_id":76561199287369451,"connected_time":2938000000000,"state":"active","ping":52},{"user_id":106,"name":"bglaptop","steam_id":76561199465756040,"connected_time":1014000000000,"state":"active","ping":87}]},{"server_id":51,"name":"Uncletopia | Warsaw | 3 | All Maps","name_short":"waw-3","host":"waw-1.pl.uncletopia.com","port":27035,"enabled":true,"region":"eu","cc":"pl","latitude":52.2297,"longitude":21.017532,"reserved":0,"last_update":"0001-01-01T00:00:00Z","name_a2s":"Uncletopia | Warsaw | 3 | All Maps","protocol":17,"map":"koth_cascade","folder":"tf","game":"Team Fortress","app_id":440,"player_count":0,"max_players":24,"Bots":0,"server_type":"Dedicated","server_os":"Linux","password":true,"vac":true,"version":"7757534","steam_id":85568392925397852,"keywords":["cp","nocrits","nodmgspread","uncletopia"],"game_id":440,"stv_port":27036,"stv_name":"Uncletopia | Warsaw | 3 | All Maps | STV","players":null},{"server_id":52,"name":"Uncletopia | Warsaw | 4 | All Maps","name_short":"waw-4","host":"waw-1.pl.uncletopia.com","port":27045,"enabled":true,"region":"eu","cc":"pl","latitude":52.2297,"longitude":21.017532,"reserved":0,"last_update":"0001-01-01T00:00:00Z","name_a2s":"Uncletopia | Warsaw | 4 | All Maps","protocol":17,"map":"koth_lakeside_final","folder":"tf","game":"Team Fortress","app_id":440,"player_count":0,"max_players":24,"Bots":0,"server_type":"Dedicated","server_os":"Linux","password":true,"vac":true,"version":"7757534","steam_id":85568392925397853,"keywords":["cp","nocrits","nodmgspread","uncletopia"],"game_id":440,"stv_port":27046,"stv_name":"Uncletopia | Warsaw | 4 | All Maps | STV","players":null},{"server_id":53,"name":"Uncletopia | Warsaw | 5 | Stopwatch Beta","name_short":"waw-5","host":"waw-1.pl.uncletopia.com","port":27055,"enabled":true,"region":"eu","cc":"pl","latitude":52.2297,"longitude":21.017532,"reserved":0,"last_update":"0001-01-01T00:00:00Z","name_a2s":"Uncletopia | Warsaw | 5 | Stopwatch Beta","protocol":17,"map":"pl_borneo","folder":"tf","game":"Team Fortress","app_id":440,"player_count":0,"max_players":24,"Bots":0,"server_type":"Dedicated","server_os":"Linux","password":true,"vac":true,"version":"7757534","steam_id":85568392925397854,"keywords":["nocrits","nodmgspread","payload","uncletopia"],"game_id":440,"stv_port":27056,"stv_name":"Uncletopia | Warsaw | 5 | Stopwatch Beta | STV","players":null},{"server_id":54,"name":"Uncletopia | Warsaw | 6 | Community","name_short":"waw-6","host":"waw-1.pl.uncletopia.com","port":27065,"enabled":true,"region":"eu","cc":"pl","latitude":52.2297,"longitude":21.017532,"reserved":0,"last_update":"0001-01-01T00:00:00Z","name_a2s":"Uncletopia | Warsaw | 6 | Community","protocol":17,"map":"koth_lakeside_final","folder":"tf","game":"Team Fortress","app_id":440,"player_count":0,"max_players":24,"Bots":0,"server_type":"Dedicated","server_os":"Linux","password":true,"vac":true,"version":"7757534","steam_id":85568392925397856,"keywords":["cp","nocrits","nodmgspread","uncletopia"],"game_id":440,"stv_port":27066,"stv_name":"Uncletopia | Warsaw | 6 | Community | STV","players":null}]}