{"status":true,"message":"","result":[{"server_id":9,"name":"Uncletopia | Atlanta | 1 | All Maps","name_short":"atl-1","host":"atl-1.us.uncletopia.com","port":27015,"enabled":true,"region":"us-east","cc":"us","latitude":33.753746,"longitude":-84.38633,"reserved":0,"last_update":"0001-01-01T00:00:00Z","name_a2s":"Uncletopia | Atlanta | 1 | All Maps","protocol":17,"map":"pl_snowycoast","folder":"tf","game":"Team Fortress","app_id":440,"player_count":0,"max_players":24,"Bots":0,"server_type":"Dedicated","server_os":"Linux","password":true,"vac":true,"version":"7961495","steam_id":85568392924469982,"keywords":["nocrits","nodmgspread","payload","uncletopia"],"game_id":440,"stv_port":27016,"stv_name":"Uncletopia | Atlanta | 1 | All Maps | STV","players":null},{"server_id":104,"name":"Uncletopia | Atlanta | 2 | All Maps","name_short":"atl-2","host":"atl-1.us.uncletopia.com","port":27025,"enabled":true,"region":"us-east","cc":"us","latitude":33.753746,"longitude":-84.38633,"reserved":0,"last_update":"0001-01-01T00:00:00Z","name_a2s":"Uncletopia | Atlanta | 2 | All Maps","protocol":17,"map":"koth_cascade","folder":"tf","game":"Team Fortress","app_id":440,"player_count":0,"max_players":24,"Bots":0,"server_type":"Dedicated","server_os":"Linux","password":true,"vac":true,"version":"7961495","steam_id":85568392924469983,"keywords":["cp","nocrits","nodmgspread","uncletopia"],"game_id":440,"stv_port":27026,"stv_name":"Uncletopia | Atlanta | 2 | All Maps | STV","players":null},{"server_id":400,"name":"Uncletopia | Atlanta | 3 | Stopwatch","name_short":"atl-3","host":"atl-1.us.uncletopia.com","port":27035,"enabled":true,"region":"us-east","cc":"us","latitude":33.753746,"longitude":-84.38633,"reserved":0,"last_update":"0001-01-01T00:00:00Z","name_a2s":"Uncletopia | Atlanta | 3 | Stopwatch","protocol":17,"map":"pl_badwater","folder":"tf","game":"Team Fortress","app_id":440,"player_count":0,"max_players":24,"Bots":0,"server_type":"Dedicated","server_os":"Linux","password":true,"vac":true,"version":"7961495","steam_id":85568392924515187,"keywords":["nocrits","nodmgspread","payload","uncletopia"],"game_id":440,"stv_port":27036,"stv_name":"Uncletopia | Atlanta | 3 | Stopwatch | STV","players":null},{"server_id":401,"name":"Uncletopia | Atlanta | 4 | Community","name_short":"atl-4","host":"atl-1.us.uncletopia.com","port":27045,"enabled":true,"region":"us-east","cc":"us","latitude":33.753746,"longitude":-84.38633,"reserved":0,"last_update":"0001-01-01T00:00:00Z","name_a2s":"Uncletopia | Atlanta | 4 | Community","protocol":17,"map":"cp_propaganda_b18","folder":"tf","game":"Team Fortress","app_id":440,"player_count":0,"max_players":24,"Bots":0,"server_type":"Dedicated","server_os":"Linux","password":true,"vac":true,"version":"7961495","steam_id":85568392924515188,"keywords":["cp","nocrits","nodmgspread","uncletopia"],"game_id":440,"stv_port":27046,"stv_name":"Uncletopia | Atlanta | 4 | Community | STV","players":null},{"server_id":2,"name":"Uncletopia | Chicago | 1 | All Maps","name_short":"chi-1","host":"chi-1.us.uncletopia.com","port":27015,"enabled":true,"region":"us-central","cc":"us","latitude":41.881832,"longitude":-87.62318,"reserved":0,"last_update":"0001-01-01T00:00:00Z","name_a2s":"Uncletopia | Chicago | 1 | All Maps","protocol":17,"map":"pl_swiftwater_final1","folder":"tf","game":"Team Fortress","app_id":440,"player_count":24,"max_players":24,"Bots":0,"server_type":"Dedicated","server_os":"Linux","password":true,"vac":true,"version":"7961495","steam_id":85568392924469984,"keywords":["nocrits","nodmgspread","payload","uncletopia"],"game_id":440,"stv_port":27016,"stv_name":"Uncletopia | Chicago | 1 | All Maps | STV","players":[{"user_id":31,"name":"AllHailTMG","steam_id":76561198447338140,"connected_time":5224000000000,"state":"active","ping":96},{"user_id":73,"name":"DuckKey","steam_id":76561198904477889,"connected_time":3050000000000,"state":"active","ping":55},{"user_id":98,"name":"ඞ","steam_id":76561199365672047,"connected_time":501000000000,"state":"active","ping":81},{"user_id":83,"name":"James","steam_id":76561198081313916,"connected_time":1670000000000,"state":"active","ping":74},{"user_id":64,"name":"airy","steam_id":76561198174632198,"connected_time":3786000000000,"state":"active","ping":75},{"user_id":103,"name":"GooniOoni","steam_id":76561198102154561,"connected_time":0,"state":"spawning","ping":0},{"user_id":58,"name":"The Great Eagle Scourge of 1822","steam_id":76561198325086209,"connected_time":4146000000000,"state":"active","ping":113},{"user_id":67,"name":"Obama F. Kennedy","steam_id":76561198282499318,"connected_time":3689000000000,"state":"active","ping":75},{"user_id":39,"name":"Khorne Looney","steam_id":76561197988500167,"connected_time":4748000000000,"state":"active","ping":88},{"user_id":96,"name":"rivera","steam_id":76561198051058706,"connected_time":787000000000,"state":"active","ping":55},{"user_id":41,"name":"Cheems","steam_id":76561198269074039,"connected_time":4666000000000,"state":"active","ping":75},{"user_id":82,"name":"She Love Me Long Time","steam_id":76561198083851689,"connected_time":1709000000000,"state":"active","ping":60},{"user_id":99,"name":"arm or fish ●","steam_id":76561198999217575,"connected_time":499000000000,"state":"active","ping":66},{"user_id":97,"name":"majorbobfunction","steam_id":76561198042464632,"connected_time":635000000000,"state":"active","ping":55},{"user_id":86,"name":"Animal Slices","steam_id":76561198137545511,"connected_time":1569000000000,"state":"active","ping":59},{"user_id":88,"name":"MondoDong","steam_id":76561197991400109,"connected_time":1514000000000,"state":"active","ping":69},{"user_id":60,"name":"WHAT","steam_id":76561198172609874,"connected_time":4143000000000,"state":"active","ping":92},{"user_id":100,"name":"eat Pant","steam_id":76561197974965536,"connected_time":461000000000,"state":"active","ping":58},{"user_id":102,"name":"Impresio","steam_id":76561198129127347,"connected_time":174000000000,"state":"active","ping":62},{"user_id":92,"name":"你是同性恋","steam_id":76561199073296535,"connected_time":923000000000,"state":"active","ping":50},{"user_id":76,"name":"Bibleboy","steam_id":76561198049289869,"connected_time":2808000000000,"state":"active","ping":71},{"user_id":94,"name":"MetalNavigator","steam_id":76561198974231439,"connected_time":911000000000,"state":"active","ping":116},{"user_id":53,"name":"skoops","steam_id":76561198083276946,"connected_time":4451000000000,"state":"active","ping":68},{"user_id":66,"name":"NikoOS (NO SOUND)","steam_id":76561198180020521,"connected_time":3735000000000,"state":"active","ping":113}]},{"server_id":106,"name":"Uncletopia | Chicago | 2 | All Maps","name_short":"chi-2","host":"chi-1.us.uncletopia.com","port":27025,"enabled":true,"region":"us-central","cc":"us","latitude":41.881832,"longitude":-87.62318,"reserved":0,"last_update":"0001-01-01T00:00:00Z","name_a2s":"Uncletopia | Chicago | 2 | All Maps","protocol":17,"map":"pl_borneo","folder":"tf","game":"Team Fortress","app_id":440,"player_count":25,"max_players":24,"Bots":0,"server_type":"Dedicated","server_os":"Linux","password":true,"vac":true,"version":"7961495","steam_id":85568392924469985,"keywords":["nocrits","nodmgspread","payload","uncletopia"],"game_id":440,"stv_port":27026,"stv_name":"Uncletopia | Chicago | 2 | All Maps | STV","players":[{"user_id":114,"name":"the keebler","steam_id":76561199486326945,"connected_time":2576000000000,"state":"active","ping":73},{"user_id":71,"name":"Chris","steam_id":76561198044278802,"connected_time":6325000000000,"state":"active","ping":76},{"user_id":79,"name":"Mr. Tickle","steam_id":76561198126684647,"connected_time":5945000000000,"state":"active","ping":60},{"user_id":109,"name":"twizted","steam_id":76561197960407274,"connected_time":2889000000000,"state":"active","ping":67},{"user_id":72,"name":"lcdomke9","steam_id":76561199495039850,"connected_time":6294000000000,"state":"active","ping":76},{"user_id":132,"name":"Fiendish Frog","steam_id":76561198029478821,"connected_time":1192000000000,"state":"active","ping":70},{"user_id":56,"name":"brawndo luvr","steam_id":76561198202436474,"connected_time":7552000000000,"state":"active","ping":59},{"user_id":88,"name":"I'm Only 4 Inches","steam_id":76561198055542546,"connected_time":5224000000000,"state":"active","ping":58},{"user_id":126,"name":"FunGi","steam_id":76561198881418662,"connected_time":1805000000000,"state":"active","ping":85},{"user_id":66,"name":"Nexusuxen","steam_id":76561198117547131,"connected_time":6595000000000,"state":"active","ping":69},{"user_id":120,"name":"Bussy Bandit","steam_id":76561198034028769,"connected_time":2201000000000,"state":"active","ping":57},{"user_id":130,"name":"THE WALL","steam_id":76561199084320480,"connected_time":1297000000000,"state":"active","ping":67},{"user_id":135,"name":"lofi carjacking","steam_id":76561198169219561,"connected_time":970000000000,"state":"active","ping":91},{"user_id":81,"name":"Reacespieces","steam_id":76561198032675272,"connected_time":5826000000000,"state":"active","ping":61},{"user_id":70,"name":"Mixomin","steam_id":76561198295061570,"connected_time":6368000000000,"state":"active","ping":50},{"user_id":113,"name":"diggity dog hot dog","steam_id":76561198148059714,"connected_time":2598000000000,"state":"active","ping":60},{"user_id":136,"name":"Carbonated Cocaine","steam_id":76561198110678966,"connected_time":718000000000,"state":"active","ping":71},{"user_id":97,"name":"Poopship Destroyer","steam_id":76561198006569710,"connected_time":4406000000000,"state":"active","ping":83},{"user_id":125,"name":"Relic","steam_id":76561198071200441,"connected_time":1933000000000,"state":"active","ping":73},{"user_id":134,"name":"ＲＥＤ","steam_id":76561198030282308,"connected_time":1055000000000,"state":"active","ping":99},{"user_id":133,"name":"Cuttle's Fish","steam_id":76561198280483257,"connected_time":1063000000000,"state":"active","ping":60},{"user_id":45,"name":"InsertNameHere","steam_id":76561199237340935,"connected_time":8665000000000,"state":"active","ping":100},{"user_id":78,"name":"4ling","steam_id":76561197994398381,"connected_time":5959000000000,"state":"active","ping":72},{"user_id":122,"name":"Snugboo","steam_id":76561198147970327,"connected_time":2115000000000,"state":"active","ping":60},{"user_id":176,"name":"freeyja","steam_id":76561198249206656,"connected_time":2000000000,"state":"spawning","ping":52}]},{"server_id":402,"name":"Uncletopia | Chicago | 3 | All Maps","name_short":"chi-3","host":"chi-1.us.uncletopia.com","port":27035,"enabled":true,"region":"us-central","cc":"us","latitude":41.881832,"longitude":-87.62318,"reserved":0,"last_update":"0001-01-01T00:00:00Z","name_a2s":"Uncletopia | Chicago | 3 | All Maps","protocol":17,"map":"pl_pier","folder":"tf","game":"Team Fortress","app_id":440,"player_count":24,"max_players":24,"Bots":0,"server_type":"Dedicated","server_os":"Linux","password":true,"vac":true,"version":"7961495","steam_id":85568392924515191,"keywords":["nocrits","nodmgspread","payload","uncletopia"],"game_id":440,"stv_port":27036,"stv_name":"Uncletopia | Chicago | 3 | All Maps | STV","players":[{"user_id":8,"name":"g00bur","steam_id":76561197993622520,"connected_time":3712000000000,"state":"active","ping":71},{"user_id":64,"name":"BurnN8or101","steam_id":76561198132668224,"connected_time":602000000000,"state":"active","ping":74},{"user_id":5,"name":"Psychosis","steam_id":76561198078659070,"connected_time":3772000000000,"state":"active","ping":77},{"user_id":75,"name":"The Legendary Dappergrade","steam_id":76561198004238822,"connected_time":208000000000,"state":"active","ping":67},{"user_id":70,"name":"Mog","steam_id":76561198025575870,"connected_time":327000000000,"state":"active","ping":55},{"user_id":74,"name":"LunarrD","steam_id":76561198811220107,"connected_time":270000000000,"state":"active","ping":102},{"user_id":69,"name":"Mr. Call You Back","steam_id":76561198025172811,"connected_time":332000000000,"state":"active","ping":56},{"user_id":51,"name":"Pugzilla","steam_id":76561198108088960,"connected_time":1781000000000,"state":"active","ping":71},{"user_id":41,"name":"DragonJimmy","steam_id":76561198272966565,"connected_time":2323000000000,"state":"active","ping":87},{"user_id":54,"name":"Zanartan","steam_id":76561198050528902,"connected_time":1608000000000,"state":"active","ping":189},{"user_id":43,"name":"nefarious criminal","steam_id":76561198077506415,"connected_time":2169000000000,"state":"active","ping":60},{"user_id":47,"name":"Goob Oy","steam_id":76561198889932456,"connected_time":2049000000000,"state":"active","ping":49},{"user_id":56,"name":"Nordie","steam_id":76561198102297774,"connected_time":1459000000000,"state":"active","ping":62},{"user_id":57,"name":"Estset","steam_id":76561198985295676,"connected_time":1454000000000,"state":"active","ping":189},{"user_id":71,"name":"Spyincorporated","steam_id":76561198080956951,"connected_time":314000000000,"state":"active","ping":62},{"user_id":29,"name":"Winter the Witchie","steam_id":76561198151971178,"connected_time":2976000000000,"state":"active","ping":63},{"user_id":73,"name":"Balsamicpork","steam_id":76561197995358472,"connected_time":286000000000,"state":"active","ping":60},{"user_id":22,"name":"Drachma","steam_id":76561198007310514,"connected_time":3157000000000,"state":"active","ping":59},{"user_id":23,"name":"ThatGamingKiwi","steam_id":76561199170522237,"connected_time":3146000000000,"state":"active","ping":81},{"user_id":76,"name":"Watt Dafuq","steam_id":76561198194402925,"connected_time":164000000000,"state":"active","ping":89},{"user_id":55,"name":"cocoabaen","steam_id":76561199088857564,"connected_time":1541000000000,"state":"active","ping":86},{"user_id":49,"name":"1000 Gigglebytes of clown girls","steam_id":76561198290719848,"connected_time":1951000000000,"state":"active","ping":96},{"user_id":34,"name":"Fred II (2011)","steam_id":76561199240694966,"connected_time":2861000000000,"state":"active","ping":62},{"user_id":66,"name":"Lawn Mower","steam_id":76561199029189825,"connected_time":407000000000,"state":"active","ping":67}]},{"server_id":403,"name":"Uncletopia | Chicago | 4 | All Maps","name_short":"chi-4","host":"chi-1.us.uncletopia.com","port":27045,"enabled":true,"region":"us-central","cc":"us","latitude":41.881832,"longitude":-87.62318,"reserved":0,"last_update":"0001-01-01T00:00:00Z","name_a2s":"Uncletopia | Chicago | 4 | All Maps","protocol":17,"map":"koth_cascade","folder":"tf","game":"Team Fortress","app_id":440,"player_count":0,"max_players":24,"Bots":0,"server_type":"Dedicated","server_os":"Linux","password":true,"vac":true,"version":"7961495","steam_id":85568392924515193,"keywords":["cp","nocrits","nodmgspread","uncletopia"],"game_id":440,"stv_port":27046,"stv_name":"Uncletopia | Chicago | 4 | All Maps | STV","players":null},{"server_id":36,"name":"Uncletopia | Chicago | 5 | All Maps","name_short":"chi-5","host":"chi-2.us.uncletopia.com","port":27015,"enabled":true,"region":"us-central","cc":"us","latitude":41.881832,"longitude":-87.62318,"reserved":0,"last_update":"0001-01-01T00:00:00Z","name_a2s":"Uncletopia | Chicago | 5 | All Maps","protocol":17,"map":"pl_swiftwater_final1","folder":"tf","game":"Team Fortress","app_id":440,"player_count":0,"max_players":24,"Bots":0,"server_type":"Dedicated","server_os":"Linux","password":true,"vac":true,"version":"7961495","steam_id":85568392924866362,"keywords":["nocrits","nodmgspread","payload","uncletopia"],"game_id":440,"stv_port":27016,"stv_name":"Uncletopia | Chicago | 5 | All Maps | STV","players":null},{"server_id":37,"name":"Uncletopia | Chicago | 6 | All Maps","name_short":"chi-6","host":"chi-2.us.uncletopia.com","port":27025,"enabled":true,"region":"us-central","cc":"us","latitude":41.881832,"longitude":-87.62318,"reserved":0,"last_update":"0001-01-01T00:00:00Z","name_a2s":"Uncletopia | Chicago | 6 | All Maps","protocol":17,"map":"pl_frontier_final","folder":"tf","game":"Team Fortress","app_id":440,"player_count":0,"max_players":24,"Bots":0,"server_type":"Dedicated","server_os":"Linux","password":true,"vac":true,"version":"7961495","steam_id":85568392924866363,"keywords":["nocrits","nodmgspread","payload","uncletopia"],"game_id":440,"stv_port":27026,"stv_name":"Uncletopia | Chicago | 6 | All Maps | STV","players":null},{"server_id":38,"name":"Uncletopia | Chicago | 7 | Stopwatch","name_short":"chi-7","host":"chi-2.us.uncletopia.com","port":27035,"enabled":true,"region":"us-central","cc":"us","latitude":41.881832,"longitude":-87.62318,"reserved":0,"last_update":"0001-01-01T00:00:00Z","name_a2s":"Uncletopia | Chicago | 7 | Stopwatch","protocol":17,"map":"pl_badwater","folder":"tf","game":"Team Fortress","app_id":440,"player_count":0,"max_players":24,"Bots":0,"server_type":"Dedicated","server_os":"Linux","password":true,"vac":true,"version":"7961495","steam_id":85568392924866364,"keywords":["nocrits","nodmgspread","payload","uncletopia"],"game_id":440,"stv_port":27036,"stv_name":"Uncletopia | Chicago | 7 | Stopwatch | STV","players":null},{"server_id":39,"name":"Uncletopia | Chicago | 8 | Community","name_short":"chi-8","host":"chi-2.us.uncletopia.com","port":27045,"enabled":true,"region":"us-central","cc":"us","latitude":41.881832,"longitude":-87.62318,"reserved":0,"last_update":"0001-01-01T00:00:00Z","name_a2s":"Uncletopia | Chicago | 8 | Community","protocol":17,"map":"pl_pier","folder":"tf","game":"Team Fortress","app_id":440,"player_count":0,"max_players":24,"Bots":0,"server_type":"Dedicated","server_os":"Linux","password":true,"vac":true,"version":"7961495","steam_id":85568392924866365,"keywords":["nocrits","nodmgspread","payload","uncletopia"],"game_id":440,"stv_port":27046,"stv_name":"Uncletopia | Chicago | 8 | Community | STV","players":null},{"server_id":8,"name":"Uncletopia | Dallas | 1 | All Maps","name_short":"dal-1","host":"dal-1.us.uncletopia.com","port":27015,"enabled":true,"region":"us-central","cc":"us","latitude":32.779167,"longitude":-96.80889,"reserved":0,"last_update":"0001-01-01T00:00:00Z","name_a2s":"Uncletopia | Dallas | 1 | All Maps","protocol":17,"map":"pl_snowycoast","folder":"tf","game":"Team Fortress","app_id":440,"player_count":23,"max_players":24,"Bots":0,"server_type":"Dedicated","server_os":"Linux","password":true,"vac":true,"version":"7961495","steam_id":85568392924469986,"keywords":["nocrits","nodmgspread","payload","uncletopia"],"game_id":440,"stv_port":27016,"stv_name":"Uncletopia | Dallas | 1 | All Maps | STV","players":[{"user_id":250,"name":"OrangeCrab","steam_id":76561198982248872,"connected_time":876000000000,"state":"active","ping":77},{"user_id":233,"name":"dicksnip","steam_id":76561198356515396,"connected_time":2367000000000,"state":"active","ping":55},{"user_id":245,"name":"Frank Horrigan","steam_id":76561198066504831,"connected_time":912000000000,"state":"active","ping":82},{"user_id":258,"name":"Critical","steam_id":76561198123744966,"connected_time":296000000000,"state":"active","ping":95},{"user_id":253,"name":"Roscuro","steam_id":76561198059814922,"connected_time":833000000000,"state":"active","ping":45},{"user_id":231,"name":"Borgir","steam_id":76561198325390265,"connected_time":2503000000000,"state":"active","ping":61},{"user_id":228,"name":"Mury","steam_id":76561198069743049,"connected_time":2811000000000,"state":"active","ping":110},{"user_id":254,"name":"HUESO","steam_id":76561198276383681,"connected_time":831000000000,"state":"active","ping":84},{"user_id":145,"name":"SadFapping","steam_id":76561198076651049,"connected_time":9152000000000,"state":"active","ping":108},{"user_id":256,"name":"Major Woody","steam_id":76561198835541533,"connected_time":646000000000,"state":"active","ping":60},{"user_id":261,"name":"sam","steam_id":76561198088504281,"connected_time":38000000000,"state":"active","ping":87},{"user_id":257,"name":"TheGrassMan (He/Him)","steam_id":76561198118984048,"connected_time":607000000000,"state":"active","ping":83},{"user_id":240,"name":"inshallah","steam_id":76561198165212575,"connected_time":1444000000000,"state":"active","ping":90},{"user_id":232,"name":"Ass Blaster, Disaster Master","steam_id":76561197997774469,"connected_time":2463000000000,"state":"active","ping":63},{"user_id":87,"name":"Toxic Ron","steam_id":76561198089302972,"connected_time":13295000000000,"state":"active","ping":80},{"user_id":259,"name":"Detezo","steam_id":76561198257962148,"connected_time":285000000000,"state":"active","ping":82},{"user_id":209,"name":"PackingPeanutt :]","steam_id":76561199053229413,"connected_time":3644000000000,"state":"active","ping":91},{"user_id":242,"name":"Cargo","steam_id":76561198065535025,"connected_time":1338000000000,"state":"active","ping":86},{"user_id":260,"name":"b-dot","steam_id":76561198160786631,"connected_time":79000000000,"state":"active","ping":70},{"user_id":241,"name":"Satchamo","steam_id":76561198012968239,"connected_time":1444000000000,"state":"active","ping":94},{"user_id":239,"name":"Drive-By-Fish-Guy","steam_id":76561198105513652,"connected_time":1710000000000,"state":"active","ping":99},{"user_id":249,"name":"Necronoxide","steam_id":76561197997856321,"connected_time":894000000000,"state":"active","ping":98},{"user_id":252,"name":"Phosu","steam_id":76561198180162801,"connected_time":873000000000,"state":"active","ping":70}]},{"server_id":108,"name":"Uncletopia | Dallas | 2 | All Maps","name_short":"dal-2","host":"dal-1.us.uncletopia.com","port":27025,"enabled":true,"region":"us-central","cc":"us","latitude":32.779167,"longitude":-96.80889,"reserved":0,"last_update":"0001-01-01T00:00:00Z","name_a2s":"Uncletopia | Dallas | 2 | All Maps","protocol":17,"map":"pl_badwater","folder":"tf","game":"Team Fortress","app_id":440,"player_count":0,"max_players":24,"Bots":0,"server_type":"Dedicated","server_os":"Linux","password":true,"vac":true,"version":"7961495","steam_id":85568392924469988,"keywords":["nocrits","nodmgspread","payload","uncletopia"],"game_id":440,"stv_port":27026,"stv_name":"Uncletopia | Dallas | 2 | All Maps | STV","players":null},{"server_id":404,"name":"Uncletopia | Dallas | 3 | All Maps","name_short":"dal-3","host":"dal-1.us.uncletopia.com","port":27035,"enabled":true,"region":"us-central","cc":"us","latitude":32.779167,"longitude":-96.80889,"reserved":0,"last_update":"0001-01-01T00:00:00Z","name_a2s":"Uncletopia | Dallas | 3 | All Maps","protocol":17,"map":"pl_swiftwater_final1","folder":"tf","game":"Team Fortress","app_id":440,"player_count":0,"max_players":24,"Bots":0,"server_type":"Dedicated","server_os":"Linux","password":true,"vac":true,"version":"7961495","steam_id":85568392924515219,"keywords":["nocrits","nodmgspread","payload","uncletopia"],"game_id":440,"stv_port":27036,"stv_name":"Uncletopia | Dallas | 3 | All Maps | STV","players":null},{"server_id":405,"name":"Uncletopia | Dallas | 4 | Community","name_short":"dal-4","host":"dal-1.us.uncletopia.com","port":27045,"enabled":true,"region":"us-central","cc":"us","latitude":32.779167,"longitude":-96.80889,"reserved":0,"last_update":"0001-01-01T00:00:00Z","name_a2s":"Uncletopia | Dallas | 4 | Community","protocol":17,"map":"workshop/pl_corrode_rc2.ugc546577989","folder":"tf","game":"Team Fortress","app_id":440,"player_count":0,"max_players":24,"Bots":0,"server_type":"Dedicated","server_os":"Linux","password":true,"vac":true,"version":"7961495","steam_id":85568392924515220,"keywords":["nocrits","nodmgspread","payload","uncletopia"],"game_id":440,"stv_port":27046,"stv_name":"Uncletopia | Dallas | 4 | Community | STV","players":null},{"server_id":5,"name":"Uncletopia | Frankfurt | 1 | All Maps","name_short":"frk-1","host":"frk-1.de.uncletopia.com","port":27015,"enabled":true,"region":"eu","cc":"de","latitude":50.110924,"longitude":8.682127,"reserved":0,"last_update":"0001-01-01T00:00:00Z","name_a2s":"Uncletopia | Frankfurt | 1 | All Maps","protocol":17,"map":"pl_badwater","folder":"tf","game":"Team Fortress","app_id":440,"player_count":24,"max_players":24,"Bots":0,"server_type":"Dedicated","server_os":"Linux","password":true,"vac":true,"version":"7961495","steam_id":85568392924469989,"keywords":["nocrits","nodmgspread","payload","uncletopia"],"game_id":440,"stv_port":27016,"stv_name":"Uncletopia | Frankfurt | 1 | All Maps | STV","players":[{"user_id":255,"name":"Datcucker905","steam_id":76561198078256876,"connected_time":1360000000000,"state":"active","ping":152},{"user_id":261,"name":"Dot","steam_id":76561198047299145,"connected_time":813000000000,"state":"active","ping":74},{"user_id":268,"name":"_MeMeS_pon","steam_id":76561199487653277,"connected_time":4000000000,"state":"spawning","ping":122},{"user_id":258,"name":"123","steam_id":76561198074299986,"connected_time":1088000000000,"state":"active","ping":69},{"user_id":233,"name":"Hugee  くコ:彡","steam_id":76561198245495152,"connected_time":3467000000000,"state":"active","ping":66},{"user_id":257,"name":"blåhaj","steam_id":76561198094268619,"connected_time":1107000000000,"state":"active","ping":59},{"user_id":222,"name":"RXQ","steam_id":76561199423258992,"connected_time":3624000000000,"state":"active","ping":171},{"user_id":210,"name":"SirVitek","steam_id":76561198142961758,"connected_time":4929000000000,"state":"active","ping":65},{"user_id":267,"name":"TнundeгCuпт","steam_id":76561198135091800,"connected_time":233000000000,"state":"active","ping":48},{"user_id":215,"name":"Daruun","steam_id":76561198019068781,"connected_time":4082000000000,"state":"active","ping":71},{"user_id":249,"name":"Greg","steam_id":76561198014131702,"connected_time":2257000000000,"state":"active","ping":115},{"user_id":256,"name":"remi, she wrote.","steam_id":76561198044045655,"connected_time":1356000000000,"state":"active","ping":75},{"user_id":196,"name":"Ennard777","steam_id":76561198965409493,"connected_time":5514000000000,"state":"active","ping":95},{"user_id":259,"name":"Thors","steam_id":76561197968739075,"connected_time":1081000000000,"state":"active","ping":48},{"user_id":191,"name":"fleegl","steam_id":76561198170410303,"connected_time":5635000000000,"state":"active","ping":170},{"user_id":262,"name":"NReallyS","steam_id":76561198979795815,"connected_time":684000000000,"state":"active","ping":66},{"user_id":235,"name":"hot guy","steam_id":76561198083063005,"connected_time":3330000000000,"state":"active","ping":56},{"user_id":254,"name":"Chopperson_","steam_id":76561198873728497,"connected_time":1506000000000,"state":"active","ping":111},{"user_id":263,"name":"_3tHeR_","steam_id":76561199109870743,"connected_time":659000000000,"state":"active","ping":54},{"user_id":229,"name":"Joo ♦","steam_id":76561197987609203,"connected_time":3587000000000,"state":"active","ping":75},{"user_id":245,"name":"Joe","steam_id":76561198145639903,"connected_time":2520000000000,"state":"active","ping":105},{"user_id":236,"name":"Dad","steam_id":76561198048551680,"connected_time":3274000000000,"state":"active","ping":56},{"user_id":253,"name":"Veirū Viseris","steam_id":76561197989857176,"connected_time":1589000000000,"state":"active","ping":76},{"user_id":248,"name":"zilean","steam_id":76561198214848887,"connected_time":2337000000000,"state":"active","ping":64}]},{"server_id":110,"name":"Uncletopia | Frankfurt | 2 | All Maps","name_short":"frk-2","host":"frk-1.de.uncletopia.com","port":27025,"enabled":true,"region":"eu","cc":"de","latitude":50.110924,"longitude":8.682127,"reserved":0,"last_update":"0001-01-01T00:00:00Z","name_a2s":"Uncletopia | Frankfurt | 2 | All Maps","protocol":17,"map":"pl_borneo","folder":"tf","game":"Team Fortress","app_id":440,"player_count":24,"max_players":24,"Bots":0,"server_type":"Dedicated","server_os":"Linux","password":true,"vac":true,"version":"7961495","steam_id":85568392924469990,"keywords":["nocrits","nodmgspread","payload","uncletopia"],"game_id":440,"stv_port":27026,"stv_name":"Uncletopia | Frankfurt | 2 | All Maps | STV","players":[{"user_id":185,"name":"kbourbery","steam_id":76561198109943492,"connected_time":1500000000000,"state":"active","ping":66},{"user_id":159,"name":"Paułó","steam_id":76561198286747891,"connected_time":3959000000000,"state":"active","ping":79},{"user_id":186,"name":"notane","steam_id":76561198182987846,"connected_time":1493000000000,"state":"active","ping":69},{"user_id":224,"name":"Thainar","steam_id":76561198077348221,"connected_time":376000000000,"state":"active","ping":71},{"user_id":134,"name":"Aspartus","steam_id":76561198101385763,"connected_time":5201000000000,"state":"active","ping":45},{"user_id":226,"name":"Dry","steam_id":76561198027164095,"connected_time":314000000000,"state":"active","ping":120},{"user_id":222,"name":"glorpis","steam_id":76561199225333422,"connected_time":418000000000,"state":"active","ping":66},{"user_id":215,"name":"Spich","steam_id":76561199017245962,"connected_time":807000000000,"state":"active","ping":86},{"user_id":177,"name":"I-I","steam_id":76561198267969436,"connected_time":2814000000000,"state":"active","ping":62},{"user_id":229,"name":"Belly itcher","steam_id":76561198188744894,"connected_time":148000000000,"state":"active","ping":58},{"user_id":221,"name":"Uncle Sam","steam_id":76561197968551107,"connected_time":448000000000,"state":"active","ping":100},{"user_id":164,"name":"Dima","steam_id":76561198085346516,"connected_time":3790000000000,"state":"active","ping":60},{"user_id":169,"name":"Evilton","steam_id":76561198844263922,"connected_time":3475000000000,"state":"active","ping":79},{"user_id":152,"name":"bondburgerjames2007.eu","steam_id":76561198112681438,"connected_time":4352000000000,"state":"active","ping":71},{"user_id":227,"name":"Ziomek","steam_id":76561199131735098,"connected_time":306000000000,"state":"active","ping":82},{"user_id":206,"name":"Oriuke","steam_id":76561197992166123,"connected_time":996000000000,"state":"active","ping":58},{"user_id":190,"name":"Xeno","steam_id":76561198975556646,"connected_time":1444000000000,"state":"active","ping":47},{"user_id":219,"name":"[Le] Sheppy","steam_id":76561198155678945,"connected_time":570000000000,"state":"active","ping":61},{"user_id":200,"name":"Egtu","steam_id":76561198013757235,"connected_time":1256000000000,"state":"active","ping":65},{"user_id":223,"name":"shima","steam_id":76561199042470246,"connected_time":411000000000,"state":"active","ping":56},{"user_id":166,"name":"Cloud'as","steam_id":76561198079840066,"connected_time":3768000000000,"state":"active","ping":75},{"user_id":146,"name":"Laysketchup","steam_id":76561198798891390,"connected_time":4761000000000,"state":"active","ping":63},{"user_id":230,"name":"MISTER SUIIII","steam_id":76561198018330092,"connected_time":142000000000,"state":"active","ping":72},{"user_id":147,"name":"Kepucz","steam_id":76561197977634244,"connected_time":4759000000000,"state":"active","ping":60}]},{"server_id":308,"name":"Uncletopia | Frankfurt | 3 | All Maps","name_short":"frk-3","host":"frk-1.de.uncletopia.com","port":27035,"enabled":true,"region":"eu","cc":"de","latitude":50.110924,"longitude":8.682127,"reserved":0,"last_update":"0001-01-01T00:00:00Z","name_a2s":"Uncletopia | Frankfurt | 3 | All Maps","protocol":17,"map":"pl_upward","folder":"tf","game":"Team Fortress","app_id":440,"player_count":23,"max_players":24,"Bots":0,"server_type":"Dedicated","server_os":"Linux","password":true,"vac":true,"version":"7961495","steam_id":85568392924504274,"keywords":["nocrits","nodmgspread","payload","uncletopia"],"game_id":440,"stv_port":27036,"stv_name":"Uncletopia | Frankfurt | 3 | All Maps | STV","players":[{"user_id":159,"name":"kilo","steam_id":76561198015641339,"connected_time":660000000000,"state":"active","ping":70},{"user_id":165,"name":"The Hat Fancier","steam_id":76561198004272825,"connected_time":416000000000,"state":"active","ping":56},{"user_id":166,"name":"IHaveConsumed30KmofMeth","steam_id":76561199221172552,"connected_time":394000000000,"state":"active","ping":66},{"user_id":144,"name":"Dirocks","steam_id":76561198138494815,"connected_time":1439000000000,"state":"active","ping":74},{"user_id":127,"name":"hej","steam_id":76561198110530761,"connected_time":3129000000000,"state":"active","ping":64},{"user_id":167,"name":"Impusle_","steam_id":76561199001634963,"connected_time":386000000000,"state":"active","ping":51},{"user_id":168,"name":"Mac Bean","steam_id":76561198133782205,"connected_time":257000000000,"state":"active","ping":118},{"user_id":142,"name":"Jack Mehoff","steam_id":76561198148987507,"connected_time":1660000000000,"state":"active","ping":65},{"user_id":148,"name":"Gamlader","steam_id":76561198306177608,"connected_time":1332000000000,"state":"active","ping":73},{"user_id":156,"name":"Maya #transrights","steam_id":76561198290614621,"connected_time":989000000000,"state":"active","ping":79},{"user_id":170,"name":"Weed Fortress 2","steam_id":76561198860424456,"connected_time":211000000000,"state":"spawning","ping":86},{"user_id":146,"name":"Sôl","steam_id":76561199082309685,"connected_time":1402000000000,"state":"active","ping":75},{"user_id":131,"name":"Necroz","steam_id":76561198290901561,"connected_time":2913000000000,"state":"active","ping":75},{"user_id":151,"name":"Fish","steam_id":76561198811811405,"connected_time":1257000000000,"state":"active","ping":73},{"user_id":163,"name":"Favi","steam_id":76561198013236935,"connected_time":547000000000,"state":"active","ping":63},{"user_id":130,"name":"Puhaur","steam_id":76561198404557509,"connected_time":2945000000000,"state":"active","ping":51},{"user_id":171,"name":"АнЮшЕчКа^_^","steam_id":76561197994492154,"connected_time":200000000000,"state":"active","ping":65},{"user_id":157,"name":"Daxie626","steam_id":76561198394588278,"connected_time":877000000000,"state":"active","ping":114},{"user_id":172,"name":"herr_p","steam_id":76561198033072222,"connected_time":161000000000,"state":"active","ping":72},{"user_id":173,"name":"Immense Messi","steam_id":76561198106789280,"connected_time":118000000000,"state":"active","ping":71},{"user_id":158,"name":"MUWEQ","steam_id":76561198107615727,"connected_time":852000000000,"state":"active","ping":74},{"user_id":164,"name":"El_Kommadante","steam_id":76561198079551685,"connected_time":526000000000,"state":"active","ping":81},{"user_id":136,"name":"Waltism","steam_id":76561199447676489,"connected_time":2497000000000,"state":"active","ping":84}]},{"server_id":309,"name":"Uncletopia | Frankfurt | 4 | All Maps","name_short":"frk-4","host":"frk-1.de.uncletopia.com","port":27045,"enabled":true,"region":"eu","cc":"de","latitude":50.110924,"longitude":8.682127,"reserved":0,"last_update":"0001-01-01T00:00:00Z","name_a2s":"Uncletopia | Frankfurt | 4 | All Maps","protocol":17,"map":"koth_highpass","folder":"tf","game":"Team Fortress","app_id":440,"player_count":0,"max_players":24,"Bots":0,"server_type":"Dedicated","server_os":"Linux","password":true,"vac":true,"version":"7961495","steam_id":85568392924504275,"keywords":["cp","nocrits","nodmgspread","uncletopia"],"game_id":440,"stv_port":27046,"stv_name":"Uncletopia | Frankfurt | 4 | All Maps | STV","players":null},{"server_id":310,"name":"Uncletopia | Frankfurt | 5 | All Maps","name_short":"frk-5","host":"frk-1.de.uncletopia.com","port":27055,"enabled":true,"region":"eu","cc":"de","latitude":50.110924,"longitude":8.682127,"reserved":0,"last_update":"0001-01-01T00:00:00Z","name_a2s":"Uncletopia | Frankfurt | 5 | All Maps","protocol":17,"map":"pl_upward","folder":"tf","game":"Team Fortress","app_id":440,"player_count":24,"max_players":24,"Bots":0,"server_type":"Dedicated","server_os":"Linux","password":true,"vac":true,"version":"7961495","steam_id":85568392924504277,"keywords":["nocrits","nodmgspread","payload","uncletopia"],"game_id":440,"stv_port":27056,"stv_name":"Uncletopia | Frankfurt | 5 | All Maps | STV","players":[{"user_id":282,"name":"PashaVerti","steam_id":76561199013963024,"connected_time":2258000000000,"state":"active","ping":70},{"user_id":317,"name":"Jennifer","steam_id":76561199474556920,"connected_time":570000000000,"state":"active","ping":122},{"user_id":297,"name":"akakez","steam_id":76561198095432821,"connected_time":1614000000000,"state":"active","ping":115},{"user_id":318,"name":"Shlyk","steam_id":76561198333387103,"connected_time":490000000000,"state":"active","ping":94},{"user_id":304,"name":"Pyrolander","steam_id":76561198050785450,"connected_time":1161000000000,"state":"active","ping":49},{"user_id":262,"name":"badrobot","steam_id":76561198322878356,"connected_time":4773000000000,"state":"active","ping":102},{"user_id":286,"name":"knyazF","steam_id":76561198163278585,"connected_time":1972000000000,"state":"active","ping":69},{"user_id":320,"name":"Boki","steam_id":76561198044553351,"connected_time":144000000000,"state":"active","ping":74},{"user_id":302,"name":"Zm4j","steam_id":76561198259465946,"connected_time":1201000000000,"state":"active","ping":76},{"user_id":283,"name":"KrasKoss","steam_id":76561198159034514,"connected_time":2115000000000,"state":"active","ping":100},{"user_id":278,"name":"engineer drip","steam_id":76561198991032570,"connected_time":2947000000000,"state":"active","ping":81},{"user_id":303,"name":"NotAmazed","steam_id":76561199125729567,"connected_time":1199000000000,"state":"active","ping":66},{"user_id":321,"name":"shmax","steam_id":76561198889012709,"connected_time":114000000000,"state":"active","ping":91},{"user_id":315,"name":"man","steam_id":76561198060530483,"connected_time":743000000000,"state":"active","ping":74},{"user_id":260,"name":"Zor","steam_id":76561198009851383,"connected_time":5239000000000,"state":"active","ping":78},{"user_id":274,"name":"Grillem Dafoe","steam_id":76561198306874574,"connected_time":3342000000000,"state":"active","ping":80},{"user_id":293,"name":"Soulman25 (FIN)","steam_id":76561198103611974,"connected_time":1754000000000,"state":"active","ping":97},{"user_id":264,"name":"Pingus","steam_id":76561199015156956,"connected_time":4578000000000,"state":"active","ping":102},{"user_id":319,"name":"I Love Filtered Water","steam_id":76561198016042113,"connected_time":164000000000,"state":"active","ping":89},{"user_id":314,"name":"[ \u003e . \u003c ]7","steam_id":76561198095560087,"connected_time":776000000000,"state":"active","ping":72},{"user_id":225,"name":"Dont Rely on me, im very bad","steam_id":76561198362116755,"connected_time":7360000000000,"state":"active","ping":149},{"user_id":82,"name":"marvi444","steam_id":76561198431534139,"connected_time":18692000000000,"state":"active","ping":44},{"user_id":312,"name":"Rappin' Sebastian","steam_id":76561198453928256,"connected_time":944000000000,"state":"active","ping":70},{"user_id":316,"name":"Wodaz","steam_id":76561198043263557,"connected_time":647000000000,"state":"active","ping":71}]},{"server_id":311,"name":"Uncletopia | Frankfurt | 6 | All Maps","name_short":"frk-6","host":"frk-1.de.uncletopia.com","port":27065,"enabled":true,"region":"eu","cc":"de","latitude":50.110924,"longitude":8.682127,"reserved":0,"last_update":"0001-01-01T00:00:00Z","name_a2s":"Uncletopia | Frankfurt | 6 | All Maps","protocol":17,"map":"cp_steel","folder":"tf","game":"Team Fortress","app_id":440,"player_count":24,"max_players":24,"Bots":0,"server_type":"Dedicated","server_os":"Linux","password":true,"vac":true,"version":"7961495","steam_id":85568392924504278,"keywords":["cp","nocrits","nodmgspread","uncletopia"],"game_id":440,"stv_port":27066,"stv_name":"Uncletopia | Frankfurt | 6 | All Maps | STV","players":[{"user_id":126,"name":"Skeledoor","steam_id":76561199181411466,"connected_time":998000000000,"state":"active","ping":144},{"user_id":94,"name":"Dumb_Lizard","steam_id":76561197992043495,"connected_time":2864000000000,"state":"active","ping":134},{"user_id":123,"name":"blurst of times","steam_id":76561197972325640,"connected_time":1091000000000,"state":"active","ping":48},{"user_id":57,"name":"DarkMelody","steam_id":76561198063225937,"connected_time":5835000000000,"state":"active","ping":108},{"user_id":58,"name":"Hott","steam_id":76561198120339101,"connected_time":5822000000000,"state":"active","ping":89},{"user_id":87,"name":"The Blue Engineer","steam_id":76561198397503718,"connected_time":3188000000000,"state":"active","ping":74},{"user_id":117,"name":"Bubba","steam_id":76561198141743942,"connected_time":1771000000000,"state":"active","ping":88},{"user_id":144,"name":"The☆Cops","steam_id":76561198146358073,"connected_time":278000000000,"state":"active","ping":93},{"user_id":124,"name":"F","steam_id":76561199149462792,"connected_time":1071000000000,"state":"active","ping":67},{"user_id":127,"name":"caffreze","steam_id":76561198408988907,"connected_time":996000000000,"state":"active","ping":95},{"user_id":139,"name":"カサル109","steam_id":76561199060729711,"connected_time":607000000000,"state":"active","ping":69},{"user_id":110,"name":"Source of Sanctuary","steam_id":76561198341075367,"connected_time":2524000000000,"state":"active","ping":49},{"user_id":146,"name":"Mr.raccoon","steam_id":76561198247751074,"connected_time":203000000000,"state":"active","ping":60},{"user_id":143,"name":"The Leaf","steam_id":76561199219653853,"connected_time":376000000000,"state":"active","ping":48},{"user_id":130,"name":"TheAnonymeKiller","steam_id":76561198190680978,"connected_time":964000000000,"state":"active","ping":56},{"user_id":128,"name":"Casual NPC","steam_id":76561198918102834,"connected_time":994000000000,"state":"active","ping":150},{"user_id":140,"name":"Vinnidict","steam_id":76561198037087000,"connected_time":586000000000,"state":"active","ping":70},{"user_id":131,"name":"Mario","steam_id":76561198079985072,"connected_time":960000000000,"state":"active","ping":60},{"user_id":115,"name":"AdeAAa","steam_id":76561198974207724,"connected_time":2416000000000,"state":"active","ping":102},{"user_id":141,"name":"Núúb","steam_id":76561198111933414,"connected_time":570000000000,"state":"active","ping":70},{"user_id":145,"name":"Tymqs","steam_id":76561198186541753,"connected_time":261000000000,"state":"active","ping":96},{"user_id":137,"name":"PileofPolygons","steam_id":76561199321343460,"connected_time":876000000000,"state":"active","ping":159},{"user_id":116,"name":"Peskyplumber64","steam_id":76561198044458330,"connected_time":2405000000000,"state":"active","ping":72},{"user_id":119,"name":"Lukas","steam_id":76561198454286820,"connected_time":1729000000000,"state":"active","ping":75}]},{"server_id":23,"name":"Uncletopia | Frankfurt | 7 | Stopwatch","name_short":"frk-7","host":"frk-1.de.uncletopia.com","port":27075,"enabled":true,"region":"eu","cc":"de","latitude":50.110924,"longitude":8.682127,"reserved":0,"last_update":"0001-01-01T00:00:00Z","name_a2s":"Uncletopia | Frankfurt | 7 | Stopwatch","protocol":17,"map":"workshop/pl_vigil_rc10.ugc1266210012","folder":"tf","game":"Team Fortress","app_id":440,"player_count":0,"max_players":24,"Bots":0,"server_type":"Dedicated","server_os":"Linux","password":true,"vac":true,"version":"7961495","steam_id":85568392924742827,"keywords":["nocrits","nodmgspread","payload","uncletopia"],"game_id":440,"stv_port":27076,"stv_name":"Uncletopia | Frankfurt | 7 | Stopwatch | STV","players":null},{"server_id":24,"name":"Uncletopia | Frankfurt | 8 | Community","name_short":"frk-8","host":"frk-1.de.uncletopia.com","port":27085,"enabled":true,"region":"eu","cc":"de","latitude":50.110924,"longitude":8.682127,"reserved":0,"last_update":"0001-01-01T00:00:00Z","name_a2s":"Uncletopia | Frankfurt | 8 | Community","protocol":17,"map":"cp_mountainlab","folder":"tf","game":"Team Fortress","app_id":440,"player_count":0,"max_players":24,"Bots":0,"server_type":"Dedicated","server_os":"Linux","password":true,"vac":true,"version":"7961495","steam_id":85568392924742828,"keywords":["cp","nocrits","nodmgspread","uncletopia"],"game_id":440,"stv_port":27086,"stv_name":"Uncletopia | Frankfurt | 8 | Community | STV","players":null},{"server_id":202,"name":"Uncletopia | Hong Kong | 1 | All Maps","name_short":"hgk-1","host":"hgk-1.hk.uncletopia.com","port":27015,"enabled":true,"region":"asia","cc":"hk","latitude":22.302711,"longitude":114.177216,"reserved":0,"last_update":"0001-01-01T00:00:00Z","name_a2s":"Uncletopia | Hong Kong | 1 | All Maps","protocol":17,"map":"pl_pier","folder":"tf","game":"Team Fortress","app_id":440,"player_count":24,"max_players":24,"Bots":0,"server_type":"Dedicated","server_os":"Linux","password":true,"vac":true,"version":"7961495","steam_id":85568392924494504,"keywords":["nocrits","nodmgspread","payload","uncletopia"],"game_id":440,"stv_port":27016,"stv_name":"Uncletopia | Hong Kong | 1 | All Maps | STV","players":[{"user_id":583,"name":"YOLOp","steam_id":76561198009995591,"connected_time":1185000000000,"state":"active","ping":77},{"user_id":504,"name":"yuki","steam_id":76561198088403016,"connected_time":8470000000000,"state":"active","ping":103},{"user_id":512,"name":"Othopeus","steam_id":76561198283534382,"connected_time":7447000000000,"state":"active","ping":97},{"user_id":584,"name":"j_rex","steam_id":76561198132473926,"connected_time":1182000000000,"state":"active","ping":59},{"user_id":555,"name":"Lu","steam_id":76561198320532821,"connected_time":3865000000000,"state":"active","ping":59},{"user_id":546,"name":"Koi","steam_id":76561199122109977,"connected_time":5112000000000,"state":"active","ping":65},{"user_id":521,"name":"moomin","steam_id":76561197994194946,"connected_time":6585000000000,"state":"active","ping":102},{"user_id":585,"name":"ConHoshi","steam_id":76561199387718733,"connected_time":1170000000000,"state":"active","ping":75},{"user_id":568,"name":"Waltuh (Real)","steam_id":76561199257300024,"connected_time":1822000000000,"state":"active","ping":91},{"user_id":534,"name":"oda","steam_id":76561197985719327,"connected_time":5346000000000,"state":"active","ping":106},{"user_id":570,"name":"Heinz 100 Natural Mustard","steam_id":76561198197984095,"connected_time":1805000000000,"state":"active","ping":93},{"user_id":571,"name":"Puddin","steam_id":76561198140052918,"connected_time":1740000000000,"state":"active","ping":94},{"user_id":569,"name":"screaming sniper","steam_id":76561199085568674,"connected_time":1816000000000,"state":"active","ping":60},{"user_id":549,"name":"Momoxhien","steam_id":76561198414997429,"connected_time":4937000000000,"state":"active","ping":63},{"user_id":566,"name":"Dr. Piss Rat","steam_id":76561199074809838,"connected_time":2667000000000,"state":"active","ping":84},{"user_id":550,"name":"Banana Milk","steam_id":76561198005156257,"connected_time":4582000000000,"state":"active","ping":141},{"user_id":556,"name":"415455","steam_id":76561198141630395,"connected_time":3864000000000,"state":"active","ping":129},{"user_id":567,"name":"17","steam_id":76561198241530712,"connected_time":2631000000000,"state":"active","ping":103},{"user_id":576,"name":"https://bad-dragon.com","steam_id":76561198086760958,"connected_time":1324000000000,"state":"active","ping":162},{"user_id":587,"name":"Vesha","steam_id":76561199208233146,"connected_time":621000000000,"state":"active","ping":87},{"user_id":588,"name":"Crazywayne","steam_id":76561198056504010,"connected_time":72000000000,"state":"active","ping":91},{"user_id":537,"name":"Battery","steam_id":76561198004583032,"connected_time":5255000000000,"state":"active","ping":98},{"user_id":559,"name":"tiden2000","steam_id":76561198092969425,"connected_time":3848000000000,"state":"active","ping":83},{"user_id":574,"name":"avered","steam_id":76561199480939609,"connected_time":1527000000000,"state":"active","ping":79}]},{"server_id":1,"name":"Uncletopia | Los Angeles | 1 | All Maps","name_short":"lax-1","host":"lax-1.us.uncletopia.com","port":27015,"enabled":true,"region":"us-west","cc":"us","latitude":33.94279,"longitude":-118.41004,"reserved":0,"last_update":"0001-01-01T00:00:00Z","name_a2s":"Uncletopia | Los Angeles | 1 | All Maps","protocol":17,"map":"koth_viaduct","folder":"tf","game":"Team Fortress","app_id":440,"player_count":0,"max_players":24,"Bots":0,"server_type":"Dedicated","server_os":"Linux","password":true,"vac":true,"version":"7961495","steam_id":85568392924469991,"keywords":["cp","nocrits","nodmgspread","uncletopia"],"game_id":440,"stv_port":27016,"stv_name":"Uncletopia | Los Angeles | 1 | All Maps | STV","players":null},{"server_id":112,"name":"Uncletopia | Los Angeles | 2 | All Maps","name_short":"lax-2","host":"lax-1.us.uncletopia.com","port":27025,"enabled":true,"region":"us-west","cc":"us","latitude":33.94279,"longitude":-118.41004,"reserved":0,"last_update":"0001-01-01T00:00:00Z","name_a2s":"Uncletopia | Los Angeles | 2 | All Maps","protocol":17,"map":"cp_mountainlab","folder":"tf","game":"Team Fortress","app_id":440,"player_count":0,"max_players":24,"Bots":0,"server_type":"Dedicated","server_os":"Linux","password":true,"vac":true,"version":"7961495","steam_id":85568392924469992,"keywords":["cp","nocrits","nodmgspread","uncletopia"],"game_id":440,"stv_port":27026,"stv_name":"Uncletopia | Los Angeles | 2 | All Maps | STV","players":null},{"server_id":324,"name":"Uncletopia | Los Angeles | 3 | All Maps","name_short":"lax-3","host":"lax-1.us.uncletopia.com","port":27035,"enabled":true,"region":"us-west","cc":"us","latitude":33.94279,"longitude":-118.41004,"reserved":0,"last_update":"0001-01-01T00:00:00Z","name_a2s":"Uncletopia | Los Angeles | 3 | All Maps","protocol":17,"map":"cp_altitude","folder":"tf","game":"Team Fortress","app_id":440,"player_count":0,"max_players":24,"Bots":0,"server_type":"Dedicated","server_os":"Linux","password":true,"vac":true,"version":"7961495","steam_id":85568392924510198,"keywords":["cp","nocrits","nodmgspread","uncletopia"],"game_id":440,"stv_port":27036,"stv_name":"Uncletopia | Los Angeles | 3 | All Maps | STV","players":null},{"server_id":25,"name":"Uncletopia | Los Angeles | 4 | Stopwatch","name_short":"lax-4","host":"lax-1.us.uncletopia.com","port":27045,"enabled":true,"region":"us-west","cc":"us","latitude":33.94279,"longitude":-118.41004,"reserved":0,"last_update":"0001-01-01T00:00:00Z","name_a2s":"Uncletopia | Los Angeles | 4 | Stopwatch","protocol":17,"map":"workshop/pl_summercoast_rc8e.ugc1761528829","folder":"tf","game":"Team Fortress","app_id":440,"player_count":0,"max_players":24,"Bots":0,"server_type":"Dedicated","server_os":"Linux","password":true,"vac":true,"version":"7961495","steam_id":85568392924510199,"keywords":["nocrits","nodmgspread","payload","uncletopia"],"game_id":440,"stv_port":27046,"stv_name":"Uncletopia | Los Angeles | 4 | Stopwatch | STV","players":null},{"server_id":11,"name":"Uncletopia | London | 1 | All Maps","name_short":"lon-1","host":"lon-1.uk.uncletopia.com","port":27015,"enabled":true,"region":"eu","cc":"gb","latitude":51.509865,"longitude":-0.118092,"reserved":0,"last_update":"0001-01-01T00:00:00Z","name_a2s":"Uncletopia | London | 1 | All Maps","protocol":17,"map":"pl_barnblitz","folder":"tf","game":"Team Fortress","app_id":440,"player_count":24,"max_players":24,"Bots":0,"server_type":"Dedicated","server_os":"Linux","password":true,"vac":true,"version":"7961495","steam_id":85568392924367362,"keywords":["nocrits","nodmgspread","payload","uncletopia"],"game_id":440,"stv_port":27016,"stv_name":"Uncletopia | London | 1 | All Maps | STV","players":[{"user_id":263,"name":"lunaire","steam_id":76561198163344452,"connected_time":423000000000,"state":"active","ping":101},{"user_id":256,"name":"Rin-Nakaret","steam_id":76561197971051188,"connected_time":1150000000000,"state":"active","ping":61},{"user_id":260,"name":"DunkleG","steam_id":76561198053816186,"connected_time":498000000000,"state":"active","ping":73},{"user_id":259,"name":"Nag","steam_id":76561197970488206,"connected_time":568000000000,"state":"active","ping":64},{"user_id":216,"name":"unconditional love","steam_id":76561199026097466,"connected_time":4759000000000,"state":"active","ping":71},{"user_id":264,"name":"NeonCat","steam_id":76561198072456995,"connected_time":419000000000,"state":"active","ping":80},{"user_id":229,"name":"gr3821","steam_id":76561198091531010,"connected_time":2869000000000,"state":"active","ping":45},{"user_id":271,"name":"BenteBent","steam_id":76561198297920637,"connected_time":296000000000,"state":"active","ping":36},{"user_id":247,"name":"dopamine overdose","steam_id":76561199032511302,"connected_time":1643000000000,"state":"active","ping":90},{"user_id":238,"name":"silicon based life form","steam_id":76561199127121346,"connected_time":2119000000000,"state":"active","ping":56},{"user_id":255,"name":"Rai_to","steam_id":76561199013720618,"connected_time":1167000000000,"state":"active","ping":87},{"user_id":239,"name":"Dolcelatte","steam_id":76561198038501770,"connected_time":2110000000000,"state":"active","ping":60},{"user_id":248,"name":"he made graduation","steam_id":76561198017114970,"connected_time":1625000000000,"state":"active","ping":40},{"user_id":228,"name":"hasky","steam_id":76561197986052798,"connected_time":3041000000000,"state":"active","ping":72},{"user_id":253,"name":"Salih","steam_id":76561198287934839,"connected_time":1257000000000,"state":"active","ping":66},{"user_id":244,"name":"mr clean","steam_id":76561198024743746,"connected_time":1842000000000,"state":"active","ping":74},{"user_id":227,"name":"HereComesDarius","steam_id":76561199087615999,"connected_time":3164000000000,"state":"active","ping":35},{"user_id":258,"name":"Combatspok","steam_id":76561197971598115,"connected_time":891000000000,"state":"active","ping":112},{"user_id":249,"name":"RSeph™","steam_id":76561198107908797,"connected_time":1597000000000,"state":"active","ping":70},{"user_id":265,"name":"Lemmy","steam_id":76561199038870751,"connected_time":406000000000,"state":"active","ping":60},{"user_id":245,"name":"Lord","steam_id":76561198241305816,"connected_time":1775000000000,"state":"active","ping":114},{"user_id":270,"name":"Happy Wolf","steam_id":76561197993525766,"connected_time":324000000000,"state":"active","ping":97},{"user_id":269,"name":"Insanitybomb","steam_id":76561198048707708,"connected_time":375000000000,"state":"active","ping":60},{"user_id":226,"name":"Sakari","steam_id":76561197997811299,"connected_time":3325000000000,"state":"active","ping":60}]},{"server_id":114,"name":"Uncletopia | London | 2 | All Maps","name_short":"lon-2","host":"lon-1.uk.uncletopia.com","port":27025,"enabled":true,"region":"eu","cc":"gb","latitude":51.509865,"longitude":-0.118092,"reserved":0,"last_update":"0001-01-01T00:00:00Z","name_a2s":"Uncletopia | London | 2 | All Maps","protocol":17,"map":"pl_snowycoast","folder":"tf","game":"Team Fortress","app_id":440,"player_count":0,"max_players":24,"Bots":0,"server_type":"Dedicated","server_os":"Linux","password":true,"vac":true,"version":"7961495","steam_id":85568392924470941,"keywords":["nocrits","nodmgspread","payload","uncletopia"],"game_id":440,"stv_port":27026,"stv_name":"Uncletopia | London | 2 | All Maps | STV","players":null},{"server_id":320,"name":"Uncletopia | London | 3 | All Maps","name_short":"lon-3","host":"lon-1.uk.uncletopia.com","port":27035,"enabled":true,"region":"eu","cc":"gb","latitude":51.509865,"longitude":-0.118092,"reserved":0,"last_update":"0001-01-01T00:00:00Z","name_a2s":"Uncletopia | London | 3 | All Maps","protocol":17,"map":"pl_upward","folder":"tf","game":"Team Fortress","app_id":440,"player_count":5,"max_players":24,"Bots":0,"server_type":"Dedicated","server_os":"Linux","password":true,"vac":true,"version":"7961495","steam_id":85568392924510192,"keywords":["nocrits","nodmgspread","payload","uncletopia"],"game_id":440,"stv_port":27036,"stv_name":"Uncletopia | London | 3 | All Maps | STV","players":[{"user_id":10,"name":"Nomnom","steam_id":76561198061699968,"connected_time":1334000000000,"state":"active","ping":78},{"user_id":11,"name":"Andrea","steam_id":76561199487380678,"connected_time":1309000000000,"state":"active","ping":119},{"user_id":22,"name":"gnarly business","steam_id":76561198832688767,"connected_time":62000000000,"state":"active","ping":47},{"user_id":23,"name":"Pez, the almighty swaffler","steam_id":76561198083312702,"connected_time":2000000000,"state":"spawning","ping":84},{"user_id":21,"name":"Pigeon","steam_id":76561198969298883,"connected_time":547000000000,"state":"active","ping":64}]},{"server_id":321,"name":"Uncletopia | London | 4 | All Maps","name_short":"lon-4","host":"lon-1.uk.uncletopia.com","port":27045,"enabled":true,"region":"eu","cc":"gb","latitude":51.509865,"longitude":-0.118092,"reserved":0,"last_update":"0001-01-01T00:00:00Z","name_a2s":"Uncletopia | London | 4 | All Maps","protocol":17,"map":"ctf_doublecross","folder":"tf","game":"Team Fortress","app_id":440,"player_count":24,"max_players":24,"Bots":0,"server_type":"Dedicated","server_os":"Linux","password":true,"vac":true,"version":"7961495","steam_id":85568392924510193,"keywords":["ctf","nocrits","nodmgspread","uncletopia"],"game_id":440,"stv_port":27046,"stv_name":"Uncletopia | London | 4 | All Maps | STV","players":[{"user_id":370,"name":":3","steam_id":76561198169471853,"connected_time":7055000000000,"state":"active","ping":38},{"user_id":466,"name":"dibdabdeb","steam_id":76561198864272307,"connected_time":1324000000000,"state":"active","ping":37},{"user_id":409,"name":"XxBenShapiro420xX","steam_id":76561199229373972,"connected_time":5286000000000,"state":"active","ping":59},{"user_id":462,"name":"Greenmaker","steam_id":76561198060466591,"connected_time":1599000000000,"state":"active","ping":98},{"user_id":468,"name":"R!not","steam_id":76561197986328786,"connected_time":1254000000000,"state":"active","ping":43},{"user_id":480,"name":"ThornDrayton","steam_id":76561198141985675,"connected_time":95000000000,"state":"active","ping":59},{"user_id":403,"name":"Zerfesh","steam_id":76561198117534358,"connected_time":5997000000000,"state":"active","ping":107},{"user_id":474,"name":"=Xal=","steam_id":76561198052622095,"connected_time":429000000000,"state":"active","ping":62},{"user_id":479,"name":"Ujin","steam_id":76561197995386642,"connected_time":128000000000,"state":"active","ping":89},{"user_id":478,"name":"doctwoeight","steam_id":76561198153488940,"connected_time":192000000000,"state":"active","ping":78},{"user_id":481,"name":"TreatFly","steam_id":76561198069707362,"connected_time":2000000000,"state":"spawning","ping":47},{"user_id":470,"name":"kritz","steam_id":76561199486350718,"connected_time":770000000000,"state":"active","ping":55},{"user_id":464,"name":"Tummy","steam_id":76561198045654910,"connected_time":1497000000000,"state":"active","ping":43},{"user_id":422,"name":"Caramelion","steam_id":76561198097429047,"connected_time":4445000000000,"state":"active","ping":65},{"user_id":433,"name":"rgb4","steam_id":76561198267916695,"connected_time":3223000000000,"state":"active","ping":42},{"user_id":447,"name":"elbow","steam_id":76561198531978435,"connected_time":2173000000000,"state":"active","ping":55},{"user_id":472,"name":"Ledze Shuns Dope","steam_id":76561198049945010,"connected_time":693000000000,"state":"active","ping":52},{"user_id":475,"name":"Tiad","steam_id":76561198283421457,"connected_time":337000000000,"state":"active","ping":59},{"user_id":443,"name":"Ullr","steam_id":76561198140547483,"connected_time":2297000000000,"state":"active","ping":45},{"user_id":450,"name":"lillunya ♡","steam_id":76561198330418866,"connected_time":2071000000000,"state":"active","ping":70},{"user_id":453,"name":"oskaroku00","steam_id":76561199025360128,"connected_time":2010000000000,"state":"active","ping":74},{"user_id":458,"name":"Lessoz","steam_id":76561199211572036,"connected_time":1873000000000,"state":"active","ping":76},{"user_id":413,"name":"disabled chimp","steam_id":76561198132062857,"connected_time":4741000000000,"state":"active","ping":74},{"user_id":471,"name":"Tombobx","steam_id":76561198862443949,"connected_time":748000000000,"state":"active","ping":62}]},{"server_id":21,"name":"Uncletopia | London | 5 | All Maps","name_short":"lon-5","host":"lon-1.uk.uncletopia.com","port":27055,"enabled":true,"region":"eu","cc":"gb","latitude":51.509865,"longitude":-0.118092,"reserved":0,"last_update":"0001-01-01T00:00:00Z","name_a2s":"Uncletopia | London | 5 | All Maps","protocol":17,"map":"koth_lakeside_final","folder":"tf","game":"Team Fortress","app_id":440,"player_count":17,"max_players":24,"Bots":0,"server_type":"Dedicated","server_os":"Linux","password":true,"vac":true,"version":"7961495","steam_id":85568392924742829,"keywords":["cp","nocrits","nodmgspread","uncletopia"],"game_id":440,"stv_port":27056,"stv_name":"Uncletopia | London | 5 | All Maps | STV","players":[{"user_id":111,"name":"Dark Souls Reference","steam_id":76561198094102747,"connected_time":567000000000,"state":"active","ping":56},{"user_id":9,"name":"stefanbejenari","steam_id":76561199466718294,"connected_time":7770000000000,"state":"active","ping":91},{"user_id":47,"name":"real open player","steam_id":76561198148115584,"connected_time":5177000000000,"state":"active","ping":70},{"user_id":115,"name":"Fran","steam_id":76561199070516960,"connected_time":146000000000,"state":"active","ping":66},{"user_id":106,"name":"Penis Contortionist","steam_id":76561198073663784,"connected_time":799000000000,"state":"active","ping":39},{"user_id":116,"name":"Endy","steam_id":76561198252942184,"connected_time":99000000000,"state":"active","ping":122},{"user_id":117,"name":"Dr. Senpai","steam_id":76561199217893562,"connected_time":20000000000,"state":"spawning","ping":74},{"user_id":90,"name":"3L","steam_id":76561198007208996,"connected_time":1933000000000,"state":"active","ping":51},{"user_id":33,"name":"niandits","steam_id":76561198419798900,"connected_time":5543000000000,"state":"active","ping":110},{"user_id":64,"name":"Sza","steam_id":76561198022132105,"connected_time":4751000000000,"state":"active","ping":62},{"user_id":41,"name":"1914","steam_id":76561198257383813,"connected_time":5345000000000,"state":"active","ping":45},{"user_id":112,"name":"Riv","steam_id":76561198052237764,"connected_time":457000000000,"state":"active","ping":45},{"user_id":83,"name":"2ndOFtheWWY","steam_id":76561198190936635,"connected_time":2967000000000,"state":"active","ping":75},{"user_id":87,"name":"pyromaniac","steam_id":76561198292781255,"connected_time":2115000000000,"state":"active","ping":74},{"user_id":59,"name":"Sato","steam_id":76561199042847761,"connected_time":4976000000000,"state":"active","ping":125},{"user_id":110,"name":"banrab","steam_id":76561198083615367,"connected_time":638000000000,"state":"active","ping":39},{"user_id":103,"name":"def","steam_id":76561198857396812,"connected_time":1655000000000,"state":"active","ping":53}]},{"server_id":22,"name":"Uncletopia | London | 6 | All Maps","name_short":"lon-6","host":"lon-1.uk.uncletopia.com","port":27065,"enabled":true,"region":"eu","cc":"gb","latitude":51.509865,"longitude":-0.118092,"reserved":0,"last_update":"0001-01-01T00:00:00Z","name_a2s":"Uncletopia | London | 6 | All Maps","protocol":17,"map":"pl_barnblitz","folder":"tf","game":"Team Fortress","app_id":440,"player_count":19,"max_players":24,"Bots":0,"server_type":"Dedicated","server_os":"Linux","password":true,"vac":true,"version":"7961495","steam_id":85568392924742830,"keywords":["nocrits","nodmgspread","payload","uncletopia"],"game_id":440,"stv_port":27066,"stv_name":"Uncletopia | London | 6 | All Maps | STV","players":[{"user_id":65,"name":"Severeburrito16","steam_id":76561198353155991,"connected_time":1813000000000,"state":"active","ping":126},{"user_id":90,"name":"Chemzo","steam_id":76561199092858118,"connected_time":68000000000,"state":"active","ping":152},{"user_id":52,"name":"Haschgott 2.0","steam_id":76561198049820307,"connected_time":2353000000000,"state":"active","ping":67},{"user_id":10,"name":"elyo","steam_id":76561198209442489,"connected_time":3979000000000,"state":"active","ping":68},{"user_id":61,"name":"Electro_Creeper","steam_id":76561199196836893,"connected_time":1945000000000,"state":"active","ping":68},{"user_id":79,"name":"mogwaihudson","steam_id":76561199486770715,"connected_time":1170000000000,"state":"active","ping":51},{"user_id":88,"name":"Eric Catman","steam_id":76561198802117294,"connected_time":73000000000,"state":"active","ping":67},{"user_id":78,"name":"quickfast","steam_id":76561199438900919,"connected_time":1198000000000,"state":"active","ping":43},{"user_id":48,"name":"tomo","steam_id":76561199015097595,"connected_time":2595000000000,"state":"active","ping":44},{"user_id":35,"name":"Faraday's Law","steam_id":76561198105385977,"connected_time":2941000000000,"state":"active","ping":72},{"user_id":84,"name":"Wuffington","steam_id":76561198033762881,"connected_time":878000000000,"state":"active","ping":49},{"user_id":41,"name":"TomNoSocks","steam_id":76561198114071046,"connected_time":2789000000000,"state":"active","ping":69},{"user_id":66,"name":"󠀡󠀡","steam_id":76561198059375315,"connected_time":1731000000000,"state":"active","ping":74},{"user_id":76,"name":"2023","steam_id":76561198857712172,"connected_time":1250000000000,"state":"active","ping":49},{"user_id":30,"name":"mixxxa_french","steam_id":76561198085098243,"connected_time":3243000000000,"state":"active","ping":122},{"user_id":85,"name":"Demoknight tf2","steam_id":76561198133041874,"connected_time":846000000000,"state":"active","ping":56},{"user_id":87,"name":"Dzieciol","steam_id":76561198160237556,"connected_time":177000000000,"state":"active","ping":77},{"user_id":45,"name":"murderwow","steam_id":76561198024566944,"connected_time":2728000000000,"state":"active","ping":107},{"user_id":77,"name":"Chloemew","steam_id":76561198042071762,"connected_time":1237000000000,"state":"active","ping":48}]},{"server_id":40,"name":"Uncletopia | London | 7 | Stopwatch","name_short":"lon-7","host":"lon-1.uk.uncletopia.com","port":27075,"enabled":true,"region":"eu","cc":"gb","latitude":51.509865,"longitude":-0.118092,"reserved":0,"last_update":"0001-01-01T00:00:00Z","name_a2s":"Uncletopia | London | 7 | Stopwatch","protocol":17,"map":"workshop/pl_badwater_pro_v12.ugc2142942074","folder":"tf","game":"Team Fortress","app_id":440,"player_count":0,"max_players":24,"Bots":0,"server_type":"Dedicated","server_os":"Linux","password":true,"vac":true,"version":"7961495","steam_id":85568392924964314,"keywords":["nocrits","nodmgspread","payload","uncletopia"],"game_id":440,"stv_port":27076,"stv_name":"Uncletopia | London | 7 | Stopwatch | STV","players":null},{"server_id":41,"name":"Uncletopia | London | 8 | Community","name_short":"lon-8","host":"lon-1.uk.uncletopia.com","port":27085,"enabled":true,"region":"eu","cc":"gb","latitude":51.509865,"longitude":-0.118092,"reserved":0,"last_update":"0001-01-01T00:00:00Z","name_a2s":"Uncletopia | London | 8 | Community","protocol":17,"map":"workshop/koth_ramjam_rc1.ugc459778887","folder":"tf","game":"Team Fortress","app_id":440,"player_count":0,"max_players":24,"Bots":0,"server_type":"Dedicated","server_os":"Linux","password":true,"vac":true,"version":"7961495","steam_id":85568392924964315,"keywords":["cp","nocrits","nodmgspread","uncletopia"],"game_id":440,"stv_port":27086,"stv_name":"Uncletopia | London | 8 | Community | STV","players":null},{"server_id":300,"name":"Uncletopia | Montréal | 1 | One Thousand Uncles","name_short":"mtl-1","host":"mtl-1.ca.uncletopia.com","port":27015,"enabled":true,"region":"us-east","cc":"ca","latitude":45.50889,"longitude":-73.56167,"reserved":0,"last_update":"0001-01-01T00:00:00Z","name_a2s":"","protocol":0,"map":"","folder":"","game":"","app_id":0,"player_count":0,"max_players":0,"Bots":0,"server_type":"","server_os":"","password":false,"vac":false,"version":"","steam_id":0,"keywords":null,"game_id":0,"stv_port":0,"stv_name":"","players":null},{"server_id":301,"name":"Uncletopia | Montréal | 2 | One Thousand Uncles","name_short":"mtl-2","host":"mtl-1.ca.uncletopia.com","port":27025,"enabled":true,"region":"us-east","cc":"ca","latitude":45.50889,"longitude":-73.56167,"reserved":0,"last_update":"0001-01-01T00:00:00Z","name_a2s":"","protocol":0,"map":"","folder":"","game":"","app_id":0,"player_count":0,"max_players":0,"Bots":0,"server_type":"","server_os":"","password":false,"vac":false,"version":"","steam_id":0,"keywords":null,"game_id":0,"stv_port":0,"stv_name":"","players":null},{"server_id":302,"name":"Uncletopia | Montréal | 3 | One Thousand Uncles","name_short":"mtl-3","host":"mtl-1.ca.uncletopia.com","port":27035,"enabled":true,"region":"us-east","cc":"ca","latitude":45.50889,"longitude":-73.56167,"reserved":0,"last_update":"0001-01-01T00:00:00Z","name_a2s":"","protocol":0,"map":"","folder":"","game":"","app_id":0,"player_count":0,"max_players":0,"Bots":0,"server_type":"","server_os":"","password":false,"vac":false,"version":"","steam_id":0,"keywords":null,"game_id":0,"stv_port":0,"stv_name":"","players":null},{"server_id":13,"name":"Uncletopia | New York City | 1 | All Maps","name_short":"nyc-1","host":"nyc-1.us.uncletopia.com","port":27015,"enabled":true,"region":"us-east","cc":"us","latitude":40.73061,"longitude":-73.93524,"reserved":0,"last_update":"0001-01-01T00:00:00Z","name_a2s":"Uncletopia | New York City | 1 | All Maps","protocol":17,"map":"koth_viaduct","folder":"tf","game":"Team Fortress","app_id":440,"player_count":2,"max_players":24,"Bots":0,"server_type":"Dedicated","server_os":"Linux","password":true,"vac":true,"version":"7961495","steam_id":85568392924469993,"keywords":["cp","nocrits","nodmgspread","uncletopia"],"game_id":440,"stv_port":27016,"stv_name":"Uncletopia | New York City | 1 | All Maps | STV","players":[{"user_id":18,"name":"Ak","steam_id":76561199333659458,"connected_time":351000000000,"state":"active","ping":56},{"user_id":20,"name":"Muffn","steam_id":76561198797691753,"connected_time":250000000000,"state":"active","ping":69}]},{"server_id":14,"name":"Uncletopia | New York City | 2 | All Maps","name_short":"nyc-2","host":"nyc-1.us.uncletopia.com","port":27025,"enabled":true,"region":"us-east","cc":"us","latitude":40.73061,"longitude":-73.93524,"reserved":0,"last_update":"0001-01-01T00:00:00Z","name_a2s":"Uncletopia | New York City | 2 | All Maps","protocol":17,"map":"pl_pier","folder":"tf","game":"Team Fortress","app_id":440,"player_count":0,"max_players":24,"Bots":0,"server_type":"Dedicated","server_os":"Linux","password":true,"vac":true,"version":"7961495","steam_id":85568392924469994,"keywords":["nocrits","nodmgspread","payload","uncletopia"],"game_id":440,"stv_port":27026,"stv_name":"Uncletopia | New York City | 2 | All Maps | STV","players":null},{"server_id":15,"name":"Uncletopia | New York City | 3 | Stopwatch","name_short":"nyc-3","host":"nyc-1.us.uncletopia.com","port":27035,"enabled":true,"region":"us-east","cc":"us","latitude":40.73061,"longitude":-73.93524,"reserved":0,"last_update":"0001-01-01T00:00:00Z","name_a2s":"Uncletopia | New York City | 3 | Stopwatch","protocol":17,"map":"pl_snowycoast","folder":"tf","game":"Team Fortress","app_id":440,"player_count":0,"max_players":24,"Bots":0,"server_type":"Dedicated","server_os":"Linux","password":true,"vac":true,"version":"7961495","steam_id":85568392924742820,"keywords":["nocrits","nodmgspread","payload","uncletopia"],"game_id":440,"stv_port":27036,"stv_name":"Uncletopia | New York City | 3 | Stopwatch | STV","players":null},{"server_id":16,"name":"Uncletopia | New York City | 4 | Community","name_short":"nyc-4","host":"nyc-1.us.uncletopia.com","port":27045,"enabled":true,"region":"us-east","cc":"us","latitude":40.73061,"longitude":-73.93524,"reserved":0,"last_update":"0001-01-01T00:00:00Z","name_a2s":"Uncletopia | New York City | 4 | Community","protocol":17,"map":"cp_altitude","folder":"tf","game":"Team Fortress","app_id":440,"player_count":0,"max_players":24,"Bots":0,"server_type":"Dedicated","server_os":"Linux","password":true,"vac":true,"version":"7961495","steam_id":85568392924742821,"keywords":["cp","nocrits","nodmgspread","uncletopia"],"game_id":440,"stv_port":27046,"stv_name":"Uncletopia | New York City | 4 | Community | STV","players":null},{"server_id":142,"name":"Uncletopia | São Paulo | 1 | All Maps","name_short":"sao-1","host":"sao-1.br.uncletopia.com","port":27015,"enabled":true,"region":"sa","cc":"br","latitude":-23.533773,"longitude":-46.62529,"reserved":0,"last_update":"0001-01-01T00:00:00Z","name_a2s":"Uncletopia | São Paulo | 1 | All Maps","protocol":17,"map":"koth_cascade","folder":"tf","game":"Team Fortress","app_id":440,"player_count":0,"max_players":24,"Bots":0,"server_type":"Dedicated","server_os":"Linux","password":true,"vac":true,"version":"7961495","steam_id":85568392924469996,"keywords":["cp","nocrits","nodmgspread","uncletopia"],"game_id":440,"stv_port":27016,"stv_name":"Uncletopia | São Paulo | 1 | All Maps | STV","players":null},{"server_id":143,"name":"Uncletopia | São Paulo | 2 | Community","name_short":"sao-2","host":"sao-2.br.uncletopia.com","port":27015,"enabled":true,"region":"sa","cc":"br","latitude":-23.533773,"longitude":-46.62529,"reserved":0,"last_update":"0001-01-01T00:00:00Z","name_a2s":"Uncletopia | São Paulo | 2 | Community","protocol":17,"map":"pl_badwater","folder":"tf","game":"Team Fortress","app_id":440,"player_count":0,"max_players":24,"Bots":0,"server_type":"Dedicated","server_os":"Linux","password":true,"vac":true,"version":"7961495","steam_id":85568392924485349,"keywords":["nocrits","nodmgspread","payload","uncletopia"],"game_id":440,"stv_port":27016,"stv_name":"Uncletopia | São Paulo | 2 | Community | STV","players":null},{"server_id":7,"name":"Uncletopia | Seattle | 1 | All Maps","name_short":"sea-1","host":"sea-1.us.uncletopia.com","port":27015,"enabled":true,"region":"us-west","cc":"us","latitude":47.608013,"longitude":-122.33517,"reserved":0,"last_update":"0001-01-01T00:00:00Z","name_a2s":"Uncletopia | Seattle | 1 | All Maps","protocol":17,"map":"pl_upward","folder":"tf","game":"Team Fortress","app_id":440,"player_count":4,"max_players":24,"Bots":0,"server_type":"Dedicated","server_os":"Linux","password":true,"vac":true,"version":"7961495","steam_id":85568392924469997,"keywords":["nocrits","nodmgspread","payload","uncletopia"],"game_id":440,"stv_port":27016,"stv_name":"Uncletopia | Seattle | 1 | All Maps | STV","players":[{"user_id":5,"name":"dust | it/she","steam_id":76561198045218909,"connected_time":1901000000000,"state":"active","ping":36},{"user_id":7,"name":"Themasterman75","steam_id":76561199385573293,"connected_time":1555000000000,"state":"active","ping":56},{"user_id":9,"name":"Jeramosa","steam_id":76561198811000094,"connected_time":381000000000,"state":"active","ping":75},{"user_id":10,"name":"Satsugua","steam_id":76561199164497706,"connected_time":309000000000,"state":"active","ping":74}]},{"server_id":119,"name":"Uncletopia | Seattle | 2 | All Maps","name_short":"sea-2","host":"sea-1.us.uncletopia.com","port":27025,"enabled":true,"region":"us-west","cc":"us","latitude":47.608013,"longitude":-122.33517,"reserved":0,"last_update":"0001-01-01T00:00:00Z","name_a2s":"Uncletopia | Seattle | 2 | All Maps","protocol":17,"map":"cp_process_final","folder":"tf","game":"Team Fortress","app_id":440,"player_count":0,"max_players":24,"Bots":0,"server_type":"Dedicated","server_os":"Linux","password":true,"vac":true,"version":"7961495","steam_id":85568392924469998,"keywords":["cp","nocrits","nodmgspread","uncletopia"],"game_id":440,"stv_port":27026,"stv_name":"Uncletopia | Seattle | 2 | All Maps | STV","players":null},{"server_id":406,"name":"Uncletopia | Seattle | 3 | Stopwatch","name_short":"sea-3","host":"sea-1.us.uncletopia.com","port":27035,"enabled":true,"region":"us-west","cc":"us","latitude":47.608013,"longitude":-122.33517,"reserved":0,"last_update":"0001-01-01T00:00:00Z","name_a2s":"Uncletopia | Seattle | 3 | Stopwatch","protocol":17,"map":"pl_pier","folder":"tf","game":"Team Fortress","app_id":440,"player_count":0,"max_players":24,"Bots":0,"server_type":"Dedicated","server_os":"Linux","password":true,"vac":true,"version":"7961495","steam_id":85568392924515217,"keywords":["nocrits","nodmgspread","payload","uncletopia"],"game_id":440,"stv_port":27036,"stv_name":"Uncletopia | Seattle | 3 | Stopwatch | STV","players":null},{"server_id":17,"name":"Uncletopia | San Francisco | 1 | All Maps","name_short":"sfo-1","host":"sfo-1.us.uncletopia.com","port":27015,"enabled":true,"region":"us-west","cc":"us","latitude":37.77397,"longitude":-122.4313,"reserved":0,"last_update":"0001-01-01T00:00:00Z","name_a2s":"Uncletopia | San Francisco | 1 | All Maps","protocol":17,"map":"koth_cascade","folder":"tf","game":"Team Fortress","app_id":440,"player_count":0,"max_players":24,"Bots":0,"server_type":"Dedicated","server_os":"Linux","password":true,"vac":true,"version":"7961495","steam_id":85568392924469999,"keywords":["cp","nocrits","nodmgspread","uncletopia"],"game_id":440,"stv_port":27016,"stv_name":"Uncletopia | San Francisco | 1 | All Maps | STV","players":null},{"server_id":18,"name":"Uncletopia | San Francisco | 2 | All Maps","name_short":"sfo-2","host":"sfo-1.us.uncletopia.com","port":27025,"enabled":true,"region":"us-west","cc":"us","latitude":37.77397,"longitude":-122.4313,"reserved":0,"last_update":"0001-01-01T00:00:00Z","name_a2s":"Uncletopia | San Francisco | 2 | All Maps","protocol":17,"map":"pl_frontier_final","folder":"tf","game":"Team Fortress","app_id":440,"player_count":0,"max_players":24,"Bots":0,"server_type":"Dedicated","server_os":"Linux","password":true,"vac":true,"version":"7961495","steam_id":85568392924470000,"keywords":["nocrits","nodmgspread","payload","uncletopia"],"game_id":440,"stv_port":27026,"stv_name":"Uncletopia | San Francisco | 2 | All Maps | STV","players":null},{"server_id":19,"name":"Uncletopia | San Francisco | 3 | Stopwatch","name_short":"sfo-3","host":"sfo-1.us.uncletopia.com","port":27035,"enabled":true,"region":"us-west","cc":"us","latitude":37.77397,"longitude":-122.4313,"reserved":0,"last_update":"0001-01-01T00:00:00Z","name_a2s":"Uncletopia | San Francisco | 3 | Stopwatch","protocol":17,"map":"pl_pier","folder":"tf","game":"Team Fortress","app_id":440,"player_count":0,"max_players":24,"Bots":0,"server_type":"Dedicated","server_os":"Linux","password":true,"vac":true,"version":"7961495","steam_id":85568392924742824,"keywords":["nocrits","nodmgspread","payload","uncletopia"],"game_id":440,"stv_port":27036,"stv_name":"Uncletopia | San Francisco | 3 | Stopwatch | STV","players":null},{"server_id":20,"name":"Uncletopia | San Francisco | 4 | Community","name_short":"sfo-4","host":"sfo-1.us.uncletopia.com","port":27045,"enabled":true,"region":"us-west","cc":"us","latitude":37.77397,"longitude":-122.4313,"reserved":0,"last_update":"0001-01-01T00:00:00Z","name_a2s":"Uncletopia | San Francisco | 4 | Community","protocol":17,"map":"pl_pier","folder":"tf","game":"Team Fortress","app_id":440,"player_count":0,"max_players":24,"Bots":0,"server_type":"Dedicated","server_os":"Linux","password":true,"vac":true,"version":"7961495","steam_id":85568392924742826,"keywords":["nocrits","nodmgspread","payload","uncletopia"],"game_id":440,"stv_port":27046,"stv_name":"Uncletopia | San Francisco | 4 | Community | STV","players":null},{"server_id":141,"name":"Uncletopia | Sydney | 1 | All Maps","name_short":"syd-1","host":"syd-1.au.uncletopia.com","port":27015,"enabled":true,"region":"au","cc":"au","latitude":-33.865143,"longitude":151.2099,"reserved":0,"last_update":"0001-01-01T00:00:00Z","name_a2s":"Uncletopia | Sydney | 1 | All Maps","protocol":17,"map":"pl_badwater","folder":"tf","game":"Team Fortress","app_id":440,"player_count":23,"max_players":24,"Bots":0,"server_type":"Dedicated","server_os":"Linux","password":true,"vac":true,"version":"7961495","steam_id":85568392924470001,"keywords":["nocrits","nodmgspread","payload","uncletopia"],"game_id":440,"stv_port":27016,"stv_name":"Uncletopia | Sydney | 1 | All Maps | STV","players":[{"user_id":505,"name":"♥thigh gappo♥","steam_id":76561198104979519,"connected_time":2399000000000,"state":"active","ping":54},{"user_id":506,"name":"Curie","steam_id":76561198132928417,"connected_time":2307000000000,"state":"active","ping":57},{"user_id":504,"name":"[INSERT_EDGY_NAME_HERE]","steam_id":76561198318135663,"connected_time":2606000000000,"state":"active","ping":86},{"user_id":495,"name":"Regencyyy","steam_id":76561198130868207,"connected_time":3233000000000,"state":"active","ping":165},{"user_id":525,"name":"Mouse Balls","steam_id":76561199037470627,"connected_time":619000000000,"state":"active","ping":98},{"user_id":526,"name":"Golfing with Joel","steam_id":76561199161637215,"connected_time":463000000000,"state":"active","ping":101},{"user_id":515,"name":"Futon","steam_id":76561197962561182,"connected_time":1359000000000,"state":"active","ping":58},{"user_id":517,"name":"AxiumSA4","steam_id":76561198097932350,"connected_time":1282000000000,"state":"active","ping":89},{"user_id":509,"name":"Smylez","steam_id":76561198072273373,"connected_time":1843000000000,"state":"active","ping":64},{"user_id":524,"name":"grip reaper","steam_id":76561198087803935,"connected_time":1008000000000,"state":"active","ping":50},{"user_id":507,"name":"rear left puncture","steam_id":76561198811532659,"connected_time":2289000000000,"state":"active","ping":176},{"user_id":520,"name":"Diming","steam_id":76561198325584599,"connected_time":1151000000000,"state":"active","ping":70},{"user_id":488,"name":"Rain","steam_id":76561198007409921,"connected_time":3766000000000,"state":"active","ping":50},{"user_id":510,"name":"Overlold","steam_id":76561197978635495,"connected_time":1838000000000,"state":"active","ping":83},{"user_id":474,"name":"Destroy Lonely","steam_id":76561198183714687,"connected_time":4782000000000,"state":"active","ping":44},{"user_id":511,"name":"Uncle_Bowlcut","steam_id":76561198225191728,"connected_time":1721000000000,"state":"active","ping":55},{"user_id":527,"name":"[ѵƇity] it has been ages","steam_id":76561198016686295,"connected_time":312000000000,"state":"active","ping":74},{"user_id":500,"name":"Sloth King ♥","steam_id":76561198069431320,"connected_time":2914000000000,"state":"active","ping":132},{"user_id":501,"name":"Mango","steam_id":76561198799842401,"connected_time":2914000000000,"state":"active","ping":99},{"user_id":521,"name":"soba mask","steam_id":76561198018201014,"connected_time":1127000000000,"state":"active","ping":100},{"user_id":470,"name":"little raw meat boy","steam_id":76561199248254676,"connected_time":5029000000000,"state":"active","ping":57},{"user_id":502,"name":"ZinTheDruid","steam_id":76561198130514095,"connected_time":2912000000000,"state":"active","ping":62},{"user_id":463,"name":"Dynamite Chimp (Messedupotato)","steam_id":76561198122066100,"connected_time":5528000000000,"state":"active","ping":57}]},{"server_id":123,"name":"Uncletopia | Sydney | 2 | All Maps","name_short":"syd-2","host":"syd-1.au.uncletopia.com","port":27025,"enabled":true,"region":"au","cc":"au","latitude":-33.865143,"longitude":151.2099,"reserved":0,"last_update":"0001-01-01T00:00:00Z","name_a2s":"Uncletopia | Sydney | 2 | All Maps","protocol":17,"map":"koth_viaduct","folder":"tf","game":"Team Fortress","app_id":440,"player_count":2,"max_players":24,"Bots":0,"server_type":"Dedicated","server_os":"Linux","password":true,"vac":true,"version":"7961495","steam_id":85568392924470002,"keywords":["cp","nocrits","nodmgspread","uncletopia"],"game_id":440,"stv_port":27026,"stv_name":"Uncletopia | Sydney | 2 | All Maps | STV","players":[{"user_id":345,"name":"itsFR33KKO","steam_id":76561198286173807,"connected_time":751000000000,"state":"active","ping":77},{"user_id":346,"name":"Feshcaku","steam_id":76561198837820898,"connected_time":742000000000,"state":"active","ping":220}]},{"server_id":395,"name":"Uncletopia | Sydney | 3 | All Maps","name_short":"syd-3","host":"syd-1.au.uncletopia.com","port":27035,"enabled":true,"region":"au","cc":"au","latitude":-33.865143,"longitude":151.2099,"reserved":0,"last_update":"0001-01-01T00:00:00Z","name_a2s":"Uncletopia | Sydney | 3 | All Maps","protocol":17,"map":"koth_viaduct","folder":"tf","game":"Team Fortress","app_id":440,"player_count":3,"max_players":24,"Bots":0,"server_type":"Dedicated","server_os":"Linux","password":true,"vac":true,"version":"7961495","steam_id":85568392925194467,"keywords":["cp","nocrits","nodmgspread","uncletopia"],"game_id":440,"stv_port":27036,"stv_name":"Uncletopia | Sydney | 3 | All Maps | STV","players":[{"user_id":26,"name":"phetti","steam_id":76561199011765330,"connected_time":162000000000,"state":"active","ping":58},{"user_id":27,"name":"JellyPeaPot","steam_id":76561198341952092,"connected_time":143000000000,"state":"active","ping":57},{"user_id":28,"name":"NXME1Z","steam_id":76561199183646299,"connected_time":114000000000,"state":"active","ping":62}]},{"server_id":396,"name":"Uncletopia | Sydney | 4 | All Maps","name_short":"syd-4","host":"syd-1.au.uncletopia.com","port":27045,"enabled":true,"region":"au","cc":"au","latitude":-33.865143,"longitude":151.2099,"reserved":0,"last_update":"0001-01-01T00:00:00Z","name_a2s":"Uncletopia | Sydney | 4 | All Maps","protocol":17,"map":"koth_viaduct","folder":"tf","game":"Team Fortress","app_id":440,"player_count":0,"max_players":24,"Bots":0,"server_type":"Dedicated","server_os":"Linux","password":true,"vac":true,"version":"7961495","steam_id":85568392925397958,"keywords":["cp","nocrits","nodmgspread","uncletopia"],"game_id":440,"stv_port":27046,"stv_name":"Uncletopia | Sydney | 4 | All Maps | STV","players":null},{"server_id":58,"name":"Uncletopia | Sydney | 5 | Stopwatch","name_short":"syd-5","host":"syd-1.au.uncletopia.com","port":27055,"enabled":true,"region":"au","cc":"au","latitude":-33.865143,"longitude":151.2099,"reserved":0,"last_update":"0001-01-01T00:00:00Z","name_a2s":"Uncletopia | Sydney | 5 | Stopwatch","protocol":17,"map":"workshop/koth_ashville_final.ugc2130459942","folder":"tf","game":"Team Fortress","app_id":440,"player_count":0,"max_players":24,"Bots":0,"server_type":"Dedicated","server_os":"Linux","password":true,"vac":true,"version":"7961495","steam_id":85568392925397959,"keywords":["cp","nocrits","nodmgspread","uncletopia"],"game_id":440,"stv_port":27056,"stv_name":"Uncletopia | Sydney | 5 | Stopwatch | STV","players":null},{"server_id":59,"name":"Uncletopia | Sydney | 6 | Community","name_short":"syd-6","host":"syd-1.au.uncletopia.com","port":27065,"enabled":true,"region":"au","cc":"au","latitude":-33.865143,"longitude":151.2099,"reserved":0,"last_update":"0001-01-01T00:00:00Z","name_a2s":"Uncletopia | Sydney | 6 | Community","protocol":17,"map":"workshop/koth_slaughter_rc1.ugc1712845210","folder":"tf","game":"Team Fortress","app_id":440,"player_count":0,"max_players":24,"Bots":0,"server_type":"Dedicated","server_os":"Linux","password":true,"vac":true,"version":"7961495","steam_id":85568392925397960,"keywords":["cp","nocrits","nodmgspread","uncletopia"],"game_id":440,"stv_port":27066,"stv_name":"Uncletopia | Sydney | 6 | Community | STV","players":null},{"server_id":49,"name":"Uncletopia | Warsaw | 1 | One Thousand Uncles","name_short":"waw-1","host":"waw-1.pl.uncletopia.com","port":27015,"enabled":true,"region":"eu","cc":"pl","latitude":52.2297,"longitude":21.017532,"reserved":0,"last_update":"0001-01-01T00:00:00Z","name_a2s":"Uncletopia | Warsaw | 1 | One Thousand Uncles","protocol":17,"map":"pl_badwater","folder":"tf","game":"Team Fortress","app_id":440,"player_count":0,"max_players":32,"Bots":0,"server_type":"Dedicated","server_os":"Linux","password":true,"vac":true,"version":"7961495","steam_id":85568392925397850,"keywords":["alltalk","danepve","increased_maxplayers","nocrits","norespawntime","payload","uncletopia"],"game_id":440,"stv_port":0,"stv_name":"","players":null},{"server_id":50,"name":"Uncletopia | Warsaw | 2 | One Thousand Uncles","name_short":"waw-2","host":"waw-1.pl.uncletopia.com","port":27025,"enabled":true,"region":"eu","cc":"pl","latitude":52.2297,"longitude":21.017532,"reserved":0,"last_update":"0001-01-01T00:00:00Z","name_a2s":"Uncletopia | Warsaw | 2 | One Thousand Uncles","protocol":17,"map":"pl_goldrush","folder":"tf","game":"Team Fortress","app_id":440,"player_count":28,"max_players":32,"Bots":16,"server_type":"Dedicated","server_os":"Linux","password":true,"vac":true,"version":"7961495","steam_id":85568392925397851,"keywords":["alltalk","bots","danepve","increased_maxplayers","nocrits","norespawntime","payload","uncletopia"],"game_id":440,"stv_port":0,"stv_name":"","players":[{"user_id":569,"name":"I have 42 pipe bombs in my ass","steam_id":76561199111979000,"connected_time":1349000000000,"state":"active","ping":70},{"user_id":585,"name":"SynthBox3","steam_id":76561199094075745,"connected_time":517000000000,"state":"active","ping":124},{"user_id":510,"name":"Piquesque","steam_id":76561198286763046,"connected_time":4432000000000,"state":"active","ping":108},{"user_id":556,"name":"Sherman2030","steam_id":76561199095619204,"connected_time":2086000000000,"state":"active","ping":82},{"user_id":526,"name":"Womanticore","steam_id":76561199235582031,"connected_time":3303000000000,"state":"active","ping":229},{"user_id":514,"name":"matvejisakov7","steam_id":76561199493568179,"connected_time":4142000000000,"state":"active","ping":130},{"user_id":587,"name":"Sisyphus","steam_id":76561198146194820,"connected_time":382000000000,"state":"active","ping":67},{"user_id":554,"name":"Osmo","steam_id":76561199286764992,"connected_time":2443000000000,"state":"active","ping":59},{"user_id":531,"name":"Eujekas","steam_id":76561198010527145,"connected_time":2963000000000,"state":"active","ping":113},{"user_id":588,"name":"Lynx","steam_id":76561199274008207,"connected_time":260000000000,"state":"active","ping":60},{"user_id":557,"name":"Vibing Wave","steam_id":76561198866358613,"connected_time":1970000000000,"state":"active","ping":169},{"user_id":431,"name":"lagzer","steam_id":76561198029295449,"connected_time":10030000000000,"state":"active","ping":52}]},{"server_id":51,"name":"Uncletopia | Warsaw | 3 | All Maps","name_short":"waw-3","host":"waw-1.pl.uncletopia.com","port":27035,"enabled":true,"region":"eu","cc":"pl","latitude":52.2297,"longitude":21.017532,"reserved":0,"last_update":"0001-01-01T00:00:00Z","name_a2s":"Uncletopia | Warsaw | 3 | All Maps","protocol":17,"map":"plr_hightower","folder":"tf","game":"Team Fortress","app_id":440,"player_count":0,"max_players":24,"Bots":0,"server_type":"Dedicated","server_os":"Linux","password":true,"vac":true,"version":"7961495","steam_id":85568392925397852,"keywords":["nocrits","nodmgspread","payload","uncletopia"],"game_id":440,"stv_port":27036,"stv_name":"Uncletopia | Warsaw | 3 | All Maps | STV","players":null},{"server_id":52,"name":"Uncletopia | Warsaw | 4 | All Maps","name_short":"waw-4","host":"waw-1.pl.uncletopia.com","port":27045,"enabled":true,"region":"eu","cc":"pl","latitude":52.2297,"longitude":21.017532,"reserved":0,"last_update":"0001-01-01T00:00:00Z","name_a2s":"Uncletopia | Warsaw | 4 | All Maps","protocol":17,"map":"koth_cascade","folder":"tf","game":"Team Fortress","app_id":440,"player_count":0,"max_players":24,"Bots":0,"server_type":"Dedicated","server_os":"Linux","password":true,"vac":true,"version":"7961495","steam_id":85568392925397853,"keywords":["cp","nocrits","nodmgspread","uncletopia"],"game_id":440,"stv_port":27046,"stv_name":"Uncletopia | Warsaw | 4 | All Maps | STV","players":null},{"server_id":53,"name":"Uncletopia | Warsaw | 5 | Stopwatch","name_short":"waw-5","host":"waw-1.pl.uncletopia.com","port":27055,"enabled":true,"region":"eu","cc":"pl","latitude":52.2297,"longitude":21.017532,"reserved":0,"last_update":"0001-01-01T00:00:00Z","name_a2s":"Uncletopia | Warsaw | 5 | Stopwatch","protocol":17,"map":"pl_upward","folder":"tf","game":"Team Fortress","app_id":440,"player_count":0,"max_players":24,"Bots":0,"server_type":"Dedicated","server_os":"Linux","password":true,"vac":true,"version":"7961495","steam_id":85568392925397854,"keywords":["nocrits","nodmgspread","payload","uncletopia"],"game_id":440,"stv_port":27056,"stv_name":"Uncletopia | Warsaw | 5 | Stopwatch | STV","players":null},{"server_id":54,"name":"Uncletopia | Warsaw | 6 | Community","name_short":"waw-6","host":"waw-1.pl.uncletopia.com","port":27065,"enabled":true,"region":"eu","cc":"pl","latitude":52.2297,"longitude":21.017532,"reserved":0,"last_update":"0001-01-01T00:00:00Z","name_a2s":"Uncletopia | Warsaw | 6 | Community","protocol":17,"map":"workshop/pl_badwater_pro_v12.ugc2142942074","folder":"tf","game":"Team Fortress","app_id":440,"player_count":0,"max_players":24,"Bots":0,"server_type":"Dedicated","server_os":"Linux","password":true,"vac":true,"version":"7961495","steam_id":85568392925397856,"keywords":["nocrits","nodmgspread","payload","uncletopia"],"game_id":440,"stv_port":27066,"stv_name":"Uncletopia | Warsaw | 6 | Community | STV","players":null}]}