{"status":true,"message":"","result":[{"server_id":9,"name":"Uncletopia | Atlanta | 1 | All Maps","name_short":"atl-1","host":"atl-1.us.uncletopia.com","port":27015,"enabled":true,"region":"us-east","cc":"us","latitude":33.753746,"longitude":-84.38633,"reserved":0,"last_update":"0001-01-01T00:00:00Z","name_a2s":"Uncletopia | Atlanta | 1 | All Maps","protocol":17,"map":"pl_swiftwater_final1","folder":"tf","game":"Team Fortress","app_id":440,"player_count":23,"max_players":24,"Bots":0,"server_type":"Dedicated","server_os":"Linux","password":true,"vac":true,"version":"7961495","steam_id":85568392924469982,"keywords":["nocrits","nodmgspread","payload","uncletopia"],"game_id":440,"stv_port":27016,"stv_name":"Uncletopia | Atlanta | 1 | All Maps | STV","players":null},{"server_id":104,"name":"Uncletopia | Atlanta | 2 | All Maps","name_short":"atl-2","host":"atl-1.us.uncletopia.com","port":27025,"enabled":true,"region":"us-east","cc":"us","latitude":33.753746,"longitude":-84.38633,"reserved":0,"last_update":"0001-01-01T00:00:00Z","name_a2s":"Uncletopia | Atlanta | 2 | All Maps","protocol":17,"map":"pl_borneo","folder":"tf","game":"Team Fortress","app_id":440,"player_count":15,"max_players":24,"Bots":0,"server_type":"Dedicated","server_os":"Linux","password":true,"vac":true,"version":"7961495","steam_id":85568392924469983,"keywords":["nocrits","nodmgspread","payload","uncletopia"],"game_id":440,"stv_port":27026,"stv_name":"Uncletopia | Atlanta | 2 | All Maps | STV","players":null},{"server_id":400,"name":"Uncletopia | Atlanta | 3 | Stopwatch","name_short":"atl-3","host":"atl-1.us.uncletopia.com","port":27035,"enabled":true,"region":"us-east","cc":"us","latitude":33.753746,"longitude":-84.38633,"reserved":0,"last_update":"0001-01-01T00:00:00Z","name_a2s":"Uncletopia | Atlanta | 3 | Stopwatch","protocol":17,"map":"pl_badwater","folder":"tf","game":"Team Fortress","app_id":440,"player_count":0,"max_players":24,"Bots":0,"server_type":"Dedicated","server_os":"Linux","password":true,"vac":true,"version":"7961495","steam_id":85568392924515187,"keywords":["nocrits","nodmgspread","payload","uncletopia"],"game_id":440,"stv_port":27036,"stv_name":"Uncletopia | Atlanta | 3 | Stopwatch | STV","players":null},{"server_id":401,"name":"Uncletopia | Atlanta | 4 | Community","name_short":"atl-4","host":"atl-1.us.uncletopia.com","port":27045,"enabled":true,"region":"us-east","cc":"us","latitude":33.753746,"longitude":-84.38633,"reserved":0,"last_update":"0001-01-01T00:00:00Z","name_a2s":"Uncletopia | Atlanta | 4 | Community","protocol":17,"map":"cp_caldera_rc2","folder":"tf","game":"Team Fortress","app_id":440,"player_count":0,"max_players":24,"Bots":0,"server_type":"Dedicated","server_os":"Linux","password":true,"vac":true,"version":"7961495","steam_id":85568392924515188,"keywords":["cp","nocrits","nodmgspread","uncletopia"],"game_id":440,"stv_port":27046,"stv_name":"Uncletopia | Atlanta | 4 | Community | STV","players":null},{"server_id":2,"name":"Uncletopia | Chicago | 1 | All Maps","name_short":"chi-1","host":"chi-1.us.uncletopia.com","port":27015,"enabled":true,"region":"us-central","cc":"us","latitude":41.881832,"longitude":-87.62318,"reserved":0,"last_update":"0001-01-01T00:00:00Z","name_a2s":"Uncletopia | Chicago | 1 | All Maps","protocol":17,"map":"plr_pipeline","folder":"tf","game":"Team Fortress","app_id":440,"player_count":24,"max_players":24,"Bots":0,"server_type":"Dedicated","server_os":"Linux","password":true,"vac":true,"version":"7961495","steam_id":85568392924469984,"keywords":["nocrits","nodmgspread","payload","uncletopia"],"game_id":440,"stv_port":27016,"stv_name":"Uncletopia | Chicago | 1 | All Maps | STV","players":[{"user_id":1006,"name":"subdromeda","steam_id":76561198884351860,"connected_time":594000000000,"state":"active","ping":62},{"user_id":967,"name":"Astoriae!","steam_id":76561199090168858,"connected_time":5119000000000,"state":"active","ping":64},{"user_id":1009,"name":"SC|Formuoli","steam_id":76561198254354595,"connected_time":550000000000,"state":"active","ping":42},{"user_id":1010,"name":"eat Pant","steam_id":76561197974965536,"connected_time":521000000000,"state":"active","ping":58},{"user_id":968,"name":"arm or fish ●","steam_id":76561198999217575,"connected_time":4521000000000,"state":"active","ping":72},{"user_id":1012,"name":"Tommy Pickles (Very Cool)","steam_id":76561198391261463,"connected_time":456000000000,"state":"active","ping":70},{"user_id":1002,"name":"Lemonparty","steam_id":76561197974422168,"connected_time":1362000000000,"state":"active","ping":65},{"user_id":1001,"name":"Rya☺","steam_id":76561198370128860,"connected_time":1527000000000,"state":"active","ping":71},{"user_id":1013,"name":"ImmortalProphet","steam_id":76561198012352477,"connected_time":404000000000,"state":"active","ping":44},{"user_id":989,"name":"i suffer from ligma","steam_id":76561199158496518,"connected_time":2578000000000,"state":"active","ping":101},{"user_id":1014,"name":"him/her","steam_id":76561198122238340,"connected_time":366000000000,"state":"active","ping":81},{"user_id":998,"name":"Aeonspassed","steam_id":76561198014016451,"connected_time":1739000000000,"state":"active","ping":53},{"user_id":1004,"name":"t","steam_id":76561198175988929,"connected_time":1086000000000,"state":"active","ping":72},{"user_id":1015,"name":"WaywardFinn","steam_id":76561198040391296,"connected_time":278000000000,"state":"active","ping":81},{"user_id":1016,"name":"OHGODBEES!","steam_id":76561198000653374,"connected_time":275000000000,"state":"active","ping":129},{"user_id":1017,"name":"Bottom Trans Cowgirl","steam_id":76561198304239680,"connected_time":236000000000,"state":"active","ping":82},{"user_id":1018,"name":"Shorty","steam_id":76561198044873248,"connected_time":221000000000,"state":"active","ping":46},{"user_id":1008,"name":"Milkmur","steam_id":76561198210043821,"connected_time":592000000000,"state":"active","ping":68},{"user_id":1019,"name":"Gud","steam_id":76561198311369336,"connected_time":218000000000,"state":"active","ping":93},{"user_id":1020,"name":"podge","steam_id":76561198858474714,"connected_time":210000000000,"state":"active","ping":100},{"user_id":1021,"name":"ThtGyVrThr","steam_id":76561198805852870,"connected_time":189000000000,"state":"active","ping":98},{"user_id":965,"name":"Squiliam","steam_id":76561198025278006,"connected_time":5522000000000,"state":"active","ping":62},{"user_id":1022,"name":"NukaTheRabbit {Fur}","steam_id":76561198058692928,"connected_time":125000000000,"state":"active","ping":58},{"user_id":1023,"name":"Heisei ©.","steam_id":76561198136980235,"connected_time":120000000000,"state":"active","ping":102}]},{"server_id":106,"name":"Uncletopia | Chicago | 2 | All Maps","name_short":"chi-2","host":"chi-1.us.uncletopia.com","port":27025,"enabled":true,"region":"us-central","cc":"us","latitude":41.881832,"longitude":-87.62318,"reserved":0,"last_update":"0001-01-01T00:00:00Z","name_a2s":"Uncletopia | Chicago | 2 | All Maps","protocol":17,"map":"koth_viaduct","folder":"tf","game":"Team Fortress","app_id":440,"player_count":0,"max_players":24,"Bots":0,"server_type":"Dedicated","server_os":"Linux","password":true,"vac":true,"version":"7961495","steam_id":85568392924469985,"keywords":["cp","nocrits","nodmgspread","uncletopia"],"game_id":440,"stv_port":27026,"stv_name":"Uncletopia | Chicago | 2 | All Maps | STV","players":null},{"server_id":402,"name":"Uncletopia | Chicago | 3 | All Maps","name_short":"chi-3","host":"chi-1.us.uncletopia.com","port":27035,"enabled":true,"region":"us-central","cc":"us","latitude":41.881832,"longitude":-87.62318,"reserved":0,"last_update":"0001-01-01T00:00:00Z","name_a2s":"Uncletopia | Chicago | 3 | All Maps","protocol":17,"map":"pl_snowycoast","folder":"tf","game":"Team Fortress","app_id":440,"player_count":24,"max_players":24,"Bots":0,"server_type":"Dedicated","server_os":"Linux","password":true,"vac":true,"version":"7961495","steam_id":85568392924515191,"keywords":["nocrits","nodmgspread","payload","uncletopia"],"game_id":440,"stv_port":27036,"stv_name":"Uncletopia | Chicago | 3 | All Maps | STV","players":[{"user_id":443,"name":"Flowers","steam_id":76561198031669899,"connected_time":5374000000000,"state":"active","ping":84},{"user_id":452,"name":"Nefy","steam_id":76561198030017316,"connected_time":4421000000000,"state":"active","ping":85},{"user_id":503,"name":"MrNox","steam_id":76561198073449189,"connected_time":312000000000,"state":"active","ping":67},{"user_id":354,"name":"SpockASD","steam_id":76561198307516731,"connected_time":8574000000000,"state":"active","ping":80},{"user_id":447,"name":"Sigmar Male","steam_id":76561198067584440,"connected_time":4720000000000,"state":"active","ping":80},{"user_id":473,"name":"Chilihuahua","steam_id":76561198004929152,"connected_time":2323000000000,"state":"active","ping":113},{"user_id":495,"name":"conner","steam_id":76561198052911241,"connected_time":1255000000000,"state":"active","ping":71},{"user_id":467,"name":"hunterisntcool","steam_id":76561198093609661,"connected_time":3308000000000,"state":"active","ping":73},{"user_id":475,"name":"Kevin Y.","steam_id":76561198364331423,"connected_time":2275000000000,"state":"active","ping":88},{"user_id":476,"name":"Acuzik","steam_id":76561198045453400,"connected_time":2274000000000,"state":"active","ping":50},{"user_id":496,"name":"frank n furter","steam_id":76561198308883028,"connected_time":1247000000000,"state":"active","ping":107},{"user_id":361,"name":"AJTarcza","steam_id":76561198070800190,"connected_time":8119000000000,"state":"active","ping":84},{"user_id":502,"name":"totally not a pile of beans","steam_id":76561198119851931,"connected_time":586000000000,"state":"active","ping":84},{"user_id":456,"name":"Bitterbrush117 #JustPlay","steam_id":76561198093251141,"connected_time":4068000000000,"state":"active","ping":60},{"user_id":498,"name":"cotton candy ghooost","steam_id":76561198058998371,"connected_time":1093000000000,"state":"active","ping":70},{"user_id":491,"name":"babywhoa","steam_id":76561198070854627,"connected_time":1466000000000,"state":"active","ping":95},{"user_id":494,"name":"wheat","steam_id":76561197971158435,"connected_time":1261000000000,"state":"active","ping":56},{"user_id":484,"name":"Dr. Dick","steam_id":76561198138011922,"connected_time":1769000000000,"state":"active","ping":83},{"user_id":350,"name":"sooty","steam_id":76561198830243167,"connected_time":8868000000000,"state":"active","ping":69},{"user_id":479,"name":"Braingoo Hex","steam_id":76561198083094783,"connected_time":2249000000000,"state":"active","ping":99},{"user_id":376,"name":"lalalemons","steam_id":76561198243965308,"connected_time":7467000000000,"state":"active","ping":80},{"user_id":481,"name":"Stubu Dubu","steam_id":76561198111846314,"connected_time":2174000000000,"state":"active","ping":85},{"user_id":499,"name":"The Legendary Dappergrade","steam_id":76561198004238822,"connected_time":1006000000000,"state":"active","ping":69},{"user_id":500,"name":"dunk","steam_id":76561198132476501,"connected_time":924000000000,"state":"active","ping":55}]},{"server_id":403,"name":"Uncletopia | Chicago | 4 | All Maps","name_short":"chi-4","host":"chi-1.us.uncletopia.com","port":27045,"enabled":true,"region":"us-central","cc":"us","latitude":41.881832,"longitude":-87.62318,"reserved":0,"last_update":"0001-01-01T00:00:00Z","name_a2s":"Uncletopia | Chicago | 4 | All Maps","protocol":17,"map":"cp_foundry","folder":"tf","game":"Team Fortress","app_id":440,"player_count":24,"max_players":24,"Bots":0,"server_type":"Dedicated","server_os":"Linux","password":true,"vac":true,"version":"7961495","steam_id":85568392924515193,"keywords":["cp","nocrits","nodmgspread","uncletopia"],"game_id":440,"stv_port":27046,"stv_name":"Uncletopia | Chicago | 4 | All Maps | STV","players":[{"user_id":279,"name":"DRUMMY GRAMMY","steam_id":76561198047642540,"connected_time":1030000000000,"state":"active","ping":80},{"user_id":270,"name":"SwaggerEggs","steam_id":76561199057357191,"connected_time":1389000000000,"state":"active","ping":117},{"user_id":190,"name":"♕ Cicero ♕","steam_id":76561198056056983,"connected_time":6591000000000,"state":"active","ping":76},{"user_id":274,"name":"C4K3","steam_id":76561197996963285,"connected_time":1256000000000,"state":"active","ping":70},{"user_id":245,"name":"Ashes!","steam_id":76561197998475441,"connected_time":3337000000000,"state":"active","ping":99},{"user_id":275,"name":"je1i","steam_id":76561198268951743,"connected_time":1152000000000,"state":"active","ping":56},{"user_id":276,"name":"TheArachnidGamer","steam_id":76561198304986752,"connected_time":1144000000000,"state":"active","ping":63},{"user_id":254,"name":"Lumi","steam_id":76561198089978036,"connected_time":2997000000000,"state":"active","ping":67},{"user_id":258,"name":"[NAME-REDACTED]","steam_id":76561198035682975,"connected_time":2897000000000,"state":"active","ping":64},{"user_id":267,"name":"Fat Cheesecake Ass","steam_id":76561197978508626,"connected_time":2084000000000,"state":"active","ping":75},{"user_id":286,"name":"ChozoChorizo","steam_id":76561198272609196,"connected_time":124000000000,"state":"active","ping":61},{"user_id":271,"name":"Awenova","steam_id":76561198322928940,"connected_time":1299000000000,"state":"active","ping":58},{"user_id":256,"name":"ultralisk52","steam_id":76561198051666604,"connected_time":2979000000000,"state":"active","ping":68},{"user_id":223,"name":"berserker_tf2 yt","steam_id":76561198303464488,"connected_time":4628000000000,"state":"active","ping":62},{"user_id":280,"name":"Stupid Rat (Extra Stupid)","steam_id":76561199091290729,"connected_time":947000000000,"state":"active","ping":81},{"user_id":269,"name":"Dieu-Sama","steam_id":76561198002075862,"connected_time":1947000000000,"state":"active","ping":74},{"user_id":285,"name":"Kasimir","steam_id":76561198013840333,"connected_time":666000000000,"state":"active","ping":86},{"user_id":278,"name":"Brendan","steam_id":76561198041079914,"connected_time":1065000000000,"state":"active","ping":67},{"user_id":227,"name":"Esoteric Death","steam_id":76561198168686614,"connected_time":4298000000000,"state":"active","ping":69},{"user_id":229,"name":"legowizdude","steam_id":76561198086688058,"connected_time":4293000000000,"state":"active","ping":60},{"user_id":247,"name":"ColbertDolbert?","steam_id":76561198299613842,"connected_time":3327000000000,"state":"active","ping":84},{"user_id":282,"name":"Danmar33","steam_id":76561198056453091,"connected_time":925000000000,"state":"active","ping":55},{"user_id":284,"name":"leaving lunar orbit","steam_id":76561199085974120,"connected_time":672000000000,"state":"active","ping":72},{"user_id":238,"name":"Medici","steam_id":76561198310130481,"connected_time":3976000000000,"state":"active","ping":65}]},{"server_id":36,"name":"Uncletopia | Chicago | 5 | All Maps","name_short":"chi-5","host":"chi-2.us.uncletopia.com","port":27015,"enabled":true,"region":"us-central","cc":"us","latitude":41.881832,"longitude":-87.62318,"reserved":0,"last_update":"0001-01-01T00:00:00Z","name_a2s":"Uncletopia | Chicago | 5 | All Maps","protocol":17,"map":"cp_mountainlab","folder":"tf","game":"Team Fortress","app_id":440,"player_count":0,"max_players":24,"Bots":0,"server_type":"Dedicated","server_os":"Linux","password":true,"vac":true,"version":"7961495","steam_id":85568392924866362,"keywords":["cp","nocrits","nodmgspread","uncletopia"],"game_id":440,"stv_port":27016,"stv_name":"Uncletopia | Chicago | 5 | All Maps | STV","players":null},{"server_id":37,"name":"Uncletopia | Chicago | 6 | All Maps","name_short":"chi-6","host":"chi-2.us.uncletopia.com","port":27025,"enabled":true,"region":"us-central","cc":"us","latitude":41.881832,"longitude":-87.62318,"reserved":0,"last_update":"0001-01-01T00:00:00Z","name_a2s":"Uncletopia | Chicago | 6 | All Maps","protocol":17,"map":"cp_well","folder":"tf","game":"Team Fortress","app_id":440,"player_count":19,"max_players":24,"Bots":0,"server_type":"Dedicated","server_os":"Linux","password":true,"vac":true,"version":"7961495","steam_id":85568392924866363,"keywords":["cp","nocrits","nodmgspread","uncletopia"],"game_id":440,"stv_port":27026,"stv_name":"Uncletopia | Chicago | 6 | All Maps | STV","players":[{"user_id":367,"name":"overdoser","steam_id":76561198416218389,"connected_time":1092000000000,"state":"spawning","ping":227},{"user_id":374,"name":"weed lesbian","steam_id":76561198042263805,"connected_time":587000000000,"state":"active","ping":88},{"user_id":347,"name":"Glue Gulper","steam_id":76561198158014525,"connected_time":2332000000000,"state":"active","ping":125},{"user_id":333,"name":"Ayylmao","steam_id":76561198104780147,"connected_time":3314000000000,"state":"active","ping":51},{"user_id":371,"name":"(ultra)DiViNe","steam_id":76561198109084485,"connected_time":771000000000,"state":"active","ping":85},{"user_id":343,"name":"paChewychomp","steam_id":76561198068738250,"connected_time":2607000000000,"state":"active","ping":131},{"user_id":372,"name":"laaghice","steam_id":76561198274021552,"connected_time":761000000000,"state":"spawning","ping":50},{"user_id":377,"name":"hej","steam_id":76561198110530761,"connected_time":328000000000,"state":"spawning","ping":141},{"user_id":302,"name":"Lore","steam_id":76561198098407538,"connected_time":4701000000000,"state":"active","ping":73},{"user_id":373,"name":"Mongoose","steam_id":76561198020361641,"connected_time":606000000000,"state":"spawning","ping":96},{"user_id":379,"name":"Oi.","steam_id":76561198342086292,"connected_time":11000000000,"state":"active","ping":229},{"user_id":360,"name":"DaFlynHyn","steam_id":76561197998492675,"connected_time":1295000000000,"state":"active","ping":172},{"user_id":334,"name":"Commodore","steam_id":76561198042112852,"connected_time":3299000000000,"state":"active","ping":81},{"user_id":325,"name":"La Tabda","steam_id":76561198120364620,"connected_time":3841000000000,"state":"active","ping":285},{"user_id":353,"name":"Chechens Spotted","steam_id":76561199028910893,"connected_time":1672000000000,"state":"active","ping":96},{"user_id":358,"name":"Voids","steam_id":76561198128386726,"connected_time":1558000000000,"state":"active","ping":100},{"user_id":369,"name":"Mint Jelly","steam_id":76561197991286751,"connected_time":905000000000,"state":"active","ping":201},{"user_id":366,"name":"tacofever","steam_id":76561198010966507,"connected_time":1115000000000,"state":"active","ping":175},{"user_id":293,"name":"Elias","steam_id":76561198106431732,"connected_time":5607000000000,"state":"active","ping":77}]},{"server_id":38,"name":"Uncletopia | Chicago | 7 | Stopwatch","name_short":"chi-7","host":"chi-2.us.uncletopia.com","port":27035,"enabled":true,"region":"us-central","cc":"us","latitude":41.881832,"longitude":-87.62318,"reserved":0,"last_update":"0001-01-01T00:00:00Z","name_a2s":"Uncletopia | Chicago | 7 | Stopwatch","protocol":17,"map":"cp_gullywash_final1","folder":"tf","game":"Team Fortress","app_id":440,"player_count":0,"max_players":24,"Bots":0,"server_type":"Dedicated","server_os":"Linux","password":true,"vac":true,"version":"7961495","steam_id":85568392924866364,"keywords":["cp","nocrits","nodmgspread","uncletopia"],"game_id":440,"stv_port":27036,"stv_name":"Uncletopia | Chicago | 7 | Stopwatch | STV","players":null},{"server_id":39,"name":"Uncletopia | Chicago | 8 | Community","name_short":"chi-8","host":"chi-2.us.uncletopia.com","port":27045,"enabled":true,"region":"us-central","cc":"us","latitude":41.881832,"longitude":-87.62318,"reserved":0,"last_update":"0001-01-01T00:00:00Z","name_a2s":"Uncletopia | Chicago | 8 | Community","protocol":17,"map":"workshop/koth_ramjam_rc1.ugc459778887","folder":"tf","game":"Team Fortress","app_id":440,"player_count":21,"max_players":24,"Bots":0,"server_type":"Dedicated","server_os":"Linux","password":true,"vac":true,"version":"7961495","steam_id":85568392924866365,"keywords":["cp","nocrits","nodmgspread","uncletopia"],"game_id":440,"stv_port":27046,"stv_name":"Uncletopia | Chicago | 8 | Community | STV","players":[{"user_id":218,"name":"st3shk4a","steam_id":76561198025322638,"connected_time":22000000000,"state":"spawning","ping":188},{"user_id":194,"name":"Gammaplex","steam_id":76561198981228176,"connected_time":808000000000,"state":"active","ping":56},{"user_id":202,"name":"Cool Dakota - Lesbian Supreme","steam_id":76561198094892479,"connected_time":550000000000,"state":"active","ping":66},{"user_id":195,"name":"CakeWut","steam_id":76561198156272110,"connected_time":789000000000,"state":"active","ping":98},{"user_id":181,"name":"TheLeadShark","steam_id":76561198964409613,"connected_time":3349000000000,"state":"active","ping":72},{"user_id":196,"name":"Spoi","steam_id":76561198203134675,"connected_time":779000000000,"state":"active","ping":90},{"user_id":191,"name":"Acorn","steam_id":76561198353480153,"connected_time":1172000000000,"state":"active","ping":58},{"user_id":192,"name":"Edgy Haunter","steam_id":76561199029162264,"connected_time":1145000000000,"state":"active","ping":75},{"user_id":197,"name":"Gorgeous Freeman","steam_id":76561198127567517,"connected_time":764000000000,"state":"active","ping":74},{"user_id":198,"name":"Sleempreem","steam_id":76561198131987251,"connected_time":708000000000,"state":"active","ping":97},{"user_id":199,"name":"Grandpa 1MinecraftEmpire","steam_id":76561198069046338,"connected_time":702000000000,"state":"active","ping":67},{"user_id":200,"name":"Fluffy","steam_id":76561198213561811,"connected_time":669000000000,"state":"active","ping":107},{"user_id":208,"name":"---HΣΛVΥ---","steam_id":76561199020684091,"connected_time":411000000000,"state":"active","ping":109},{"user_id":205,"name":"RICH PIANA","steam_id":76561198288300287,"connected_time":484000000000,"state":"active","ping":64},{"user_id":211,"name":"ZimZif","steam_id":76561198165216550,"connected_time":303000000000,"state":"active","ping":82},{"user_id":207,"name":"Callsign_Wisper","steam_id":76561198880189617,"connected_time":437000000000,"state":"active","ping":68},{"user_id":212,"name":"PS2","steam_id":76561198108799902,"connected_time":287000000000,"state":"active","ping":100},{"user_id":214,"name":"Juanseparra564","steam_id":76561198176662903,"connected_time":108000000000,"state":"active","ping":120},{"user_id":216,"name":"BigButteryCrepes","steam_id":76561199153649549,"connected_time":64000000000,"state":"active","ping":98},{"user_id":217,"name":"bungba","steam_id":76561198392067473,"connected_time":25000000000,"state":"active","ping":72},{"user_id":219,"name":"Rock Kickass","steam_id":76561198450510841,"connected_time":20000000000,"state":"spawning","ping":81}]},{"server_id":8,"name":"Uncletopia | Dallas | 1 | All Maps","name_short":"dal-1","host":"dal-1.us.uncletopia.com","port":27015,"enabled":true,"region":"us-central","cc":"us","latitude":32.779167,"longitude":-96.80889,"reserved":0,"last_update":"0001-01-01T00:00:00Z","name_a2s":"Uncletopia | Dallas | 1 | All Maps","protocol":17,"map":"pl_badwater","folder":"tf","game":"Team Fortress","app_id":440,"player_count":24,"max_players":24,"Bots":0,"server_type":"Dedicated","server_os":"Linux","password":true,"vac":true,"version":"7961495","steam_id":85568392924469986,"keywords":["nocrits","nodmgspread","payload","uncletopia"],"game_id":440,"stv_port":27016,"stv_name":"Uncletopia | Dallas | 1 | All Maps | STV","players":[{"user_id":412,"name":"John16Mark","steam_id":76561198119445407,"connected_time":4332000000000,"state":"active","ping":61},{"user_id":473,"name":"dukeworth","steam_id":76561198064948141,"connected_time":393000000000,"state":"active","ping":60},{"user_id":458,"name":"HUESO","steam_id":76561198276383681,"connected_time":1472000000000,"state":"active","ping":87},{"user_id":474,"name":"UUUURT","steam_id":76561198047468140,"connected_time":382000000000,"state":"active","ping":161},{"user_id":467,"name":"theartistnathan","steam_id":76561198833787452,"connected_time":992000000000,"state":"active","ping":55},{"user_id":475,"name":"SaxyThePhone","steam_id":76561199439167761,"connected_time":375000000000,"state":"active","ping":81},{"user_id":446,"name":"honked off the bobo","steam_id":76561198123287268,"connected_time":2308000000000,"state":"active","ping":72},{"user_id":442,"name":"run fast fall dopwn","steam_id":76561198048925904,"connected_time":2425000000000,"state":"active","ping":90},{"user_id":479,"name":"leumas","steam_id":76561198240408540,"connected_time":297000000000,"state":"active","ping":84},{"user_id":425,"name":"Ballista","steam_id":76561197983182562,"connected_time":3310000000000,"state":"active","ping":49},{"user_id":445,"name":"ghor","steam_id":76561197994547132,"connected_time":2332000000000,"state":"active","ping":92},{"user_id":453,"name":"Stapler","steam_id":76561198099295077,"connected_time":1896000000000,"state":"active","ping":88},{"user_id":454,"name":"yeeye","steam_id":76561198094306054,"connected_time":1861000000000,"state":"active","ping":60},{"user_id":459,"name":"gooch_masta","steam_id":76561198151578423,"connected_time":1217000000000,"state":"active","ping":85},{"user_id":470,"name":"dont scare the hoes","steam_id":76561198356626857,"connected_time":646000000000,"state":"active","ping":52},{"user_id":465,"name":"spunch bub","steam_id":76561198326658210,"connected_time":1084000000000,"state":"active","ping":71},{"user_id":370,"name":"BADWOLF42","steam_id":76561198055447523,"connected_time":6883000000000,"state":"active","ping":58},{"user_id":476,"name":"Cursed","steam_id":76561199161458959,"connected_time":367000000000,"state":"active","ping":77},{"user_id":477,"name":"Klip","steam_id":76561198316254429,"connected_time":362000000000,"state":"active","ping":59},{"user_id":471,"name":"Oops","steam_id":76561198015032646,"connected_time":593000000000,"state":"active","ping":89},{"user_id":411,"name":"Myrkur","steam_id":76561198062448431,"connected_time":4673000000000,"state":"active","ping":95},{"user_id":457,"name":"rocketspires","steam_id":76561198800386026,"connected_time":1779000000000,"state":"active","ping":106},{"user_id":478,"name":"tlm","steam_id":76561198178457461,"connected_time":354000000000,"state":"active","ping":49},{"user_id":410,"name":"LampMan","steam_id":76561198079857527,"connected_time":4736000000000,"state":"active","ping":67}]},{"server_id":108,"name":"Uncletopia | Dallas | 2 | All Maps","name_short":"dal-2","host":"dal-1.us.uncletopia.com","port":27025,"enabled":true,"region":"us-central","cc":"us","latitude":32.779167,"longitude":-96.80889,"reserved":0,"last_update":"0001-01-01T00:00:00Z","name_a2s":"Uncletopia | Dallas | 2 | All Maps","protocol":17,"map":"ctf_doublecross","folder":"tf","game":"Team Fortress","app_id":440,"player_count":12,"max_players":24,"Bots":0,"server_type":"Dedicated","server_os":"Linux","password":true,"vac":true,"version":"7961495","steam_id":85568392924469988,"keywords":["ctf","nocrits","nodmgspread","uncletopia"],"game_id":440,"stv_port":27026,"stv_name":"Uncletopia | Dallas | 2 | All Maps | STV","players":[{"user_id":351,"name":"Ding Dong!!!!","steam_id":76561198162051418,"connected_time":543000000000,"state":"active","ping":91},{"user_id":357,"name":"Paperclip","steam_id":76561198057076337,"connected_time":244000000000,"state":"active","ping":108},{"user_id":360,"name":"Reague","steam_id":76561199092175631,"connected_time":27000000000,"state":"active","ping":81},{"user_id":318,"name":"DerpFace89","steam_id":76561199087944011,"connected_time":2285000000000,"state":"active","ping":76},{"user_id":353,"name":"Burny Sanders","steam_id":76561197961879048,"connected_time":462000000000,"state":"active","ping":43},{"user_id":361,"name":"MayKaye","steam_id":76561199016092265,"connected_time":7000000000,"state":"spawning","ping":60},{"user_id":356,"name":"PhattyPhlop","steam_id":76561198153349473,"connected_time":281000000000,"state":"active","ping":68},{"user_id":314,"name":"Sceptimus","steam_id":76561198179580927,"connected_time":2360000000000,"state":"active","ping":95},{"user_id":267,"name":"DeckofDragons","steam_id":76561198057398213,"connected_time":6535000000000,"state":"active","ping":71},{"user_id":332,"name":"DudeBergs","steam_id":76561198399777833,"connected_time":1683000000000,"state":"active","ping":66},{"user_id":288,"name":"Sentient Plaid Shirt","steam_id":76561198073338999,"connected_time":4952000000000,"state":"active","ping":55},{"user_id":262,"name":"unlikelycure","steam_id":76561199174450788,"connected_time":6826000000000,"state":"active","ping":96}]},{"server_id":404,"name":"Uncletopia | Dallas | 3 | All Maps","name_short":"dal-3","host":"dal-1.us.uncletopia.com","port":27035,"enabled":true,"region":"us-central","cc":"us","latitude":32.779167,"longitude":-96.80889,"reserved":0,"last_update":"0001-01-01T00:00:00Z","name_a2s":"Uncletopia | Dallas | 3 | All Maps","protocol":17,"map":"cp_dustbowl","folder":"tf","game":"Team Fortress","app_id":440,"player_count":24,"max_players":24,"Bots":0,"server_type":"Dedicated","server_os":"Linux","password":true,"vac":true,"version":"7961495","steam_id":85568392924515219,"keywords":["cp","nocrits","nodmgspread","uncletopia"],"game_id":440,"stv_port":27036,"stv_name":"Uncletopia | Dallas | 3 | All Maps | STV","players":[{"user_id":643,"name":"Mom","steam_id":76561198207936000,"connected_time":4292000000000,"state":"active","ping":71},{"user_id":696,"name":"Drilly22","steam_id":76561198068838338,"connected_time":699000000000,"state":"active","ping":68},{"user_id":651,"name":"Awesome Biscuit :0","steam_id":76561199123614910,"connected_time":3718000000000,"state":"active","ping":90},{"user_id":658,"name":"mrthugpug1732","steam_id":76561198881200768,"connected_time":3461000000000,"state":"active","ping":88},{"user_id":675,"name":"Dr. W0lv","steam_id":76561198129237487,"connected_time":1921000000000,"state":"active","ping":59},{"user_id":699,"name":"Varkrul","steam_id":76561198079657157,"connected_time":413000000000,"state":"active","ping":86},{"user_id":674,"name":"Gwen","steam_id":76561198276385778,"connected_time":1935000000000,"state":"active","ping":98},{"user_id":701,"name":"☢(XJ)","steam_id":76561198102189618,"connected_time":57000000000,"state":"active","ping":72},{"user_id":700,"name":"GreekYogurt","steam_id":76561198037671890,"connected_time":396000000000,"state":"active","ping":92},{"user_id":652,"name":"NexFrost","steam_id":76561197985774837,"connected_time":3667000000000,"state":"active","ping":40},{"user_id":697,"name":"Handsome Pete","steam_id":76561198003224229,"connected_time":661000000000,"state":"active","ping":81},{"user_id":689,"name":"Capitán Äxis-Flores","steam_id":76561198353865006,"connected_time":885000000000,"state":"active","ping":109},{"user_id":654,"name":"CabezaGrande","steam_id":76561197972555502,"connected_time":3628000000000,"state":"active","ping":87},{"user_id":655,"name":"Chicken","steam_id":76561198855273194,"connected_time":3624000000000,"state":"active","ping":71},{"user_id":690,"name":"tubby","steam_id":76561198174982661,"connected_time":881000000000,"state":"active","ping":88},{"user_id":683,"name":"PabloDukie64","steam_id":76561198274893147,"connected_time":1391000000000,"state":"active","ping":82},{"user_id":665,"name":"Gwen 2","steam_id":76561198096221632,"connected_time":3237000000000,"state":"active","ping":68},{"user_id":691,"name":"Katzenwerfer","steam_id":76561198345464748,"connected_time":878000000000,"state":"active","ping":93},{"user_id":684,"name":"Got Hat?","steam_id":76561197998486431,"connected_time":1385000000000,"state":"active","ping":81},{"user_id":666,"name":"FunHaver69","steam_id":76561199086723311,"connected_time":3204000000000,"state":"active","ping":101},{"user_id":685,"name":"bruv","steam_id":76561198046913154,"connected_time":1376000000000,"state":"active","ping":76},{"user_id":581,"name":"40000 bees in a trench coat","steam_id":76561198240919690,"connected_time":6134000000000,"state":"active","ping":70},{"user_id":698,"name":"Social_Credit_Investor","steam_id":76561198282283679,"connected_time":510000000000,"state":"active","ping":69},{"user_id":695,"name":"Maverick","steam_id":76561198049193435,"connected_time":733000000000,"state":"active","ping":89}]},{"server_id":405,"name":"Uncletopia | Dallas | 4 | Community","name_short":"dal-4","host":"dal-1.us.uncletopia.com","port":27045,"enabled":true,"region":"us-central","cc":"us","latitude":32.779167,"longitude":-96.80889,"reserved":0,"last_update":"0001-01-01T00:00:00Z","name_a2s":"Uncletopia | Dallas | 4 | Community","protocol":17,"map":"workshop/rd_asteroid_redux_b1.ugc2154902912","folder":"tf","game":"Team Fortress","app_id":440,"player_count":0,"max_players":24,"Bots":0,"server_type":"Dedicated","server_os":"Linux","password":true,"vac":true,"version":"7961495","steam_id":85568392924515220,"keywords":["beta","nocrits","nodmgspread","rd","uncletopia"],"game_id":440,"stv_port":27046,"stv_name":"Uncletopia | Dallas | 4 | Community | STV","players":null},{"server_id":5,"name":"Uncletopia | Frankfurt | 1 | All Maps","name_short":"frk-1","host":"frk-1.de.uncletopia.com","port":27015,"enabled":true,"region":"eu","cc":"de","latitude":50.110924,"longitude":8.682127,"reserved":0,"last_update":"0001-01-01T00:00:00Z","name_a2s":"Uncletopia | Frankfurt | 1 | All Maps","protocol":17,"map":"koth_highpass","folder":"tf","game":"Team Fortress","app_id":440,"player_count":0,"max_players":24,"Bots":0,"server_type":"Dedicated","server_os":"Linux","password":true,"vac":true,"version":"7961495","steam_id":85568392924469989,"keywords":["cp","nocrits","nodmgspread","uncletopia"],"game_id":440,"stv_port":27016,"stv_name":"Uncletopia | Frankfurt | 1 | All Maps | STV","players":null},{"server_id":110,"name":"Uncletopia | Frankfurt | 2 | All Maps","name_short":"frk-2","host":"frk-1.de.uncletopia.com","port":27025,"enabled":true,"region":"eu","cc":"de","latitude":50.110924,"longitude":8.682127,"reserved":0,"last_update":"0001-01-01T00:00:00Z","name_a2s":"Uncletopia | Frankfurt | 2 | All Maps","protocol":17,"map":"cp_dustbowl","folder":"tf","game":"Team Fortress","app_id":440,"player_count":0,"max_players":24,"Bots":0,"server_type":"Dedicated","server_os":"Linux","password":true,"vac":true,"version":"7961495","steam_id":85568392924469990,"keywords":["cp","nocrits","nodmgspread","uncletopia"],"game_id":440,"stv_port":27026,"stv_name":"Uncletopia | Frankfurt | 2 | All Maps | STV","players":null},{"server_id":308,"name":"Uncletopia | Frankfurt | 3 | All Maps","name_short":"frk-3","host":"frk-1.de.uncletopia.com","port":27035,"enabled":true,"region":"eu","cc":"de","latitude":50.110924,"longitude":8.682127,"reserved":0,"last_update":"0001-01-01T00:00:00Z","name_a2s":"Uncletopia | Frankfurt | 3 | All Maps","protocol":17,"map":"pl_barnblitz","folder":"tf","game":"Team Fortress","app_id":440,"player_count":0,"max_players":24,"Bots":0,"server_type":"Dedicated","server_os":"Linux","password":true,"vac":true,"version":"7961495","steam_id":85568392924504274,"keywords":["nocrits","nodmgspread","payload","uncletopia"],"game_id":440,"stv_port":27036,"stv_name":"Uncletopia | Frankfurt | 3 | All Maps | STV","players":null},{"server_id":309,"name":"Uncletopia | Frankfurt | 4 | All Maps","name_short":"frk-4","host":"frk-1.de.uncletopia.com","port":27045,"enabled":true,"region":"eu","cc":"de","latitude":50.110924,"longitude":8.682127,"reserved":0,"last_update":"0001-01-01T00:00:00Z","name_a2s":"Uncletopia | Frankfurt | 4 | All Maps","protocol":17,"map":"koth_highpass","folder":"tf","game":"Team Fortress","app_id":440,"player_count":0,"max_players":24,"Bots":0,"server_type":"Dedicated","server_os":"Linux","password":true,"vac":true,"version":"7961495","steam_id":85568392924504275,"keywords":["cp","nocrits","nodmgspread","uncletopia"],"game_id":440,"stv_port":27046,"stv_name":"Uncletopia | Frankfurt | 4 | All Maps | STV","players":null},{"server_id":310,"name":"Uncletopia | Frankfurt | 5 | All Maps","name_short":"frk-5","host":"frk-1.de.uncletopia.com","port":27055,"enabled":true,"region":"eu","cc":"de","latitude":50.110924,"longitude":8.682127,"reserved":0,"last_update":"0001-01-01T00:00:00Z","name_a2s":"Uncletopia | Frankfurt | 5 | All Maps","protocol":17,"map":"pl_badwater","folder":"tf","game":"Team Fortress","app_id":440,"player_count":0,"max_players":24,"Bots":0,"server_type":"Dedicated","server_os":"Linux","password":true,"vac":true,"version":"7961495","steam_id":85568392924504277,"keywords":["nocrits","nodmgspread","payload","uncletopia"],"game_id":440,"stv_port":27056,"stv_name":"Uncletopia | Frankfurt | 5 | All Maps | STV","players":null},{"server_id":311,"name":"Uncletopia | Frankfurt | 6 | All Maps","name_short":"frk-6","host":"frk-1.de.uncletopia.com","port":27065,"enabled":true,"region":"eu","cc":"de","latitude":50.110924,"longitude":8.682127,"reserved":0,"last_update":"0001-01-01T00:00:00Z","name_a2s":"Uncletopia | Frankfurt | 6 | All Maps","protocol":17,"map":"cp_altitude","folder":"tf","game":"Team Fortress","app_id":440,"player_count":0,"max_players":24,"Bots":0,"server_type":"Dedicated","server_os":"Linux","password":true,"vac":true,"version":"7961495","steam_id":85568392924504278,"keywords":["cp","nocrits","nodmgspread","uncletopia"],"game_id":440,"stv_port":27066,"stv_name":"Uncletopia | Frankfurt | 6 | All Maps | STV","players":null},{"server_id":23,"name":"Uncletopia | Frankfurt | 7 | Stopwatch","name_short":"frk-7","host":"frk-1.de.uncletopia.com","port":27075,"enabled":true,"region":"eu","cc":"de","latitude":50.110924,"longitude":8.682127,"reserved":0,"last_update":"0001-01-01T00:00:00Z","name_a2s":"Uncletopia | Frankfurt | 7 | Stopwatch","protocol":17,"map":"pl_frontier_final","folder":"tf","game":"Team Fortress","app_id":440,"player_count":0,"max_players":24,"Bots":0,"server_type":"Dedicated","server_os":"Linux","password":true,"vac":true,"version":"7961495","steam_id":85568392924742827,"keywords":["nocrits","nodmgspread","payload","uncletopia"],"game_id":440,"stv_port":27076,"stv_name":"Uncletopia | Frankfurt | 7 | Stopwatch | STV","players":null},{"server_id":24,"name":"Uncletopia | Frankfurt | 8 | Community","name_short":"frk-8","host":"frk-1.de.uncletopia.com","port":27085,"enabled":true,"region":"eu","cc":"de","latitude":50.110924,"longitude":8.682127,"reserved":0,"last_update":"0001-01-01T00:00:00Z","name_a2s":"Uncletopia | Frankfurt | 8 | Community","protocol":17,"map":"cp_mountainlab","folder":"tf","game":"Team Fortress","app_id":440,"player_count":0,"max_players":24,"Bots":0,"server_type":"Dedicated","server_os":"Linux","password":true,"vac":true,"version":"7961495","steam_id":85568392924742828,"keywords":["cp","nocrits","nodmgspread","uncletopia"],"game_id":440,"stv_port":27086,"stv_name":"Uncletopia | Frankfurt | 8 | Community | STV","players":null},{"server_id":202,"name":"Uncletopia | Hong Kong | 1 | All Maps","name_short":"hgk-1","host":"hgk-1.hk.uncletopia.com","port":27015,"enabled":true,"region":"asia","cc":"hk","latitude":22.302711,"longitude":114.177216,"reserved":0,"last_update":"0001-01-01T00:00:00Z","name_a2s":"Uncletopia | Hong Kong | 1 | All Maps","protocol":17,"map":"pl_badwater","folder":"tf","game":"Team Fortress","app_id":440,"player_count":24,"max_players":24,"Bots":0,"server_type":"Dedicated","server_os":"Linux","password":true,"vac":true,"version":"7961495","steam_id":85568392924494504,"keywords":["nocrits","nodmgspread","payload","uncletopia"],"game_id":440,"stv_port":27016,"stv_name":"Uncletopia | Hong Kong | 1 | All Maps | STV","players":[{"user_id":77,"name":"Humarazi","steam_id":76561198404352831,"connected_time":3084000000000,"state":"active","ping":58},{"user_id":98,"name":"GrotesqueHorse","steam_id":76561198151298791,"connected_time":1062000000000,"state":"active","ping":97},{"user_id":81,"name":"Dokutah, Husband of W","steam_id":76561199273390091,"connected_time":2707000000000,"state":"active","ping":66},{"user_id":95,"name":"HAYYSENN","steam_id":76561198358020636,"connected_time":1465000000000,"state":"active","ping":80},{"user_id":99,"name":"derek.patriarca30","steam_id":76561199427230206,"connected_time":1053000000000,"state":"active","ping":71},{"user_id":68,"name":"hakos balls","steam_id":76561198074339034,"connected_time":3764000000000,"state":"active","ping":76},{"user_id":100,"name":"\"SKS\"","steam_id":76561198187995386,"connected_time":1045000000000,"state":"active","ping":90},{"user_id":88,"name":"♂️Gay♂️бурашка","steam_id":76561198355515969,"connected_time":1912000000000,"state":"active","ping":128},{"user_id":105,"name":"Goldy","steam_id":76561199008543001,"connected_time":183000000000,"state":"active","ping":49},{"user_id":97,"name":"Puddin","steam_id":76561198140052918,"connected_time":1162000000000,"state":"active","ping":94},{"user_id":51,"name":"V :3","steam_id":76561199034546642,"connected_time":4819000000000,"state":"active","ping":102},{"user_id":106,"name":"Wx","steam_id":76561199217780897,"connected_time":48000000000,"state":"active","ping":144},{"user_id":79,"name":"Creaserg","steam_id":76561198827951097,"connected_time":2916000000000,"state":"active","ping":89},{"user_id":92,"name":"Scrappy","steam_id":76561198970038475,"connected_time":1630000000000,"state":"active","ping":156},{"user_id":87,"name":"protons","steam_id":76561198008307645,"connected_time":2281000000000,"state":"active","ping":160},{"user_id":56,"name":"Teampangit","steam_id":76561198087774626,"connected_time":4373000000000,"state":"active","ping":174},{"user_id":76,"name":"corpse_cadaver","steam_id":76561199225360457,"connected_time":3295000000000,"state":"active","ping":72},{"user_id":103,"name":"Spyroman50","steam_id":76561199137927625,"connected_time":392000000000,"state":"active","ping":94},{"user_id":94,"name":"basic","steam_id":76561198101441656,"connected_time":1566000000000,"state":"active","ping":80},{"user_id":62,"name":"a musian","steam_id":76561198152588681,"connected_time":4002000000000,"state":"active","ping":83},{"user_id":104,"name":"My SNAKE is SOLID","steam_id":76561198373017059,"connected_time":390000000000,"state":"active","ping":115},{"user_id":64,"name":"Nephew Nate","steam_id":76561199137872034,"connected_time":3959000000000,"state":"active","ping":102},{"user_id":75,"name":"Dits","steam_id":76561198283833960,"connected_time":3392000000000,"state":"active","ping":41},{"user_id":84,"name":"Watch out","steam_id":76561198987211681,"connected_time":2594000000000,"state":"active","ping":84}]},{"server_id":1,"name":"Uncletopia | Los Angeles | 1 | All Maps","name_short":"lax-1","host":"lax-1.us.uncletopia.com","port":27015,"enabled":true,"region":"us-west","cc":"us","latitude":33.94279,"longitude":-118.41004,"reserved":0,"last_update":"0001-01-01T00:00:00Z","name_a2s":"Uncletopia | Los Angeles | 1 | All Maps","protocol":17,"map":"pl_borneo","folder":"tf","game":"Team Fortress","app_id":440,"player_count":22,"max_players":24,"Bots":0,"server_type":"Dedicated","server_os":"Linux","password":true,"vac":true,"version":"7961495","steam_id":85568392924469991,"keywords":["nocrits","nodmgspread","payload","uncletopia"],"game_id":440,"stv_port":27016,"stv_name":"Uncletopia | Los Angeles | 1 | All Maps | STV","players":[{"user_id":356,"name":"boki","steam_id":76561198972026955,"connected_time":1601000000000,"state":"active","ping":42},{"user_id":351,"name":"RadioRave","steam_id":76561198240837534,"connected_time":2032000000000,"state":"active","ping":46},{"user_id":376,"name":"Prof. Anesthesia","steam_id":76561198993250002,"connected_time":36000000000,"state":"active","ping":71},{"user_id":267,"name":"Higuma","steam_id":76561198375229012,"connected_time":7305000000000,"state":"active","ping":61},{"user_id":340,"name":"Lambchop","steam_id":76561198043900363,"connected_time":2471000000000,"state":"active","ping":75},{"user_id":374,"name":"TwoForFlinching","steam_id":76561198073814209,"connected_time":114000000000,"state":"active","ping":91},{"user_id":365,"name":"❤ Ashley ❤","steam_id":76561198056428303,"connected_time":990000000000,"state":"active","ping":45},{"user_id":371,"name":"don't get mad","steam_id":76561198064662875,"connected_time":560000000000,"state":"active","ping":57},{"user_id":311,"name":"octane infused rabies7","steam_id":76561198309010627,"connected_time":4373000000000,"state":"active","ping":75},{"user_id":362,"name":"Mapachito Lindo","steam_id":76561198031359995,"connected_time":1062000000000,"state":"active","ping":73},{"user_id":355,"name":"Did you know","steam_id":76561198090057040,"connected_time":1607000000000,"state":"active","ping":62},{"user_id":359,"name":"M_Zuy","steam_id":76561199005898955,"connected_time":1504000000000,"state":"active","ping":57},{"user_id":319,"name":"ami","steam_id":76561198072781633,"connected_time":3951000000000,"state":"active","ping":45},{"user_id":354,"name":"Reem0h","steam_id":76561198169848690,"connected_time":1697000000000,"state":"spawning","ping":142},{"user_id":375,"name":"Sleuth","steam_id":76561198418288939,"connected_time":84000000000,"state":"active","ping":61},{"user_id":373,"name":"Johnora","steam_id":76561198220495936,"connected_time":194000000000,"state":"active","ping":88},{"user_id":321,"name":"trackpad gaming | f2p","steam_id":76561198840414371,"connected_time":3889000000000,"state":"active","ping":74},{"user_id":324,"name":"Captain Underbelly","steam_id":76561198811270935,"connected_time":3579000000000,"state":"active","ping":83},{"user_id":249,"name":"self sufficient kitten","steam_id":76561197960592612,"connected_time":8711000000000,"state":"active","ping":75},{"user_id":358,"name":"papi Chulo","steam_id":76561198126274984,"connected_time":1564000000000,"state":"active","ping":94},{"user_id":368,"name":"squart guy","steam_id":76561199411560141,"connected_time":897000000000,"state":"active","ping":68},{"user_id":353,"name":"icechiller","steam_id":76561198070895266,"connected_time":1953000000000,"state":"active","ping":33}]},{"server_id":112,"name":"Uncletopia | Los Angeles | 2 | All Maps","name_short":"lax-2","host":"lax-1.us.uncletopia.com","port":27025,"enabled":true,"region":"us-west","cc":"us","latitude":33.94279,"longitude":-118.41004,"reserved":0,"last_update":"0001-01-01T00:00:00Z","name_a2s":"Uncletopia | Los Angeles | 2 | All Maps","protocol":17,"map":"koth_lakeside_final","folder":"tf","game":"Team Fortress","app_id":440,"player_count":0,"max_players":24,"Bots":0,"server_type":"Dedicated","server_os":"Linux","password":true,"vac":true,"version":"7961495","steam_id":85568392924469992,"keywords":["cp","nocrits","nodmgspread","uncletopia"],"game_id":440,"stv_port":27026,"stv_name":"Uncletopia | Los Angeles | 2 | All Maps | STV","players":null},{"server_id":324,"name":"Uncletopia | Los Angeles | 3 | All Maps","name_short":"lax-3","host":"lax-1.us.uncletopia.com","port":27035,"enabled":true,"region":"us-west","cc":"us","latitude":33.94279,"longitude":-118.41004,"reserved":0,"last_update":"0001-01-01T00:00:00Z","name_a2s":"Uncletopia | Los Angeles | 3 | All Maps","protocol":17,"map":"pl_badwater","folder":"tf","game":"Team Fortress","app_id":440,"player_count":24,"max_players":24,"Bots":0,"server_type":"Dedicated","server_os":"Linux","password":true,"vac":true,"version":"7961495","steam_id":85568392924510198,"keywords":["nocrits","nodmgspread","payload","uncletopia"],"game_id":440,"stv_port":27036,"stv_name":"Uncletopia | Los Angeles | 3 | All Maps | STV","players":[{"user_id":53,"name":"fertile moist and well drained","steam_id":76561198031409921,"connected_time":7376000000000,"state":"active","ping":56},{"user_id":173,"name":"profit","steam_id":76561197960270835,"connected_time":316000000000,"state":"active","ping":37},{"user_id":164,"name":"triph","steam_id":76561198067196509,"connected_time":1098000000000,"state":"active","ping":30},{"user_id":148,"name":"californjoe","steam_id":76561197965047795,"connected_time":1946000000000,"state":"active","ping":51},{"user_id":116,"name":"vvitch","steam_id":76561198279661941,"connected_time":4366000000000,"state":"active","ping":46},{"user_id":172,"name":"Jaidezt","steam_id":76561197972613110,"connected_time":392000000000,"state":"active","ping":70},{"user_id":169,"name":"Thunder","steam_id":76561198097721532,"connected_time":710000000000,"state":"active","ping":50},{"user_id":153,"name":"Snety Gun","steam_id":76561198862745731,"connected_time":1367000000000,"state":"active","ping":97},{"user_id":154,"name":"GrumpyGrampaKoala","steam_id":76561198020441036,"connected_time":1353000000000,"state":"active","ping":79},{"user_id":145,"name":"Bad Dragon quality assurance","steam_id":76561198065662025,"connected_time":2064000000000,"state":"active","ping":59},{"user_id":176,"name":"Ralph Kramden (Slim Charles)","steam_id":76561197981687895,"connected_time":246000000000,"state":"active","ping":59},{"user_id":97,"name":"GoofyGoober","steam_id":76561199209004430,"connected_time":5108000000000,"state":"active","ping":62},{"user_id":174,"name":"Ygitor","steam_id":76561198328114476,"connected_time":287000000000,"state":"active","ping":68},{"user_id":142,"name":"type \"bad med\" to kick","steam_id":76561198076402476,"connected_time":2379000000000,"state":"active","ping":69},{"user_id":155,"name":"gugcat","steam_id":76561198129822860,"connected_time":1353000000000,"state":"active","ping":69},{"user_id":143,"name":"Tralf Hardy","steam_id":76561197973818765,"connected_time":2088000000000,"state":"active","ping":69},{"user_id":165,"name":"Wacks","steam_id":76561198079476100,"connected_time":1004000000000,"state":"active","ping":60},{"user_id":167,"name":"Cebula33","steam_id":76561197984964095,"connected_time":851000000000,"state":"active","ping":62},{"user_id":177,"name":"Wonko","steam_id":76561198043914891,"connected_time":242000000000,"state":"active","ping":61},{"user_id":168,"name":"Foxer57","steam_id":76561197998108860,"connected_time":841000000000,"state":"active","ping":67},{"user_id":166,"name":"TeCon","steam_id":76561198049127236,"connected_time":888000000000,"state":"active","ping":57},{"user_id":157,"name":"Sud","steam_id":76561197974116747,"connected_time":1351000000000,"state":"active","ping":77},{"user_id":159,"name":"Mr. Commissioner","steam_id":76561198101666509,"connected_time":1330000000000,"state":"active","ping":85},{"user_id":178,"name":"FROYO b4nny","steam_id":76561197970669109,"connected_time":113000000000,"state":"active","ping":55}]},{"server_id":25,"name":"Uncletopia | Los Angeles | 4 | Stopwatch","name_short":"lax-4","host":"lax-1.us.uncletopia.com","port":27045,"enabled":true,"region":"us-west","cc":"us","latitude":33.94279,"longitude":-118.41004,"reserved":0,"last_update":"0001-01-01T00:00:00Z","name_a2s":"Uncletopia | Los Angeles | 4 | Stopwatch","protocol":17,"map":"workshop/pl_barnblitz_pro7.ugc582280235","folder":"tf","game":"Team Fortress","app_id":440,"player_count":0,"max_players":24,"Bots":0,"server_type":"Dedicated","server_os":"Linux","password":true,"vac":true,"version":"7961495","steam_id":85568392924510199,"keywords":["nocrits","nodmgspread","payload","uncletopia"],"game_id":440,"stv_port":27046,"stv_name":"Uncletopia | Los Angeles | 4 | Stopwatch | STV","players":null},{"server_id":11,"name":"Uncletopia | London | 1 | All Maps","name_short":"lon-1","host":"lon-1.uk.uncletopia.com","port":27015,"enabled":true,"region":"eu","cc":"gb","latitude":51.509865,"longitude":-0.118092,"reserved":0,"last_update":"0001-01-01T00:00:00Z","name_a2s":"Uncletopia | London | 1 | All Maps","protocol":17,"map":"koth_cascade","folder":"tf","game":"Team Fortress","app_id":440,"player_count":0,"max_players":24,"Bots":0,"server_type":"Dedicated","server_os":"Linux","password":true,"vac":true,"version":"7961495","steam_id":85568392924367362,"keywords":["cp","nocrits","nodmgspread","uncletopia"],"game_id":440,"stv_port":27016,"stv_name":"Uncletopia | London | 1 | All Maps | STV","players":null},{"server_id":114,"name":"Uncletopia | London | 2 | All Maps","name_short":"lon-2","host":"lon-1.uk.uncletopia.com","port":27025,"enabled":true,"region":"eu","cc":"gb","latitude":51.509865,"longitude":-0.118092,"reserved":0,"last_update":"0001-01-01T00:00:00Z","name_a2s":"Uncletopia | London | 2 | All Maps","protocol":17,"map":"koth_highpass","folder":"tf","game":"Team Fortress","app_id":440,"player_count":0,"max_players":24,"Bots":0,"server_type":"Dedicated","server_os":"Linux","password":true,"vac":true,"version":"7961495","steam_id":85568392924470941,"keywords":["cp","nocrits","nodmgspread","uncletopia"],"game_id":440,"stv_port":27026,"stv_name":"Uncletopia | London | 2 | All Maps | STV","players":null},{"server_id":320,"name":"Uncletopia | London | 3 | All Maps","name_short":"lon-3","host":"lon-1.uk.uncletopia.com","port":27035,"enabled":true,"region":"eu","cc":"gb","latitude":51.509865,"longitude":-0.118092,"reserved":0,"last_update":"0001-01-01T00:00:00Z","name_a2s":"Uncletopia | London | 3 | All Maps","protocol":17,"map":"pl_barnblitz","folder":"tf","game":"Team Fortress","app_id":440,"player_count":0,"max_players":24,"Bots":0,"server_type":"Dedicated","server_os":"Linux","password":true,"vac":true,"version":"7961495","steam_id":85568392924510192,"keywords":["nocrits","nodmgspread","payload","uncletopia"],"game_id":440,"stv_port":27036,"stv_name":"Uncletopia | London | 3 | All Maps | STV","players":null},{"server_id":321,"name":"Uncletopia | London | 4 | All Maps","name_short":"lon-4","host":"lon-1.uk.uncletopia.com","port":27045,"enabled":true,"region":"eu","cc":"gb","latitude":51.509865,"longitude":-0.118092,"reserved":0,"last_update":"0001-01-01T00:00:00Z","name_a2s":"Uncletopia | London | 4 | All Maps","protocol":17,"map":"cp_sunshine","folder":"tf","game":"Team Fortress","app_id":440,"player_count":0,"max_players":24,"Bots":0,"server_type":"Dedicated","server_os":"Linux","password":true,"vac":true,"version":"7961495","steam_id":85568392924510193,"keywords":["cp","nocrits","nodmgspread","uncletopia"],"game_id":440,"stv_port":27046,"stv_name":"Uncletopia | London | 4 | All Maps | STV","players":null},{"server_id":21,"name":"Uncletopia | London | 5 | All Maps","name_short":"lon-5","host":"lon-1.uk.uncletopia.com","port":27055,"enabled":true,"region":"eu","cc":"gb","latitude":51.509865,"longitude":-0.118092,"reserved":0,"last_update":"0001-01-01T00:00:00Z","name_a2s":"Uncletopia | London | 5 | All Maps","protocol":17,"map":"koth_lakeside_final","folder":"tf","game":"Team Fortress","app_id":440,"player_count":0,"max_players":24,"Bots":0,"server_type":"Dedicated","server_os":"Linux","password":true,"vac":true,"version":"7961495","steam_id":85568392924742829,"keywords":["cp","nocrits","nodmgspread","uncletopia"],"game_id":440,"stv_port":27056,"stv_name":"Uncletopia | London | 5 | All Maps | STV","players":null},{"server_id":22,"name":"Uncletopia | London | 6 | All Maps","name_short":"lon-6","host":"lon-1.uk.uncletopia.com","port":27065,"enabled":true,"region":"eu","cc":"gb","latitude":51.509865,"longitude":-0.118092,"reserved":0,"last_update":"0001-01-01T00:00:00Z","name_a2s":"Uncletopia | London | 6 | All Maps","protocol":17,"map":"koth_viaduct","folder":"tf","game":"Team Fortress","app_id":440,"player_count":0,"max_players":24,"Bots":0,"server_type":"Dedicated","server_os":"Linux","password":true,"vac":true,"version":"7961495","steam_id":85568392924742830,"keywords":["cp","nocrits","nodmgspread","uncletopia"],"game_id":440,"stv_port":27066,"stv_name":"Uncletopia | London | 6 | All Maps | STV","players":null},{"server_id":40,"name":"Uncletopia | London | 7 | Stopwatch","name_short":"lon-7","host":"lon-1.uk.uncletopia.com","port":27075,"enabled":true,"region":"eu","cc":"gb","latitude":51.509865,"longitude":-0.118092,"reserved":0,"last_update":"0001-01-01T00:00:00Z","name_a2s":"Uncletopia | London | 7 | Stopwatch","protocol":17,"map":"pl_swiftwater_final1","folder":"tf","game":"Team Fortress","app_id":440,"player_count":0,"max_players":24,"Bots":0,"server_type":"Dedicated","server_os":"Linux","password":true,"vac":true,"version":"7961495","steam_id":85568392924964314,"keywords":["nocrits","nodmgspread","payload","uncletopia"],"game_id":440,"stv_port":27076,"stv_name":"Uncletopia | London | 7 | Stopwatch | STV","players":null},{"server_id":41,"name":"Uncletopia | London | 8 | Community","name_short":"lon-8","host":"lon-1.uk.uncletopia.com","port":27085,"enabled":true,"region":"eu","cc":"gb","latitude":51.509865,"longitude":-0.118092,"reserved":0,"last_update":"0001-01-01T00:00:00Z","name_a2s":"Uncletopia | London | 8 | Community","protocol":17,"map":"workshop/cp_glacier_rc6.ugc2905735376","folder":"tf","game":"Team Fortress","app_id":440,"player_count":0,"max_players":24,"Bots":0,"server_type":"Dedicated","server_os":"Linux","password":true,"vac":true,"version":"7961495","steam_id":85568392924964315,"keywords":["cp","nocrits","nodmgspread","uncletopia"],"game_id":440,"stv_port":27086,"stv_name":"Uncletopia | London | 8 | Community | STV","players":null},{"server_id":300,"name":"Uncletopia | Montréal | 1 | One Thousand Uncles","name_short":"mtl-1","host":"mtl-1.ca.uncletopia.com","port":27015,"enabled":true,"region":"us-east","cc":"ca","latitude":45.50889,"longitude":-73.56167,"reserved":0,"last_update":"0001-01-01T00:00:00Z","name_a2s":"","protocol":0,"map":"","folder":"","game":"","app_id":0,"player_count":0,"max_players":0,"Bots":0,"server_type":"","server_os":"","password":false,"vac":false,"version":"","steam_id":0,"keywords":null,"game_id":0,"stv_port":0,"stv_name":"","players":null},{"server_id":301,"name":"Uncletopia | Montréal | 2 | One Thousand Uncles","name_short":"mtl-2","host":"mtl-1.ca.uncletopia.com","port":27025,"enabled":true,"region":"us-east","cc":"ca","latitude":45.50889,"longitude":-73.56167,"reserved":0,"last_update":"0001-01-01T00:00:00Z","name_a2s":"","protocol":0,"map":"","folder":"","game":"","app_id":0,"player_count":13,"max_players":0,"Bots":0,"server_type":"","server_os":"","password":false,"vac":false,"version":"","steam_id":0,"keywords":null,"game_id":0,"stv_port":0,"stv_name":"","players":[{"user_id":133,"name":"GoldtoothFour","steam_id":76561198055529332,"connected_time":287000000000,"state":"active","ping":56},{"user_id":72,"name":"hl3 hot gay sex","steam_id":76561199122281764,"connected_time":4525000000000,"state":"active","ping":94},{"user_id":132,"name":"nap","steam_id":76561198162714624,"connected_time":303000000000,"state":"active","ping":82},{"user_id":151,"name":"Sgt. Pepper","steam_id":76561198063674627,"connected_time":266000000000,"state":"active","ping":94},{"user_id":119,"name":"space paranoids","steam_id":76561198085010959,"connected_time":1827000000000,"state":"active","ping":64},{"user_id":150,"name":"e2_e8","steam_id":76561198025032556,"connected_time":277000000000,"state":"active","ping":56},{"user_id":121,"name":"A Can of AriZona Green Tea","steam_id":76561198062481133,"connected_time":1712000000000,"state":"active","ping":94},{"user_id":41,"name":"I just joined","steam_id":76561198057999536,"connected_time":7881000000000,"state":"active","ping":107},{"user_id":93,"name":"dweebster","steam_id":76561199198753791,"connected_time":3500000000000,"state":"active","ping":217},{"user_id":123,"name":"cheios demiose","steam_id":76561199050528128,"connected_time":1631000000000,"state":"active","ping":89},{"user_id":102,"name":"FlareOfVoid","steam_id":76561198185627602,"connected_time":2067000000000,"state":"active","ping":108},{"user_id":98,"name":"Dragoninventor (He/Him)","steam_id":76561198956224948,"connected_time":3224000000000,"state":"active","ping":122},{"user_id":153,"name":"scrotal recall","steam_id":76561198135945598,"connected_time":211000000000,"state":"active","ping":106}]},{"server_id":302,"name":"Uncletopia | Montréal | 3 | One Thousand Uncles","name_short":"mtl-3","host":"mtl-1.ca.uncletopia.com","port":27035,"enabled":true,"region":"us-east","cc":"ca","latitude":45.50889,"longitude":-73.56167,"reserved":0,"last_update":"0001-01-01T00:00:00Z","name_a2s":"","protocol":0,"map":"","folder":"","game":"","app_id":0,"player_count":0,"max_players":0,"Bots":0,"server_type":"","server_os":"","password":false,"vac":false,"version":"","steam_id":0,"keywords":null,"game_id":0,"stv_port":0,"stv_name":"","players":null},{"server_id":13,"name":"Uncletopia | New York City | 1 | All Maps","name_short":"nyc-1","host":"nyc-1.us.uncletopia.com","port":27015,"enabled":true,"region":"us-east","cc":"us","latitude":40.73061,"longitude":-73.93524,"reserved":0,"last_update":"0001-01-01T00:00:00Z","name_a2s":"Uncletopia | New York City | 1 | All Maps","protocol":17,"map":"cp_dustbowl","folder":"tf","game":"Team Fortress","app_id":440,"player_count":24,"max_players":24,"Bots":0,"server_type":"Dedicated","server_os":"Linux","password":true,"vac":true,"version":"7961495","steam_id":85568392924469993,"keywords":["cp","nocrits","nodmgspread","uncletopia"],"game_id":440,"stv_port":27016,"stv_name":"Uncletopia | New York City | 1 | All Maps | STV","players":[{"user_id":552,"name":"Parth Makeo","steam_id":76561198002516581,"connected_time":1347000000000,"state":"active","ping":43},{"user_id":557,"name":"Dot.","steam_id":76561198149463984,"connected_time":459000000000,"state":"active","ping":53},{"user_id":558,"name":"Tidwell","steam_id":76561198037414410,"connected_time":435000000000,"state":"active","ping":59},{"user_id":559,"name":"Herdez Hot Salsa","steam_id":76561197991740906,"connected_time":434000000000,"state":"active","ping":68},{"user_id":560,"name":"MISSINGNO9 (She/Her)","steam_id":76561198322494579,"connected_time":426000000000,"state":"active","ping":69},{"user_id":545,"name":"Endark","steam_id":76561199118160482,"connected_time":1886000000000,"state":"active","ping":130},{"user_id":572,"name":"1000 Gigglebytes of clown girls","steam_id":76561198290719848,"connected_time":252000000000,"state":"active","ping":94},{"user_id":565,"name":"Ripping Heads","steam_id":76561198006146062,"connected_time":362000000000,"state":"active","ping":64},{"user_id":540,"name":"BroBama","steam_id":76561198203732587,"connected_time":2848000000000,"state":"active","ping":86},{"user_id":562,"name":"juanjoesc","steam_id":76561198186368430,"connected_time":378000000000,"state":"active","ping":128},{"user_id":563,"name":"Bombsgamer","steam_id":76561198350009050,"connected_time":375000000000,"state":"active","ping":85},{"user_id":566,"name":"Bee_Pirate","steam_id":76561199000599111,"connected_time":351000000000,"state":"active","ping":65},{"user_id":509,"name":"Raine","steam_id":76561198055761141,"connected_time":6420000000000,"state":"active","ping":100},{"user_id":573,"name":"freeze9","steam_id":76561198062856371,"connected_time":69000000000,"state":"active","ping":154},{"user_id":574,"name":"Wilma","steam_id":76561198138420251,"connected_time":23000000000,"state":"active","ping":76},{"user_id":538,"name":"Professor Shaggy","steam_id":76561198276926724,"connected_time":2877000000000,"state":"active","ping":46},{"user_id":514,"name":"Porcupine's Revenge!","steam_id":76561199121615234,"connected_time":5349000000000,"state":"active","ping":51},{"user_id":547,"name":"Scoob","steam_id":76561198078633301,"connected_time":1882000000000,"state":"active","ping":54},{"user_id":410,"name":"A Puppy","steam_id":76561198828184456,"connected_time":15289000000000,"state":"active","ping":45},{"user_id":568,"name":"Salixiola","steam_id":76561198042177809,"connected_time":347000000000,"state":"active","ping":74},{"user_id":553,"name":"bmbmbm","steam_id":76561198064359644,"connected_time":1044000000000,"state":"active","ping":59},{"user_id":479,"name":"High School Nudical","steam_id":76561198172120615,"connected_time":9426000000000,"state":"active","ping":40},{"user_id":569,"name":"That Sentry Is A Spy!","steam_id":76561198069395625,"connected_time":336000000000,"state":"active","ping":62},{"user_id":550,"name":"Bert.","steam_id":76561198140666346,"connected_time":1664000000000,"state":"active","ping":46}]},{"server_id":14,"name":"Uncletopia | New York City | 2 | All Maps","name_short":"nyc-2","host":"nyc-1.us.uncletopia.com","port":27025,"enabled":true,"region":"us-east","cc":"us","latitude":40.73061,"longitude":-73.93524,"reserved":0,"last_update":"0001-01-01T00:00:00Z","name_a2s":"Uncletopia | New York City | 2 | All Maps","protocol":17,"map":"koth_harvest_final","folder":"tf","game":"Team Fortress","app_id":440,"player_count":24,"max_players":24,"Bots":0,"server_type":"Dedicated","server_os":"Linux","password":true,"vac":true,"version":"7961495","steam_id":85568392924469994,"keywords":["cp","nocrits","nodmgspread","uncletopia"],"game_id":440,"stv_port":27026,"stv_name":"Uncletopia | New York City | 2 | All Maps | STV","players":[{"user_id":763,"name":"Baron von Whoopsie","steam_id":76561197996691013,"connected_time":962000000000,"state":"active","ping":58},{"user_id":769,"name":"Kremit the Frog","steam_id":76561198075985995,"connected_time":118000000000,"state":"active","ping":56},{"user_id":757,"name":"still blazing","steam_id":76561198931316406,"connected_time":1436000000000,"state":"active","ping":73},{"user_id":768,"name":"Vv","steam_id":76561199052196750,"connected_time":229000000000,"state":"active","ping":89},{"user_id":668,"name":"Coop","steam_id":76561198042839356,"connected_time":8193000000000,"state":"active","ping":69},{"user_id":731,"name":"bobbymcbobington","steam_id":76561199089411172,"connected_time":2867000000000,"state":"active","ping":120},{"user_id":734,"name":"Walmart Employee","steam_id":76561198840373909,"connected_time":2758000000000,"state":"active","ping":93},{"user_id":748,"name":"Prime","steam_id":76561198219613253,"connected_time":1602000000000,"state":"active","ping":86},{"user_id":765,"name":"boe jiden","steam_id":76561198041048289,"connected_time":569000000000,"state":"active","ping":44},{"user_id":766,"name":"Dr. Miami","steam_id":76561198083851689,"connected_time":505000000000,"state":"active","ping":75},{"user_id":741,"name":"flappyflap2","steam_id":76561198285048973,"connected_time":2364000000000,"state":"active","ping":37},{"user_id":767,"name":"Instant kill","steam_id":76561198060135755,"connected_time":321000000000,"state":"active","ping":38},{"user_id":717,"name":"Sammy Slamma Jamma","steam_id":76561198079430934,"connected_time":4047000000000,"state":"active","ping":45},{"user_id":759,"name":"IronPainting","steam_id":76561198329389719,"connected_time":1152000000000,"state":"active","ping":44},{"user_id":751,"name":"menk3","steam_id":76561198120888597,"connected_time":1562000000000,"state":"active","ping":58},{"user_id":762,"name":"xXMLGDOODXx","steam_id":76561198080758365,"connected_time":982000000000,"state":"active","ping":43},{"user_id":760,"name":"Local Gambling Adict","steam_id":76561199150424471,"connected_time":1073000000000,"state":"active","ping":129},{"user_id":752,"name":"Big Man Lard","steam_id":76561198069074737,"connected_time":1561000000000,"state":"active","ping":57},{"user_id":746,"name":"Dusken","steam_id":76561198020696265,"connected_time":1832000000000,"state":"active","ping":74},{"user_id":755,"name":"b-dot","steam_id":76561198160786631,"connected_time":1467000000000,"state":"active","ping":68},{"user_id":687,"name":"Egg","steam_id":76561198028157625,"connected_time":6903000000000,"state":"active","ping":86},{"user_id":742,"name":"SexEagle","steam_id":76561198042284742,"connected_time":2274000000000,"state":"active","ping":89},{"user_id":707,"name":"MILF Gaming","steam_id":76561198155378170,"connected_time":5123000000000,"state":"active","ping":42},{"user_id":754,"name":"The new day","steam_id":76561198855144603,"connected_time":1536000000000,"state":"active","ping":51}]},{"server_id":15,"name":"Uncletopia | New York City | 3 | Stopwatch","name_short":"nyc-3","host":"nyc-1.us.uncletopia.com","port":27035,"enabled":true,"region":"us-east","cc":"us","latitude":40.73061,"longitude":-73.93524,"reserved":0,"last_update":"0001-01-01T00:00:00Z","name_a2s":"Uncletopia | New York City | 3 | Stopwatch","protocol":17,"map":"koth_lakeside_final","folder":"tf","game":"Team Fortress","app_id":440,"player_count":0,"max_players":24,"Bots":0,"server_type":"Dedicated","server_os":"Linux","password":true,"vac":true,"version":"7961495","steam_id":85568392924742820,"keywords":["cp","nocrits","nodmgspread","uncletopia"],"game_id":440,"stv_port":27036,"stv_name":"Uncletopia | New York City | 3 | Stopwatch | STV","players":null},{"server_id":16,"name":"Uncletopia | New York City | 4 | Community","name_short":"nyc-4","host":"nyc-1.us.uncletopia.com","port":27045,"enabled":true,"region":"us-east","cc":"us","latitude":40.73061,"longitude":-73.93524,"reserved":0,"last_update":"0001-01-01T00:00:00Z","name_a2s":"Uncletopia | New York City | 4 | Community","protocol":17,"map":"workshop/cp_sulfur_rc2.ugc619869471","folder":"tf","game":"Team Fortress","app_id":440,"player_count":0,"max_players":24,"Bots":0,"server_type":"Dedicated","server_os":"Linux","password":true,"vac":true,"version":"7961495","steam_id":85568392924742821,"keywords":["cp","nocrits","nodmgspread","uncletopia"],"game_id":440,"stv_port":27046,"stv_name":"Uncletopia | New York City | 4 | Community | STV","players":null},{"server_id":142,"name":"Uncletopia | São Paulo | 1 | All Maps","name_short":"sao-1","host":"sao-1.br.uncletopia.com","port":27015,"enabled":true,"region":"sa","cc":"br","latitude":-23.533773,"longitude":-46.62529,"reserved":0,"last_update":"0001-01-01T00:00:00Z","name_a2s":"Uncletopia | São Paulo | 1 | All Maps","protocol":17,"map":"koth_harvest_final","folder":"tf","game":"Team Fortress","app_id":440,"player_count":0,"max_players":24,"Bots":0,"server_type":"Dedicated","server_os":"Linux","password":true,"vac":true,"version":"7961495","steam_id":85568392924469996,"keywords":["cp","nocrits","nodmgspread","uncletopia"],"game_id":440,"stv_port":27016,"stv_name":"Uncletopia | São Paulo | 1 | All Maps | STV","players":null},{"server_id":143,"name":"Uncletopia | São Paulo | 2 | Community","name_short":"sao-2","host":"sao-2.br.uncletopia.com","port":27015,"enabled":true,"region":"sa","cc":"br","latitude":-23.533773,"longitude":-46.62529,"reserved":0,"last_update":"0001-01-01T00:00:00Z","name_a2s":"Uncletopia | São Paulo | 2 | Community","protocol":17,"map":"workshop/pl_highwood_b13.ugc1769496557","folder":"tf","game":"Team Fortress","app_id":440,"player_count":0,"max_players":24,"Bots":0,"server_type":"Dedicated","server_os":"Linux","password":true,"vac":true,"version":"7961495","steam_id":85568392924485349,"keywords":["nocrits","nodmgspread","payload","uncletopia"],"game_id":440,"stv_port":27016,"stv_name":"Uncletopia | São Paulo | 2 | Community | STV","players":null},{"server_id":7,"name":"Uncletopia | Seattle | 1 | All Maps","name_short":"sea-1","host":"sea-1.us.uncletopia.com","port":27015,"enabled":true,"region":"us-west","cc":"us","latitude":47.608013,"longitude":-122.33517,"reserved":0,"last_update":"0001-01-01T00:00:00Z","name_a2s":"Uncletopia | Seattle | 1 | All Maps","protocol":17,"map":"koth_harvest_final","folder":"tf","game":"Team Fortress","app_id":440,"player_count":24,"max_players":24,"Bots":0,"server_type":"Dedicated","server_os":"Linux","password":true,"vac":true,"version":"7961495","steam_id":85568392924469997,"keywords":["cp","nocrits","nodmgspread","uncletopia"],"game_id":440,"stv_port":27016,"stv_name":"Uncletopia | Seattle | 1 | All Maps | STV","players":[{"user_id":274,"name":"ilun","steam_id":76561198042913843,"connected_time":10572000000000,"state":"active","ping":58},{"user_id":352,"name":"William P. Ennis","steam_id":76561198073464877,"connected_time":4681000000000,"state":"active","ping":91},{"user_id":339,"name":"Angela :3","steam_id":76561198991101353,"connected_time":5445000000000,"state":"active","ping":47},{"user_id":398,"name":"O","steam_id":76561198450073779,"connected_time":90000000000,"state":"active","ping":40},{"user_id":369,"name":"dust | it/she","steam_id":76561198045218909,"connected_time":3190000000000,"state":"active","ping":41},{"user_id":365,"name":"Yall ready for this?","steam_id":76561199247095754,"connected_time":3440000000000,"state":"active","ping":97},{"user_id":355,"name":"Sweets(?)","steam_id":76561198998446307,"connected_time":4400000000000,"state":"active","ping":62},{"user_id":375,"name":"lavender","steam_id":76561199069518286,"connected_time":2432000000000,"state":"active","ping":74},{"user_id":383,"name":"porfer","steam_id":76561199118049168,"connected_time":1343000000000,"state":"active","ping":80},{"user_id":392,"name":"gin","steam_id":76561198087557454,"connected_time":906000000000,"state":"active","ping":78},{"user_id":389,"name":"smokin that shit again","steam_id":76561198095480838,"connected_time":1074000000000,"state":"active","ping":45},{"user_id":394,"name":"allahsdroptop","steam_id":76561198133195238,"connected_time":435000000000,"state":"active","ping":68},{"user_id":390,"name":"Warhead","steam_id":76561198067746049,"connected_time":1067000000000,"state":"active","ping":67},{"user_id":382,"name":"cofferhead","steam_id":76561199191108449,"connected_time":2043000000000,"state":"active","ping":75},{"user_id":372,"name":"[TrC] Dackstrus","steam_id":76561197973518509,"connected_time":2885000000000,"state":"active","ping":57},{"user_id":393,"name":"Hero Smasher","steam_id":76561198150681669,"connected_time":812000000000,"state":"active","ping":66},{"user_id":363,"name":"Jodi Engwyrn","steam_id":76561198131833567,"connected_time":3706000000000,"state":"active","ping":67},{"user_id":395,"name":"An Old Lady","steam_id":76561198047480318,"connected_time":350000000000,"state":"active","ping":60},{"user_id":380,"name":"piss gaming","steam_id":76561198002280184,"connected_time":2093000000000,"state":"active","ping":52},{"user_id":312,"name":"Username","steam_id":76561199033122306,"connected_time":7985000000000,"state":"active","ping":145},{"user_id":400,"name":"Day Man","steam_id":76561198067154807,"connected_time":79000000000,"state":"active","ping":45},{"user_id":397,"name":"Translucent૮₍ • ᴥ •","steam_id":76561199212057076,"connected_time":121000000000,"state":"active","ping":76},{"user_id":348,"name":"a cat plushie","steam_id":76561198080046542,"connected_time":4931000000000,"state":"active","ping":48},{"user_id":332,"name":"Ayayayayayahuasca","steam_id":76561199002906056,"connected_time":5975000000000,"state":"active","ping":51}]},{"server_id":119,"name":"Uncletopia | Seattle | 2 | All Maps","name_short":"sea-2","host":"sea-1.us.uncletopia.com","port":27025,"enabled":true,"region":"us-west","cc":"us","latitude":47.608013,"longitude":-122.33517,"reserved":0,"last_update":"0001-01-01T00:00:00Z","name_a2s":"Uncletopia | Seattle | 2 | All Maps","protocol":17,"map":"pl_upward","folder":"tf","game":"Team Fortress","app_id":440,"player_count":24,"max_players":24,"Bots":0,"server_type":"Dedicated","server_os":"Linux","password":true,"vac":true,"version":"7961495","steam_id":85568392924469998,"keywords":["nocrits","nodmgspread","payload","uncletopia"],"game_id":440,"stv_port":27026,"stv_name":"Uncletopia | Seattle | 2 | All Maps | STV","players":[{"user_id":665,"name":"Santicules","steam_id":76561198209373536,"connected_time":7091000000000,"state":"active","ping":104},{"user_id":678,"name":"General Fisticuffs","steam_id":76561198255721392,"connected_time":4929000000000,"state":"active","ping":109},{"user_id":668,"name":"TüCold","steam_id":76561198111278197,"connected_time":6941000000000,"state":"active","ping":57},{"user_id":717,"name":"Dad","steam_id":76561198083941413,"connected_time":527000000000,"state":"active","ping":54},{"user_id":679,"name":"Gloomy","steam_id":76561198053742522,"connected_time":4924000000000,"state":"active","ping":48},{"user_id":702,"name":"Scoops M'Gooch","steam_id":76561198048423812,"connected_time":2101000000000,"state":"active","ping":77},{"user_id":705,"name":"onionman0106","steam_id":76561199067766868,"connected_time":1693000000000,"state":"active","ping":43},{"user_id":715,"name":"Sovereign","steam_id":76561198018841787,"connected_time":959000000000,"state":"active","ping":38},{"user_id":712,"name":"redredgreengreen","steam_id":76561198035660801,"connected_time":1449000000000,"state":"active","ping":60},{"user_id":718,"name":"Crutchlover's Crutchnai","steam_id":76561198046526036,"connected_time":526000000000,"state":"active","ping":75},{"user_id":591,"name":"Marzbee115","steam_id":76561198095821025,"connected_time":12525000000000,"state":"active","ping":80},{"user_id":719,"name":"Steve","steam_id":76561198352805460,"connected_time":523000000000,"state":"active","ping":69},{"user_id":708,"name":"Chocc-_-","steam_id":76561198068070211,"connected_time":1508000000000,"state":"active","ping":87},{"user_id":700,"name":"Jshoe","steam_id":76561198128252048,"connected_time":2137000000000,"state":"active","ping":67},{"user_id":725,"name":"Nyx","steam_id":76561199010550945,"connected_time":1000000000,"state":"spawning","ping":39},{"user_id":673,"name":"↟ ↟ callie ↟ ↟","steam_id":76561198058199952,"connected_time":6230000000000,"state":"active","ping":44},{"user_id":656,"name":"CashGordon","steam_id":76561197975594096,"connected_time":7861000000000,"state":"active","ping":45},{"user_id":695,"name":"WHAT IF I WANTED THEM TO TRY","steam_id":76561198088131563,"connected_time":2878000000000,"state":"active","ping":86},{"user_id":724,"name":"Gerbias","steam_id":76561198001002427,"connected_time":6000000000,"state":"spawning","ping":104},{"user_id":723,"name":"CheeseCake488","steam_id":76561199407617942,"connected_time":62000000000,"state":"active","ping":142},{"user_id":655,"name":"Mainyx","steam_id":76561198811844438,"connected_time":7953000000000,"state":"active","ping":60},{"user_id":704,"name":"loco503","steam_id":76561198827495121,"connected_time":2041000000000,"state":"active","ping":65},{"user_id":696,"name":"NickoDeeBz","steam_id":76561198294657867,"connected_time":2837000000000,"state":"active","ping":86},{"user_id":720,"name":"Sploonbabagoosecooties","steam_id":76561198139972201,"connected_time":331000000000,"state":"active","ping":46}]},{"server_id":406,"name":"Uncletopia | Seattle | 3 | Stopwatch","name_short":"sea-3","host":"sea-1.us.uncletopia.com","port":27035,"enabled":true,"region":"us-west","cc":"us","latitude":47.608013,"longitude":-122.33517,"reserved":0,"last_update":"0001-01-01T00:00:00Z","name_a2s":"Uncletopia | Seattle | 3 | Stopwatch","protocol":17,"map":"workshop/koth_product_final.ugc454272353","folder":"tf","game":"Team Fortress","app_id":440,"player_count":0,"max_players":24,"Bots":0,"server_type":"Dedicated","server_os":"Linux","password":true,"vac":true,"version":"7961495","steam_id":85568392924515217,"keywords":["cp","nocrits","nodmgspread","uncletopia"],"game_id":440,"stv_port":27036,"stv_name":"Uncletopia | Seattle | 3 | Stopwatch | STV","players":null},{"server_id":17,"name":"Uncletopia | San Francisco | 1 | All Maps","name_short":"sfo-1","host":"sfo-1.us.uncletopia.com","port":27015,"enabled":true,"region":"us-west","cc":"us","latitude":37.77397,"longitude":-122.4313,"reserved":0,"last_update":"0001-01-01T00:00:00Z","name_a2s":"Uncletopia | San Francisco | 1 | All Maps","protocol":17,"map":"pl_pier","folder":"tf","game":"Team Fortress","app_id":440,"player_count":24,"max_players":24,"Bots":0,"server_type":"Dedicated","server_os":"Linux","password":true,"vac":true,"version":"7961495","steam_id":85568392924469999,"keywords":["nocrits","nodmgspread","payload","uncletopia"],"game_id":440,"stv_port":27016,"stv_name":"Uncletopia | San Francisco | 1 | All Maps | STV","players":[{"user_id":109,"name":"The Foolish Samurai","steam_id":76561198094494945,"connected_time":892000000000,"state":"active","ping":82},{"user_id":117,"name":"EpsilonEagle","steam_id":76561197999126769,"connected_time":474000000000,"state":"active","ping":147},{"user_id":58,"name":"FI LO","steam_id":76561198976530881,"connected_time":5325000000000,"state":"active","ping":45},{"user_id":96,"name":"Nuker","steam_id":76561198156361594,"connected_time":2335000000000,"state":"active","ping":105},{"user_id":62,"name":"NuclearPotato","steam_id":76561198144492000,"connected_time":4499000000000,"state":"active","ping":76},{"user_id":116,"name":"Ralis","steam_id":76561198040398748,"connected_time":665000000000,"state":"active","ping":118},{"user_id":105,"name":"hardfork","steam_id":76561197960958019,"connected_time":1264000000000,"state":"active","ping":61},{"user_id":97,"name":"Igrium","steam_id":76561198119549811,"connected_time":2300000000000,"state":"active","ping":59},{"user_id":100,"name":"MEXICAN Jesus","steam_id":76561198074566844,"connected_time":2191000000000,"state":"active","ping":46},{"user_id":104,"name":"Lummock","steam_id":76561199099083114,"connected_time":1284000000000,"state":"active","ping":84},{"user_id":118,"name":"plutonium isotope","steam_id":76561198319442494,"connected_time":138000000000,"state":"active","ping":71},{"user_id":106,"name":"Person","steam_id":76561198073885832,"connected_time":1198000000000,"state":"active","ping":70},{"user_id":101,"name":"dominic82503","steam_id":76561199229812271,"connected_time":2141000000000,"state":"active","ping":54},{"user_id":114,"name":"JoshuaTheBunbun","steam_id":76561198306313297,"connected_time":774000000000,"state":"active","ping":72},{"user_id":70,"name":"CHIEF_JUSTICE_FUCKASS","steam_id":76561199261675844,"connected_time":4133000000000,"state":"active","ping":78},{"user_id":90,"name":"Alchemist","steam_id":76561198094238189,"connected_time":3292000000000,"state":"active","ping":71},{"user_id":86,"name":"Meskoozy","steam_id":76561198102394479,"connected_time":3657000000000,"state":"active","ping":120},{"user_id":45,"name":"WoodsRunner","steam_id":76561198121812870,"connected_time":5915000000000,"state":"active","ping":93},{"user_id":111,"name":"zeplinnn","steam_id":76561198301300987,"connected_time":868000000000,"state":"active","ping":71},{"user_id":60,"name":"Sleezy","steam_id":76561198839500707,"connected_time":4896000000000,"state":"active","ping":52},{"user_id":119,"name":"Bisque","steam_id":76561198327661850,"connected_time":27000000000,"state":"active","ping":53},{"user_id":93,"name":"the pizza","steam_id":76561198221331476,"connected_time":2801000000000,"state":"active","ping":37},{"user_id":108,"name":"the archmage","steam_id":76561198380018244,"connected_time":1105000000000,"state":"active","ping":85},{"user_id":113,"name":"Maid 'n' China","steam_id":76561198423392976,"connected_time":838000000000,"state":"active","ping":50}]},{"server_id":18,"name":"Uncletopia | San Francisco | 2 | All Maps","name_short":"sfo-2","host":"sfo-1.us.uncletopia.com","port":27025,"enabled":true,"region":"us-west","cc":"us","latitude":37.77397,"longitude":-122.4313,"reserved":0,"last_update":"0001-01-01T00:00:00Z","name_a2s":"Uncletopia | San Francisco | 2 | All Maps","protocol":17,"map":"pl_barnblitz","folder":"tf","game":"Team Fortress","app_id":440,"player_count":24,"max_players":24,"Bots":0,"server_type":"Dedicated","server_os":"Linux","password":true,"vac":true,"version":"7961495","steam_id":85568392924470000,"keywords":["nocrits","nodmgspread","payload","uncletopia"],"game_id":440,"stv_port":27026,"stv_name":"Uncletopia | San Francisco | 2 | All Maps | STV","players":[{"user_id":166,"name":"Onepunchkid","steam_id":76561199235127610,"connected_time":2677000000000,"state":"active","ping":76},{"user_id":220,"name":"Zonn","steam_id":76561198018306101,"connected_time":622000000000,"state":"active","ping":58},{"user_id":150,"name":"Totsugeki","steam_id":76561198852855840,"connected_time":3440000000000,"state":"active","ping":71},{"user_id":210,"name":"fear me","steam_id":76561198159334435,"connected_time":1062000000000,"state":"active","ping":168},{"user_id":227,"name":"Interrobang","steam_id":76561198385044529,"connected_time":75000000000,"state":"active","ping":105},{"user_id":184,"name":"Flow of Consciousness gaming","steam_id":76561198069735882,"connected_time":2074000000000,"state":"active","ping":117},{"user_id":110,"name":"StockLlama","steam_id":76561199155283653,"connected_time":6758000000000,"state":"active","ping":81},{"user_id":185,"name":"mwee machine","steam_id":76561198047126327,"connected_time":2064000000000,"state":"active","ping":75},{"user_id":178,"name":"HungryHippo","steam_id":76561198047615363,"connected_time":2459000000000,"state":"active","ping":56},{"user_id":225,"name":"Quigi","steam_id":76561198144645874,"connected_time":210000000000,"state":"active","ping":76},{"user_id":221,"name":"aphip","steam_id":76561198084621244,"connected_time":601000000000,"state":"active","ping":54},{"user_id":214,"name":"Imagine being trash at Medic","steam_id":76561197986530028,"connected_time":984000000000,"state":"active","ping":103},{"user_id":217,"name":"Hannah","steam_id":76561199142959128,"connected_time":923000000000,"state":"active","ping":66},{"user_id":203,"name":"Cope","steam_id":76561198105929029,"connected_time":1424000000000,"state":"active","ping":85},{"user_id":222,"name":"miguelrodriguez2013","steam_id":76561198269253587,"connected_time":574000000000,"state":"active","ping":48},{"user_id":189,"name":"moe","steam_id":76561198929586245,"connected_time":1967000000000,"state":"active","ping":79},{"user_id":128,"name":"Chemzo","steam_id":76561199092858118,"connected_time":5191000000000,"state":"active","ping":127},{"user_id":215,"name":"indyjacob","steam_id":76561198065158713,"connected_time":965000000000,"state":"active","ping":78},{"user_id":218,"name":"crispy","steam_id":76561198971106376,"connected_time":739000000000,"state":"active","ping":99},{"user_id":191,"name":"JuliaDragon","steam_id":76561198175727790,"connected_time":1923000000000,"state":"active","ping":60},{"user_id":224,"name":"esQ","steam_id":76561198242699432,"connected_time":235000000000,"state":"active","ping":59},{"user_id":226,"name":"Colonel Chikara","steam_id":76561198010021087,"connected_time":167000000000,"state":"active","ping":55},{"user_id":181,"name":"The_Skull_boy","steam_id":76561198227692664,"connected_time":2250000000000,"state":"active","ping":74},{"user_id":192,"name":"Azerevor","steam_id":76561198042800360,"connected_time":1895000000000,"state":"active","ping":70}]},{"server_id":19,"name":"Uncletopia | San Francisco | 3 | Stopwatch","name_short":"sfo-3","host":"sfo-1.us.uncletopia.com","port":27035,"enabled":true,"region":"us-west","cc":"us","latitude":37.77397,"longitude":-122.4313,"reserved":0,"last_update":"0001-01-01T00:00:00Z","name_a2s":"Uncletopia | San Francisco | 3 | Stopwatch","protocol":17,"map":"workshop/pl_vigil_rc10.ugc1266210012","folder":"tf","game":"Team Fortress","app_id":440,"player_count":0,"max_players":24,"Bots":0,"server_type":"Dedicated","server_os":"Linux","password":true,"vac":true,"version":"7961495","steam_id":85568392924742824,"keywords":["nocrits","nodmgspread","payload","uncletopia"],"game_id":440,"stv_port":27036,"stv_name":"Uncletopia | San Francisco | 3 | Stopwatch | STV","players":null},{"server_id":20,"name":"Uncletopia | San Francisco | 4 | Community","name_short":"sfo-4","host":"sfo-1.us.uncletopia.com","port":27045,"enabled":true,"region":"us-west","cc":"us","latitude":37.77397,"longitude":-122.4313,"reserved":0,"last_update":"0001-01-01T00:00:00Z","name_a2s":"Uncletopia | San Francisco | 4 | Community","protocol":17,"map":"workshop/cp_reckoner_rc6.ugc674719999","folder":"tf","game":"Team Fortress","app_id":440,"player_count":0,"max_players":24,"Bots":0,"server_type":"Dedicated","server_os":"Linux","password":true,"vac":true,"version":"7961495","steam_id":85568392924742826,"keywords":["cp","nocrits","nodmgspread","uncletopia"],"game_id":440,"stv_port":27046,"stv_name":"Uncletopia | San Francisco | 4 | Community | STV","players":null},{"server_id":141,"name":"Uncletopia | Sydney | 1 | All Maps","name_short":"syd-1","host":"syd-1.au.uncletopia.com","port":27015,"enabled":true,"region":"au","cc":"au","latitude":-33.865143,"longitude":151.2099,"reserved":0,"last_update":"0001-01-01T00:00:00Z","name_a2s":"Uncletopia | Sydney | 1 | All Maps","protocol":17,"map":"cp_process_final","folder":"tf","game":"Team Fortress","app_id":440,"player_count":2,"max_players":24,"Bots":0,"server_type":"Dedicated","server_os":"Linux","password":true,"vac":true,"version":"7961495","steam_id":85568392924470001,"keywords":["cp","nocrits","nodmgspread","uncletopia"],"game_id":440,"stv_port":27016,"stv_name":"Uncletopia | Sydney | 1 | All Maps | STV","players":[{"user_id":18,"name":"APVC","steam_id":76561199090168813,"connected_time":513000000000,"state":"active","ping":45},{"user_id":19,"name":"KNORK","steam_id":76561198137144370,"connected_time":81000000000,"state":"active","ping":69}]},{"server_id":123,"name":"Uncletopia | Sydney | 2 | All Maps","name_short":"syd-2","host":"syd-1.au.uncletopia.com","port":27025,"enabled":true,"region":"au","cc":"au","latitude":-33.865143,"longitude":151.2099,"reserved":0,"last_update":"0001-01-01T00:00:00Z","name_a2s":"Uncletopia | Sydney | 2 | All Maps","protocol":17,"map":"koth_lakeside_final","folder":"tf","game":"Team Fortress","app_id":440,"player_count":0,"max_players":24,"Bots":0,"server_type":"Dedicated","server_os":"Linux","password":true,"vac":true,"version":"7961495","steam_id":85568392924470002,"keywords":["cp","nocrits","nodmgspread","uncletopia"],"game_id":440,"stv_port":27026,"stv_name":"Uncletopia | Sydney | 2 | All Maps | STV","players":null},{"server_id":395,"name":"Uncletopia | Sydney | 3 | All Maps","name_short":"syd-3","host":"syd-1.au.uncletopia.com","port":27035,"enabled":true,"region":"au","cc":"au","latitude":-33.865143,"longitude":151.2099,"reserved":0,"last_update":"0001-01-01T00:00:00Z","name_a2s":"Uncletopia | Sydney | 3 | All Maps","protocol":17,"map":"pl_frontier_final","folder":"tf","game":"Team Fortress","app_id":440,"player_count":0,"max_players":24,"Bots":0,"server_type":"Dedicated","server_os":"Linux","password":true,"vac":true,"version":"7961495","steam_id":85568392925194467,"keywords":["nocrits","nodmgspread","payload","uncletopia"],"game_id":440,"stv_port":27036,"stv_name":"Uncletopia | Sydney | 3 | All Maps | STV","players":null},{"server_id":396,"name":"Uncletopia | Sydney | 4 | All Maps","name_short":"syd-4","host":"syd-1.au.uncletopia.com","port":27045,"enabled":true,"region":"au","cc":"au","latitude":-33.865143,"longitude":151.2099,"reserved":0,"last_update":"0001-01-01T00:00:00Z","name_a2s":"Uncletopia | Sydney | 4 | All Maps","protocol":17,"map":"cp_process_final","folder":"tf","game":"Team Fortress","app_id":440,"player_count":0,"max_players":24,"Bots":0,"server_type":"Dedicated","server_os":"Linux","password":true,"vac":true,"version":"7961495","steam_id":85568392925397958,"keywords":["cp","nocrits","nodmgspread","uncletopia"],"game_id":440,"stv_port":27046,"stv_name":"Uncletopia | Sydney | 4 | All Maps | STV","players":null},{"server_id":58,"name":"Uncletopia | Sydney | 5 | Stopwatch","name_short":"syd-5","host":"syd-1.au.uncletopia.com","port":27055,"enabled":true,"region":"au","cc":"au","latitude":-33.865143,"longitude":151.2099,"reserved":0,"last_update":"0001-01-01T00:00:00Z","name_a2s":"Uncletopia | Sydney | 5 | Stopwatch","protocol":17,"map":"pl_frontier_final","folder":"tf","game":"Team Fortress","app_id":440,"player_count":0,"max_players":24,"Bots":0,"server_type":"Dedicated","server_os":"Linux","password":true,"vac":true,"version":"7961495","steam_id":85568392925397959,"keywords":["nocrits","nodmgspread","payload","uncletopia"],"game_id":440,"stv_port":27056,"stv_name":"Uncletopia | Sydney | 5 | Stopwatch | STV","players":null},{"server_id":59,"name":"Uncletopia | Sydney | 6 | Community","name_short":"syd-6","host":"syd-1.au.uncletopia.com","port":27065,"enabled":true,"region":"au","cc":"au","latitude":-33.865143,"longitude":151.2099,"reserved":0,"last_update":"0001-01-01T00:00:00Z","name_a2s":"Uncletopia | Sydney | 6 | Community","protocol":17,"map":"cp_sunshine","folder":"tf","game":"Team Fortress","app_id":440,"player_count":0,"max_players":24,"Bots":0,"server_type":"Dedicated","server_os":"Linux","password":true,"vac":true,"version":"7961495","steam_id":85568392925397960,"keywords":["cp","nocrits","nodmgspread","uncletopia"],"game_id":440,"stv_port":27066,"stv_name":"Uncletopia | Sydney | 6 | Community | STV","players":null},{"server_id":49,"name":"Uncletopia | Warsaw | 1 | One Thousand Uncles","name_short":"waw-1","host":"waw-1.pl.uncletopia.com","port":27015,"enabled":true,"region":"eu","cc":"pl","latitude":52.2297,"longitude":21.017532,"reserved":0,"last_update":"0001-01-01T00:00:00Z","name_a2s":"Uncletopia | Warsaw | 1 | One Thousand Uncles","protocol":17,"map":"koth_highpass","folder":"tf","game":"Team Fortress","app_id":440,"player_count":0,"max_players":32,"Bots":0,"server_type":"Dedicated","server_os":"Linux","password":true,"vac":true,"version":"7961495","steam_id":85568392925397850,"keywords":["alltalk","cp","danepve","increased_maxplayers","nocrits","norespawntime","uncletopia"],"game_id":440,"stv_port":0,"stv_name":"","players":null},{"server_id":50,"name":"Uncletopia | Warsaw | 2 | One Thousand Uncles","name_short":"waw-2","host":"waw-1.pl.uncletopia.com","port":27025,"enabled":true,"region":"eu","cc":"pl","latitude":52.2297,"longitude":21.017532,"reserved":0,"last_update":"0001-01-01T00:00:00Z","name_a2s":"Uncletopia | Warsaw | 2 | One Thousand Uncles","protocol":17,"map":"pl_goldrush","folder":"tf","game":"Team Fortress","app_id":440,"player_count":17,"max_players":32,"Bots":16,"server_type":"Dedicated","server_os":"Linux","password":true,"vac":true,"version":"7961495","steam_id":85568392925397851,"keywords":["alltalk","bots","danepve","increased_maxplayers","nocrits","norespawntime","payload","uncletopia"],"game_id":440,"stv_port":0,"stv_name":"","players":[{"user_id":2,"name":"Truegr","steam_id":76561198811912339,"connected_time":339000000000,"state":"active","ping":63}]},{"server_id":51,"name":"Uncletopia | Warsaw | 3 | All Maps","name_short":"waw-3","host":"waw-1.pl.uncletopia.com","port":27035,"enabled":true,"region":"eu","cc":"pl","latitude":52.2297,"longitude":21.017532,"reserved":0,"last_update":"0001-01-01T00:00:00Z","name_a2s":"Uncletopia | Warsaw | 3 | All Maps","protocol":17,"map":"plr_pipeline","folder":"tf","game":"Team Fortress","app_id":440,"player_count":0,"max_players":24,"Bots":0,"server_type":"Dedicated","server_os":"Linux","password":true,"vac":true,"version":"7961495","steam_id":85568392925397852,"keywords":["nocrits","nodmgspread","payload","uncletopia"],"game_id":440,"stv_port":27036,"stv_name":"Uncletopia | Warsaw | 3 | All Maps | STV","players":null},{"server_id":52,"name":"Uncletopia | Warsaw | 4 | All Maps","name_short":"waw-4","host":"waw-1.pl.uncletopia.com","port":27045,"enabled":true,"region":"eu","cc":"pl","latitude":52.2297,"longitude":21.017532,"reserved":0,"last_update":"0001-01-01T00:00:00Z","name_a2s":"Uncletopia | Warsaw | 4 | All Maps","protocol":17,"map":"cp_coldfront","folder":"tf","game":"Team Fortress","app_id":440,"player_count":0,"max_players":24,"Bots":0,"server_type":"Dedicated","server_os":"Linux","password":true,"vac":true,"version":"7961495","steam_id":85568392925397853,"keywords":["cp","nocrits","nodmgspread","uncletopia"],"game_id":440,"stv_port":27046,"stv_name":"Uncletopia | Warsaw | 4 | All Maps | STV","players":null},{"server_id":53,"name":"Uncletopia | Warsaw | 5 | Stopwatch","name_short":"waw-5","host":"waw-1.pl.uncletopia.com","port":27055,"enabled":true,"region":"eu","cc":"pl","latitude":52.2297,"longitude":21.017532,"reserved":0,"last_update":"0001-01-01T00:00:00Z","name_a2s":"Uncletopia | Warsaw | 5 | Stopwatch","protocol":17,"map":"workshop/koth_bagel_rc6.ugc2514036946","folder":"tf","game":"Team Fortress","app_id":440,"player_count":0,"max_players":24,"Bots":0,"server_type":"Dedicated","server_os":"Linux","password":true,"vac":true,"version":"7961495","steam_id":85568392925397854,"keywords":["cp","nocrits","nodmgspread","uncletopia"],"game_id":440,"stv_port":27056,"stv_name":"Uncletopia | Warsaw | 5 | Stopwatch | STV","players":null},{"server_id":54,"name":"Uncletopia | Warsaw | 6 | Community","name_short":"waw-6","host":"waw-1.pl.uncletopia.com","port":27065,"enabled":true,"region":"eu","cc":"pl","latitude":52.2297,"longitude":21.017532,"reserved":0,"last_update":"0001-01-01T00:00:00Z","name_a2s":"Uncletopia | Warsaw | 6 | Community","protocol":17,"map":"workshop/pl_badwater_pro_v12.ugc2142942074","folder":"tf","game":"Team Fortress","app_id":440,"player_count":0,"max_players":24,"Bots":0,"server_type":"Dedicated","server_os":"Linux","password":true,"vac":true,"version":"7961495","steam_id":85568392925397856,"keywords":["nocrits","nodmgspread","payload","uncletopia"],"game_id":440,"stv_port":27066,"stv_name":"Uncletopia | Warsaw | 6 | Community | STV","players":null}]}