{"status":true,"message":"","result":[{"server_id":9,"name":"Uncletopia | Atlanta | 1 | All Maps","name_short":"atl-1","host":"atl-1.us.uncletopia.com","port":27015,"enabled":true,"region":"us-east","cc":"us","latitude":33.753746,"longitude":-84.38633,"reserved":0,"last_update":"0001-01-01T00:00:00Z","name_a2s":"Uncletopia | Atlanta | 1 | All Maps","protocol":17,"map":"pl_pier","folder":"tf","game":"Team Fortress","app_id":440,"player_count":24,"max_players":24,"Bots":0,"server_type":"Dedicated","server_os":"Linux","password":true,"vac":true,"version":"7742253","steam_id":85568392924469982,"keywords":["nocrits","nodmgspread","payload","uncletopia"],"game_id":440,"stv_port":27016,"stv_name":"Uncletopia | Atlanta | 1 | All Maps | STV","players":[{"user_id":176,"name":"Coup de Grass","steam_id":76561198011643226,"connected_time":441000000000,"state":"active","ping":75},{"user_id":175,"name":"Kid named download","steam_id":76561199192074448,"connected_time":1167000000000,"state":"active","ping":76},{"user_id":157,"name":"I like cheese (real)","steam_id":76561198882837408,"connected_time":2701000000000,"state":"active","ping":96},{"user_id":164,"name":"reymundo","steam_id":76561197989412830,"connected_time":1573000000000,"state":"active","ping":121},{"user_id":159,"name":"pungabot","steam_id":76561198009088243,"connected_time":1992000000000,"state":"active","ping":76},{"user_id":155,"name":"Thermidor","steam_id":76561198021486476,"connected_time":2871000000000,"state":"active","ping":64},{"user_id":165,"name":"Bastioned Nest","steam_id":76561198070299208,"connected_time":1569000000000,"state":"active","ping":45},{"user_id":166,"name":"thewhitegoose","steam_id":76561198429419782,"connected_time":1545000000000,"state":"active","ping":163},{"user_id":132,"name":"sasharudzik","steam_id":76561199126617781,"connected_time":4644000000000,"state":"active","ping":80},{"user_id":142,"name":"FestivisedPomsonPug","steam_id":76561198049093575,"connected_time":3402000000000,"state":"active","ping":87},{"user_id":138,"name":"RaT","steam_id":76561198383498049,"connected_time":3572000000000,"state":"active","ping":53},{"user_id":168,"name":"sock","steam_id":76561199117597830,"connected_time":1415000000000,"state":"spawning","ping":260},{"user_id":158,"name":"Faust main","steam_id":76561198971799149,"connected_time":2328000000000,"state":"active","ping":92},{"user_id":154,"name":"Dixie Nourmas","steam_id":76561198003731400,"connected_time":3109000000000,"state":"active","ping":82},{"user_id":130,"name":"--_Cook_--","steam_id":76561198080855748,"connected_time":4866000000000,"state":"active","ping":62},{"user_id":153,"name":"silentpieceofbacon","steam_id":76561198869323351,"connected_time":3191000000000,"state":"active","ping":83},{"user_id":169,"name":"Ether","steam_id":76561198054806528,"connected_time":1378000000000,"state":"active","ping":68},{"user_id":174,"name":"Mr. Pink","steam_id":76561198065858172,"connected_time":1209000000000,"state":"active","ping":62},{"user_id":139,"name":"Vladikr1","steam_id":76561198401495362,"connected_time":3519000000000,"state":"active","ping":83},{"user_id":180,"name":"hi","steam_id":76561199441787165,"connected_time":49000000000,"state":"spawning","ping":91},{"user_id":119,"name":"VitaminCDS","steam_id":76561198277799227,"connected_time":5239000000000,"state":"active","ping":61},{"user_id":179,"name":"A Fruit","steam_id":76561198951830050,"connected_time":104000000000,"state":"active","ping":60},{"user_id":181,"name":"QuanFromQuan","steam_id":76561198968008799,"connected_time":24000000000,"state":"active","ping":73},{"user_id":152,"name":"Some Octopus Wizard","steam_id":76561198005470354,"connected_time":3237000000000,"state":"active","ping":48}]},{"server_id":400,"name":"Uncletopia | Atlanta | 3 | Stopwatch Beta","name_short":"atl-3","host":"atl-1.us.uncletopia.com","port":27035,"enabled":true,"region":"us-east","cc":"us","latitude":33.753746,"longitude":-84.38633,"reserved":0,"last_update":"0001-01-01T00:00:00Z","name_a2s":"Uncletopia | Atlanta | 3 | Stopwatch Beta","protocol":17,"map":"pl_pier","folder":"tf","game":"Team Fortress","app_id":440,"player_count":0,"max_players":24,"Bots":0,"server_type":"Dedicated","server_os":"Linux","password":true,"vac":true,"version":"7742253","steam_id":85568392924515187,"keywords":["nocrits","nodmgspread","payload","uncletopia"],"game_id":440,"stv_port":27036,"stv_name":"Uncletopia | Atlanta | 3 | Stopwatch Beta | STV","players":null},{"server_id":401,"name":"Uncletopia | Atlanta | 4 | No Payload","name_short":"atl-4","host":"atl-1.us.uncletopia.com","port":27045,"enabled":true,"region":"us-east","cc":"us","latitude":33.753746,"longitude":-84.38633,"reserved":0,"last_update":"0001-01-01T00:00:00Z","name_a2s":"Uncletopia | Atlanta | 4 | No Payload","protocol":17,"map":"pl_pier","folder":"tf","game":"Team Fortress","app_id":440,"player_count":0,"max_players":24,"Bots":0,"server_type":"Dedicated","server_os":"Linux","password":true,"vac":true,"version":"7723704","steam_id":85568392924515188,"keywords":["nocrits","nodmgspread","payload","uncletopia"],"game_id":440,"stv_port":27046,"stv_name":"Uncletopia | Atlanta | 4 | No Payload | STV","players":null},{"server_id":2,"name":"Uncletopia | Chicago | 1 | All Maps","name_short":"chi-1","host":"chi-1.us.uncletopia.com","port":27015,"enabled":true,"region":"us-central","cc":"us","latitude":41.881832,"longitude":-87.62318,"reserved":0,"last_update":"0001-01-01T00:00:00Z","name_a2s":"Uncletopia | Chicago | 1 | All Maps","protocol":17,"map":"pl_wutville_event","folder":"tf","game":"Team Fortress","app_id":440,"player_count":23,"max_players":24,"Bots":0,"server_type":"Dedicated","server_os":"Linux","password":true,"vac":true,"version":"7742253","steam_id":85568392924469984,"keywords":["nocrits","nodmgspread","payload","uncletopia"],"game_id":440,"stv_port":27016,"stv_name":"Uncletopia | Chicago | 1 | All Maps | STV","players":[{"user_id":302,"name":"indi","steam_id":76561198045917538,"connected_time":354000000000,"state":"active","ping":45},{"user_id":308,"name":"feddy fasbear","steam_id":76561198972966143,"connected_time":242000000000,"state":"active","ping":60},{"user_id":312,"name":"Room_237","steam_id":76561199135081315,"connected_time":88000000000,"state":"active","ping":78},{"user_id":264,"name":"Catboy Potemkin","steam_id":76561198078474420,"connected_time":2380000000000,"state":"active","ping":60},{"user_id":307,"name":"Walkiing","steam_id":76561198074473413,"connected_time":266000000000,"state":"active","ping":45},{"user_id":293,"name":"Winter the Witchie","steam_id":76561198151971178,"connected_time":551000000000,"state":"active","ping":54},{"user_id":291,"name":"4d4","steam_id":76561198402360789,"connected_time":562000000000,"state":"active","ping":59},{"user_id":313,"name":"ScoutMoment420","steam_id":76561199316368867,"connected_time":51000000000,"state":"active","ping":54},{"user_id":265,"name":"Xuey","steam_id":76561199120960187,"connected_time":2267000000000,"state":"active","ping":52},{"user_id":290,"name":"Mahooty","steam_id":76561198042666900,"connected_time":602000000000,"state":"active","ping":67},{"user_id":316,"name":"Jin","steam_id":76561198119873148,"connected_time":22000000000,"state":"spawning","ping":75},{"user_id":281,"name":"Cusven","steam_id":76561198319658526,"connected_time":1074000000000,"state":"active","ping":54},{"user_id":315,"name":"debin","steam_id":76561198070711217,"connected_time":26000000000,"state":"active","ping":66},{"user_id":258,"name":"Sentro","steam_id":76561198891156966,"connected_time":3212000000000,"state":"active","ping":46},{"user_id":317,"name":"All 24 Pok√©mon movies at once","steam_id":76561198164738311,"connected_time":12000000000,"state":"active","ping":93},{"user_id":280,"name":"superd0074","steam_id":76561199440927207,"connected_time":1218000000000,"state":"active","ping":147},{"user_id":283,"name":"GiLbert","steam_id":76561198268170382,"connected_time":969000000000,"state":"active","ping":55},{"user_id":289,"name":"CHIPS","steam_id":76561199085414584,"connected_time":634000000000,"state":"active","ping":70},{"user_id":277,"name":"womthedom","steam_id":76561198088768287,"connected_time":1319000000000,"state":"active","ping":57},{"user_id":259,"name":"lost in spaaaaace","steam_id":76561199085974120,"connected_time":3168000000000,"state":"active","ping":59},{"user_id":284,"name":"Pine Tree","steam_id":76561198112323877,"connected_time":964000000000,"state":"active","ping":86},{"user_id":301,"name":"Mr. Ruckus","steam_id":76561198339566190,"connected_time":377000000000,"state":"active","ping":78},{"user_id":286,"name":"st3shk4a","steam_id":76561198025322638,"connected_time":910000000000,"state":"active","ping":80}]},{"server_id":106,"name":"Uncletopia | Chicago | 2 | All Maps","name_short":"chi-2","host":"chi-1.us.uncletopia.com","port":27025,"enabled":true,"region":"us-central","cc":"us","latitude":41.881832,"longitude":-87.62318,"reserved":0,"last_update":"0001-01-01T00:00:00Z","name_a2s":"Uncletopia | Chicago | 2 | All Maps","protocol":17,"map":"plr_hightower","folder":"tf","game":"Team Fortress","app_id":440,"player_count":24,"max_players":24,"Bots":0,"server_type":"Dedicated","server_os":"Linux","password":true,"vac":true,"version":"7742253","steam_id":85568392924469985,"keywords":["nocrits","nodmgspread","payload","uncletopia"],"game_id":440,"stv_port":27026,"stv_name":"Uncletopia | Chicago | 2 | All Maps | STV","players":[{"user_id":249,"name":"Xumito","steam_id":76561198870648011,"connected_time":1785000000000,"state":"active","ping":126},{"user_id":252,"name":"‚ô•Stephiebees‚ô•","steam_id":76561198021529860,"connected_time":1674000000000,"state":"active","ping":104},{"user_id":258,"name":"jae are","steam_id":76561198027906463,"connected_time":1060000000000,"state":"active","ping":47},{"user_id":220,"name":"no","steam_id":76561198248853140,"connected_time":4773000000000,"state":"active","ping":46},{"user_id":238,"name":"WhoIsFrosty","steam_id":76561198880588117,"connected_time":3078000000000,"state":"active","ping":61},{"user_id":243,"name":"Pan","steam_id":76561199122755987,"connected_time":2143000000000,"state":"active","ping":87},{"user_id":235,"name":"Mailman","steam_id":76561198090675970,"connected_time":3431000000000,"state":"active","ping":57},{"user_id":246,"name":"Aqua UwU","steam_id":76561198108784167,"connected_time":2117000000000,"state":"active","ping":44},{"user_id":196,"name":"Lexi uwu","steam_id":76561198003037190,"connected_time":6443000000000,"state":"active","ping":78},{"user_id":255,"name":"Rukks","steam_id":76561197993918954,"connected_time":1156000000000,"state":"active","ping":67},{"user_id":256,"name":"5-MeO-DMT","steam_id":76561198089527768,"connected_time":1087000000000,"state":"active","ping":86},{"user_id":251,"name":"RelatableiLLness","steam_id":76561198441669772,"connected_time":1759000000000,"state":"active","ping":82},{"user_id":208,"name":"galad.game","steam_id":76561198336324159,"connected_time":5520000000000,"state":"active","ping":143},{"user_id":259,"name":"gnome","steam_id":76561198262275475,"connected_time":1000000000000,"state":"active","ping":65},{"user_id":247,"name":"Mad Cow‚Äª","steam_id":76561198132498594,"connected_time":2072000000000,"state":"active","ping":48},{"user_id":199,"name":"MrPainface","steam_id":76561198047626099,"connected_time":6399000000000,"state":"active","ping":48},{"user_id":257,"name":"DOMO_MR_ROBOTO","steam_id":76561198077108345,"connected_time":1080000000000,"state":"active","ping":95},{"user_id":212,"name":"Sire Salty","steam_id":76561198079639072,"connected_time":5358000000000,"state":"active","ping":61},{"user_id":261,"name":"Optional Friday","steam_id":76561199424229712,"connected_time":672000000000,"state":"active","ping":72},{"user_id":244,"name":"Mirari","steam_id":76561198126889358,"connected_time":2141000000000,"state":"active","ping":73},{"user_id":260,"name":"Pariah","steam_id":76561198300479600,"connected_time":981000000000,"state":"active","ping":60},{"user_id":228,"name":"Shrymp","steam_id":76561198130165656,"connected_time":4330000000000,"state":"active","ping":50},{"user_id":215,"name":"WX-78","steam_id":76561199117263527,"connected_time":5301000000000,"state":"active","ping":42},{"user_id":245,"name":"Nuen","steam_id":76561198936096111,"connected_time":2141000000000,"state":"active","ping":61}]},{"server_id":402,"name":"Uncletopia | Chicago | 3 | All Maps","name_short":"chi-3","host":"chi-1.us.uncletopia.com","port":27035,"enabled":true,"region":"us-central","cc":"us","latitude":41.881832,"longitude":-87.62318,"reserved":0,"last_update":"0001-01-01T00:00:00Z","name_a2s":"Uncletopia | Chicago | 3 | All Maps","protocol":17,"map":"koth_suijin","folder":"tf","game":"Team Fortress","app_id":440,"player_count":24,"max_players":24,"Bots":0,"server_type":"Dedicated","server_os":"Linux","password":true,"vac":true,"version":"7742253","steam_id":85568392924515191,"keywords":["cp","nocrits","nodmgspread","uncletopia"],"game_id":440,"stv_port":27036,"stv_name":"Uncletopia | Chicago | 3 | All Maps | STV","players":[{"user_id":7,"name":"doubledanage","steam_id":76561198418629356,"connected_time":4648000000000,"state":"active","ping":62},{"user_id":68,"name":"tooth","steam_id":76561197986437643,"connected_time":205000000000,"state":"active","ping":63},{"user_id":69,"name":"‚ô•Ranman‚ô•Femboy‚ô•","steam_id":76561198042144492,"connected_time":148000000000,"state":"active","ping":65},{"user_id":70,"name":"Grognak","steam_id":76561198044710527,"connected_time":144000000000,"state":"active","ping":88},{"user_id":62,"name":"Cozy","steam_id":76561198045080988,"connected_time":559000000000,"state":"active","ping":105},{"user_id":22,"name":"dr peppah chug!","steam_id":76561198068835693,"connected_time":3237000000000,"state":"active","ping":89},{"user_id":23,"name":"soup8","steam_id":76561198410722319,"connected_time":3188000000000,"state":"active","ping":72},{"user_id":52,"name":"Aspxts","steam_id":76561199125254746,"connected_time":1370000000000,"state":"active","ping":57},{"user_id":63,"name":"FemboyNate","steam_id":76561198146636410,"connected_time":221000000000,"state":"active","ping":93},{"user_id":64,"name":"[slug]","steam_id":76561197989592178,"connected_time":220000000000,"state":"active","ping":63},{"user_id":40,"name":"Crayfry","steam_id":76561198146525237,"connected_time":2817000000000,"state":"active","ping":45},{"user_id":60,"name":"Ta5K","steam_id":76561198939558155,"connected_time":758000000000,"state":"active","ping":45},{"user_id":29,"name":"Fudgely","steam_id":76561198039425862,"connected_time":3038000000000,"state":"active","ping":72},{"user_id":66,"name":"sufzu","steam_id":76561198112186325,"connected_time":217000000000,"state":"active","ping":54},{"user_id":31,"name":"WannaSeeA","steam_id":76561198097701042,"connected_time":2984000000000,"state":"active","ping":76},{"user_id":72,"name":"Kevin Sorbo","steam_id":76561197980091537,"connected_time":78000000000,"state":"active","ping":80},{"user_id":61,"name":"Rornir","steam_id":76561198081829615,"connected_time":654000000000,"state":"active","ping":33},{"user_id":34,"name":"dwwojcik","steam_id":76561198084403136,"connected_time":2956000000000,"state":"active","ping":45},{"user_id":73,"name":"Pinkerton Deluxe Edition","steam_id":76561198407913964,"connected_time":71000000000,"state":"active","ping":105},{"user_id":47,"name":"Canadian Peek","steam_id":76561198307516731,"connected_time":2026000000000,"state":"active","ping":77},{"user_id":71,"name":"lil bro","steam_id":76561198031675881,"connected_time":142000000000,"state":"active","ping":73},{"user_id":74,"name":"feliser","steam_id":76561198084336096,"connected_time":32000000000,"state":"active","ping":48},{"user_id":39,"name":"Totouri","steam_id":76561198004229789,"connected_time":2859000000000,"state":"active","ping":60},{"user_id":44,"name":"Zenix","steam_id":76561198261817732,"connected_time":2573000000000,"state":"active","ping":99}]},{"server_id":403,"name":"Uncletopia | Chicago | 4 | All Maps","name_short":"chi-4","host":"chi-1.us.uncletopia.com","port":27045,"enabled":true,"region":"us-central","cc":"us","latitude":41.881832,"longitude":-87.62318,"reserved":0,"last_update":"0001-01-01T00:00:00Z","name_a2s":"Uncletopia | Chicago | 4 | All Maps","protocol":17,"map":"cp_process_final","folder":"tf","game":"Team Fortress","app_id":440,"player_count":0,"max_players":24,"Bots":0,"server_type":"Dedicated","server_os":"Linux","password":true,"vac":true,"version":"7742253","steam_id":85568392924515193,"keywords":["cp","nocrits","nodmgspread","uncletopia"],"game_id":440,"stv_port":27046,"stv_name":"Uncletopia | Chicago | 4 | All Maps | STV","players":null},{"server_id":36,"name":"Uncletopia | Chicago | 5 | All Maps","name_short":"chi-5","host":"chi-2.us.uncletopia.com","port":27015,"enabled":true,"region":"us-central","cc":"us","latitude":41.881832,"longitude":-87.62318,"reserved":0,"last_update":"0001-01-01T00:00:00Z","name_a2s":"Uncletopia | Chicago | 5 | All Maps","protocol":17,"map":"pl_pier","folder":"tf","game":"Team Fortress","app_id":440,"player_count":20,"max_players":24,"Bots":0,"server_type":"Dedicated","server_os":"Linux","password":true,"vac":true,"version":"7742253","steam_id":85568392924866362,"keywords":["nocrits","nodmgspread","payload","uncletopia"],"game_id":440,"stv_port":27016,"stv_name":"Uncletopia | Chicago | 5 | All Maps | STV","players":[{"user_id":193,"name":"Kipernicus","steam_id":76561197998180212,"connected_time":12000000000,"state":"spawning","ping":150},{"user_id":194,"name":"Jerry","steam_id":76561198851602451,"connected_time":6000000000,"state":"spawning","ping":43},{"user_id":184,"name":"c64guy","steam_id":76561198023022744,"connected_time":909000000000,"state":"active","ping":54},{"user_id":190,"name":"Harpua","steam_id":76561197988020228,"connected_time":261000000000,"state":"active","ping":60},{"user_id":169,"name":"three three","steam_id":76561198177354155,"connected_time":1805000000000,"state":"active","ping":49},{"user_id":180,"name":"Female Gamer","steam_id":76561199366482682,"connected_time":1309000000000,"state":"active","ping":93},{"user_id":192,"name":"·ïï( ·êõ )·ïó","steam_id":76561198110033681,"connected_time":55000000000,"state":"active","ping":47},{"user_id":144,"name":"groond","steam_id":76561198309426720,"connected_time":3757000000000,"state":"active","ping":61},{"user_id":161,"name":"Doug Dimmadamndimmadimmadougdim","steam_id":76561198136169355,"connected_time":2317000000000,"state":"active","ping":46},{"user_id":189,"name":"dan","steam_id":76561197984998426,"connected_time":373000000000,"state":"active","ping":90},{"user_id":158,"name":"Nic0","steam_id":76561198305690218,"connected_time":2386000000000,"state":"active","ping":63},{"user_id":154,"name":"Carbonated Cocaine","steam_id":76561198110678966,"connected_time":2565000000000,"state":"active","ping":64},{"user_id":191,"name":"sansa musa","steam_id":76561198163723555,"connected_time":182000000000,"state":"active","ping":62},{"user_id":173,"name":"Doey","steam_id":76561198356353805,"connected_time":1584000000000,"state":"active","ping":56},{"user_id":182,"name":"srv","steam_id":76561198026589960,"connected_time":915000000000,"state":"active","ping":52},{"user_id":156,"name":"conscripted monk","steam_id":76561199029246232,"connected_time":2550000000000,"state":"active","ping":66},{"user_id":162,"name":"SmokeyGalaxy","steam_id":76561198118780516,"connected_time":2242000000000,"state":"active","ping":79},{"user_id":128,"name":"carloseolartec","steam_id":76561198396648023,"connected_time":5231000000000,"state":"active","ping":63},{"user_id":157,"name":"L0gicz","steam_id":76561198082466196,"connected_time":2549000000000,"state":"active","ping":76},{"user_id":175,"name":"scrapheap","steam_id":76561198202407087,"connected_time":1582000000000,"state":"active","ping":62}]},{"server_id":37,"name":"Uncletopia | Chicago | 6 | All Maps","name_short":"chi-6","host":"chi-2.us.uncletopia.com","port":27025,"enabled":true,"region":"us-central","cc":"us","latitude":41.881832,"longitude":-87.62318,"reserved":0,"last_update":"0001-01-01T00:00:00Z","name_a2s":"Uncletopia | Chicago | 6 | All Maps","protocol":17,"map":"koth_highpass","folder":"tf","game":"Team Fortress","app_id":440,"player_count":5,"max_players":24,"Bots":0,"server_type":"Dedicated","server_os":"Linux","password":true,"vac":true,"version":"7742253","steam_id":85568392924866363,"keywords":["cp","nocrits","nodmgspread","uncletopia"],"game_id":440,"stv_port":27026,"stv_name":"Uncletopia | Chicago | 6 | All Maps | STV","players":[{"user_id":13,"name":"Stop Tryharding :(","steam_id":76561199130074444,"connected_time":170000000000,"state":"active","ping":74},{"user_id":14,"name":"JamesR","steam_id":76561199436941161,"connected_time":127000000000,"state":"active","ping":62},{"user_id":15,"name":"Chickenwing","steam_id":76561199347103141,"connected_time":76000000000,"state":"active","ping":53},{"user_id":16,"name":"Slowingbranch90","steam_id":76561199445875508,"connected_time":63000000000,"state":"active","ping":78},{"user_id":17,"name":"ink biscuit","steam_id":76561198927983566,"connected_time":11000000000,"state":"spawning","ping":190}]},{"server_id":38,"name":"Uncletopia | Chicago | 7 | Stopwatch Beta","name_short":"chi-7","host":"chi-2.us.uncletopia.com","port":27035,"enabled":true,"region":"us-central","cc":"us","latitude":41.881832,"longitude":-87.62318,"reserved":0,"last_update":"0001-01-01T00:00:00Z","name_a2s":"Uncletopia | Chicago | 7 | Stopwatch Beta","protocol":17,"map":"koth_lakeside_final","folder":"tf","game":"Team Fortress","app_id":440,"player_count":0,"max_players":24,"Bots":0,"server_type":"Dedicated","server_os":"Linux","password":true,"vac":true,"version":"7742253","steam_id":85568392924866364,"keywords":["cp","nocrits","nodmgspread","uncletopia"],"game_id":440,"stv_port":27036,"stv_name":"Uncletopia | Chicago | 7 | Stopwatch Beta | STV","players":null},{"server_id":39,"name":"Uncletopia | Chicago | 8 | Community","name_short":"chi-8","host":"chi-2.us.uncletopia.com","port":27045,"enabled":true,"region":"us-central","cc":"us","latitude":41.881832,"longitude":-87.62318,"reserved":0,"last_update":"0001-01-01T00:00:00Z","name_a2s":"Uncletopia | Chicago | 8 | Community","protocol":17,"map":"koth_lakeside_final","folder":"tf","game":"Team Fortress","app_id":440,"player_count":0,"max_players":24,"Bots":0,"server_type":"Dedicated","server_os":"Linux","password":true,"vac":true,"version":"7742253","steam_id":85568392924866365,"keywords":["cp","nocrits","nodmgspread","uncletopia"],"game_id":440,"stv_port":27046,"stv_name":"Uncletopia | Chicago | 8 | Community | STV","players":null},{"server_id":8,"name":"Uncletopia | Dallas | 1 | All Maps","name_short":"dal-1","host":"dal-1.us.uncletopia.com","port":27015,"enabled":true,"region":"us-central","cc":"us","latitude":32.779167,"longitude":-96.80889,"reserved":0,"last_update":"0001-01-01T00:00:00Z","name_a2s":"Uncletopia | Dallas | 1 | All Maps","protocol":17,"map":"cp_process_final","folder":"tf","game":"Team Fortress","app_id":440,"player_count":0,"max_players":24,"Bots":0,"server_type":"Dedicated","server_os":"Linux","password":true,"vac":true,"version":"7742253","steam_id":85568392924469986,"keywords":["cp","nocrits","nodmgspread","uncletopia"],"game_id":440,"stv_port":27016,"stv_name":"Uncletopia | Dallas | 1 | All Maps | STV","players":null},{"server_id":108,"name":"Uncletopia | Dallas | 2 | All Maps","name_short":"dal-2","host":"dal-1.us.uncletopia.com","port":27025,"enabled":true,"region":"us-central","cc":"us","latitude":32.779167,"longitude":-96.80889,"reserved":0,"last_update":"0001-01-01T00:00:00Z","name_a2s":"Uncletopia | Dallas | 2 | All Maps","protocol":17,"map":"cp_mossrock","folder":"tf","game":"Team Fortress","app_id":440,"player_count":24,"max_players":24,"Bots":0,"server_type":"Dedicated","server_os":"Linux","password":true,"vac":true,"version":"7742253","steam_id":85568392924469988,"keywords":["cp","nocrits","nodmgspread","uncletopia"],"game_id":440,"stv_port":27026,"stv_name":"Uncletopia | Dallas | 2 | All Maps | STV","players":[{"user_id":73,"name":"KageNeeks","steam_id":76561198120450945,"connected_time":661000000000,"state":"active","ping":62},{"user_id":31,"name":"Jazztral","steam_id":76561198067827514,"connected_time":3607000000000,"state":"active","ping":40},{"user_id":34,"name":"ccat","steam_id":76561198281773224,"connected_time":2862000000000,"state":"active","ping":87},{"user_id":33,"name":"BrightOrangeMango","steam_id":76561198023144607,"connected_time":3125000000000,"state":"active","ping":69},{"user_id":35,"name":"AmirKhaan","steam_id":76561198992403254,"connected_time":2829000000000,"state":"active","ping":87},{"user_id":69,"name":"Salazar9","steam_id":76561198049903973,"connected_time":1163000000000,"state":"active","ping":96},{"user_id":43,"name":"Maywolf","steam_id":76561199047166336,"connected_time":2071000000000,"state":"active","ping":92},{"user_id":44,"name":"Tewolf31","steam_id":76561198843018689,"connected_time":2045000000000,"state":"active","ping":59},{"user_id":74,"name":"Drilly22","steam_id":76561198068838338,"connected_time":642000000000,"state":"active","ping":65},{"user_id":42,"name":"crippling fumo addiction","steam_id":76561198115874625,"connected_time":2318000000000,"state":"active","ping":86},{"user_id":75,"name":"Sad Sapling","steam_id":76561198075612150,"connected_time":585000000000,"state":"active","ping":76},{"user_id":46,"name":"C0SMIC PLAGU3","steam_id":76561198051958643,"connected_time":1995000000000,"state":"active","ping":91},{"user_id":53,"name":"catboy festive edition","steam_id":76561198067881981,"connected_time":1824000000000,"state":"active","ping":76},{"user_id":71,"name":"the hi-c drink at mcdonald's","steam_id":76561198451383287,"connected_time":1033000000000,"state":"active","ping":63},{"user_id":61,"name":"ÔºîÔºê Ôº¶Ôº∞Ôº≥","steam_id":76561198272394965,"connected_time":1476000000000,"state":"active","ping":151},{"user_id":66,"name":"BlazeHX","steam_id":76561198827408017,"connected_time":1287000000000,"state":"active","ping":92},{"user_id":51,"name":"Project Dusk","steam_id":76561198193521149,"connected_time":1838000000000,"state":"active","ping":64},{"user_id":64,"name":"Tumbleweed","steam_id":76561198880710930,"connected_time":1334000000000,"state":"active","ping":81},{"user_id":76,"name":"Clanker","steam_id":76561198164315915,"connected_time":576000000000,"state":"active","ping":85},{"user_id":77,"name":"Walmart Employee","steam_id":76561198840373909,"connected_time":542000000000,"state":"active","ping":91},{"user_id":56,"name":"McDumDum","steam_id":76561198040738807,"connected_time":1807000000000,"state":"active","ping":52},{"user_id":58,"name":"chirp","steam_id":76561198109916563,"connected_time":1787000000000,"state":"active","ping":79},{"user_id":72,"name":"epic.science.kid.2019","steam_id":76561198075510786,"connected_time":964000000000,"state":"active","ping":63},{"user_id":60,"name":"nnoby","steam_id":76561198878729277,"connected_time":1765000000000,"state":"active","ping":77}]},{"server_id":5,"name":"Uncletopia | Frankfurt | 1 | All Maps","name_short":"frk-1","host":"frk-1.de.uncletopia.com","port":27015,"enabled":true,"region":"eu","cc":"de","latitude":50.110924,"longitude":8.682127,"reserved":0,"last_update":"0001-01-01T00:00:00Z","name_a2s":"Uncletopia | Frankfurt | 1 | All Maps","protocol":17,"map":"pl_frontier_final","folder":"tf","game":"Team Fortress","app_id":440,"player_count":24,"max_players":24,"Bots":0,"server_type":"Dedicated","server_os":"Linux","password":true,"vac":true,"version":"7742253","steam_id":85568392924469989,"keywords":["nocrits","nodmgspread","payload","uncletopia"],"game_id":440,"stv_port":27016,"stv_name":"Uncletopia | Frankfurt | 1 | All Maps | STV","players":[{"user_id":605,"name":"Deva Path","steam_id":76561198085763542,"connected_time":2208000000000,"state":"active","ping":70},{"user_id":625,"name":"ScottMachine","steam_id":76561198813531432,"connected_time":271000000000,"state":"active","ping":63},{"user_id":626,"name":"toe eater","steam_id":76561199272782484,"connected_time":233000000000,"state":"active","ping":59},{"user_id":624,"name":"Farmer Maggots Crop","steam_id":76561198838856746,"connected_time":290000000000,"state":"active","ping":66},{"user_id":574,"name":"ÍßÅ‡ºíXenon‡ºíÍßÇ","steam_id":76561198120502313,"connected_time":3585000000000,"state":"active","ping":70},{"user_id":612,"name":"kawi","steam_id":76561198237588932,"connected_time":1837000000000,"state":"active","ping":59},{"user_id":616,"name":"Cippo95","steam_id":76561198255311582,"connected_time":785000000000,"state":"active","ping":73},{"user_id":608,"name":"Cookeh","steam_id":76561197993741492,"connected_time":2065000000000,"state":"active","ping":64},{"user_id":544,"name":"Serton‚ôù","steam_id":76561198011061126,"connected_time":6285000000000,"state":"active","ping":87},{"user_id":596,"name":"Taskyy","steam_id":76561198134901175,"connected_time":3130000000000,"state":"active","ping":77},{"user_id":603,"name":"üÉî Nugg1t(sme/lly)","steam_id":76561198065652251,"connected_time":2490000000000,"state":"active","ping":44},{"user_id":627,"name":"Tomfool","steam_id":76561197993256481,"connected_time":220000000000,"state":"active","ping":74},{"user_id":614,"name":"Exelow","steam_id":76561198366738762,"connected_time":1390000000000,"state":"active","ping":62},{"user_id":622,"name":"LetMeTie","steam_id":76561198194923081,"connected_time":474000000000,"state":"active","ping":82},{"user_id":628,"name":"Merry Yuletide","steam_id":76561198032359132,"connected_time":210000000000,"state":"active","ping":60},{"user_id":566,"name":"Rudebwoyyy","steam_id":76561199387956486,"connected_time":4883000000000,"state":"active","ping":59},{"user_id":593,"name":"Koolaid","steam_id":76561199200296010,"connected_time":3205000000000,"state":"active","ping":184},{"user_id":472,"name":"LarsInABox","steam_id":76561198028329262,"connected_time":11142000000000,"state":"active","ping":73},{"user_id":623,"name":"Polaris","steam_id":76561198007076931,"connected_time":427000000000,"state":"active","ping":65},{"user_id":532,"name":"Bones","steam_id":76561198065081225,"connected_time":7523000000000,"state":"active","ping":55},{"user_id":611,"name":"gosi","steam_id":76561198084111532,"connected_time":2024000000000,"state":"active","ping":60},{"user_id":582,"name":"Hexaco","steam_id":76561198352683491,"connected_time":3501000000000,"state":"active","ping":54},{"user_id":629,"name":"Pi0neer","steam_id":76561198873156806,"connected_time":173000000000,"state":"active","ping":67},{"user_id":630,"name":"DaNick","steam_id":76561198074227634,"connected_time":169000000000,"state":"active","ping":85}]},{"server_id":110,"name":"Uncletopia | Frankfurt | 2 | All Maps","name_short":"frk-2","host":"frk-1.de.uncletopia.com","port":27025,"enabled":true,"region":"eu","cc":"de","latitude":50.110924,"longitude":8.682127,"reserved":0,"last_update":"0001-01-01T00:00:00Z","name_a2s":"Uncletopia | Frankfurt | 2 | All Maps","protocol":17,"map":"pl_pier","folder":"tf","game":"Team Fortress","app_id":440,"player_count":24,"max_players":24,"Bots":0,"server_type":"Dedicated","server_os":"Linux","password":true,"vac":true,"version":"7742253","steam_id":85568392924469990,"keywords":["nocrits","nodmgspread","payload","uncletopia"],"game_id":440,"stv_port":27026,"stv_name":"Uncletopia | Frankfurt | 2 | All Maps | STV","players":[{"user_id":338,"name":"‚ù§Horny Furry femboy‚ù§","steam_id":76561198962104380,"connected_time":2131000000000,"state":"active","ping":45},{"user_id":309,"name":"lobzade","steam_id":76561198195685370,"connected_time":3644000000000,"state":"active","ping":59},{"user_id":366,"name":"Jonathan","steam_id":76561198087988880,"connected_time":782000000000,"state":"active","ping":54},{"user_id":322,"name":"MSPaintbrush","steam_id":76561198119987705,"connected_time":3316000000000,"state":"active","ping":67},{"user_id":360,"name":"X-tis","steam_id":76561198043837480,"connected_time":1055000000000,"state":"active","ping":75},{"user_id":313,"name":"Cerberus","steam_id":76561198140442059,"connected_time":3538000000000,"state":"active","ping":52},{"user_id":367,"name":"Comunisation","steam_id":76561199131568273,"connected_time":772000000000,"state":"active","ping":70},{"user_id":371,"name":"glyph","steam_id":76561197980736364,"connected_time":311000000000,"state":"active","ping":75},{"user_id":372,"name":"binba","steam_id":76561198108809727,"connected_time":274000000000,"state":"active","ping":56},{"user_id":373,"name":"Martial Autist","steam_id":76561198392067162,"connected_time":273000000000,"state":"active","ping":68},{"user_id":351,"name":"Daddy Donovan","steam_id":76561198140938904,"connected_time":1519000000000,"state":"active","ping":74},{"user_id":368,"name":"Fat Pigeon","steam_id":76561198817940142,"connected_time":657000000000,"state":"active","ping":51},{"user_id":375,"name":"MISTER SUIIII","steam_id":76561198018330092,"connected_time":157000000000,"state":"active","ping":73},{"user_id":345,"name":"SODA!!!!!!!","steam_id":76561198107362485,"connected_time":1944000000000,"state":"active","ping":64},{"user_id":370,"name":"–ò–Ω—Å–ø–µ–∫—Ç–æ—Ä –ê—Ç–∞—Å","steam_id":76561199175688390,"connected_time":403000000000,"state":"active","ping":75},{"user_id":333,"name":"citronous","steam_id":76561198093290934,"connected_time":2210000000000,"state":"active","ping":56},{"user_id":328,"name":"F","steam_id":76561199149462792,"connected_time":3038000000000,"state":"active","ping":56},{"user_id":365,"name":"Schogard","steam_id":76561198847318421,"connected_time":954000000000,"state":"active","ping":126},{"user_id":354,"name":"wristcz","steam_id":76561198381486839,"connected_time":1374000000000,"state":"active","ping":50},{"user_id":311,"name":"Tedkon","steam_id":76561198034141061,"connected_time":3573000000000,"state":"active","ping":142},{"user_id":369,"name":"Chromatic","steam_id":76561198355976286,"connected_time":557000000000,"state":"active","ping":67},{"user_id":357,"name":"NukePigg","steam_id":76561198131324143,"connected_time":1238000000000,"state":"active","ping":59},{"user_id":348,"name":"GGabesz","steam_id":76561198117199068,"connected_time":1635000000000,"state":"active","ping":66},{"user_id":306,"name":"L√∂ys√§ Masa","steam_id":76561198343396172,"connected_time":3715000000000,"state":"active","ping":122}]},{"server_id":308,"name":"Uncletopia | Frankfurt | 3 | All Maps","name_short":"frk-3","host":"frk-1.de.uncletopia.com","port":27035,"enabled":true,"region":"eu","cc":"de","latitude":50.110924,"longitude":8.682127,"reserved":0,"last_update":"0001-01-01T00:00:00Z","name_a2s":"Uncletopia | Frankfurt | 3 | All Maps","protocol":17,"map":"pl_pier","folder":"tf","game":"Team Fortress","app_id":440,"player_count":24,"max_players":24,"Bots":0,"server_type":"Dedicated","server_os":"Linux","password":true,"vac":true,"version":"7742253","steam_id":85568392924504274,"keywords":["nocrits","nodmgspread","payload","uncletopia"],"game_id":440,"stv_port":27036,"stv_name":"Uncletopia | Frankfurt | 3 | All Maps | STV","players":[{"user_id":108,"name":"TidB","steam_id":76561198055342304,"connected_time":2392000000000,"state":"active","ping":49},{"user_id":128,"name":"wheelie bin","steam_id":76561198040040328,"connected_time":1009000000000,"state":"active","ping":58},{"user_id":30,"name":"Landsknecht","steam_id":76561199293036742,"connected_time":6809000000000,"state":"active","ping":49},{"user_id":137,"name":"penguin","steam_id":76561199111425117,"connected_time":277000000000,"state":"active","ping":45},{"user_id":89,"name":"Espa√±aa","steam_id":76561198879587832,"connected_time":3399000000000,"state":"active","ping":98},{"user_id":133,"name":"YEEET","steam_id":76561198914938199,"connected_time":713000000000,"state":"active","ping":90},{"user_id":130,"name":"fredu","steam_id":76561198107605938,"connected_time":803000000000,"state":"active","ping":89},{"user_id":138,"name":"Dakeyras","steam_id":76561198057069564,"connected_time":218000000000,"state":"active","ping":102},{"user_id":107,"name":"wxyz kapƒ±cƒ± izzet","steam_id":76561198241873438,"connected_time":2563000000000,"state":"active","ping":79},{"user_id":67,"name":"player","steam_id":76561198054474684,"connected_time":5202000000000,"state":"active","ping":73},{"user_id":121,"name":"G6 sherlock","steam_id":76561198802967796,"connected_time":1390000000000,"state":"active","ping":115},{"user_id":98,"name":"donk","steam_id":76561198162676648,"connected_time":2939000000000,"state":"active","ping":75},{"user_id":135,"name":"Fan","steam_id":76561198210792815,"connected_time":675000000000,"state":"active","ping":70},{"user_id":101,"name":"ProMate","steam_id":76561198277138236,"connected_time":2852000000000,"state":"active","ping":68},{"user_id":124,"name":"Hector","steam_id":76561198028618586,"connected_time":1351000000000,"state":"active","ping":64},{"user_id":123,"name":"E_WM","steam_id":76561198283432737,"connected_time":1365000000000,"state":"active","ping":93},{"user_id":102,"name":"yourtruemedic","steam_id":76561198826881879,"connected_time":2836000000000,"state":"active","ping":69},{"user_id":90,"name":"Charles Darwin","steam_id":76561197973496139,"connected_time":3380000000000,"state":"active","ping":60},{"user_id":117,"name":"Porkkis","steam_id":76561198102523042,"connected_time":1690000000000,"state":"active","ping":89},{"user_id":88,"name":"the ebic gamner","steam_id":76561199220801849,"connected_time":3748000000000,"state":"active","ping":68},{"user_id":119,"name":"Johan","steam_id":76561198145639903,"connected_time":1404000000000,"state":"active","ping":97},{"user_id":129,"name":"MaÕ°ximÕúus","steam_id":76561197970986094,"connected_time":869000000000,"state":"active","ping":52},{"user_id":59,"name":"Sylbar","steam_id":76561198065379590,"connected_time":6053000000000,"state":"active","ping":60},{"user_id":136,"name":"No, Why?","steam_id":76561198888755969,"connected_time":585000000000,"state":"active","ping":76}]},{"server_id":309,"name":"Uncletopia | Frankfurt | 4 | All Maps","name_short":"frk-4","host":"frk-1.de.uncletopia.com","port":27045,"enabled":true,"region":"eu","cc":"de","latitude":50.110924,"longitude":8.682127,"reserved":0,"last_update":"0001-01-01T00:00:00Z","name_a2s":"Uncletopia | Frankfurt | 4 | All Maps","protocol":17,"map":"pl_borneo","folder":"tf","game":"Team Fortress","app_id":440,"player_count":12,"max_players":24,"Bots":0,"server_type":"Dedicated","server_os":"Linux","password":true,"vac":true,"version":"7742253","steam_id":85568392924504275,"keywords":["nocrits","nodmgspread","payload","uncletopia"],"game_id":440,"stv_port":27046,"stv_name":"Uncletopia | Frankfurt | 4 | All Maps | STV","players":[{"user_id":36,"name":"zero","steam_id":76561198055365234,"connected_time":1484000000000,"state":"active","ping":65},{"user_id":47,"name":"Mr.Weis","steam_id":76561198115443579,"connected_time":214000000000,"state":"active","ping":60},{"user_id":50,"name":"Tataffe","steam_id":76561198042048259,"connected_time":88000000000,"state":"active","ping":54},{"user_id":51,"name":"Grinch Gun","steam_id":76561198097789669,"connected_time":63000000000,"state":"active","ping":54},{"user_id":41,"name":"Hexahead","steam_id":76561199043740497,"connected_time":445000000000,"state":"active","ping":63},{"user_id":42,"name":"‚ò£Strale‚ò£","steam_id":76561198026578820,"connected_time":427000000000,"state":"active","ping":70},{"user_id":45,"name":"m√Øk√´y","steam_id":76561198281694064,"connected_time":334000000000,"state":"active","ping":79},{"user_id":46,"name":"idfk","steam_id":76561199013486916,"connected_time":261000000000,"state":"active","ping":99},{"user_id":49,"name":"Slime","steam_id":76561199195407428,"connected_time":167000000000,"state":"active","ping":54},{"user_id":52,"name":"joriskubulkis","steam_id":76561199390392628,"connected_time":45000000000,"state":"active","ping":266},{"user_id":53,"name":"boglin","steam_id":76561198101977091,"connected_time":32000000000,"state":"spawning","ping":109},{"user_id":54,"name":"Loop_Cat","steam_id":76561199045902145,"connected_time":16000000000,"state":"spawning","ping":119}]},{"server_id":310,"name":"Uncletopia | Frankfurt | 5 | All Maps","name_short":"frk-5","host":"frk-1.de.uncletopia.com","port":27055,"enabled":true,"region":"eu","cc":"de","latitude":50.110924,"longitude":8.682127,"reserved":0,"last_update":"0001-01-01T00:00:00Z","name_a2s":"Uncletopia | Frankfurt | 5 | All Maps","protocol":17,"map":"koth_lakeside_final","folder":"tf","game":"Team Fortress","app_id":440,"player_count":24,"max_players":24,"Bots":0,"server_type":"Dedicated","server_os":"Linux","password":true,"vac":true,"version":"7742253","steam_id":85568392924504277,"keywords":["cp","nocrits","nodmgspread","uncletopia"],"game_id":440,"stv_port":27056,"stv_name":"Uncletopia | Frankfurt | 5 | All Maps | STV","players":[{"user_id":414,"name":"ArikMor","steam_id":76561199124472513,"connected_time":2465000000000,"state":"active","ping":105},{"user_id":396,"name":"Lazulura","steam_id":76561198103569919,"connected_time":4234000000000,"state":"active","ping":90},{"user_id":440,"name":"R3inis","steam_id":76561199030393569,"connected_time":1824000000000,"state":"active","ping":72},{"user_id":451,"name":".4b","steam_id":76561198249832770,"connected_time":931000000000,"state":"active","ping":65},{"user_id":454,"name":"W√ºstenfuchs","steam_id":76561198453885708,"connected_time":915000000000,"state":"active","ping":61},{"user_id":423,"name":"esheen","steam_id":76561198139376665,"connected_time":2241000000000,"state":"active","ping":62},{"user_id":445,"name":"–£–ø–æ—Ä–æ—Ç—ã–π –ë—é—Ä–µ—Ä","steam_id":76561198858901674,"connected_time":1048000000000,"state":"active","ping":99},{"user_id":444,"name":"Kruthal","steam_id":76561198245726582,"connected_time":1078000000000,"state":"active","ping":74},{"user_id":462,"name":"hellrunner","steam_id":76561198205309695,"connected_time":733000000000,"state":"active","ping":76},{"user_id":452,"name":"trite","steam_id":76561197983765323,"connected_time":926000000000,"state":"active","ping":60},{"user_id":467,"name":"blueway1993","steam_id":76561198081384957,"connected_time":173000000000,"state":"active","ping":58},{"user_id":450,"name":"smetanka7550","steam_id":76561199023619374,"connected_time":940000000000,"state":"active","ping":92},{"user_id":436,"name":"Cobb Salads","steam_id":76561197971140507,"connected_time":2004000000000,"state":"active","ping":61},{"user_id":420,"name":"Vero_Wk","steam_id":76561199048182950,"connected_time":2274000000000,"state":"active","ping":75},{"user_id":448,"name":"The CEO of LGBTQIA+","steam_id":76561199083743586,"connected_time":1022000000000,"state":"active","ping":84},{"user_id":453,"name":"SoulEater","steam_id":76561198343354416,"connected_time":924000000000,"state":"active","ping":109},{"user_id":456,"name":"leonardini.w #SaveTF2","steam_id":76561199097963071,"connected_time":912000000000,"state":"active","ping":85},{"user_id":411,"name":"Efeca","steam_id":76561198018923829,"connected_time":2625000000000,"state":"active","ping":65},{"user_id":457,"name":"Cheekus Breekus","steam_id":76561198188310329,"connected_time":905000000000,"state":"active","ping":88},{"user_id":468,"name":"ZRD83[FR]","steam_id":76561198411341922,"connected_time":33000000000,"state":"active","ping":62},{"user_id":459,"name":"Vectillion","steam_id":76561198074292454,"connected_time":865000000000,"state":"active","ping":67},{"user_id":465,"name":"Tutel","steam_id":76561199375909993,"connected_time":413000000000,"state":"active","ping":74},{"user_id":438,"name":"recovering bleachaholic","steam_id":76561198044935308,"connected_time":1976000000000,"state":"active","ping":165},{"user_id":449,"name":"YAAAAAAAAMEIIII‚Çç’û‚óå‚Ä≤·µï\ufffd\ufffd","steam_id":76561198306051590,"connected_time":1007000000000,"state":"active","ping":68}]},{"server_id":311,"name":"Uncletopia | Frankfurt | 6 | All Maps","name_short":"frk-6","host":"frk-1.de.uncletopia.com","port":27065,"enabled":true,"region":"eu","cc":"de","latitude":50.110924,"longitude":8.682127,"reserved":0,"last_update":"0001-01-01T00:00:00Z","name_a2s":"Uncletopia | Frankfurt | 6 | All Maps","protocol":17,"map":"pl_badwater","folder":"tf","game":"Team Fortress","app_id":440,"player_count":24,"max_players":24,"Bots":0,"server_type":"Dedicated","server_os":"Linux","password":true,"vac":true,"version":"7742253","steam_id":85568392924504278,"keywords":["nocrits","nodmgspread","payload","uncletopia"],"game_id":440,"stv_port":27066,"stv_name":"Uncletopia | Frankfurt | 6 | All Maps | STV","players":[{"user_id":187,"name":"apicpatric","steam_id":76561198079191141,"connected_time":1607000000000,"state":"active","ping":51},{"user_id":167,"name":"Wendell Enjoyer","steam_id":76561199119121016,"connected_time":2734000000000,"state":"active","ping":88},{"user_id":171,"name":"Brumbaer","steam_id":76561198032522861,"connected_time":2558000000000,"state":"active","ping":65},{"user_id":207,"name":"men snus","steam_id":76561198311864757,"connected_time":202000000000,"state":"active","ping":73},{"user_id":204,"name":"luma","steam_id":76561198081649669,"connected_time":1000000000000,"state":"active","ping":60},{"user_id":172,"name":"PaperBagGuy ‚å´","steam_id":76561198419513196,"connected_time":2555000000000,"state":"active","ping":73},{"user_id":165,"name":"galaxy","steam_id":76561198164819022,"connected_time":2822000000000,"state":"active","ping":66},{"user_id":178,"name":"holykyckling","steam_id":76561198040661615,"connected_time":2455000000000,"state":"active","ping":75},{"user_id":200,"name":"dunduu","steam_id":76561198875240717,"connected_time":1182000000000,"state":"active","ping":69},{"user_id":191,"name":"Wdfrodo","steam_id":76561198985647263,"connected_time":1542000000000,"state":"active","ping":69},{"user_id":177,"name":"YV","steam_id":76561198147868242,"connected_time":2463000000000,"state":"active","ping":54},{"user_id":201,"name":"Slovth","steam_id":76561198029485024,"connected_time":1176000000000,"state":"active","ping":86},{"user_id":159,"name":"AHKrzych","steam_id":76561198012688555,"connected_time":2917000000000,"state":"active","ping":80},{"user_id":176,"name":"saml","steam_id":76561198040716257,"connected_time":2466000000000,"state":"active","ping":75},{"user_id":151,"name":"Christmas Litmas","steam_id":76561198053088822,"connected_time":3221000000000,"state":"active","ping":45},{"user_id":202,"name":"Steen","steam_id":76561198122992510,"connected_time":1156000000000,"state":"active","ping":45},{"user_id":181,"name":"Equinox","steam_id":76561199055592635,"connected_time":2376000000000,"state":"active","ping":67},{"user_id":197,"name":"Gaattori","steam_id":76561198065624683,"connected_time":1190000000000,"state":"active","ping":84},{"user_id":194,"name":"JustSmexious","steam_id":76561198048877330,"connected_time":1448000000000,"state":"active","ping":60},{"user_id":152,"name":"Ducks","steam_id":76561198145643655,"connected_time":3207000000000,"state":"active","ping":79},{"user_id":205,"name":"Miloleopard (bad at TF2)","steam_id":76561199196616680,"connected_time":973000000000,"state":"active","ping":70},{"user_id":183,"name":"After8","steam_id":76561198090750865,"connected_time":2366000000000,"state":"active","ping":74},{"user_id":206,"name":"the tony soprano of tf2","steam_id":76561198108481078,"connected_time":929000000000,"state":"active","ping":113},{"user_id":125,"name":".quickfast.","steam_id":76561199438900919,"connected_time":4282000000000,"state":"active","ping":67}]},{"server_id":23,"name":"Uncletopia | Frankfurt | 7 | Stopwatch Beta","name_short":"frk-7","host":"frk-1.de.uncletopia.com","port":27075,"enabled":true,"region":"eu","cc":"de","latitude":50.110924,"longitude":8.682127,"reserved":0,"last_update":"0001-01-01T00:00:00Z","name_a2s":"Uncletopia | Frankfurt | 7 | Stopwatch Beta","protocol":17,"map":"pl_badwater","folder":"tf","game":"Team Fortress","app_id":440,"player_count":0,"max_players":24,"Bots":0,"server_type":"Dedicated","server_os":"Linux","password":true,"vac":true,"version":"7742253","steam_id":85568392924742827,"keywords":["nocrits","nodmgspread","payload","uncletopia"],"game_id":440,"stv_port":27076,"stv_name":"Uncletopia | Frankfurt | 7 | Stopwatch Beta | STV","players":null},{"server_id":24,"name":"Uncletopia | Frankfurt | 8 | Community","name_short":"frk-8","host":"frk-1.de.uncletopia.com","port":27085,"enabled":true,"region":"eu","cc":"de","latitude":50.110924,"longitude":8.682127,"reserved":0,"last_update":"0001-01-01T00:00:00Z","name_a2s":"Uncletopia | Frankfurt | 8 | Community","protocol":17,"map":"workshop/koth_bagel_rc5.ugc2514036946","folder":"tf","game":"Team Fortress","app_id":440,"player_count":0,"max_players":24,"Bots":0,"server_type":"Dedicated","server_os":"Linux","password":true,"vac":true,"version":"7742253","steam_id":85568392924742828,"keywords":["cp","nocrits","nodmgspread","uncletopia"],"game_id":440,"stv_port":27086,"stv_name":"Uncletopia | Frankfurt | 8 | Community | STV","players":null},{"server_id":202,"name":"Uncletopia | Hong Kong | 1 | All Maps","name_short":"hgk-1","host":"hgk-1.hk.uncletopia.com","port":27015,"enabled":true,"region":"asia","cc":"hk","latitude":22.302711,"longitude":114.177216,"reserved":0,"last_update":"0001-01-01T00:00:00Z","name_a2s":"Uncletopia | Hong Kong | 1 | All Maps","protocol":17,"map":"cp_process_final","folder":"tf","game":"Team Fortress","app_id":440,"player_count":0,"max_players":24,"Bots":0,"server_type":"Dedicated","server_os":"Linux","password":true,"vac":true,"version":"7742253","steam_id":85568392924494504,"keywords":["cp","nocrits","nodmgspread","uncletopia"],"game_id":440,"stv_port":27016,"stv_name":"Uncletopia | Hong Kong | 1 | All Maps | STV","players":null},{"server_id":1,"name":"Uncletopia | Los Angeles | 1 | All Maps","name_short":"lax-1","host":"lax-1.us.uncletopia.com","port":27015,"enabled":true,"region":"us-west","cc":"us","latitude":33.94279,"longitude":-118.41004,"reserved":0,"last_update":"0001-01-01T00:00:00Z","name_a2s":"Uncletopia | Los Angeles | 1 | All Maps","protocol":17,"map":"koth_lakeside_final","folder":"tf","game":"Team Fortress","app_id":440,"player_count":0,"max_players":24,"Bots":0,"server_type":"Dedicated","server_os":"Linux","password":true,"vac":true,"version":"7742253","steam_id":85568392924469991,"keywords":["cp","nocrits","nodmgspread","uncletopia"],"game_id":440,"stv_port":27016,"stv_name":"Uncletopia | Los Angeles | 1 | All Maps | STV","players":null},{"server_id":112,"name":"Uncletopia | Los Angeles | 2 | All Maps","name_short":"lax-2","host":"lax-1.us.uncletopia.com","port":27025,"enabled":true,"region":"us-west","cc":"us","latitude":33.94279,"longitude":-118.41004,"reserved":0,"last_update":"0001-01-01T00:00:00Z","name_a2s":"Uncletopia | Los Angeles | 2 | All Maps","protocol":17,"map":"pl_frontier_final","folder":"tf","game":"Team Fortress","app_id":440,"player_count":0,"max_players":24,"Bots":0,"server_type":"Dedicated","server_os":"Linux","password":true,"vac":true,"version":"7742253","steam_id":85568392924469992,"keywords":["nocrits","nodmgspread","payload","uncletopia"],"game_id":440,"stv_port":27026,"stv_name":"Uncletopia | Los Angeles | 2 | All Maps | STV","players":null},{"server_id":324,"name":"Uncletopia | Los Angeles | 3 | All Maps","name_short":"lax-3","host":"lax-1.us.uncletopia.com","port":27035,"enabled":true,"region":"us-west","cc":"us","latitude":33.94279,"longitude":-118.41004,"reserved":0,"last_update":"0001-01-01T00:00:00Z","name_a2s":"Uncletopia | Los Angeles | 3 | All Maps","protocol":17,"map":"cp_snakewater_final1","folder":"tf","game":"Team Fortress","app_id":440,"player_count":0,"max_players":24,"Bots":0,"server_type":"Dedicated","server_os":"Linux","password":true,"vac":true,"version":"7742253","steam_id":85568392924510198,"keywords":["cp","nocrits","nodmgspread","uncletopia"],"game_id":440,"stv_port":27036,"stv_name":"Uncletopia | Los Angeles | 3 | All Maps | STV","players":null},{"server_id":25,"name":"Uncletopia | Los Angeles | 4 | Stopwatch Beta","name_short":"lax-4","host":"lax-1.us.uncletopia.com","port":27045,"enabled":true,"region":"us-west","cc":"us","latitude":33.94279,"longitude":-118.41004,"reserved":0,"last_update":"0001-01-01T00:00:00Z","name_a2s":"Uncletopia | Los Angeles | 4 | Stopwatch Beta","protocol":17,"map":"pl_swiftwater_final1","folder":"tf","game":"Team Fortress","app_id":440,"player_count":0,"max_players":24,"Bots":0,"server_type":"Dedicated","server_os":"Linux","password":true,"vac":true,"version":"7742253","steam_id":85568392924510199,"keywords":["nocrits","nodmgspread","payload","uncletopia"],"game_id":440,"stv_port":27046,"stv_name":"Uncletopia | Los Angeles | 4 | Stopwatch Beta | STV","players":null},{"server_id":11,"name":"Uncletopia | London | 1 | All Maps","name_short":"lon-1","host":"lon-1.uk.uncletopia.com","port":27015,"enabled":true,"region":"eu","cc":"gb","latitude":51.509865,"longitude":-0.118092,"reserved":0,"last_update":"0001-01-01T00:00:00Z","name_a2s":"Uncletopia | London | 1 | All Maps","protocol":17,"map":"pl_pier","folder":"tf","game":"Team Fortress","app_id":440,"player_count":24,"max_players":24,"Bots":0,"server_type":"Dedicated","server_os":"Linux","password":true,"vac":true,"version":"7742253","steam_id":85568392924367362,"keywords":["nocrits","nodmgspread","payload","uncletopia"],"game_id":440,"stv_port":27016,"stv_name":"Uncletopia | London | 1 | All Maps | STV","players":[{"user_id":501,"name":"Wuffington","steam_id":76561198033762881,"connected_time":2092000000000,"state":"active","ping":50},{"user_id":525,"name":"Nex","steam_id":76561199223747483,"connected_time":240000000000,"state":"active","ping":52},{"user_id":522,"name":".pandemiC","steam_id":76561198015941460,"connected_time":337000000000,"state":"active","ping":95},{"user_id":490,"name":"Kahvi","steam_id":76561198723244199,"connected_time":2958000000000,"state":"active","ping":75},{"user_id":523,"name":"gaggle","steam_id":76561197988226281,"connected_time":334000000000,"state":"active","ping":53},{"user_id":518,"name":"Matth3wksy","steam_id":76561199028063968,"connected_time":705000000000,"state":"active","ping":41},{"user_id":511,"name":"Dark ^^","steam_id":76561198036241064,"connected_time":1777000000000,"state":"active","ping":74},{"user_id":526,"name":"Lopunny enjoyer","steam_id":76561198967440383,"connected_time":178000000000,"state":"active","ping":52},{"user_id":498,"name":"Biscuitbox","steam_id":76561198448396620,"connected_time":2432000000000,"state":"active","ping":53},{"user_id":507,"name":"Mr. Kira - „Ç≠„É©","steam_id":76561197993809974,"connected_time":1911000000000,"state":"active","ping":84},{"user_id":475,"name":"Bell","steam_id":76561199454586928,"connected_time":4592000000000,"state":"active","ping":130},{"user_id":504,"name":"Aaron","steam_id":76561197990046953,"connected_time":1968000000000,"state":"active","ping":68},{"user_id":524,"name":"toidi","steam_id":76561198029148234,"connected_time":321000000000,"state":"active","ping":62},{"user_id":528,"name":"jumanji","steam_id":76561199061441036,"connected_time":107000000000,"state":"active","ping":58},{"user_id":515,"name":"Rain","steam_id":76561198186993269,"connected_time":1036000000000,"state":"active","ping":65},{"user_id":502,"name":"-rikeOo-","steam_id":76561198303995379,"connected_time":2088000000000,"state":"active","ping":76},{"user_id":527,"name":"DocTwoEight","steam_id":76561198153488940,"connected_time":178000000000,"state":"active","ping":75},{"user_id":519,"name":"LesaP√°n","steam_id":76561198158691758,"connected_time":588000000000,"state":"active","ping":88},{"user_id":509,"name":"random_player691","steam_id":76561199209946306,"connected_time":1886000000000,"state":"active","ping":51},{"user_id":516,"name":"gagalak","steam_id":76561198089979108,"connected_time":1010000000000,"state":"active","ping":105},{"user_id":514,"name":"2006 yƒ±lƒ±nda ocaƒüƒ± a√ßtƒ±m","steam_id":76561198059535856,"connected_time":1063000000000,"state":"active","ping":165},{"user_id":478,"name":"Demonstrate","steam_id":76561198198581079,"connected_time":4290000000000,"state":"active","ping":65},{"user_id":517,"name":"cereal killer","steam_id":76561198121260981,"connected_time":908000000000,"state":"active","ping":45},{"user_id":521,"name":"Son Goku","steam_id":76561199383437138,"connected_time":548000000000,"state":"active","ping":126}]},{"server_id":114,"name":"Uncletopia | London | 2 | All Maps","name_short":"lon-2","host":"lon-1.uk.uncletopia.com","port":27025,"enabled":true,"region":"eu","cc":"gb","latitude":51.509865,"longitude":-0.118092,"reserved":0,"last_update":"0001-01-01T00:00:00Z","name_a2s":"Uncletopia | London | 2 | All Maps","protocol":17,"map":"pl_badwater","folder":"tf","game":"Team Fortress","app_id":440,"player_count":24,"max_players":24,"Bots":0,"server_type":"Dedicated","server_os":"Linux","password":true,"vac":true,"version":"7742253","steam_id":85568392924470941,"keywords":["nocrits","nodmgspread","payload","uncletopia"],"game_id":440,"stv_port":27026,"stv_name":"Uncletopia | London | 2 | All Maps | STV","players":[{"user_id":701,"name":"AneveX","steam_id":76561198111905804,"connected_time":1206000000000,"state":"active","ping":75},{"user_id":710,"name":"tactical783","steam_id":76561199051688560,"connected_time":480000000000,"state":"active","ping":65},{"user_id":696,"name":"loveless","steam_id":76561198142256651,"connected_time":1703000000000,"state":"active","ping":89},{"user_id":676,"name":"OhMyGrosch","steam_id":76561198361193051,"connected_time":2604000000000,"state":"active","ping":41},{"user_id":686,"name":"Dwevy","steam_id":76561198090379437,"connected_time":2267000000000,"state":"active","ping":45},{"user_id":671,"name":"TheBeardedM1G","steam_id":76561198040208946,"connected_time":2834000000000,"state":"active","ping":51},{"user_id":674,"name":"rat performance","steam_id":76561198065854668,"connected_time":2696000000000,"state":"active","ping":43},{"user_id":638,"name":"jingleboob","steam_id":76561198097507847,"connected_time":3918000000000,"state":"active","ping":87},{"user_id":580,"name":"Psychicpie","steam_id":76561198126065206,"connected_time":7273000000000,"state":"active","ping":58},{"user_id":583,"name":"Don Quixote","steam_id":76561197999454313,"connected_time":7155000000000,"state":"active","ping":77},{"user_id":695,"name":"rat","steam_id":76561199100632053,"connected_time":1729000000000,"state":"active","ping":49},{"user_id":706,"name":"average f2p","steam_id":76561199136308055,"connected_time":700000000000,"state":"active","ping":53},{"user_id":707,"name":"juni","steam_id":76561198036504214,"connected_time":625000000000,"state":"active","ping":56},{"user_id":692,"name":"Elliebingo","steam_id":76561198132988035,"connected_time":1865000000000,"state":"active","ping":40},{"user_id":705,"name":"The Funny Cat-Heaby","steam_id":76561198439978112,"connected_time":716000000000,"state":"active","ping":102},{"user_id":690,"name":"Liba","steam_id":76561198118006754,"connected_time":1975000000000,"state":"active","ping":88},{"user_id":624,"name":"Sowi","steam_id":76561198075983618,"connected_time":5494000000000,"state":"active","ping":61},{"user_id":699,"name":"Marc","steam_id":76561198869851742,"connected_time":1375000000000,"state":"active","ping":78},{"user_id":691,"name":"Cheshireycat","steam_id":76561198067204908,"connected_time":1937000000000,"state":"active","ping":57},{"user_id":594,"name":"Kraftlos","steam_id":76561198074350350,"connected_time":7000000000000,"state":"active","ping":122},{"user_id":708,"name":"Himalayas Psycho","steam_id":76561197993508562,"connected_time":530000000000,"state":"active","ping":62},{"user_id":709,"name":"MaRo","steam_id":76561198992286676,"connected_time":525000000000,"state":"active","ping":51},{"user_id":647,"name":"Hydra #2","steam_id":76561198170609049,"connected_time":3784000000000,"state":"active","ping":61}]},{"server_id":320,"name":"Uncletopia | London | 3 | All Maps","name_short":"lon-3","host":"lon-1.uk.uncletopia.com","port":27035,"enabled":true,"region":"eu","cc":"gb","latitude":51.509865,"longitude":-0.118092,"reserved":0,"last_update":"0001-01-01T00:00:00Z","name_a2s":"Uncletopia | London | 3 | All Maps","protocol":17,"map":"pl_pier","folder":"tf","game":"Team Fortress","app_id":440,"player_count":24,"max_players":24,"Bots":0,"server_type":"Dedicated","server_os":"Linux","password":true,"vac":true,"version":"7742253","steam_id":85568392924510192,"keywords":["nocrits","nodmgspread","payload","uncletopia"],"game_id":440,"stv_port":27036,"stv_name":"Uncletopia | London | 3 | All Maps | STV","players":[{"user_id":604,"name":"torstenstenhuvud","steam_id":76561198045803400,"connected_time":414000000000,"state":"active","ping":68},{"user_id":603,"name":"Toscorp","steam_id":76561198353760522,"connected_time":769000000000,"state":"active","ping":52},{"user_id":556,"name":"900lbs of spanish mackerel","steam_id":76561198188642265,"connected_time":3403000000000,"state":"active","ping":200},{"user_id":570,"name":"Psyche","steam_id":76561198091662001,"connected_time":3026000000000,"state":"active","ping":52},{"user_id":605,"name":"t.tv/FamilyGuyFunnyMoments277","steam_id":76561198416047580,"connected_time":400000000000,"state":"active","ping":145},{"user_id":601,"name":"Carrot","steam_id":76561198119340863,"connected_time":1430000000000,"state":"active","ping":33},{"user_id":612,"name":"My Friend Deagol","steam_id":76561198450859507,"connected_time":8000000000,"state":"spawning","ping":59},{"user_id":606,"name":"Arturias","steam_id":76561198188720263,"connected_time":336000000000,"state":"active","ping":53},{"user_id":583,"name":"MisterBanana1902","steam_id":76561198179526013,"connected_time":2526000000000,"state":"active","ping":56},{"user_id":545,"name":"Romultra","steam_id":76561198354105082,"connected_time":3820000000000,"state":"active","ping":56},{"user_id":550,"name":"guiguicopters","steam_id":76561199033875117,"connected_time":3441000000000,"state":"active","ping":53},{"user_id":599,"name":"miro","steam_id":76561198063233185,"connected_time":1443000000000,"state":"active","ping":55},{"user_id":610,"name":"Lalo Salamanca","steam_id":76561199116882319,"connected_time":252000000000,"state":"active","ping":35},{"user_id":600,"name":"fanthom","steam_id":76561198106409123,"connected_time":1433000000000,"state":"active","ping":63},{"user_id":568,"name":"Miiukade","steam_id":76561198089157860,"connected_time":3191000000000,"state":"active","ping":122},{"user_id":589,"name":"scantron","steam_id":76561199103959197,"connected_time":2274000000000,"state":"active","ping":96},{"user_id":436,"name":"Accident","steam_id":76561198115160396,"connected_time":9047000000000,"state":"active","ping":78},{"user_id":576,"name":"Mayor Wank from Wanker Town","steam_id":76561197998253588,"connected_time":2815000000000,"state":"active","ping":61},{"user_id":602,"name":"Zeprus","steam_id":76561198117741542,"connected_time":1430000000000,"state":"active","ping":72},{"user_id":593,"name":"Joey","steam_id":76561198078937054,"connected_time":1784000000000,"state":"active","ping":39},{"user_id":591,"name":"nalapl3","steam_id":76561198197607383,"connected_time":2128000000000,"state":"active","ping":55},{"user_id":567,"name":"Raxor","steam_id":76561198239927434,"connected_time":3223000000000,"state":"active","ping":83},{"user_id":595,"name":"Uncle Lame","steam_id":76561198089003514,"connected_time":1552000000000,"state":"active","ping":59},{"user_id":609,"name":"Sniffz_2","steam_id":76561199433459491,"connected_time":287000000000,"state":"active","ping":68}]},{"server_id":321,"name":"Uncletopia | London | 4 | All Maps","name_short":"lon-4","host":"lon-1.uk.uncletopia.com","port":27045,"enabled":true,"region":"eu","cc":"gb","latitude":51.509865,"longitude":-0.118092,"reserved":0,"last_update":"0001-01-01T00:00:00Z","name_a2s":"Uncletopia | London | 4 | All Maps","protocol":17,"map":"pl_swiftwater_final1","folder":"tf","game":"Team Fortress","app_id":440,"player_count":24,"max_players":24,"Bots":0,"server_type":"Dedicated","server_os":"Linux","password":true,"vac":true,"version":"7742253","steam_id":85568392924510193,"keywords":["nocrits","nodmgspread","payload","uncletopia"],"game_id":440,"stv_port":27046,"stv_name":"Uncletopia | London | 4 | All Maps | STV","players":[{"user_id":267,"name":"tom","steam_id":76561198202442602,"connected_time":1781000000000,"state":"active","ping":83},{"user_id":285,"name":"Ged","steam_id":76561198079288943,"connected_time":684000000000,"state":"active","ping":151},{"user_id":283,"name":"mordecai.nmc","steam_id":76561197997223851,"connected_time":846000000000,"state":"active","ping":45},{"user_id":288,"name":"Sin","steam_id":76561198975489819,"connected_time":672000000000,"state":"active","ping":52},{"user_id":301,"name":"Brick Hardmeat","steam_id":76561198031573426,"connected_time":12000000000,"state":"spawning","ping":74},{"user_id":300,"name":"aGreedGryphon","steam_id":76561198245175308,"connected_time":137000000000,"state":"active","ping":52},{"user_id":298,"name":"Jamie Hyneman","steam_id":76561198364121077,"connected_time":335000000000,"state":"active","ping":80},{"user_id":93,"name":"Foxyz","steam_id":76561198040642992,"connected_time":13897000000000,"state":"active","ping":95},{"user_id":278,"name":"Lessoz","steam_id":76561199211572036,"connected_time":1338000000000,"state":"active","ping":90},{"user_id":293,"name":"kbbq","steam_id":76561198346638308,"connected_time":620000000000,"state":"active","ping":45},{"user_id":186,"name":"Dr Sex","steam_id":76561198029044617,"connected_time":6108000000000,"state":"active","ping":46},{"user_id":272,"name":"GEP Gun","steam_id":76561197981821003,"connected_time":1604000000000,"state":"active","ping":57},{"user_id":228,"name":"Yessirskiii","steam_id":76561198179324075,"connected_time":3946000000000,"state":"active","ping":64},{"user_id":161,"name":"Penis Contortionist","steam_id":76561198073663784,"connected_time":7864000000000,"state":"active","ping":34},{"user_id":255,"name":"Mr Prince","steam_id":76561199006591691,"connected_time":2399000000000,"state":"active","ping":46},{"user_id":281,"name":"Resounding","steam_id":76561198051011034,"connected_time":1011000000000,"state":"active","ping":50},{"user_id":264,"name":"ralph62x","steam_id":76561198865294231,"connected_time":1824000000000,"state":"active","ping":52},{"user_id":214,"name":"British Disapproval","steam_id":76561198001375260,"connected_time":5056000000000,"state":"active","ping":52},{"user_id":270,"name":"Lux","steam_id":76561198060417740,"connected_time":1702000000000,"state":"active","ping":48},{"user_id":242,"name":"john fortress","steam_id":76561198202668788,"connected_time":2865000000000,"state":"active","ping":72},{"user_id":295,"name":"trans werewolf","steam_id":76561198107235989,"connected_time":543000000000,"state":"active","ping":70},{"user_id":294,"name":"wolffy","steam_id":76561198083145076,"connected_time":620000000000,"state":"active","ping":62},{"user_id":282,"name":"JorapAt","steam_id":76561199244749887,"connected_time":865000000000,"state":"active","ping":101},{"user_id":268,"name":"Solymr ibn Wali Barad","steam_id":76561198044008976,"connected_time":1766000000000,"state":"active","ping":56}]},{"server_id":21,"name":"Uncletopia | London | 5 | All Maps","name_short":"lon-5","host":"lon-1.uk.uncletopia.com","port":27055,"enabled":true,"region":"eu","cc":"gb","latitude":51.509865,"longitude":-0.118092,"reserved":0,"last_update":"0001-01-01T00:00:00Z","name_a2s":"Uncletopia | London | 5 | All Maps","protocol":17,"map":"cp_snakewater_final1","folder":"tf","game":"Team Fortress","app_id":440,"player_count":4,"max_players":24,"Bots":0,"server_type":"Dedicated","server_os":"Linux","password":true,"vac":true,"version":"7742253","steam_id":85568392924742829,"keywords":["cp","nocrits","nodmgspread","uncletopia"],"game_id":440,"stv_port":27056,"stv_name":"Uncletopia | London | 5 | All Maps | STV","players":[{"user_id":152,"name":"Spurjoe","steam_id":76561198830112485,"connected_time":1484000000000,"state":"active","ping":77},{"user_id":153,"name":"Yoghurt67","steam_id":76561199439318225,"connected_time":1424000000000,"state":"active","ping":72},{"user_id":155,"name":"Nexosert","steam_id":76561198941142018,"connected_time":279000000000,"state":"active","ping":62},{"user_id":156,"name":"Froomythical","steam_id":76561199193292825,"connected_time":15000000000,"state":"active","ping":92}]},{"server_id":22,"name":"Uncletopia | London | 6 | All Maps","name_short":"lon-6","host":"lon-1.uk.uncletopia.com","port":27065,"enabled":true,"region":"eu","cc":"gb","latitude":51.509865,"longitude":-0.118092,"reserved":0,"last_update":"0001-01-01T00:00:00Z","name_a2s":"Uncletopia | London | 6 | All Maps","protocol":17,"map":"pl_barnblitz","folder":"tf","game":"Team Fortress","app_id":440,"player_count":23,"max_players":24,"Bots":0,"server_type":"Dedicated","server_os":"Linux","password":true,"vac":true,"version":"7742253","steam_id":85568392924742830,"keywords":["nocrits","nodmgspread","payload","uncletopia"],"game_id":440,"stv_port":27066,"stv_name":"Uncletopia | London | 6 | All Maps | STV","players":[{"user_id":546,"name":"Hexagon","steam_id":76561198151205758,"connected_time":4016000000000,"state":"active","ping":60},{"user_id":587,"name":"BSantos57","steam_id":76561198000597094,"connected_time":1612000000000,"state":"active","ping":85},{"user_id":543,"name":"Bromoneto","steam_id":76561198876695014,"connected_time":4107000000000,"state":"active","ping":99},{"user_id":495,"name":"Joseph Stalin LFT","steam_id":76561198033199746,"connected_time":6530000000000,"state":"active","ping":51},{"user_id":558,"name":"Panzerwaffle","steam_id":76561198030382800,"connected_time":2865000000000,"state":"active","ping":50},{"user_id":547,"name":"Nick","steam_id":76561198036109469,"connected_time":3960000000000,"state":"active","ping":84},{"user_id":586,"name":"MtnDew The Useless Pyromain","steam_id":76561199100059743,"connected_time":1713000000000,"state":"active","ping":107},{"user_id":514,"name":"Eggcracker","steam_id":76561199274850641,"connected_time":5136000000000,"state":"active","ping":71},{"user_id":560,"name":"Master Chef","steam_id":76561198066714909,"connected_time":2863000000000,"state":"active","ping":61},{"user_id":585,"name":"GuleHat","steam_id":76561197960429394,"connected_time":1809000000000,"state":"active","ping":60},{"user_id":527,"name":"KillerQueen (he/they/she)","steam_id":76561199019399725,"connected_time":4375000000000,"state":"active","ping":47},{"user_id":550,"name":"Mr. Mundy","steam_id":76561198132008918,"connected_time":3845000000000,"state":"active","ping":90},{"user_id":589,"name":"[BRE] Estienne / HONK","steam_id":76561198359045489,"connected_time":1583000000000,"state":"active","ping":70},{"user_id":593,"name":"walking plane","steam_id":76561198146779559,"connected_time":715000000000,"state":"active","ping":71},{"user_id":594,"name":"JohkupohkuXD","steam_id":76561198391108762,"connected_time":681000000000,"state":"active","ping":90},{"user_id":597,"name":"Salih","steam_id":76561198287934839,"connected_time":598000000000,"state":"active","ping":60},{"user_id":544,"name":"Mono","steam_id":76561198114569493,"connected_time":4104000000000,"state":"active","ping":44},{"user_id":599,"name":"OK COMPUTER","steam_id":76561199072979817,"connected_time":457000000000,"state":"active","ping":61},{"user_id":553,"name":"moser23","steam_id":76561197960543171,"connected_time":3679000000000,"state":"active","ping":51},{"user_id":579,"name":"God¬¥s Cock","steam_id":76561198058947923,"connected_time":2241000000000,"state":"active","ping":67},{"user_id":564,"name":"gamer man","steam_id":76561198436817109,"connected_time":2789000000000,"state":"active","ping":59},{"user_id":570,"name":"tayro","steam_id":76561198202990635,"connected_time":2586000000000,"state":"active","ping":74},{"user_id":574,"name":"Minigrim0","steam_id":76561198087819466,"connected_time":2424000000000,"state":"active","ping":72}]},{"server_id":40,"name":"Uncletopia | London | 7 | No Payload","name_short":"lon-7","host":"lon-1.uk.uncletopia.com","port":27075,"enabled":true,"region":"eu","cc":"gb","latitude":51.509865,"longitude":-0.118092,"reserved":0,"last_update":"0001-01-01T00:00:00Z","name_a2s":"Uncletopia | London | 7 | No Payload","protocol":17,"map":"cp_vanguard","folder":"tf","game":"Team Fortress","app_id":440,"player_count":18,"max_players":24,"Bots":0,"server_type":"Dedicated","server_os":"Linux","password":true,"vac":true,"version":"7742253","steam_id":85568392924964314,"keywords":["cp","nocrits","nodmgspread","uncletopia"],"game_id":440,"stv_port":27076,"stv_name":"Uncletopia | London | 7 | No Payload | STV","players":[{"user_id":5,"name":"Cokoprensettin","steam_id":76561198403053915,"connected_time":3196000000000,"state":"active","ping":84},{"user_id":19,"name":"le big mac","steam_id":76561199026378253,"connected_time":1069000000000,"state":"active","ping":60},{"user_id":35,"name":"CzarnyRycerzMomon","steam_id":76561199028465810,"connected_time":665000000000,"state":"active","ping":70},{"user_id":32,"name":"John Fortress","steam_id":76561197993335867,"connected_time":700000000000,"state":"active","ping":60},{"user_id":44,"name":"SLoW","steam_id":76561198032650972,"connected_time":165000000000,"state":"active","ping":105},{"user_id":11,"name":"Fortezza","steam_id":76561198972539903,"connected_time":1544000000000,"state":"active","ping":60},{"user_id":15,"name":"piss enjoyer","steam_id":76561199211032768,"connected_time":1211000000000,"state":"active","ping":63},{"user_id":39,"name":"WHUSSKEY","steam_id":76561198137827441,"connected_time":435000000000,"state":"active","ping":69},{"user_id":20,"name":"lolaay","steam_id":76561198835480271,"connected_time":1049000000000,"state":"active","ping":105},{"user_id":45,"name":"GalacticFantasy","steam_id":76561198072077658,"connected_time":138000000000,"state":"active","ping":63},{"user_id":38,"name":"LONGPIG PEEK","steam_id":76561198035496391,"connected_time":486000000000,"state":"active","ping":55},{"user_id":33,"name":"Izzermann","steam_id":76561199100131945,"connected_time":699000000000,"state":"active","ping":48},{"user_id":40,"name":"Braderzzz009","steam_id":76561198815895618,"connected_time":378000000000,"state":"active","ping":55},{"user_id":46,"name":"astrom651","steam_id":76561199121128962,"connected_time":51000000000,"state":"active","ping":47},{"user_id":42,"name":"mcgunga bunga","steam_id":76561199136807095,"connected_time":341000000000,"state":"active","ping":103},{"user_id":47,"name":"[fll.fi] Kaarlo","steam_id":76561198015176252,"connected_time":31000000000,"state":"spawning","ping":119},{"user_id":48,"name":"haddowjoshua","steam_id":76561199467011554,"connected_time":28000000000,"state":"spawning","ping":73},{"user_id":49,"name":"Nightmare_Puppet","steam_id":76561199236217783,"connected_time":23000000000,"state":"active","ping":150}]},{"server_id":41,"name":"Uncletopia | London | 8 | Community","name_short":"lon-8","host":"lon-1.uk.uncletopia.com","port":27085,"enabled":true,"region":"eu","cc":"gb","latitude":51.509865,"longitude":-0.118092,"reserved":0,"last_update":"0001-01-01T00:00:00Z","name_a2s":"Uncletopia | London | 8 | Community","protocol":17,"map":"workshop/koth_slaughter_rc1.ugc1712845210","folder":"tf","game":"Team Fortress","app_id":440,"player_count":3,"max_players":24,"Bots":0,"server_type":"Dedicated","server_os":"Linux","password":true,"vac":true,"version":"7742253","steam_id":85568392924964315,"keywords":["cp","nocrits","nodmgspread","uncletopia"],"game_id":440,"stv_port":27086,"stv_name":"Uncletopia | London | 8 | Community | STV","players":[{"user_id":20,"name":"ran is running","steam_id":76561199443185667,"connected_time":3679000000000,"state":"active","ping":125},{"user_id":21,"name":"justin_ (f2p and real)","steam_id":76561198839843428,"connected_time":3656000000000,"state":"active","ping":117},{"user_id":27,"name":"treyfrew69","steam_id":76561199122259336,"connected_time":1744000000000,"state":"active","ping":78}]},{"server_id":300,"name":"Uncletopia | Montr√©al | 1 | All Maps","name_short":"mtl-1","host":"mtl-1.ca.uncletopia.com","port":27015,"enabled":true,"region":"us-east","cc":"ca","latitude":45.50889,"longitude":-73.56167,"reserved":0,"last_update":"0001-01-01T00:00:00Z","name_a2s":"Uncletopia | Montr√©al | 1 | All Maps","protocol":17,"map":"pl_swiftwater_final1","folder":"tf","game":"Team Fortress","app_id":440,"player_count":2,"max_players":24,"Bots":0,"server_type":"Dedicated","server_os":"Linux","password":true,"vac":true,"version":"7742253","steam_id":85568392924500087,"keywords":["nocrits","nodmgspread","payload","uncletopia"],"game_id":440,"stv_port":27016,"stv_name":"Uncletopia | Montr√©al | 1 | All Maps | STV","players":[{"user_id":7,"name":"larryyessir","steam_id":76561199466043117,"connected_time":112000000000,"state":"active","ping":53},{"user_id":8,"name":"bobjeffywhy","steam_id":76561199372582873,"connected_time":27000000000,"state":"active","ping":47}]},{"server_id":301,"name":"Uncletopia | Montr√©al | 2 | All Maps","name_short":"mtl-2","host":"mtl-1.ca.uncletopia.com","port":27025,"enabled":true,"region":"us-east","cc":"ca","latitude":45.50889,"longitude":-73.56167,"reserved":0,"last_update":"0001-01-01T00:00:00Z","name_a2s":"Uncletopia | Montr√©al | 2 | All Maps","protocol":17,"map":"koth_highpass","folder":"tf","game":"Team Fortress","app_id":440,"player_count":0,"max_players":24,"Bots":0,"server_type":"Dedicated","server_os":"Linux","password":true,"vac":true,"version":"7742253","steam_id":85568392924500088,"keywords":["cp","nocrits","nodmgspread","uncletopia"],"game_id":440,"stv_port":27026,"stv_name":"Uncletopia | Montr√©al | 2 | All Maps | STV","players":null},{"server_id":302,"name":"Uncletopia | Montr√©al | 3 | All Maps","name_short":"mtl-3","host":"mtl-1.ca.uncletopia.com","port":27035,"enabled":true,"region":"us-east","cc":"ca","latitude":45.50889,"longitude":-73.56167,"reserved":0,"last_update":"0001-01-01T00:00:00Z","name_a2s":"Uncletopia | Montr√©al | 3 | All Maps","protocol":17,"map":"koth_cascade","folder":"tf","game":"Team Fortress","app_id":440,"player_count":0,"max_players":24,"Bots":0,"server_type":"Dedicated","server_os":"Linux","password":true,"vac":true,"version":"7742253","steam_id":85568392924500089,"keywords":["cp","nocrits","nodmgspread","uncletopia"],"game_id":440,"stv_port":27036,"stv_name":"Uncletopia | Montr√©al | 3 | All Maps | STV","players":null},{"server_id":303,"name":"Uncletopia | Montr√©al | 4 | No Payload","name_short":"mtl-4","host":"mtl-1.ca.uncletopia.com","port":27045,"enabled":true,"region":"us-east","cc":"ca","latitude":45.50889,"longitude":-73.56167,"reserved":0,"last_update":"0001-01-01T00:00:00Z","name_a2s":"Uncletopia | Montr√©al | 4 | No Payload","protocol":17,"map":"cp_snakewater_final1","folder":"tf","game":"Team Fortress","app_id":440,"player_count":0,"max_players":24,"Bots":0,"server_type":"Dedicated","server_os":"Linux","password":true,"vac":true,"version":"7742253","steam_id":85568392924500090,"keywords":["cp","nocrits","nodmgspread","uncletopia"],"game_id":440,"stv_port":27046,"stv_name":"Uncletopia | Montr√©al | 4 | No Payload | STV","players":null},{"server_id":13,"name":"Uncletopia | New York City | 1 | All Maps","name_short":"nyc-1","host":"nyc-1.us.uncletopia.com","port":27015,"enabled":true,"region":"us-east","cc":"us","latitude":40.73061,"longitude":-73.93524,"reserved":0,"last_update":"0001-01-01T00:00:00Z","name_a2s":"Uncletopia | New York City | 1 | All Maps","protocol":17,"map":"koth_lakeside_final","folder":"tf","game":"Team Fortress","app_id":440,"player_count":21,"max_players":24,"Bots":0,"server_type":"Dedicated","server_os":"Linux","password":true,"vac":true,"version":"7742253","steam_id":85568392924469993,"keywords":["cp","nocrits","nodmgspread","uncletopia"],"game_id":440,"stv_port":27016,"stv_name":"Uncletopia | New York City | 1 | All Maps | STV","players":[{"user_id":113,"name":"matchstick","steam_id":76561198190100027,"connected_time":3626000000000,"state":"active","ping":70},{"user_id":163,"name":"Scita","steam_id":76561198066861559,"connected_time":41000000000,"state":"spawning","ping":340},{"user_id":149,"name":"bushy","steam_id":76561198138088830,"connected_time":609000000000,"state":"spawning","ping":84},{"user_id":159,"name":"MCATU3","steam_id":76561198210230867,"connected_time":312000000000,"state":"active","ping":49},{"user_id":69,"name":"Ubadiah","steam_id":76561198329996885,"connected_time":7040000000000,"state":"active","ping":65},{"user_id":108,"name":"Lucon","steam_id":76561198067147724,"connected_time":3741000000000,"state":"spawning","ping":199},{"user_id":121,"name":"PerpetuaForever","steam_id":76561198347444353,"connected_time":3133000000000,"state":"active","ping":51},{"user_id":160,"name":"wack","steam_id":76561198095697330,"connected_time":250000000000,"state":"spawning","ping":97},{"user_id":153,"name":"Heropon","steam_id":76561198105224481,"connected_time":459000000000,"state":"spawning","ping":64},{"user_id":155,"name":"Thessalonians 5:26","steam_id":76561199236719411,"connected_time":394000000000,"state":"active","ping":126},{"user_id":152,"name":"catgirl giantess in heat","steam_id":76561198439042583,"connected_time":473000000000,"state":"spawning","ping":102},{"user_id":154,"name":"Decot","steam_id":76561198042016967,"connected_time":446000000000,"state":"active","ping":51},{"user_id":142,"name":"coffeeghost","steam_id":76561198155142385,"connected_time":1286000000000,"state":"active","ping":127},{"user_id":130,"name":"moodi catgirl","steam_id":76561198124028045,"connected_time":2868000000000,"state":"spawning","ping":306},{"user_id":125,"name":"Samsiel","steam_id":76561198094134951,"connected_time":3106000000000,"state":"spawning","ping":90},{"user_id":146,"name":"Goon Event #3349 (5hrs 22mins)","steam_id":76561198062410522,"connected_time":1134000000000,"state":"active","ping":105},{"user_id":162,"name":"Phlogging Molly","steam_id":76561198042011714,"connected_time":214000000000,"state":"active","ping":153},{"user_id":157,"name":"THANOPOD!!!!!!!!!!","steam_id":76561198201875359,"connected_time":381000000000,"state":"spawning","ping":350},{"user_id":103,"name":"Michael Jordan","steam_id":76561198306393090,"connected_time":4262000000000,"state":"active","ping":93},{"user_id":156,"name":"Snugboo","steam_id":76561198147970327,"connected_time":392000000000,"state":"active","ping":67},{"user_id":145,"name":"Airon","steam_id":76561197970481950,"connected_time":1213000000000,"state":"active","ping":136}]},{"server_id":14,"name":"Uncletopia | New York City | 2 | All Maps","name_short":"nyc-2","host":"nyc-1.us.uncletopia.com","port":27025,"enabled":true,"region":"us-east","cc":"us","latitude":40.73061,"longitude":-73.93524,"reserved":0,"last_update":"0001-01-01T00:00:00Z","name_a2s":"Uncletopia | New York City | 2 | All Maps","protocol":17,"map":"pl_snowycoast","folder":"tf","game":"Team Fortress","app_id":440,"player_count":24,"max_players":24,"Bots":0,"server_type":"Dedicated","server_os":"Linux","password":true,"vac":true,"version":"7742253","steam_id":85568392924469994,"keywords":["nocrits","nodmgspread","payload","uncletopia"],"game_id":440,"stv_port":27026,"stv_name":"Uncletopia | New York City | 2 | All Maps | STV","players":[{"user_id":252,"name":"^_^","steam_id":76561198971354161,"connected_time":413000000000,"state":"active","ping":44},{"user_id":210,"name":"tiernenator","steam_id":76561198349045539,"connected_time":4734000000000,"state":"active","ping":44},{"user_id":253,"name":"thomasdee725","steam_id":76561199189526173,"connected_time":109000000000,"state":"active","ping":60},{"user_id":182,"name":"Polygunner","steam_id":76561199165741650,"connected_time":5996000000000,"state":"active","ping":46},{"user_id":180,"name":"Back-Alley Doctor","steam_id":76561198009794585,"connected_time":6008000000000,"state":"active","ping":54},{"user_id":247,"name":"Hipp-Dip","steam_id":76561199027874633,"connected_time":1207000000000,"state":"active","ping":40},{"user_id":232,"name":"General","steam_id":76561198382198102,"connected_time":2202000000000,"state":"active","ping":57},{"user_id":233,"name":"Jazz2T","steam_id":76561198154418867,"connected_time":2190000000000,"state":"active","ping":108},{"user_id":248,"name":"Crim","steam_id":76561198063507222,"connected_time":1135000000000,"state":"active","ping":61},{"user_id":184,"name":"Clean Lines","steam_id":76561197960691518,"connected_time":5955000000000,"state":"active","ping":58},{"user_id":234,"name":"victordead121","steam_id":76561199180843121,"connected_time":2162000000000,"state":"active","ping":130},{"user_id":250,"name":"KRATOS MESSI","steam_id":76561199074026132,"connected_time":674000000000,"state":"active","ping":44},{"user_id":229,"name":"Dexter","steam_id":76561198050149035,"connected_time":2420000000000,"state":"active","ping":46},{"user_id":230,"name":"evil wizard","steam_id":76561198119732242,"connected_time":2416000000000,"state":"active","ping":93},{"user_id":242,"name":"the ham man from ham land","steam_id":76561198251977820,"connected_time":1672000000000,"state":"active","ping":94},{"user_id":245,"name":"average gibbon call enjoyer","steam_id":76561198103376881,"connected_time":1327000000000,"state":"active","ping":53},{"user_id":216,"name":"reis","steam_id":76561199232952016,"connected_time":4188000000000,"state":"active","ping":182},{"user_id":251,"name":"Round King","steam_id":76561198273185290,"connected_time":512000000000,"state":"active","ping":104},{"user_id":223,"name":"Kace","steam_id":76561198847288697,"connected_time":3218000000000,"state":"active","ping":75},{"user_id":217,"name":"Hojo","steam_id":76561197976544480,"connected_time":3595000000000,"state":"active","ping":70},{"user_id":224,"name":"ToastyBish","steam_id":76561198185327309,"connected_time":3203000000000,"state":"active","ping":33},{"user_id":239,"name":"Ifrit","steam_id":76561198044730782,"connected_time":2095000000000,"state":"active","ping":104},{"user_id":198,"name":"Snake Handler","steam_id":76561198027198306,"connected_time":5180000000000,"state":"active","ping":82},{"user_id":246,"name":"abed","steam_id":76561198072856511,"connected_time":1326000000000,"state":"active","ping":63}]},{"server_id":15,"name":"Uncletopia | New York City | 3 | Stopwatch Beta","name_short":"nyc-3","host":"nyc-1.us.uncletopia.com","port":27035,"enabled":true,"region":"us-east","cc":"us","latitude":40.73061,"longitude":-73.93524,"reserved":0,"last_update":"0001-01-01T00:00:00Z","name_a2s":"Uncletopia | New York City | 3 | Stopwatch Beta","protocol":17,"map":"pl_pier","folder":"tf","game":"Team Fortress","app_id":440,"player_count":0,"max_players":24,"Bots":0,"server_type":"Dedicated","server_os":"Linux","password":true,"vac":true,"version":"7742253","steam_id":85568392924742820,"keywords":["nocrits","nodmgspread","payload","uncletopia"],"game_id":440,"stv_port":27036,"stv_name":"Uncletopia | New York City | 3 | Stopwatch Beta | STV","players":null},{"server_id":16,"name":"Uncletopia | New York City | 4 | Community","name_short":"nyc-4","host":"nyc-1.us.uncletopia.com","port":27045,"enabled":true,"region":"us-east","cc":"us","latitude":40.73061,"longitude":-73.93524,"reserved":0,"last_update":"0001-01-01T00:00:00Z","name_a2s":"Uncletopia | New York City | 4 | Community","protocol":17,"map":"koth_viaduct","folder":"tf","game":"Team Fortress","app_id":440,"player_count":4,"max_players":24,"Bots":0,"server_type":"Dedicated","server_os":"Linux","password":true,"vac":true,"version":"7742253","steam_id":85568392924742821,"keywords":["cp","nocrits","nodmgspread","uncletopia"],"game_id":440,"stv_port":27046,"stv_name":"Uncletopia | New York City | 4 | Community | STV","players":[{"user_id":15,"name":"sam i am","steam_id":76561199059757096,"connected_time":187000000000,"state":"active","ping":49},{"user_id":10,"name":"beethan","steam_id":76561198148199120,"connected_time":479000000000,"state":"active","ping":75},{"user_id":12,"name":"mu","steam_id":76561197997530228,"connected_time":355000000000,"state":"active","ping":120},{"user_id":13,"name":"ssteelheader","steam_id":76561198139656122,"connected_time":340000000000,"state":"active","ping":125}]},{"server_id":142,"name":"Uncletopia | S√£o Paulo | 1 | All Maps","name_short":"sao-1","host":"sao-1.br.uncletopia.com","port":27015,"enabled":true,"region":"sa","cc":"br","latitude":-23.533773,"longitude":-46.62529,"reserved":0,"last_update":"0001-01-01T00:00:00Z","name_a2s":"Uncletopia | S√£o Paulo | 1 | All Maps","protocol":17,"map":"koth_viaduct","folder":"tf","game":"Team Fortress","app_id":440,"player_count":0,"max_players":24,"Bots":0,"server_type":"Dedicated","server_os":"Linux","password":true,"vac":true,"version":"7742253","steam_id":85568392924469996,"keywords":["cp","nocrits","nodmgspread","uncletopia"],"game_id":440,"stv_port":27016,"stv_name":"Uncletopia | S√£o Paulo | 1 | All Maps | STV","players":null},{"server_id":143,"name":"Uncletopia | S√£o Paulo | 2 | All Maps","name_short":"sao-2","host":"sao-2.br.uncletopia.com","port":27015,"enabled":true,"region":"sa","cc":"br","latitude":-23.533773,"longitude":-46.62529,"reserved":0,"last_update":"0001-01-01T00:00:00Z","name_a2s":"Uncletopia | S√£o Paulo | 2 | All Maps","protocol":17,"map":"koth_viaduct","folder":"tf","game":"Team Fortress","app_id":440,"player_count":0,"max_players":24,"Bots":0,"server_type":"Dedicated","server_os":"Linux","password":true,"vac":true,"version":"7742253","steam_id":85568392924485349,"keywords":["cp","nocrits","nodmgspread","uncletopia"],"game_id":440,"stv_port":27016,"stv_name":"Uncletopia | S√£o Paulo | 2 | All Maps | STV","players":null},{"server_id":7,"name":"Uncletopia | Seattle | 1 | All Maps","name_short":"sea-1","host":"sea-1.us.uncletopia.com","port":27015,"enabled":true,"region":"us-west","cc":"us","latitude":47.608013,"longitude":-122.33517,"reserved":0,"last_update":"0001-01-01T00:00:00Z","name_a2s":"Uncletopia | Seattle | 1 | All Maps","protocol":17,"map":"cp_mountainlab","folder":"tf","game":"Team Fortress","app_id":440,"player_count":24,"max_players":24,"Bots":0,"server_type":"Dedicated","server_os":"Linux","password":true,"vac":true,"version":"7742253","steam_id":85568392924469997,"keywords":["cp","nocrits","nodmgspread","uncletopia"],"game_id":440,"stv_port":27016,"stv_name":"Uncletopia | Seattle | 1 | All Maps | STV","players":[{"user_id":279,"name":"xxdickcheneyxx","steam_id":76561199441156544,"connected_time":309000000000,"state":"active","ping":50},{"user_id":267,"name":"AceSea","steam_id":76561198851176490,"connected_time":2131000000000,"state":"active","ping":50},{"user_id":239,"name":"ORANGE","steam_id":76561198000401769,"connected_time":4146000000000,"state":"active","ping":46},{"user_id":285,"name":"young thug weaponry","steam_id":76561198363821364,"connected_time":129000000000,"state":"active","ping":61},{"user_id":177,"name":"G. Howard Dee","steam_id":76561198058382812,"connected_time":8979000000000,"state":"active","ping":87},{"user_id":274,"name":"The Best Healer","steam_id":76561198079452621,"connected_time":1281000000000,"state":"active","ping":53},{"user_id":190,"name":"dodecadron","steam_id":76561198027397222,"connected_time":8634000000000,"state":"active","ping":69},{"user_id":278,"name":"DefectiveWarhead","steam_id":76561198067746049,"connected_time":1051000000000,"state":"active","ping":44},{"user_id":258,"name":"Void","steam_id":76561198308290211,"connected_time":2991000000000,"state":"active","ping":84},{"user_id":201,"name":"[TrC] Dackstrus","steam_id":76561197973518509,"connected_time":7473000000000,"state":"active","ping":55},{"user_id":264,"name":"blest!","steam_id":76561198966232220,"connected_time":2341000000000,"state":"active","ping":49},{"user_id":245,"name":"the deadliest pyroshark","steam_id":76561198374227766,"connected_time":3866000000000,"state":"active","ping":159},{"user_id":286,"name":"Marc G","steam_id":76561198062650363,"connected_time":102000000000,"state":"active","ping":103},{"user_id":277,"name":"HUIEI","steam_id":76561198073763735,"connected_time":1086000000000,"state":"active","ping":69},{"user_id":223,"name":"emerge","steam_id":76561198186882891,"connected_time":6423000000000,"state":"active","ping":96},{"user_id":282,"name":"existential dread","steam_id":76561198041907345,"connected_time":295000000000,"state":"active","ping":158},{"user_id":255,"name":"Seriously Bruh","steam_id":76561198070408485,"connected_time":3106000000000,"state":"active","ping":62},{"user_id":273,"name":"c","steam_id":76561198059437813,"connected_time":1295000000000,"state":"active","ping":59},{"user_id":256,"name":"Court Wizard, Sir Dr. Clydesdal","steam_id":76561198149267697,"connected_time":3070000000000,"state":"active","ping":58},{"user_id":276,"name":"dougrocks421","steam_id":76561198165063918,"connected_time":1128000000000,"state":"active","ping":41},{"user_id":268,"name":"BobBallin","steam_id":76561198355299724,"connected_time":2082000000000,"state":"active","ping":63},{"user_id":284,"name":"bullet man","steam_id":76561198080058079,"connected_time":183000000000,"state":"active","ping":50},{"user_id":244,"name":"Flourish (she/her)","steam_id":76561198087413354,"connected_time":4054000000000,"state":"active","ping":56},{"user_id":237,"name":"cam","steam_id":76561198073426718,"connected_time":4562000000000,"state":"active","ping":89}]},{"server_id":119,"name":"Uncletopia | Seattle | 2 | All Maps","name_short":"sea-2","host":"sea-1.us.uncletopia.com","port":27025,"enabled":true,"region":"us-west","cc":"us","latitude":47.608013,"longitude":-122.33517,"reserved":0,"last_update":"0001-01-01T00:00:00Z","name_a2s":"Uncletopia | Seattle | 2 | All Maps","protocol":17,"map":"pl_barnblitz","folder":"tf","game":"Team Fortress","app_id":440,"player_count":23,"max_players":24,"Bots":0,"server_type":"Dedicated","server_os":"Linux","password":true,"vac":true,"version":"7742253","steam_id":85568392924469998,"keywords":["nocrits","nodmgspread","payload","uncletopia"],"game_id":440,"stv_port":27026,"stv_name":"Uncletopia | Seattle | 2 | All Maps | STV","players":[{"user_id":4,"name":"gamingtime","steam_id":76561198430395004,"connected_time":1672000000000,"state":"active","ping":40},{"user_id":5,"name":"26-Oh Christmas Tree","steam_id":76561198964074985,"connected_time":1565000000000,"state":"active","ping":49},{"user_id":6,"name":"Snekmn","steam_id":76561198259498003,"connected_time":1492000000000,"state":"active","ping":80},{"user_id":13,"name":"big bang attack","steam_id":76561198886203540,"connected_time":1118000000000,"state":"active","ping":67},{"user_id":18,"name":"Squirrly (Festive)","steam_id":76561199247095754,"connected_time":1032000000000,"state":"active","ping":63},{"user_id":11,"name":"Panzerschreck Bath Water","steam_id":76561198178133625,"connected_time":1143000000000,"state":"active","ping":58},{"user_id":38,"name":"xxfhhzv556","steam_id":76561199129159512,"connected_time":384000000000,"state":"active","ping":186},{"user_id":14,"name":"MagikarpEX","steam_id":76561198166172279,"connected_time":1089000000000,"state":"active","ping":112},{"user_id":15,"name":"some nerd","steam_id":76561198297272878,"connected_time":1082000000000,"state":"active","ping":74},{"user_id":16,"name":"Humbetymymeaty","steam_id":76561198435326008,"connected_time":1076000000000,"state":"active","ping":83},{"user_id":17,"name":"Lakue","steam_id":76561198047993241,"connected_time":1052000000000,"state":"active","ping":52},{"user_id":19,"name":"MrTmarshmallow","steam_id":76561199023805805,"connected_time":994000000000,"state":"active","ping":54},{"user_id":44,"name":"QuakAtack","steam_id":76561198870770157,"connected_time":63000000000,"state":"active","ping":70},{"user_id":42,"name":"Robert E.T.","steam_id":76561197986439371,"connected_time":148000000000,"state":"active","ping":45},{"user_id":22,"name":"laggy mcstab","steam_id":76561198106379962,"connected_time":953000000000,"state":"active","ping":81},{"user_id":23,"name":"ToastyNuts","steam_id":76561198064465418,"connected_time":940000000000,"state":"active","ping":81},{"user_id":40,"name":"[BBC] myr","steam_id":76561198200786939,"connected_time":312000000000,"state":"active","ping":35},{"user_id":46,"name":"Ravelight","steam_id":76561198008642005,"connected_time":33000000000,"state":"active","ping":87},{"user_id":47,"name":"Johnny Warcrimes","steam_id":76561198073353907,"connected_time":25000000000,"state":"spawning","ping":59},{"user_id":34,"name":"BEASTxGODx420","steam_id":76561198184814466,"connected_time":781000000000,"state":"active","ping":31},{"user_id":30,"name":"_DrunkenGibberish_","steam_id":76561199123070071,"connected_time":863000000000,"state":"active","ping":114},{"user_id":31,"name":"Harold","steam_id":76561198057317770,"connected_time":847000000000,"state":"active","ping":57},{"user_id":35,"name":"The Grinch Lyncher","steam_id":76561198081617990,"connected_time":762000000000,"state":"active","ping":125}]},{"server_id":406,"name":"Uncletopia | Seattle | 3 | Stopwatch Beta","name_short":"sea-3","host":"sea-1.us.uncletopia.com","port":27035,"enabled":true,"region":"us-west","cc":"us","latitude":47.608013,"longitude":-122.33517,"reserved":0,"last_update":"0001-01-01T00:00:00Z","name_a2s":"Uncletopia | Seattle | 3 | Stopwatch Beta","protocol":17,"map":"cp_process_final","folder":"tf","game":"Team Fortress","app_id":440,"player_count":0,"max_players":24,"Bots":0,"server_type":"Dedicated","server_os":"Linux","password":true,"vac":true,"version":"7742253","steam_id":85568392924515217,"keywords":["cp","nocrits","nodmgspread","uncletopia"],"game_id":440,"stv_port":27036,"stv_name":"Uncletopia | Seattle | 3 | Stopwatch Beta | STV","players":null},{"server_id":17,"name":"Uncletopia | San Francisco | 1 | All Maps","name_short":"sfo-1","host":"sfo-1.us.uncletopia.com","port":27015,"enabled":true,"region":"us-west","cc":"us","latitude":37.77397,"longitude":-122.4313,"reserved":0,"last_update":"0001-01-01T00:00:00Z","name_a2s":"Uncletopia | San Francisco | 1 | All Maps","protocol":17,"map":"pl_snowycoast","folder":"tf","game":"Team Fortress","app_id":440,"player_count":0,"max_players":24,"Bots":0,"server_type":"Dedicated","server_os":"Linux","password":true,"vac":true,"version":"7742253","steam_id":85568392924469999,"keywords":["nocrits","nodmgspread","payload","uncletopia"],"game_id":440,"stv_port":27016,"stv_name":"Uncletopia | San Francisco | 1 | All Maps | STV","players":null},{"server_id":18,"name":"Uncletopia | San Francisco | 2 | All Maps","name_short":"sfo-2","host":"sfo-1.us.uncletopia.com","port":27025,"enabled":true,"region":"us-west","cc":"us","latitude":37.77397,"longitude":-122.4313,"reserved":0,"last_update":"0001-01-01T00:00:00Z","name_a2s":"Uncletopia | San Francisco | 2 | All Maps","protocol":17,"map":"cp_altitude","folder":"tf","game":"Team Fortress","app_id":440,"player_count":0,"max_players":24,"Bots":0,"server_type":"Dedicated","server_os":"Linux","password":true,"vac":true,"version":"7742253","steam_id":85568392924470000,"keywords":["cp","nocrits","nodmgspread","uncletopia"],"game_id":440,"stv_port":27026,"stv_name":"Uncletopia | San Francisco | 2 | All Maps | STV","players":null},{"server_id":19,"name":"Uncletopia | San Francisco | 3 | Stopwatch Beta","name_short":"sfo-3","host":"sfo-1.us.uncletopia.com","port":27035,"enabled":true,"region":"us-west","cc":"us","latitude":37.77397,"longitude":-122.4313,"reserved":0,"last_update":"0001-01-01T00:00:00Z","name_a2s":"Uncletopia | San Francisco | 3 | Stopwatch Beta","protocol":17,"map":"workshop/pl_vigil_rc9.ugc1266210012","folder":"tf","game":"Team Fortress","app_id":440,"player_count":0,"max_players":24,"Bots":0,"server_type":"Dedicated","server_os":"Linux","password":true,"vac":true,"version":"7742253","steam_id":85568392924742824,"keywords":["nocrits","nodmgspread","payload","uncletopia"],"game_id":440,"stv_port":27036,"stv_name":"Uncletopia | San Francisco | 3 | Stopwatch Beta | STV","players":null},{"server_id":20,"name":"Uncletopia | San Francisco | 4 | Community","name_short":"sfo-4","host":"sfo-1.us.uncletopia.com","port":27045,"enabled":true,"region":"us-west","cc":"us","latitude":37.77397,"longitude":-122.4313,"reserved":0,"last_update":"0001-01-01T00:00:00Z","name_a2s":"Uncletopia | San Francisco | 4 | Community","protocol":17,"map":"workshop/koth_ashville_final.ugc2130459942","folder":"tf","game":"Team Fortress","app_id":440,"player_count":0,"max_players":24,"Bots":0,"server_type":"Dedicated","server_os":"Linux","password":true,"vac":true,"version":"7742253","steam_id":85568392924742826,"keywords":["cp","nocrits","nodmgspread","uncletopia"],"game_id":440,"stv_port":27046,"stv_name":"Uncletopia | San Francisco | 4 | Community | STV","players":null},{"server_id":141,"name":"Uncletopia | Sydney | 1 | All Maps","name_short":"syd-1","host":"syd-1.au.uncletopia.com","port":27015,"enabled":true,"region":"au","cc":"au","latitude":-33.865143,"longitude":151.2099,"reserved":0,"last_update":"0001-01-01T00:00:00Z","name_a2s":"Uncletopia | Sydney | 1 | All Maps","protocol":17,"map":"koth_lakeside_final","folder":"tf","game":"Team Fortress","app_id":440,"player_count":0,"max_players":24,"Bots":0,"server_type":"Dedicated","server_os":"Linux","password":true,"vac":true,"version":"7742253","steam_id":85568392924470001,"keywords":["cp","nocrits","nodmgspread","uncletopia"],"game_id":440,"stv_port":27016,"stv_name":"Uncletopia | Sydney | 1 | All Maps | STV","players":null},{"server_id":123,"name":"Uncletopia | Sydney | 2 | All Maps","name_short":"syd-2","host":"syd-1.au.uncletopia.com","port":27025,"enabled":true,"region":"au","cc":"au","latitude":-33.865143,"longitude":151.2099,"reserved":0,"last_update":"0001-01-01T00:00:00Z","name_a2s":"Uncletopia | Sydney | 2 | All Maps","protocol":17,"map":"pl_badwater","folder":"tf","game":"Team Fortress","app_id":440,"player_count":0,"max_players":24,"Bots":0,"server_type":"Dedicated","server_os":"Linux","password":true,"vac":true,"version":"7742253","steam_id":85568392924470002,"keywords":["nocrits","nodmgspread","payload","uncletopia"],"game_id":440,"stv_port":27026,"stv_name":"Uncletopia | Sydney | 2 | All Maps | STV","players":null},{"server_id":395,"name":"Uncletopia | Sydney | 3 | All Maps","name_short":"syd-3","host":"syd-1.au.uncletopia.com","port":27035,"enabled":true,"region":"au","cc":"au","latitude":-33.865143,"longitude":151.2099,"reserved":0,"last_update":"0001-01-01T00:00:00Z","name_a2s":"Uncletopia | Sydney | 3 | All Maps","protocol":17,"map":"koth_viaduct","folder":"tf","game":"Team Fortress","app_id":440,"player_count":0,"max_players":24,"Bots":0,"server_type":"Dedicated","server_os":"Linux","password":true,"vac":true,"version":"7742253","steam_id":85568392925194467,"keywords":["cp","nocrits","nodmgspread","uncletopia"],"game_id":440,"stv_port":27036,"stv_name":"Uncletopia | Sydney | 3 | All Maps | STV","players":null},{"server_id":396,"name":"Uncletopia | Sydney | 4 | All Maps","name_short":"syd-4","host":"syd-1.au.uncletopia.com","port":27045,"enabled":true,"region":"au","cc":"au","latitude":-33.865143,"longitude":151.2099,"reserved":0,"last_update":"0001-01-01T00:00:00Z","name_a2s":"Uncletopia | Sydney | 4 | All Maps","protocol":17,"map":"pl_frontier_final","folder":"tf","game":"Team Fortress","app_id":440,"player_count":0,"max_players":24,"Bots":0,"server_type":"Dedicated","server_os":"Linux","password":true,"vac":true,"version":"7742253","steam_id":85568392925397958,"keywords":["nocrits","nodmgspread","payload","uncletopia"],"game_id":440,"stv_port":27046,"stv_name":"Uncletopia | Sydney | 4 | All Maps | STV","players":null},{"server_id":58,"name":"Uncletopia | Sydney | 5 | Stopwatch Beta","name_short":"syd-5","host":"syd-1.au.uncletopia.com","port":27055,"enabled":true,"region":"au","cc":"au","latitude":-33.865143,"longitude":151.2099,"reserved":0,"last_update":"0001-01-01T00:00:00Z","name_a2s":"Uncletopia | Sydney | 5 | Stopwatch Beta","protocol":17,"map":"cp_sunshine","folder":"tf","game":"Team Fortress","app_id":440,"player_count":0,"max_players":24,"Bots":0,"server_type":"Dedicated","server_os":"Linux","password":true,"vac":true,"version":"7742253","steam_id":85568392925397959,"keywords":["cp","nocrits","nodmgspread","uncletopia"],"game_id":440,"stv_port":27056,"stv_name":"Uncletopia | Sydney | 5 | Stopwatch Beta | STV","players":null},{"server_id":59,"name":"Uncletopia | Sydney | 6 | Community","name_short":"syd-6","host":"syd-1.au.uncletopia.com","port":27065,"enabled":true,"region":"au","cc":"au","latitude":-33.865143,"longitude":151.2099,"reserved":0,"last_update":"0001-01-01T00:00:00Z","name_a2s":"Uncletopia | Sydney | 6 | Community","protocol":17,"map":"cp_dustbowl","folder":"tf","game":"Team Fortress","app_id":440,"player_count":0,"max_players":24,"Bots":0,"server_type":"Dedicated","server_os":"Linux","password":true,"vac":true,"version":"7742253","steam_id":85568392925397960,"keywords":["cp","nocrits","nodmgspread","uncletopia"],"game_id":440,"stv_port":27066,"stv_name":"Uncletopia | Sydney | 6 | Community | STV","players":null},{"server_id":49,"name":"Uncletopia | Warsaw | 1 | All Maps","name_short":"waw-1","host":"waw-1.pl.uncletopia.com","port":27015,"enabled":true,"region":"eu","cc":"pl","latitude":52.2297,"longitude":21.017532,"reserved":0,"last_update":"0001-01-01T00:00:00Z","name_a2s":"","protocol":0,"map":"","folder":"","game":"","app_id":0,"player_count":0,"max_players":0,"Bots":0,"server_type":"","server_os":"","password":false,"vac":false,"version":"","steam_id":0,"keywords":null,"game_id":0,"stv_port":0,"stv_name":"","players":null},{"server_id":50,"name":"Uncletopia | Warsaw | 2 | All Maps","name_short":"waw-2","host":"waw-1.pl.uncletopia.com","port":27025,"enabled":true,"region":"eu","cc":"pl","latitude":52.2297,"longitude":21.017532,"reserved":0,"last_update":"0001-01-01T00:00:00Z","name_a2s":"Uncletopia | Warsaw | 2 | All Maps","protocol":17,"map":"koth_highpass","folder":"tf","game":"Team Fortress","app_id":440,"player_count":0,"max_players":24,"Bots":0,"server_type":"Dedicated","server_os":"Linux","password":true,"vac":true,"version":"7742253","steam_id":85568392925397851,"keywords":["cp","nocrits","nodmgspread","uncletopia"],"game_id":440,"stv_port":27026,"stv_name":"Uncletopia | Warsaw | 2 | All Maps | STV","players":null},{"server_id":51,"name":"Uncletopia | Warsaw | 3 | All Maps","name_short":"waw-3","host":"waw-1.pl.uncletopia.com","port":27035,"enabled":true,"region":"eu","cc":"pl","latitude":52.2297,"longitude":21.017532,"reserved":0,"last_update":"0001-01-01T00:00:00Z","name_a2s":"Uncletopia | Warsaw | 3 | All Maps","protocol":17,"map":"pl_snowycoast","folder":"tf","game":"Team Fortress","app_id":440,"player_count":0,"max_players":24,"Bots":0,"server_type":"Dedicated","server_os":"Linux","password":true,"vac":true,"version":"7742253","steam_id":85568392925397852,"keywords":["nocrits","nodmgspread","payload","uncletopia"],"game_id":440,"stv_port":27036,"stv_name":"Uncletopia | Warsaw | 3 | All Maps | STV","players":null},{"server_id":52,"name":"Uncletopia | Warsaw | 4 | All Maps","name_short":"waw-4","host":"waw-1.pl.uncletopia.com","port":27045,"enabled":true,"region":"eu","cc":"pl","latitude":52.2297,"longitude":21.017532,"reserved":0,"last_update":"0001-01-01T00:00:00Z","name_a2s":"Uncletopia | Warsaw | 4 | All Maps","protocol":17,"map":"pl_pier","folder":"tf","game":"Team Fortress","app_id":440,"player_count":0,"max_players":24,"Bots":0,"server_type":"Dedicated","server_os":"Linux","password":true,"vac":true,"version":"7742253","steam_id":85568392925397853,"keywords":["nocrits","nodmgspread","payload","uncletopia"],"game_id":440,"stv_port":27046,"stv_name":"Uncletopia | Warsaw | 4 | All Maps | STV","players":null},{"server_id":53,"name":"Uncletopia | Warsaw | 5 | Stopwatch Beta","name_short":"waw-5","host":"waw-1.pl.uncletopia.com","port":27055,"enabled":true,"region":"eu","cc":"pl","latitude":52.2297,"longitude":21.017532,"reserved":0,"last_update":"0001-01-01T00:00:00Z","name_a2s":"Uncletopia | Warsaw | 5 | Stopwatch Beta","protocol":17,"map":"pl_swiftwater_final1","folder":"tf","game":"Team Fortress","app_id":440,"player_count":0,"max_players":24,"Bots":0,"server_type":"Dedicated","server_os":"Linux","password":true,"vac":true,"version":"7742253","steam_id":85568392925397854,"keywords":["nocrits","nodmgspread","payload","uncletopia"],"game_id":440,"stv_port":27056,"stv_name":"Uncletopia | Warsaw | 5 | Stopwatch Beta | STV","players":null},{"server_id":54,"name":"Uncletopia | Warsaw | 6 | Community","name_short":"waw-6","host":"waw-1.pl.uncletopia.com","port":27065,"enabled":true,"region":"eu","cc":"pl","latitude":52.2297,"longitude":21.017532,"reserved":0,"last_update":"0001-01-01T00:00:00Z","name_a2s":"Uncletopia | Warsaw | 6 | Community","protocol":17,"map":"workshop/koth_bagel_rc5.ugc2514036946","folder":"tf","game":"Team Fortress","app_id":440,"player_count":0,"max_players":24,"Bots":0,"server_type":"Dedicated","server_os":"Linux","password":true,"vac":true,"version":"7742253","steam_id":85568392925397856,"keywords":["cp","nocrits","nodmgspread","uncletopia"],"game_id":440,"stv_port":27066,"stv_name":"Uncletopia | Warsaw | 6 | Community | STV","players":null}]}