{"status":true,"message":"","result":[{"server_id":9,"name":"Uncletopia | Atlanta | 1 | All Maps","name_short":"atl-1","host":"atl-1.us.uncletopia.com","port":27015,"enabled":true,"region":"us-east","cc":"us","latitude":33.753746,"longitude":-84.38633,"reserved":0,"last_update":"0001-01-01T00:00:00Z","name_a2s":"Uncletopia | Atlanta | 1 | All Maps","protocol":17,"map":"cp_snakewater_final1","folder":"tf","game":"Team Fortress","app_id":440,"player_count":0,"max_players":24,"Bots":0,"server_type":"Dedicated","server_os":"Linux","password":false,"vac":true,"version":"7961495","steam_id":85568392924469982,"keywords":["cp","nocrits","nodmgspread","uncletopia"],"game_id":440,"stv_port":27016,"stv_name":"Uncletopia | Atlanta | 1 | All Maps | STV","players":null},{"server_id":104,"name":"Uncletopia | Atlanta | 2 | All Maps","name_short":"atl-2","host":"atl-1.us.uncletopia.com","port":27025,"enabled":true,"region":"us-east","cc":"us","latitude":33.753746,"longitude":-84.38633,"reserved":0,"last_update":"0001-01-01T00:00:00Z","name_a2s":"Uncletopia | Atlanta | 2 | All Maps","protocol":17,"map":"cp_mountainlab","folder":"tf","game":"Team Fortress","app_id":440,"player_count":0,"max_players":24,"Bots":0,"server_type":"Dedicated","server_os":"Linux","password":false,"vac":true,"version":"7961495","steam_id":85568392924469983,"keywords":["cp","nocrits","nodmgspread","uncletopia"],"game_id":440,"stv_port":27026,"stv_name":"Uncletopia | Atlanta | 2 | All Maps | STV","players":null},{"server_id":400,"name":"Uncletopia | Atlanta | 3 | All Maps","name_short":"atl-3","host":"atl-1.us.uncletopia.com","port":27035,"enabled":true,"region":"us-east","cc":"us","latitude":33.753746,"longitude":-84.38633,"reserved":0,"last_update":"0001-01-01T00:00:00Z","name_a2s":"Uncletopia | Atlanta | 3 | All Maps","protocol":17,"map":"cp_process_final","folder":"tf","game":"Team Fortress","app_id":440,"player_count":0,"max_players":24,"Bots":0,"server_type":"Dedicated","server_os":"Linux","password":false,"vac":true,"version":"7961495","steam_id":85568392924515187,"keywords":["cp","nocrits","nodmgspread","uncletopia"],"game_id":440,"stv_port":27036,"stv_name":"Uncletopia | Atlanta | 3 | All Maps | STV","players":null},{"server_id":401,"name":"Uncletopia | Atlanta | 4 | Community","name_short":"atl-4","host":"atl-1.us.uncletopia.com","port":27045,"enabled":true,"region":"us-east","cc":"us","latitude":33.753746,"longitude":-84.38633,"reserved":0,"last_update":"0001-01-01T00:00:00Z","name_a2s":"Uncletopia | Atlanta | 4 | Community","protocol":17,"map":"koth_lakeside_final","folder":"tf","game":"Team Fortress","app_id":440,"player_count":0,"max_players":24,"Bots":0,"server_type":"Dedicated","server_os":"Linux","password":false,"vac":true,"version":"7961495","steam_id":85568392924515188,"keywords":["cp","nocrits","nodmgspread","uncletopia"],"game_id":440,"stv_port":27046,"stv_name":"Uncletopia | Atlanta | 4 | Community | STV","players":null},{"server_id":2,"name":"Uncletopia | Chicago | 1 | All Maps","name_short":"chi-1","host":"chi-1.us.uncletopia.com","port":27015,"enabled":true,"region":"us-central","cc":"us","latitude":41.881832,"longitude":-87.62318,"reserved":0,"last_update":"0001-01-01T00:00:00Z","name_a2s":"Uncletopia | Chicago | 1 | All Maps","protocol":17,"map":"cp_mountainlab","folder":"tf","game":"Team Fortress","app_id":440,"player_count":0,"max_players":24,"Bots":0,"server_type":"Dedicated","server_os":"Linux","password":true,"vac":true,"version":"7961495","steam_id":85568392924469984,"keywords":["cp","nocrits","nodmgspread","uncletopia"],"game_id":440,"stv_port":27016,"stv_name":"Uncletopia | Chicago | 1 | All Maps | STV","players":null},{"server_id":106,"name":"Uncletopia | Chicago | 2 | All Maps","name_short":"chi-2","host":"chi-1.us.uncletopia.com","port":27025,"enabled":true,"region":"us-central","cc":"us","latitude":41.881832,"longitude":-87.62318,"reserved":0,"last_update":"0001-01-01T00:00:00Z","name_a2s":"Uncletopia | Chicago | 2 | All Maps","protocol":17,"map":"pl_frontier_final","folder":"tf","game":"Team Fortress","app_id":440,"player_count":0,"max_players":24,"Bots":0,"server_type":"Dedicated","server_os":"Linux","password":true,"vac":true,"version":"7961495","steam_id":85568392924469985,"keywords":["nocrits","nodmgspread","payload","uncletopia"],"game_id":440,"stv_port":27026,"stv_name":"Uncletopia | Chicago | 2 | All Maps | STV","players":null},{"server_id":402,"name":"Uncletopia | Chicago | 3 | All Maps","name_short":"chi-3","host":"chi-1.us.uncletopia.com","port":27035,"enabled":true,"region":"us-central","cc":"us","latitude":41.881832,"longitude":-87.62318,"reserved":0,"last_update":"0001-01-01T00:00:00Z","name_a2s":"Uncletopia | Chicago | 3 | All Maps","protocol":17,"map":"pl_borneo","folder":"tf","game":"Team Fortress","app_id":440,"player_count":24,"max_players":24,"Bots":0,"server_type":"Dedicated","server_os":"Linux","password":true,"vac":true,"version":"7961495","steam_id":85568392924515191,"keywords":["nocrits","nodmgspread","payload","uncletopia"],"game_id":440,"stv_port":27036,"stv_name":"Uncletopia | Chicago | 3 | All Maps | STV","players":[{"user_id":134,"name":"det lft","steam_id":76561198170859755,"connected_time":6995000000000,"state":"active","ping":45},{"user_id":184,"name":"MikeLovesRabbit","steam_id":76561197997742625,"connected_time":2757000000000,"state":"active","ping":65},{"user_id":57,"name":"Deph Pyro","steam_id":76561198065033546,"connected_time":13053000000000,"state":"active","ping":73},{"user_id":208,"name":"Chiki","steam_id":76561198063590320,"connected_time":1312000000000,"state":"active","ping":60},{"user_id":169,"name":"Sergeant Snowflake","steam_id":76561198041474489,"connected_time":4439000000000,"state":"active","ping":57},{"user_id":176,"name":"Mr. Durian","steam_id":76561198093813212,"connected_time":3842000000000,"state":"active","ping":80},{"user_id":180,"name":"Drachma","steam_id":76561198007310514,"connected_time":3209000000000,"state":"active","ping":52},{"user_id":131,"name":"fischman","steam_id":76561199064142670,"connected_time":7233000000000,"state":"active","ping":149},{"user_id":132,"name":"im ultrakill (official)","steam_id":76561198415528114,"connected_time":7232000000000,"state":"active","ping":149},{"user_id":195,"name":"Vorpas Jabwak","steam_id":76561198112186064,"connected_time":2412000000000,"state":"active","ping":81},{"user_id":210,"name":"Incoming","steam_id":76561199020244051,"connected_time":802000000000,"state":"active","ping":100},{"user_id":201,"name":"Yongle","steam_id":76561198068591156,"connected_time":2234000000000,"state":"active","ping":50},{"user_id":206,"name":"Scorpie Doodle","steam_id":76561198021845763,"connected_time":1691000000000,"state":"active","ping":58},{"user_id":211,"name":"lynt","steam_id":76561198988333976,"connected_time":597000000000,"state":"active","ping":60},{"user_id":203,"name":"im bad at game ):","steam_id":76561198227271408,"connected_time":2218000000000,"state":"active","ping":92},{"user_id":139,"name":"0100101101100001011100100110110","steam_id":76561198034028769,"connected_time":6338000000000,"state":"active","ping":64},{"user_id":204,"name":"Hope","steam_id":76561199182558088,"connected_time":1940000000000,"state":"active","ping":69},{"user_id":150,"name":"Infinite Power Kobold","steam_id":76561198069034583,"connected_time":5498000000000,"state":"active","ping":88},{"user_id":145,"name":"bushy472","steam_id":76561198259074051,"connected_time":5563000000000,"state":"active","ping":65},{"user_id":171,"name":"AkimboAoki","steam_id":76561198158323058,"connected_time":4411000000000,"state":"active","ping":95},{"user_id":187,"name":"yomommasabitch","steam_id":76561198323217150,"connected_time":2502000000000,"state":"active","ping":73},{"user_id":205,"name":"indi","steam_id":76561198045917538,"connected_time":1727000000000,"state":"active","ping":47},{"user_id":179,"name":"Mudlumps","steam_id":76561198839138297,"connected_time":3545000000000,"state":"active","ping":38},{"user_id":209,"name":"I came (up)","steam_id":76561198057745131,"connected_time":1312000000000,"state":"active","ping":57}]},{"server_id":403,"name":"Uncletopia | Chicago | 4 | All Maps","name_short":"chi-4","host":"chi-1.us.uncletopia.com","port":27045,"enabled":true,"region":"us-central","cc":"us","latitude":41.881832,"longitude":-87.62318,"reserved":0,"last_update":"0001-01-01T00:00:00Z","name_a2s":"Uncletopia | Chicago | 4 | All Maps","protocol":17,"map":"koth_lakeside_final","folder":"tf","game":"Team Fortress","app_id":440,"player_count":24,"max_players":24,"Bots":0,"server_type":"Dedicated","server_os":"Linux","password":true,"vac":true,"version":"7961495","steam_id":85568392924515193,"keywords":["cp","nocrits","nodmgspread","uncletopia"],"game_id":440,"stv_port":27046,"stv_name":"Uncletopia | Chicago | 4 | All Maps | STV","players":[{"user_id":6,"name":"LittlemasterG","steam_id":76561199002609404,"connected_time":1379000000000,"state":"active","ping":81},{"user_id":7,"name":"garydaily1","steam_id":76561199117590393,"connected_time":1360000000000,"state":"active","ping":93},{"user_id":8,"name":"Space Lizard","steam_id":76561198056798193,"connected_time":1185000000000,"state":"active","ping":72},{"user_id":15,"name":"PeopleOrderOurPatties","steam_id":76561198323144922,"connected_time":463000000000,"state":"active","ping":55},{"user_id":32,"name":"Ringo x Seiran","steam_id":76561198357437908,"connected_time":43000000000,"state":"active","ping":84},{"user_id":11,"name":"Ejaculation Zach","steam_id":76561198203765200,"connected_time":691000000000,"state":"active","ping":61},{"user_id":12,"name":"andyiscolorless","steam_id":76561199239870921,"connected_time":666000000000,"state":"active","ping":125},{"user_id":33,"name":"Morefun8","steam_id":76561198274524278,"connected_time":33000000000,"state":"active","ping":50},{"user_id":14,"name":"majorbobfunction","steam_id":76561198042464632,"connected_time":541000000000,"state":"active","ping":48},{"user_id":16,"name":"THE CUMEST LORD","steam_id":76561198061412592,"connected_time":453000000000,"state":"active","ping":70},{"user_id":17,"name":"saturn","steam_id":76561198348918232,"connected_time":452000000000,"state":"active","ping":60},{"user_id":18,"name":"WoodsRunner","steam_id":76561198121812870,"connected_time":434000000000,"state":"active","ping":52},{"user_id":19,"name":"Esteban Delsin","steam_id":76561198433519639,"connected_time":428000000000,"state":"active","ping":118},{"user_id":20,"name":"Willem Dafoe","steam_id":76561198037453253,"connected_time":426000000000,"state":"active","ping":60},{"user_id":21,"name":"SebDev","steam_id":76561199175679235,"connected_time":396000000000,"state":"active","ping":141},{"user_id":22,"name":"bakkhertz","steam_id":76561198046745579,"connected_time":368000000000,"state":"active","ping":86},{"user_id":25,"name":"Mr Gobis","steam_id":76561199088845704,"connected_time":287000000000,"state":"active","ping":139},{"user_id":24,"name":"Natsuki the Scunt","steam_id":76561199175922684,"connected_time":324000000000,"state":"active","ping":102},{"user_id":26,"name":"Squid Boy","steam_id":76561198262331372,"connected_time":278000000000,"state":"active","ping":66},{"user_id":27,"name":"friendly on uncletopia","steam_id":76561198064194222,"connected_time":271000000000,"state":"active","ping":57},{"user_id":28,"name":"Clark","steam_id":76561198874839936,"connected_time":246000000000,"state":"active","ping":62},{"user_id":29,"name":"Walkiing","steam_id":76561198074473413,"connected_time":230000000000,"state":"active","ping":41},{"user_id":30,"name":"Oliver","steam_id":76561198158186864,"connected_time":207000000000,"state":"active","ping":85},{"user_id":31,"name":"‚ú†CrustyCake‚ú†","steam_id":76561198155062405,"connected_time":205000000000,"state":"active","ping":97}]},{"server_id":36,"name":"Uncletopia | Chicago | 5 | All Maps","name_short":"chi-5","host":"chi-2.us.uncletopia.com","port":27015,"enabled":true,"region":"us-central","cc":"us","latitude":41.881832,"longitude":-87.62318,"reserved":0,"last_update":"0001-01-01T00:00:00Z","name_a2s":"Uncletopia | Chicago | 5 | All Maps","protocol":17,"map":"koth_cascade","folder":"tf","game":"Team Fortress","app_id":440,"player_count":0,"max_players":24,"Bots":0,"server_type":"Dedicated","server_os":"Linux","password":true,"vac":true,"version":"7961495","steam_id":85568392924866362,"keywords":["cp","nocrits","nodmgspread","uncletopia"],"game_id":440,"stv_port":27016,"stv_name":"Uncletopia | Chicago | 5 | All Maps | STV","players":null},{"server_id":37,"name":"Uncletopia | Chicago | 6 | All Maps","name_short":"chi-6","host":"chi-2.us.uncletopia.com","port":27025,"enabled":true,"region":"us-central","cc":"us","latitude":41.881832,"longitude":-87.62318,"reserved":0,"last_update":"0001-01-01T00:00:00Z","name_a2s":"Uncletopia | Chicago | 6 | All Maps","protocol":17,"map":"pl_borneo","folder":"tf","game":"Team Fortress","app_id":440,"player_count":0,"max_players":24,"Bots":0,"server_type":"Dedicated","server_os":"Linux","password":true,"vac":true,"version":"7961495","steam_id":85568392924866363,"keywords":["nocrits","nodmgspread","payload","uncletopia"],"game_id":440,"stv_port":27026,"stv_name":"Uncletopia | Chicago | 6 | All Maps | STV","players":null},{"server_id":38,"name":"Uncletopia | Chicago | 7 | Stopwatch Beta","name_short":"chi-7","host":"chi-2.us.uncletopia.com","port":27035,"enabled":true,"region":"us-central","cc":"us","latitude":41.881832,"longitude":-87.62318,"reserved":0,"last_update":"0001-01-01T00:00:00Z","name_a2s":"Uncletopia | Chicago | 7 | Stopwatch Beta","protocol":17,"map":"pl_badwater","folder":"tf","game":"Team Fortress","app_id":440,"player_count":0,"max_players":24,"Bots":0,"server_type":"Dedicated","server_os":"Linux","password":true,"vac":true,"version":"7961495","steam_id":85568392924866364,"keywords":["nocrits","nodmgspread","payload","uncletopia"],"game_id":440,"stv_port":27036,"stv_name":"Uncletopia | Chicago | 7 | Stopwatch Beta | STV","players":null},{"server_id":39,"name":"Uncletopia | Chicago | 8 | Community","name_short":"chi-8","host":"chi-2.us.uncletopia.com","port":27045,"enabled":true,"region":"us-central","cc":"us","latitude":41.881832,"longitude":-87.62318,"reserved":0,"last_update":"0001-01-01T00:00:00Z","name_a2s":"Uncletopia | Chicago | 8 | Community","protocol":17,"map":"koth_cascade","folder":"tf","game":"Team Fortress","app_id":440,"player_count":0,"max_players":24,"Bots":0,"server_type":"Dedicated","server_os":"Linux","password":true,"vac":true,"version":"7961495","steam_id":85568392924866365,"keywords":["cp","nocrits","nodmgspread","uncletopia"],"game_id":440,"stv_port":27046,"stv_name":"Uncletopia | Chicago | 8 | Community | STV","players":null},{"server_id":8,"name":"Uncletopia | Dallas | 1 | All Maps","name_short":"dal-1","host":"dal-1.us.uncletopia.com","port":27015,"enabled":true,"region":"us-central","cc":"us","latitude":32.779167,"longitude":-96.80889,"reserved":0,"last_update":"0001-01-01T00:00:00Z","name_a2s":"Uncletopia | Dallas | 1 | All Maps","protocol":17,"map":"ctf_doublecross","folder":"tf","game":"Team Fortress","app_id":440,"player_count":22,"max_players":24,"Bots":0,"server_type":"Dedicated","server_os":"Linux","password":true,"vac":true,"version":"7961495","steam_id":85568392924469986,"keywords":["ctf","nocrits","nodmgspread","uncletopia"],"game_id":440,"stv_port":27016,"stv_name":"Uncletopia | Dallas | 1 | All Maps | STV","players":[{"user_id":136,"name":"lorelius hogglefart","steam_id":76561198211781375,"connected_time":951000000000,"state":"active","ping":83},{"user_id":149,"name":"pt","steam_id":76561198143023330,"connected_time":221000000000,"state":"active","ping":118},{"user_id":140,"name":"metalfan666","steam_id":76561198386344068,"connected_time":411000000000,"state":"active","ping":77},{"user_id":141,"name":"XxDragon4321xX","steam_id":76561198046705735,"connected_time":406000000000,"state":"active","ping":102},{"user_id":150,"name":"muffinoos","steam_id":76561199063285268,"connected_time":219000000000,"state":"active","ping":90},{"user_id":131,"name":"CeLeb144","steam_id":76561199089907740,"connected_time":1413000000000,"state":"active","ping":60},{"user_id":66,"name":"Tav, Devourer of Cheeks","steam_id":76561198021688160,"connected_time":6001000000000,"state":"active","ping":90},{"user_id":130,"name":"À¢·µè·µâ·µó·∂ú ∞","steam_id":76561198138216669,"connected_time":1542000000000,"state":"active","ping":74},{"user_id":152,"name":"Shalom","steam_id":76561198410005222,"connected_time":81000000000,"state":"active","ping":48},{"user_id":107,"name":"meowfang","steam_id":76561198123056791,"connected_time":3738000000000,"state":"active","ping":85},{"user_id":121,"name":"bearzy","steam_id":76561199180441047,"connected_time":2065000000000,"state":"active","ping":99},{"user_id":118,"name":"Major Depression","steam_id":76561198018103878,"connected_time":2232000000000,"state":"active","ping":92},{"user_id":146,"name":"Kzo","steam_id":76561198207740525,"connected_time":330000000000,"state":"active","ping":111},{"user_id":138,"name":"Generator","steam_id":76561198011762257,"connected_time":654000000000,"state":"active","ping":106},{"user_id":147,"name":"icm2008 #SaveTF2","steam_id":76561199277408836,"connected_time":311000000000,"state":"active","ping":92},{"user_id":84,"name":"EMPTY WITCH","steam_id":76561198068800572,"connected_time":4512000000000,"state":"active","ping":83},{"user_id":153,"name":"Thequirka","steam_id":76561198968058652,"connected_time":72000000000,"state":"active","ping":103},{"user_id":148,"name":"Punkin","steam_id":76561198334301755,"connected_time":297000000000,"state":"active","ping":102},{"user_id":117,"name":"ùí•ùëúùìáùìâùìà","steam_id":76561198111878431,"connected_time":2489000000000,"state":"active","ping":152},{"user_id":115,"name":"Ashes!","steam_id":76561197998475441,"connected_time":2865000000000,"state":"active","ping":91},{"user_id":45,"name":"The One Bad Cheatboxer","steam_id":76561198303948269,"connected_time":8556000000000,"state":"active","ping":89},{"user_id":127,"name":"Jimmy","steam_id":76561198857959855,"connected_time":1639000000000,"state":"active","ping":77}]},{"server_id":108,"name":"Uncletopia | Dallas | 2 | All Maps","name_short":"dal-2","host":"dal-1.us.uncletopia.com","port":27025,"enabled":true,"region":"us-central","cc":"us","latitude":32.779167,"longitude":-96.80889,"reserved":0,"last_update":"0001-01-01T00:00:00Z","name_a2s":"Uncletopia | Dallas | 2 | All Maps","protocol":17,"map":"pl_pier","folder":"tf","game":"Team Fortress","app_id":440,"player_count":24,"max_players":24,"Bots":0,"server_type":"Dedicated","server_os":"Linux","password":true,"vac":true,"version":"7961495","steam_id":85568392924469988,"keywords":["nocrits","nodmgspread","payload","uncletopia"],"game_id":440,"stv_port":27026,"stv_name":"Uncletopia | Dallas | 2 | All Maps | STV","players":[{"user_id":116,"name":"Â≠´Â≠ê","steam_id":76561198083112681,"connected_time":219000000000,"state":"active","ping":52},{"user_id":108,"name":"sleepy","steam_id":76561198288663776,"connected_time":701000000000,"state":"active","ping":89},{"user_id":119,"name":"Leillo_space","steam_id":76561198857789844,"connected_time":62000000000,"state":"active","ping":304},{"user_id":118,"name":"GX thedittoguy (lfp demo)","steam_id":76561199013129784,"connected_time":111000000000,"state":"active","ping":50},{"user_id":11,"name":"Nassu","steam_id":76561198147367577,"connected_time":5894000000000,"state":"active","ping":98},{"user_id":99,"name":"Zombieahole","steam_id":76561199492543855,"connected_time":1703000000000,"state":"active","ping":89},{"user_id":87,"name":"Sipder","steam_id":76561198147474387,"connected_time":2886000000000,"state":"active","ping":85},{"user_id":88,"name":"MegumiTame","steam_id":76561198450280686,"connected_time":2834000000000,"state":"active","ping":104},{"user_id":100,"name":"Enderlord99","steam_id":76561198158152954,"connected_time":1680000000000,"state":"active","ping":102},{"user_id":110,"name":"ÍôÆ","steam_id":76561198941700660,"connected_time":622000000000,"state":"active","ping":76},{"user_id":114,"name":"30-50 feral hogs","steam_id":76561198073587145,"connected_time":425000000000,"state":"active","ping":96},{"user_id":33,"name":"Furfur","steam_id":76561198025179322,"connected_time":4916000000000,"state":"active","ping":76},{"user_id":95,"name":"Average Demo Main","steam_id":76561197971948876,"connected_time":2415000000000,"state":"active","ping":90},{"user_id":76,"name":"Grand Piano Tuna","steam_id":76561198135137213,"connected_time":3379000000000,"state":"active","ping":50},{"user_id":115,"name":"civilian tf2","steam_id":76561199026721822,"connected_time":222000000000,"state":"active","ping":94},{"user_id":107,"name":"King Baldski","steam_id":76561198359568400,"connected_time":1004000000000,"state":"active","ping":150},{"user_id":106,"name":"schmuck","steam_id":76561198143789773,"connected_time":1041000000000,"state":"active","ping":56},{"user_id":91,"name":"‚òÜDoggirl Genius‚òÜ","steam_id":76561198083243888,"connected_time":2617000000000,"state":"active","ping":90},{"user_id":117,"name":"Heathcliff","steam_id":76561198044288534,"connected_time":168000000000,"state":"active","ping":96},{"user_id":112,"name":"ungr8t Èõ≤ÊÑöÁ§ºÊ≠¢","steam_id":76561198063521721,"connected_time":448000000000,"state":"active","ping":51},{"user_id":71,"name":"PeachFlavoredBleach","steam_id":76561198116226449,"connected_time":3714000000000,"state":"active","ping":89},{"user_id":101,"name":"zogs","steam_id":76561198323491654,"connected_time":1663000000000,"state":"active","ping":44},{"user_id":47,"name":"KatAstraphe","steam_id":76561198406695496,"connected_time":4441000000000,"state":"active","ping":69},{"user_id":109,"name":"Lucas","steam_id":76561198399704604,"connected_time":699000000000,"state":"active","ping":93}]},{"server_id":404,"name":"Uncletopia | Dallas | 3 | All Maps","name_short":"dal-3","host":"dal-1.us.uncletopia.com","port":27035,"enabled":true,"region":"us-central","cc":"us","latitude":32.779167,"longitude":-96.80889,"reserved":0,"last_update":"0001-01-01T00:00:00Z","name_a2s":"Uncletopia | Dallas | 3 | All Maps","protocol":17,"map":"cp_process_final","folder":"tf","game":"Team Fortress","app_id":440,"player_count":0,"max_players":24,"Bots":0,"server_type":"Dedicated","server_os":"Linux","password":true,"vac":true,"version":"7961495","steam_id":85568392924515219,"keywords":["cp","nocrits","nodmgspread","uncletopia"],"game_id":440,"stv_port":27036,"stv_name":"Uncletopia | Dallas | 3 | All Maps | STV","players":null},{"server_id":405,"name":"Uncletopia | Dallas | 4 | Community","name_short":"dal-4","host":"dal-1.us.uncletopia.com","port":27045,"enabled":true,"region":"us-central","cc":"us","latitude":32.779167,"longitude":-96.80889,"reserved":0,"last_update":"0001-01-01T00:00:00Z","name_a2s":"Uncletopia | Dallas | 4 | Community","protocol":17,"map":"pl_badwater","folder":"tf","game":"Team Fortress","app_id":440,"player_count":0,"max_players":24,"Bots":0,"server_type":"Dedicated","server_os":"Linux","password":true,"vac":true,"version":"7961495","steam_id":85568392924515220,"keywords":["nocrits","nodmgspread","payload","uncletopia"],"game_id":440,"stv_port":27046,"stv_name":"Uncletopia | Dallas | 4 | Community | STV","players":null},{"server_id":5,"name":"Uncletopia | Frankfurt | 1 | All Maps","name_short":"frk-1","host":"frk-1.de.uncletopia.com","port":27015,"enabled":true,"region":"eu","cc":"de","latitude":50.110924,"longitude":8.682127,"reserved":0,"last_update":"0001-01-01T00:00:00Z","name_a2s":"Uncletopia | Frankfurt | 1 | All Maps","protocol":17,"map":"pl_frontier_final","folder":"tf","game":"Team Fortress","app_id":440,"player_count":24,"max_players":24,"Bots":0,"server_type":"Dedicated","server_os":"Linux","password":true,"vac":true,"version":"7961495","steam_id":85568392924469989,"keywords":["nocrits","nodmgspread","payload","uncletopia"],"game_id":440,"stv_port":27016,"stv_name":"Uncletopia | Frankfurt | 1 | All Maps | STV","players":[{"user_id":331,"name":"def","steam_id":76561198857396812,"connected_time":4761000000000,"state":"active","ping":43},{"user_id":368,"name":"Your local Clown","steam_id":76561198107852118,"connected_time":2740000000000,"state":"active","ping":94},{"user_id":394,"name":"Dr.Sees [F2P]","steam_id":76561199219233587,"connected_time":286000000000,"state":"active","ping":80},{"user_id":337,"name":"Clownputer? what the fuck?","steam_id":76561198033032672,"connected_time":4671000000000,"state":"active","ping":63},{"user_id":395,"name":"JƒÅnis Aizups | LV","steam_id":76561198129947877,"connected_time":54000000000,"state":"active","ping":80},{"user_id":286,"name":"1914","steam_id":76561198257383813,"connected_time":6347000000000,"state":"active","ping":45},{"user_id":311,"name":"Dan","steam_id":76561198091814744,"connected_time":5091000000000,"state":"active","ping":129},{"user_id":396,"name":"AwterSix","steam_id":76561198042561678,"connected_time":16000000000,"state":"active","ping":62},{"user_id":393,"name":"Yoshikage Kira","steam_id":76561199051752886,"connected_time":369000000000,"state":"active","ping":56},{"user_id":378,"name":"Gugu","steam_id":76561198161822358,"connected_time":1372000000000,"state":"active","ping":66},{"user_id":330,"name":"sponsored by nord vpn","steam_id":76561198044704458,"connected_time":4791000000000,"state":"active","ping":60},{"user_id":386,"name":"The Daniella","steam_id":76561198023075547,"connected_time":543000000000,"state":"active","ping":75},{"user_id":391,"name":"Kolomaster","steam_id":76561198143356545,"connected_time":459000000000,"state":"active","ping":79},{"user_id":338,"name":"Elix","steam_id":76561199072306920,"connected_time":4594000000000,"state":"active","ping":106},{"user_id":392,"name":"Hukka","steam_id":76561198035505355,"connected_time":389000000000,"state":"active","ping":108},{"user_id":383,"name":"ShewKehtt","steam_id":76561198189104628,"connected_time":697000000000,"state":"active","ping":61},{"user_id":352,"name":"nymph","steam_id":76561199249569889,"connected_time":4045000000000,"state":"active","ping":75},{"user_id":375,"name":"john fortress","steam_id":76561198013237629,"connected_time":1404000000000,"state":"active","ping":106},{"user_id":376,"name":"yush","steam_id":76561198121688934,"connected_time":1399000000000,"state":"active","ping":74},{"user_id":377,"name":"Purple","steam_id":76561199032365015,"connected_time":1397000000000,"state":"active","ping":96},{"user_id":356,"name":"Durvin","steam_id":76561198143743963,"connected_time":3764000000000,"state":"active","ping":78},{"user_id":384,"name":"lunaire","steam_id":76561198163344452,"connected_time":696000000000,"state":"active","ping":77},{"user_id":359,"name":"Owlet","steam_id":76561198065613974,"connected_time":3501000000000,"state":"active","ping":79},{"user_id":390,"name":"galaxy","steam_id":76561198164819022,"connected_time":503000000000,"state":"active","ping":71}]},{"server_id":110,"name":"Uncletopia | Frankfurt | 2 | All Maps","name_short":"frk-2","host":"frk-1.de.uncletopia.com","port":27025,"enabled":true,"region":"eu","cc":"de","latitude":50.110924,"longitude":8.682127,"reserved":0,"last_update":"0001-01-01T00:00:00Z","name_a2s":"Uncletopia | Frankfurt | 2 | All Maps","protocol":17,"map":"pl_upward","folder":"tf","game":"Team Fortress","app_id":440,"player_count":0,"max_players":24,"Bots":0,"server_type":"Dedicated","server_os":"Linux","password":true,"vac":true,"version":"7961495","steam_id":85568392924469990,"keywords":["nocrits","nodmgspread","payload","uncletopia"],"game_id":440,"stv_port":27026,"stv_name":"Uncletopia | Frankfurt | 2 | All Maps | STV","players":null},{"server_id":308,"name":"Uncletopia | Frankfurt | 3 | All Maps","name_short":"frk-3","host":"frk-1.de.uncletopia.com","port":27035,"enabled":true,"region":"eu","cc":"de","latitude":50.110924,"longitude":8.682127,"reserved":0,"last_update":"0001-01-01T00:00:00Z","name_a2s":"Uncletopia | Frankfurt | 3 | All Maps","protocol":17,"map":"cp_process_final","folder":"tf","game":"Team Fortress","app_id":440,"player_count":24,"max_players":24,"Bots":0,"server_type":"Dedicated","server_os":"Linux","password":true,"vac":true,"version":"7961495","steam_id":85568392924504274,"keywords":["cp","nocrits","nodmgspread","uncletopia"],"game_id":440,"stv_port":27036,"stv_name":"Uncletopia | Frankfurt | 3 | All Maps | STV","players":[{"user_id":139,"name":"Jeffrey Harpen","steam_id":76561199073314677,"connected_time":2159000000000,"state":"active","ping":72},{"user_id":142,"name":"SPONGE","steam_id":76561198040933472,"connected_time":1733000000000,"state":"active","ping":62},{"user_id":162,"name":"–æ–Ω","steam_id":76561198172046813,"connected_time":1056000000000,"state":"active","ping":66},{"user_id":169,"name":"Polech","steam_id":76561199187916824,"connected_time":591000000000,"state":"active","ping":94},{"user_id":174,"name":"GabGame","steam_id":76561198105631808,"connected_time":222000000000,"state":"active","ping":77},{"user_id":128,"name":"chess club manager","steam_id":76561198011047413,"connected_time":2598000000000,"state":"active","ping":78},{"user_id":59,"name":"the joy of recycling","steam_id":76561198138509827,"connected_time":5893000000000,"state":"active","ping":95},{"user_id":149,"name":"Silvestro","steam_id":76561198021660066,"connected_time":1571000000000,"state":"active","ping":81},{"user_id":163,"name":"owo","steam_id":76561198158209651,"connected_time":1046000000000,"state":"active","ping":75},{"user_id":115,"name":"Toxic_Cicity","steam_id":76561198165753440,"connected_time":3311000000000,"state":"active","ping":109},{"user_id":131,"name":"Falco","steam_id":76561199061187430,"connected_time":2455000000000,"state":"active","ping":46},{"user_id":154,"name":"APELOR","steam_id":76561198436284444,"connected_time":1410000000000,"state":"active","ping":89},{"user_id":165,"name":"Mong","steam_id":76561198254497427,"connected_time":962000000000,"state":"active","ping":61},{"user_id":167,"name":"woof","steam_id":76561198233092760,"connected_time":666000000000,"state":"active","ping":68},{"user_id":27,"name":"jimmy kane","steam_id":76561197984425891,"connected_time":8210000000000,"state":"active","ping":63},{"user_id":158,"name":"Durin sein Vater","steam_id":76561198021246713,"connected_time":1268000000000,"state":"active","ping":38},{"user_id":172,"name":"jjkun786","steam_id":76561199438517484,"connected_time":522000000000,"state":"active","ping":68},{"user_id":57,"name":"htraB","steam_id":76561198043122677,"connected_time":6004000000000,"state":"active","ping":59},{"user_id":124,"name":"[HOL] Solringen","steam_id":76561198003584681,"connected_time":2859000000000,"state":"active","ping":55},{"user_id":171,"name":"nevim","steam_id":76561199120843402,"connected_time":576000000000,"state":"active","ping":48},{"user_id":145,"name":"murderwow","steam_id":76561198024566944,"connected_time":1601000000000,"state":"active","ping":95},{"user_id":173,"name":"S ü…™·¥òE…¥O Ä","steam_id":76561197967931911,"connected_time":417000000000,"state":"active","ping":112},{"user_id":153,"name":"Na z√°chodƒõ","steam_id":76561198383952144,"connected_time":1424000000000,"state":"active","ping":139},{"user_id":150,"name":"Luxotrics","steam_id":76561198053455161,"connected_time":1570000000000,"state":"active","ping":88}]},{"server_id":309,"name":"Uncletopia | Frankfurt | 4 | All Maps","name_short":"frk-4","host":"frk-1.de.uncletopia.com","port":27045,"enabled":true,"region":"eu","cc":"de","latitude":50.110924,"longitude":8.682127,"reserved":0,"last_update":"0001-01-01T00:00:00Z","name_a2s":"Uncletopia | Frankfurt | 4 | All Maps","protocol":17,"map":"pl_pier","folder":"tf","game":"Team Fortress","app_id":440,"player_count":0,"max_players":24,"Bots":0,"server_type":"Dedicated","server_os":"Linux","password":true,"vac":true,"version":"7961495","steam_id":85568392924504275,"keywords":["nocrits","nodmgspread","payload","uncletopia"],"game_id":440,"stv_port":27046,"stv_name":"Uncletopia | Frankfurt | 4 | All Maps | STV","players":null},{"server_id":310,"name":"Uncletopia | Frankfurt | 5 | All Maps","name_short":"frk-5","host":"frk-1.de.uncletopia.com","port":27055,"enabled":true,"region":"eu","cc":"de","latitude":50.110924,"longitude":8.682127,"reserved":0,"last_update":"0001-01-01T00:00:00Z","name_a2s":"Uncletopia | Frankfurt | 5 | All Maps","protocol":17,"map":"pl_barnblitz","folder":"tf","game":"Team Fortress","app_id":440,"player_count":24,"max_players":24,"Bots":0,"server_type":"Dedicated","server_os":"Linux","password":true,"vac":true,"version":"7961495","steam_id":85568392924504277,"keywords":["nocrits","nodmgspread","payload","uncletopia"],"game_id":440,"stv_port":27056,"stv_name":"Uncletopia | Frankfurt | 5 | All Maps | STV","players":[{"user_id":117,"name":"Michal jordan","steam_id":76561199106262610,"connected_time":965000000000,"state":"active","ping":66},{"user_id":72,"name":"howabe","steam_id":76561197996486818,"connected_time":3365000000000,"state":"active","ping":54},{"user_id":94,"name":"epic style","steam_id":76561198194684381,"connected_time":2583000000000,"state":"active","ping":68},{"user_id":98,"name":"shankz","steam_id":76561198128803260,"connected_time":2076000000000,"state":"active","ping":64},{"user_id":115,"name":"Even R√º√ºd","steam_id":76561197981144291,"connected_time":1059000000000,"state":"active","ping":75},{"user_id":103,"name":"Play slowly, pls","steam_id":76561198006463587,"connected_time":1570000000000,"state":"active","ping":141},{"user_id":93,"name":"Seiko Lili","steam_id":76561199097542270,"connected_time":2855000000000,"state":"active","ping":86},{"user_id":123,"name":"Vouri","steam_id":76561198106656127,"connected_time":247000000000,"state":"active","ping":66},{"user_id":124,"name":"Dogdigger","steam_id":76561198032893130,"connected_time":238000000000,"state":"active","ping":84},{"user_id":106,"name":"GregerUlander","steam_id":76561198152375055,"connected_time":1489000000000,"state":"active","ping":76},{"user_id":114,"name":"‚òú(Ôæü„ÉÆÔæü‚òú) fribs","steam_id":76561198000461999,"connected_time":1120000000000,"state":"active","ping":70},{"user_id":54,"name":"cargo_conductor_754","steam_id":76561198165604007,"connected_time":5173000000000,"state":"active","ping":58},{"user_id":112,"name":"evegioyidechadab","steam_id":76561198075991626,"connected_time":1179000000000,"state":"active","ping":64},{"user_id":122,"name":"lazern","steam_id":76561198049983016,"connected_time":321000000000,"state":"active","ping":77},{"user_id":111,"name":"ASS?!?!?!?!?","steam_id":76561199159262388,"connected_time":1310000000000,"state":"active","ping":87},{"user_id":101,"name":"King Nothing","steam_id":76561198105552273,"connected_time":1787000000000,"state":"active","ping":85},{"user_id":108,"name":"ForeverButthurt","steam_id":76561198078855328,"connected_time":1469000000000,"state":"active","ping":82},{"user_id":125,"name":"Mr.Schnittlauch","steam_id":76561198295868113,"connected_time":232000000000,"state":"active","ping":59},{"user_id":89,"name":"puuksu_mees7","steam_id":76561198022616643,"connected_time":2928000000000,"state":"active","ping":74},{"user_id":109,"name":"Petrovich Selling BP \u0026 Keys $1.","steam_id":76561197983450592,"connected_time":1467000000000,"state":"active","ping":63},{"user_id":119,"name":"TheVikingTheRed","steam_id":76561199221731253,"connected_time":428000000000,"state":"active","ping":66},{"user_id":46,"name":"Protector.CZ","steam_id":76561197972341084,"connected_time":5500000000000,"state":"active","ping":63},{"user_id":120,"name":"Pighead_08","steam_id":76561199060466647,"connected_time":421000000000,"state":"active","ping":108},{"user_id":118,"name":"goblin (real)","steam_id":76561198868286775,"connected_time":948000000000,"state":"active","ping":92}]},{"server_id":311,"name":"Uncletopia | Frankfurt | 6 | All Maps","name_short":"frk-6","host":"frk-1.de.uncletopia.com","port":27065,"enabled":true,"region":"eu","cc":"de","latitude":50.110924,"longitude":8.682127,"reserved":0,"last_update":"0001-01-01T00:00:00Z","name_a2s":"Uncletopia | Frankfurt | 6 | All Maps","protocol":17,"map":"pl_frontier_final","folder":"tf","game":"Team Fortress","app_id":440,"player_count":24,"max_players":24,"Bots":0,"server_type":"Dedicated","server_os":"Linux","password":true,"vac":true,"version":"7961495","steam_id":85568392924504278,"keywords":["nocrits","nodmgspread","payload","uncletopia"],"game_id":440,"stv_port":27066,"stv_name":"Uncletopia | Frankfurt | 6 | All Maps | STV","players":[{"user_id":125,"name":"Mr. Citrus","steam_id":76561198044084210,"connected_time":1752000000000,"state":"active","ping":96},{"user_id":141,"name":"Purple Soup :D","steam_id":76561198985100366,"connected_time":212000000000,"state":"active","ping":98},{"user_id":150,"name":"Callawe","steam_id":76561198129785792,"connected_time":34000000000,"state":"active","ping":64},{"user_id":80,"name":"Henry Fonda","steam_id":76561199378865926,"connected_time":5171000000000,"state":"active","ping":94},{"user_id":149,"name":"jamkel #savetf2","steam_id":76561199088464666,"connected_time":52000000000,"state":"active","ping":113},{"user_id":120,"name":"Ruth(-less bitch)","steam_id":76561198150006573,"connected_time":2440000000000,"state":"active","ping":71},{"user_id":118,"name":"Sir William Gaming","steam_id":76561198037676472,"connected_time":2579000000000,"state":"active","ping":84},{"user_id":137,"name":"decaf enema","steam_id":76561197988085026,"connected_time":657000000000,"state":"active","ping":67},{"user_id":144,"name":"Ziemniaczki z koperkiem","steam_id":76561198829123464,"connected_time":137000000000,"state":"active","ping":74},{"user_id":132,"name":"have you heard of savvy","steam_id":76561198104896547,"connected_time":1493000000000,"state":"active","ping":67},{"user_id":112,"name":"bl0ke","steam_id":76561198012526576,"connected_time":3051000000000,"state":"active","ping":60},{"user_id":124,"name":"Goblin","steam_id":76561198153545458,"connected_time":1810000000000,"state":"active","ping":81},{"user_id":152,"name":"Haha?","steam_id":76561198056882245,"connected_time":0,"state":"connecting","ping":0},{"user_id":86,"name":"After8","steam_id":76561198090750865,"connected_time":5018000000000,"state":"active","ping":61},{"user_id":147,"name":"Varsk","steam_id":76561198061398890,"connected_time":74000000000,"state":"active","ping":58},{"user_id":123,"name":"Littleyoshifan","steam_id":76561198445491045,"connected_time":2271000000000,"state":"active","ping":60},{"user_id":98,"name":"Royal Dutch Shell","steam_id":76561198215986979,"connected_time":4377000000000,"state":"active","ping":61},{"user_id":110,"name":"puck","steam_id":76561198121260981,"connected_time":3536000000000,"state":"active","ping":60},{"user_id":119,"name":"yuck","steam_id":76561197987249568,"connected_time":2558000000000,"state":"active","ping":90},{"user_id":111,"name":"FardenGungus","steam_id":76561198049312442,"connected_time":3268000000000,"state":"active","ping":71},{"user_id":151,"name":"T1ppy","steam_id":76561198121006855,"connected_time":25000000000,"state":"spawning","ping":99},{"user_id":116,"name":"REN","steam_id":76561198000596385,"connected_time":2937000000000,"state":"active","ping":66},{"user_id":138,"name":"sareena","steam_id":76561198810194062,"connected_time":600000000000,"state":"active","ping":77},{"user_id":93,"name":"honzajspv","steam_id":76561198434476343,"connected_time":4586000000000,"state":"active","ping":46}]},{"server_id":23,"name":"Uncletopia | Frankfurt | 7 | Stopwatch Beta","name_short":"frk-7","host":"frk-1.de.uncletopia.com","port":27075,"enabled":true,"region":"eu","cc":"de","latitude":50.110924,"longitude":8.682127,"reserved":0,"last_update":"0001-01-01T00:00:00Z","name_a2s":"Uncletopia | Frankfurt | 7 | Stopwatch Beta","protocol":17,"map":"koth_cascade","folder":"tf","game":"Team Fortress","app_id":440,"player_count":0,"max_players":24,"Bots":0,"server_type":"Dedicated","server_os":"Linux","password":true,"vac":true,"version":"7961495","steam_id":85568392924742827,"keywords":["cp","nocrits","nodmgspread","uncletopia"],"game_id":440,"stv_port":27076,"stv_name":"Uncletopia | Frankfurt | 7 | Stopwatch Beta | STV","players":null},{"server_id":24,"name":"Uncletopia | Frankfurt | 8 | Community","name_short":"frk-8","host":"frk-1.de.uncletopia.com","port":27085,"enabled":true,"region":"eu","cc":"de","latitude":50.110924,"longitude":8.682127,"reserved":0,"last_update":"0001-01-01T00:00:00Z","name_a2s":"Uncletopia | Frankfurt | 8 | Community","protocol":17,"map":"workshop/koth_ashville_final.ugc2130459942","folder":"tf","game":"Team Fortress","app_id":440,"player_count":0,"max_players":24,"Bots":0,"server_type":"Dedicated","server_os":"Linux","password":true,"vac":true,"version":"7961495","steam_id":85568392924742828,"keywords":["cp","nocrits","nodmgspread","uncletopia"],"game_id":440,"stv_port":27086,"stv_name":"Uncletopia | Frankfurt | 8 | Community | STV","players":null},{"server_id":202,"name":"Uncletopia | Hong Kong | 1 | All Maps","name_short":"hgk-1","host":"hgk-1.hk.uncletopia.com","port":27015,"enabled":true,"region":"asia","cc":"hk","latitude":22.302711,"longitude":114.177216,"reserved":0,"last_update":"0001-01-01T00:00:00Z","name_a2s":"Uncletopia | Hong Kong | 1 | All Maps","protocol":17,"map":"pl_barnblitz","folder":"tf","game":"Team Fortress","app_id":440,"player_count":18,"max_players":24,"Bots":0,"server_type":"Dedicated","server_os":"Linux","password":true,"vac":true,"version":"7961495","steam_id":85568392924494504,"keywords":["nocrits","nodmgspread","payload","uncletopia"],"game_id":440,"stv_port":27016,"stv_name":"Uncletopia | Hong Kong | 1 | All Maps | STV","players":[{"user_id":434,"name":"Marii","steam_id":76561199034546642,"connected_time":2795000000000,"state":"active","ping":102},{"user_id":401,"name":"Pug_Lord","steam_id":76561199090153442,"connected_time":5396000000000,"state":"active","ping":112},{"user_id":271,"name":"Milf (The fan O'Milk)","steam_id":76561198213031155,"connected_time":13309000000000,"state":"active","ping":94},{"user_id":469,"name":"xPhid","steam_id":76561199080808930,"connected_time":390000000000,"state":"active","ping":79},{"user_id":432,"name":"God is coming in 5.24.2023","steam_id":76561199146847474,"connected_time":2889000000000,"state":"active","ping":78},{"user_id":447,"name":"Dokutah, Husband of W","steam_id":76561199273390091,"connected_time":2293000000000,"state":"active","ping":68},{"user_id":470,"name":"Hay","steam_id":76561199438952901,"connected_time":319000000000,"state":"active","ping":54},{"user_id":463,"name":"i am a F2P and my aim is shit","steam_id":76561199475974790,"connected_time":935000000000,"state":"active","ping":110},{"user_id":431,"name":"Ïø†ÌÇ§","steam_id":76561197997220367,"connected_time":3263000000000,"state":"active","ping":56},{"user_id":418,"name":"screaming sniper","steam_id":76561199085568674,"connected_time":4502000000000,"state":"active","ping":62},{"user_id":458,"name":"jon","steam_id":76561198214499355,"connected_time":1685000000000,"state":"active","ping":114},{"user_id":379,"name":"∆ßunny","steam_id":76561198138924373,"connected_time":7074000000000,"state":"active","ping":38},{"user_id":468,"name":"Pizza_Jammies1345","steam_id":76561199228950246,"connected_time":408000000000,"state":"active","ping":152},{"user_id":416,"name":"TonXD","steam_id":76561199024372559,"connected_time":4694000000000,"state":"active","ping":99},{"user_id":392,"name":"Stewb","steam_id":76561198131423270,"connected_time":6089000000000,"state":"active","ping":65},{"user_id":445,"name":"Water Weed Dune Hair","steam_id":76561198090087072,"connected_time":2360000000000,"state":"active","ping":127},{"user_id":456,"name":"ÊØç„ÅÆËÇâÂõ£Â≠ê@hao123.com","steam_id":76561198069561896,"connected_time":1773000000000,"state":"active","ping":43},{"user_id":465,"name":"Ham Man","steam_id":76561198174102269,"connected_time":610000000000,"state":"active","ping":87}]},{"server_id":1,"name":"Uncletopia | Los Angeles | 1 | All Maps","name_short":"lax-1","host":"lax-1.us.uncletopia.com","port":27015,"enabled":true,"region":"us-west","cc":"us","latitude":33.94279,"longitude":-118.41004,"reserved":0,"last_update":"0001-01-01T00:00:00Z","name_a2s":"Uncletopia | Los Angeles | 1 | All Maps","protocol":17,"map":"cp_mountainlab","folder":"tf","game":"Team Fortress","app_id":440,"player_count":0,"max_players":24,"Bots":0,"server_type":"Dedicated","server_os":"Linux","password":true,"vac":true,"version":"7961495","steam_id":85568392924469991,"keywords":["cp","nocrits","nodmgspread","uncletopia"],"game_id":440,"stv_port":27016,"stv_name":"Uncletopia | Los Angeles | 1 | All Maps | STV","players":null},{"server_id":112,"name":"Uncletopia | Los Angeles | 2 | All Maps","name_short":"lax-2","host":"lax-1.us.uncletopia.com","port":27025,"enabled":true,"region":"us-west","cc":"us","latitude":33.94279,"longitude":-118.41004,"reserved":0,"last_update":"0001-01-01T00:00:00Z","name_a2s":"Uncletopia | Los Angeles | 2 | All Maps","protocol":17,"map":"pl_borneo","folder":"tf","game":"Team Fortress","app_id":440,"player_count":0,"max_players":24,"Bots":0,"server_type":"Dedicated","server_os":"Linux","password":true,"vac":true,"version":"7961495","steam_id":85568392924469992,"keywords":["nocrits","nodmgspread","payload","uncletopia"],"game_id":440,"stv_port":27026,"stv_name":"Uncletopia | Los Angeles | 2 | All Maps | STV","players":null},{"server_id":324,"name":"Uncletopia | Los Angeles | 3 | All Maps","name_short":"lax-3","host":"lax-1.us.uncletopia.com","port":27035,"enabled":true,"region":"us-west","cc":"us","latitude":33.94279,"longitude":-118.41004,"reserved":0,"last_update":"0001-01-01T00:00:00Z","name_a2s":"Uncletopia | Los Angeles | 3 | All Maps","protocol":17,"map":"cp_process_final","folder":"tf","game":"Team Fortress","app_id":440,"player_count":0,"max_players":24,"Bots":0,"server_type":"Dedicated","server_os":"Linux","password":true,"vac":true,"version":"7961495","steam_id":85568392924510198,"keywords":["cp","nocrits","nodmgspread","uncletopia"],"game_id":440,"stv_port":27036,"stv_name":"Uncletopia | Los Angeles | 3 | All Maps | STV","players":null},{"server_id":25,"name":"Uncletopia | Los Angeles | 4 | Stopwatch Beta","name_short":"lax-4","host":"lax-1.us.uncletopia.com","port":27045,"enabled":true,"region":"us-west","cc":"us","latitude":33.94279,"longitude":-118.41004,"reserved":0,"last_update":"0001-01-01T00:00:00Z","name_a2s":"Uncletopia | Los Angeles | 4 | Stopwatch Beta","protocol":17,"map":"pl_upward","folder":"tf","game":"Team Fortress","app_id":440,"player_count":0,"max_players":24,"Bots":0,"server_type":"Dedicated","server_os":"Linux","password":true,"vac":true,"version":"7961495","steam_id":85568392924510199,"keywords":["nocrits","nodmgspread","payload","uncletopia"],"game_id":440,"stv_port":27046,"stv_name":"Uncletopia | Los Angeles | 4 | Stopwatch Beta | STV","players":null},{"server_id":11,"name":"Uncletopia | London | 1 | All Maps","name_short":"lon-1","host":"lon-1.uk.uncletopia.com","port":27015,"enabled":true,"region":"eu","cc":"gb","latitude":51.509865,"longitude":-0.118092,"reserved":0,"last_update":"0001-01-01T00:00:00Z","name_a2s":"Uncletopia | London | 1 | All Maps","protocol":17,"map":"pl_frontier_final","folder":"tf","game":"Team Fortress","app_id":440,"player_count":24,"max_players":24,"Bots":0,"server_type":"Dedicated","server_os":"Linux","password":true,"vac":true,"version":"7961495","steam_id":85568392924367362,"keywords":["nocrits","nodmgspread","payload","uncletopia"],"game_id":440,"stv_port":27016,"stv_name":"Uncletopia | London | 1 | All Maps | STV","players":[{"user_id":92,"name":"Princess Fuzz","steam_id":76561198025783000,"connected_time":3949000000000,"state":"active","ping":37},{"user_id":85,"name":"Life Ruining Techies Addiction","steam_id":76561198298976498,"connected_time":4734000000000,"state":"active","ping":112},{"user_id":141,"name":"spherical, casting spells etc","steam_id":76561198145465595,"connected_time":1419000000000,"state":"active","ping":45},{"user_id":126,"name":"Luuk","steam_id":76561198088266026,"connected_time":2261000000000,"state":"active","ping":45},{"user_id":153,"name":"gaming","steam_id":76561199015038728,"connected_time":647000000000,"state":"active","ping":57},{"user_id":160,"name":"weleenkerk","steam_id":76561198143969491,"connected_time":261000000000,"state":"active","ping":70},{"user_id":111,"name":"Jara.","steam_id":76561197992207165,"connected_time":2963000000000,"state":"active","ping":110},{"user_id":154,"name":"Soaya","steam_id":76561199101510855,"connected_time":644000000000,"state":"active","ping":46},{"user_id":161,"name":"Archer","steam_id":76561197994239444,"connected_time":209000000000,"state":"active","ping":125},{"user_id":118,"name":"krayy (she/her)","steam_id":76561198035037830,"connected_time":2565000000000,"state":"active","ping":55},{"user_id":108,"name":"Commander DM","steam_id":76561198059236770,"connected_time":3065000000000,"state":"active","ping":87},{"user_id":113,"name":"aminoxsos","steam_id":76561198839741609,"connected_time":2930000000000,"state":"active","ping":81},{"user_id":149,"name":"EmptySet","steam_id":76561198089273093,"connected_time":919000000000,"state":"active","ping":41},{"user_id":132,"name":"shr1mple","steam_id":76561198173537027,"connected_time":1935000000000,"state":"active","ping":54},{"user_id":143,"name":"Portal79","steam_id":76561198095499584,"connected_time":1360000000000,"state":"active","ping":67},{"user_id":82,"name":"TomNoSocks","steam_id":76561198114071046,"connected_time":4799000000000,"state":"active","ping":67},{"user_id":128,"name":"Nathan","steam_id":76561198394485387,"connected_time":2193000000000,"state":"active","ping":72},{"user_id":162,"name":"Scobra [FR]","steam_id":76561198000734400,"connected_time":60000000000,"state":"active","ping":108},{"user_id":158,"name":"Octavia (She/Her)","steam_id":76561198181291454,"connected_time":516000000000,"state":"active","ping":55},{"user_id":157,"name":"Jones","steam_id":76561198134347032,"connected_time":525000000000,"state":"active","ping":74},{"user_id":134,"name":"Kabajsa","steam_id":76561198111264439,"connected_time":1854000000000,"state":"active","ping":85},{"user_id":107,"name":"Norman Lamont","steam_id":76561198012673073,"connected_time":3102000000000,"state":"active","ping":47},{"user_id":136,"name":"[PKBG] Pipera","steam_id":76561197998280567,"connected_time":1759000000000,"state":"active","ping":54},{"user_id":38,"name":"breakfast burrito","steam_id":76561198148606969,"connected_time":7741000000000,"state":"active","ping":75}]},{"server_id":114,"name":"Uncletopia | London | 2 | All Maps","name_short":"lon-2","host":"lon-1.uk.uncletopia.com","port":27025,"enabled":true,"region":"eu","cc":"gb","latitude":51.509865,"longitude":-0.118092,"reserved":0,"last_update":"0001-01-01T00:00:00Z","name_a2s":"Uncletopia | London | 2 | All Maps","protocol":17,"map":"cp_sunshine","folder":"tf","game":"Team Fortress","app_id":440,"player_count":14,"max_players":24,"Bots":0,"server_type":"Dedicated","server_os":"Linux","password":true,"vac":true,"version":"7961495","steam_id":85568392924470941,"keywords":["cp","nocrits","nodmgspread","uncletopia"],"game_id":440,"stv_port":27026,"stv_name":"Uncletopia | London | 2 | All Maps | STV","players":[{"user_id":20,"name":"ehs","steam_id":76561198431048339,"connected_time":723000000000,"state":"active","ping":196},{"user_id":14,"name":"Goblin Tinkerer","steam_id":76561199195214616,"connected_time":1242000000000,"state":"active","ping":56},{"user_id":15,"name":"Ascended Noob","steam_id":76561198079411460,"connected_time":1231000000000,"state":"active","ping":54},{"user_id":17,"name":"God's Drunkest Driver","steam_id":76561199174579733,"connected_time":997000000000,"state":"active","ping":112},{"user_id":21,"name":"CIA man","steam_id":76561198112310818,"connected_time":635000000000,"state":"active","ping":76},{"user_id":22,"name":"Remyie","steam_id":76561198131031404,"connected_time":526000000000,"state":"active","ping":96},{"user_id":23,"name":"Robz","steam_id":76561197995807751,"connected_time":417000000000,"state":"active","ping":98},{"user_id":24,"name":"Pomson 6000","steam_id":76561198344588858,"connected_time":366000000000,"state":"active","ping":65},{"user_id":25,"name":"GROSSE MOULE","steam_id":76561198137165783,"connected_time":326000000000,"state":"active","ping":57},{"user_id":30,"name":"toihz","steam_id":76561198228765156,"connected_time":63000000000,"state":"active","ping":96},{"user_id":27,"name":"Lag","steam_id":76561198159360376,"connected_time":161000000000,"state":"active","ping":43},{"user_id":28,"name":"ROX","steam_id":76561198272289320,"connected_time":93000000000,"state":"active","ping":56},{"user_id":29,"name":"Lorenzo Lovers","steam_id":76561198073973581,"connected_time":89000000000,"state":"active","ping":91},{"user_id":31,"name":"Cold Heart","steam_id":76561198109838745,"connected_time":46000000000,"state":"spawning","ping":105}]},{"server_id":320,"name":"Uncletopia | London | 3 | All Maps","name_short":"lon-3","host":"lon-1.uk.uncletopia.com","port":27035,"enabled":true,"region":"eu","cc":"gb","latitude":51.509865,"longitude":-0.118092,"reserved":0,"last_update":"0001-01-01T00:00:00Z","name_a2s":"Uncletopia | London | 3 | All Maps","protocol":17,"map":"pl_borneo","folder":"tf","game":"Team Fortress","app_id":440,"player_count":24,"max_players":24,"Bots":0,"server_type":"Dedicated","server_os":"Linux","password":true,"vac":true,"version":"7961495","steam_id":85568392924510192,"keywords":["nocrits","nodmgspread","payload","uncletopia"],"game_id":440,"stv_port":27036,"stv_name":"Uncletopia | London | 3 | All Maps | STV","players":[{"user_id":45,"name":"Hydrone","steam_id":76561198046485365,"connected_time":2246000000000,"state":"active","ping":44},{"user_id":64,"name":"Rex Z'Beq","steam_id":76561199300590000,"connected_time":833000000000,"state":"active","ping":85},{"user_id":62,"name":"fshfkr","steam_id":76561198095979282,"connected_time":1011000000000,"state":"active","ping":35},{"user_id":14,"name":"Lordware","steam_id":76561198022011299,"connected_time":3720000000000,"state":"active","ping":93},{"user_id":15,"name":"Faxter","steam_id":76561198011771605,"connected_time":3649000000000,"state":"active","ping":68},{"user_id":51,"name":"papi im hungary(((","steam_id":76561198183949987,"connected_time":1820000000000,"state":"active","ping":58},{"user_id":17,"name":"medicinal man","steam_id":76561198202668788,"connected_time":3594000000000,"state":"active","ping":74},{"user_id":22,"name":"≈ªhƒÖ≈Ñ√üƒõ√± ƒ∂ƒÅ¬ßƒô√±√∏v","steam_id":76561198994666888,"connected_time":3391000000000,"state":"active","ping":165},{"user_id":19,"name":"Mario","steam_id":76561198053838936,"connected_time":3499000000000,"state":"active","ping":90},{"user_id":65,"name":"Townsend And Sons","steam_id":76561199072698153,"connected_time":797000000000,"state":"active","ping":70},{"user_id":23,"name":"MovingIsOverRated","steam_id":76561198385633292,"connected_time":3291000000000,"state":"active","ping":183},{"user_id":29,"name":"BD[PL]","steam_id":76561198115995871,"connected_time":2717000000000,"state":"active","ping":90},{"user_id":25,"name":"lipaul777","steam_id":76561199090751367,"connected_time":3157000000000,"state":"active","ping":75},{"user_id":69,"name":"TinyPixel@THG","steam_id":76561198050789840,"connected_time":74000000000,"state":"active","ping":56},{"user_id":66,"name":"Chambersite","steam_id":76561198197022399,"connected_time":782000000000,"state":"active","ping":76},{"user_id":68,"name":"engineer drip","steam_id":76561198991032570,"connected_time":713000000000,"state":"active","ping":97},{"user_id":63,"name":"guy","steam_id":76561198090531755,"connected_time":914000000000,"state":"active","ping":150},{"user_id":59,"name":"Special Agent Big Smoke","steam_id":76561198154468827,"connected_time":1230000000000,"state":"active","ping":74},{"user_id":35,"name":"Uncle Terry","steam_id":76561198396415736,"connected_time":2615000000000,"state":"active","ping":59},{"user_id":67,"name":"2c-based","steam_id":76561198054214390,"connected_time":767000000000,"state":"active","ping":39},{"user_id":61,"name":"Flared","steam_id":76561198018673136,"connected_time":1143000000000,"state":"active","ping":80},{"user_id":43,"name":"Oak","steam_id":76561198067315672,"connected_time":2401000000000,"state":"active","ping":48},{"user_id":42,"name":"Cottonwell","steam_id":76561198374926891,"connected_time":2470000000000,"state":"active","ping":43},{"user_id":48,"name":"MotherRussia1991","steam_id":76561198409584609,"connected_time":1973000000000,"state":"active","ping":63}]},{"server_id":321,"name":"Uncletopia | London | 4 | All Maps","name_short":"lon-4","host":"lon-1.uk.uncletopia.com","port":27045,"enabled":true,"region":"eu","cc":"gb","latitude":51.509865,"longitude":-0.118092,"reserved":0,"last_update":"0001-01-01T00:00:00Z","name_a2s":"Uncletopia | London | 4 | All Maps","protocol":17,"map":"cp_steel","folder":"tf","game":"Team Fortress","app_id":440,"player_count":24,"max_players":24,"Bots":0,"server_type":"Dedicated","server_os":"Linux","password":true,"vac":true,"version":"7961495","steam_id":85568392924510193,"keywords":["cp","nocrits","nodmgspread","uncletopia"],"game_id":440,"stv_port":27046,"stv_name":"Uncletopia | London | 4 | All Maps | STV","players":[{"user_id":79,"name":"sloppy transgirl toppy","steam_id":76561198057092208,"connected_time":4706000000000,"state":"active","ping":70},{"user_id":127,"name":"Dr ADHD MD","steam_id":76561198025252995,"connected_time":781000000000,"state":"active","ping":54},{"user_id":7,"name":"georgeiscool3","steam_id":76561199116151412,"connected_time":8092000000000,"state":"active","ping":66},{"user_id":128,"name":"obi‚ò≠","steam_id":76561198040154461,"connected_time":758000000000,"state":"active","ping":64},{"user_id":146,"name":"e»Ø","steam_id":76561197981757973,"connected_time":82000000000,"state":"active","ping":31},{"user_id":143,"name":"dmEngineer_tf2 #SaveTF2","steam_id":76561199388956338,"connected_time":196000000000,"state":"active","ping":88},{"user_id":145,"name":"sam-","steam_id":76561198013770973,"connected_time":168000000000,"state":"active","ping":69},{"user_id":148,"name":"I have aids","steam_id":76561198860347851,"connected_time":12000000000,"state":"connecting","ping":0},{"user_id":122,"name":"PLATINUM PISSED","steam_id":76561198275955087,"connected_time":1391000000000,"state":"active","ping":64},{"user_id":141,"name":"goblinninja110","steam_id":76561198269159354,"connected_time":535000000000,"state":"active","ping":68},{"user_id":131,"name":"Pastely","steam_id":76561198167718627,"connected_time":744000000000,"state":"active","ping":60},{"user_id":125,"name":"Girlboy Theenie","steam_id":76561198029025500,"connected_time":805000000000,"state":"active","ping":58},{"user_id":147,"name":"Captain Mac","steam_id":76561197971973906,"connected_time":51000000000,"state":"active","ping":54},{"user_id":135,"name":"Shalalala","steam_id":76561198088707470,"connected_time":680000000000,"state":"active","ping":80},{"user_id":133,"name":"mytoyo2k2","steam_id":76561199486326945,"connected_time":732000000000,"state":"active","ping":150},{"user_id":136,"name":"duchess abigail","steam_id":76561198166953966,"connected_time":668000000000,"state":"active","ping":73},{"user_id":49,"name":"kat","steam_id":76561198879664338,"connected_time":6347000000000,"state":"active","ping":72},{"user_id":117,"name":"Genesis","steam_id":76561198999652040,"connected_time":1695000000000,"state":"active","ping":50},{"user_id":138,"name":"INSATIABLE THIRST","steam_id":76561198079446586,"connected_time":655000000000,"state":"active","ping":148},{"user_id":139,"name":"JGV","steam_id":76561198094654971,"connected_time":654000000000,"state":"active","ping":101},{"user_id":89,"name":"Voxel","steam_id":76561199225333422,"connected_time":3792000000000,"state":"active","ping":109},{"user_id":120,"name":"The Irish Eejit","steam_id":76561198027738057,"connected_time":1595000000000,"state":"active","ping":65},{"user_id":109,"name":"–ë–µ–∑ —Å–µ–∫—Å–∞","steam_id":76561198273054399,"connected_time":2081000000000,"state":"active","ping":90},{"user_id":70,"name":":3","steam_id":76561198169471853,"connected_time":5318000000000,"state":"active","ping":41}]},{"server_id":21,"name":"Uncletopia | London | 5 | All Maps","name_short":"lon-5","host":"lon-1.uk.uncletopia.com","port":27055,"enabled":true,"region":"eu","cc":"gb","latitude":51.509865,"longitude":-0.118092,"reserved":0,"last_update":"0001-01-01T00:00:00Z","name_a2s":"Uncletopia | London | 5 | All Maps","protocol":17,"map":"cp_altitude","folder":"tf","game":"Team Fortress","app_id":440,"player_count":0,"max_players":24,"Bots":0,"server_type":"Dedicated","server_os":"Linux","password":true,"vac":true,"version":"7961495","steam_id":85568392924742829,"keywords":["cp","nocrits","nodmgspread","uncletopia"],"game_id":440,"stv_port":27056,"stv_name":"Uncletopia | London | 5 | All Maps | STV","players":null},{"server_id":22,"name":"Uncletopia | London | 6 | All Maps","name_short":"lon-6","host":"lon-1.uk.uncletopia.com","port":27065,"enabled":true,"region":"eu","cc":"gb","latitude":51.509865,"longitude":-0.118092,"reserved":0,"last_update":"0001-01-01T00:00:00Z","name_a2s":"Uncletopia | London | 6 | All Maps","protocol":17,"map":"koth_cascade","folder":"tf","game":"Team Fortress","app_id":440,"player_count":0,"max_players":24,"Bots":0,"server_type":"Dedicated","server_os":"Linux","password":true,"vac":true,"version":"7961495","steam_id":85568392924742830,"keywords":["cp","nocrits","nodmgspread","uncletopia"],"game_id":440,"stv_port":27066,"stv_name":"Uncletopia | London | 6 | All Maps | STV","players":null},{"server_id":40,"name":"Uncletopia | London | 7 | No Payload","name_short":"lon-7","host":"lon-1.uk.uncletopia.com","port":27075,"enabled":true,"region":"eu","cc":"gb","latitude":51.509865,"longitude":-0.118092,"reserved":0,"last_update":"0001-01-01T00:00:00Z","name_a2s":"Uncletopia | London | 7 | No Payload","protocol":17,"map":"pl_pier","folder":"tf","game":"Team Fortress","app_id":440,"player_count":0,"max_players":24,"Bots":0,"server_type":"Dedicated","server_os":"Linux","password":true,"vac":true,"version":"7961495","steam_id":85568392924964314,"keywords":["nocrits","nodmgspread","payload","uncletopia"],"game_id":440,"stv_port":27076,"stv_name":"Uncletopia | London | 7 | No Payload | STV","players":null},{"server_id":41,"name":"Uncletopia | London | 8 | Community","name_short":"lon-8","host":"lon-1.uk.uncletopia.com","port":27085,"enabled":true,"region":"eu","cc":"gb","latitude":51.509865,"longitude":-0.118092,"reserved":0,"last_update":"0001-01-01T00:00:00Z","name_a2s":"Uncletopia | London | 8 | Community","protocol":17,"map":"workshop/pl_highwood_b13.ugc1769496557","folder":"tf","game":"Team Fortress","app_id":440,"player_count":21,"max_players":24,"Bots":0,"server_type":"Dedicated","server_os":"Linux","password":true,"vac":true,"version":"7961495","steam_id":85568392924964315,"keywords":["nocrits","nodmgspread","payload","uncletopia"],"game_id":440,"stv_port":27086,"stv_name":"Uncletopia | London | 8 | Community | STV","players":[{"user_id":3,"name":"Mono","steam_id":76561198114569493,"connected_time":7188000000000,"state":"active","ping":43},{"user_id":102,"name":"Cthulhu F'tagn","steam_id":76561198825499578,"connected_time":343000000000,"state":"active","ping":55},{"user_id":111,"name":"Grekofun","steam_id":76561198758029808,"connected_time":162000000000,"state":"active","ping":89},{"user_id":106,"name":"Jonny J","steam_id":76561198027710849,"connected_time":308000000000,"state":"active","ping":85},{"user_id":107,"name":"hock3n","steam_id":76561198805431094,"connected_time":244000000000,"state":"active","ping":151},{"user_id":82,"name":"pepis enjoyer","steam_id":76561198032472655,"connected_time":1745000000000,"state":"active","ping":61},{"user_id":96,"name":"Nobaddy","steam_id":76561198037871007,"connected_time":1236000000000,"state":"active","ping":83},{"user_id":98,"name":"Eujekas","steam_id":76561198010527145,"connected_time":1056000000000,"state":"active","ping":101},{"user_id":112,"name":"Tobleroney","steam_id":76561198154402655,"connected_time":138000000000,"state":"active","ping":42},{"user_id":110,"name":"SynthBox3","steam_id":76561199094075745,"connected_time":230000000000,"state":"active","ping":92},{"user_id":113,"name":"h","steam_id":76561198149967445,"connected_time":66000000000,"state":"active","ping":31},{"user_id":114,"name":"Michael","steam_id":76561198003146906,"connected_time":66000000000,"state":"active","ping":42},{"user_id":94,"name":"alexable","steam_id":76561198381310350,"connected_time":1277000000000,"state":"active","ping":71},{"user_id":86,"name":"Ferrariracer5f1","steam_id":76561199229815098,"connected_time":1432000000000,"state":"active","ping":54},{"user_id":99,"name":"kloada","steam_id":76561198082113271,"connected_time":819000000000,"state":"active","ping":77},{"user_id":71,"name":"niandits","steam_id":76561198419798900,"connected_time":2205000000000,"state":"active","ping":137},{"user_id":101,"name":"flr","steam_id":76561198249327786,"connected_time":719000000000,"state":"active","ping":60},{"user_id":65,"name":"Kranerian","steam_id":76561198024996773,"connected_time":2610000000000,"state":"active","ping":115},{"user_id":100,"name":"Mega Man Legends 3","steam_id":76561198014110199,"connected_time":778000000000,"state":"active","ping":44},{"user_id":38,"name":"Ricey","steam_id":76561198832961307,"connected_time":4222000000000,"state":"active","ping":46},{"user_id":88,"name":"Comely Crocosmia ·Éö( ‚ó° (·Éö","steam_id":76561197973515380,"connected_time":1427000000000,"state":"active","ping":60}]},{"server_id":300,"name":"Uncletopia | Montr√©al | 1 | All Maps","name_short":"mtl-1","host":"mtl-1.ca.uncletopia.com","port":27015,"enabled":true,"region":"us-east","cc":"ca","latitude":45.50889,"longitude":-73.56167,"reserved":0,"last_update":"0001-01-01T00:00:00Z","name_a2s":"Uncletopia | Montr√©al | 1 | All Maps","protocol":17,"map":"pl_swiftwater_final1","folder":"tf","game":"Team Fortress","app_id":440,"player_count":0,"max_players":24,"Bots":0,"server_type":"Dedicated","server_os":"Linux","password":true,"vac":true,"version":"7961495","steam_id":85568392924500087,"keywords":["nocrits","nodmgspread","payload","uncletopia"],"game_id":440,"stv_port":27016,"stv_name":"Uncletopia | Montr√©al | 1 | All Maps | STV","players":null},{"server_id":301,"name":"Uncletopia | Montr√©al | 2 | All Maps","name_short":"mtl-2","host":"mtl-1.ca.uncletopia.com","port":27025,"enabled":true,"region":"us-east","cc":"ca","latitude":45.50889,"longitude":-73.56167,"reserved":0,"last_update":"0001-01-01T00:00:00Z","name_a2s":"Uncletopia | Montr√©al | 2 | All Maps","protocol":17,"map":"pl_swiftwater_final1","folder":"tf","game":"Team Fortress","app_id":440,"player_count":0,"max_players":24,"Bots":0,"server_type":"Dedicated","server_os":"Linux","password":true,"vac":true,"version":"7961495","steam_id":85568392924500088,"keywords":["nocrits","nodmgspread","payload","uncletopia"],"game_id":440,"stv_port":27026,"stv_name":"Uncletopia | Montr√©al | 2 | All Maps | STV","players":null},{"server_id":302,"name":"Uncletopia | Montr√©al | 3 | All Maps","name_short":"mtl-3","host":"mtl-1.ca.uncletopia.com","port":27035,"enabled":true,"region":"us-east","cc":"ca","latitude":45.50889,"longitude":-73.56167,"reserved":0,"last_update":"0001-01-01T00:00:00Z","name_a2s":"Uncletopia | Montr√©al | 3 | All Maps","protocol":17,"map":"koth_cascade","folder":"tf","game":"Team Fortress","app_id":440,"player_count":0,"max_players":24,"Bots":0,"server_type":"Dedicated","server_os":"Linux","password":true,"vac":true,"version":"7961495","steam_id":85568392924500089,"keywords":["cp","nocrits","nodmgspread","uncletopia"],"game_id":440,"stv_port":27036,"stv_name":"Uncletopia | Montr√©al | 3 | All Maps | STV","players":null},{"server_id":303,"name":"Uncletopia | Montr√©al | 4 | No Payload","name_short":"mtl-4","host":"mtl-1.ca.uncletopia.com","port":27045,"enabled":true,"region":"us-east","cc":"ca","latitude":45.50889,"longitude":-73.56167,"reserved":0,"last_update":"0001-01-01T00:00:00Z","name_a2s":"Uncletopia | Montr√©al | 4 | No Payload","protocol":17,"map":"koth_lakeside_final","folder":"tf","game":"Team Fortress","app_id":440,"player_count":0,"max_players":24,"Bots":0,"server_type":"Dedicated","server_os":"Linux","password":true,"vac":true,"version":"7961495","steam_id":85568392924500090,"keywords":["cp","nocrits","nodmgspread","uncletopia"],"game_id":440,"stv_port":27046,"stv_name":"Uncletopia | Montr√©al | 4 | No Payload | STV","players":null},{"server_id":13,"name":"Uncletopia | New York City | 1 | All Maps","name_short":"nyc-1","host":"nyc-1.us.uncletopia.com","port":27015,"enabled":true,"region":"us-east","cc":"us","latitude":40.73061,"longitude":-73.93524,"reserved":0,"last_update":"0001-01-01T00:00:00Z","name_a2s":"Uncletopia | New York City | 1 | All Maps","protocol":17,"map":"pl_pier","folder":"tf","game":"Team Fortress","app_id":440,"player_count":0,"max_players":24,"Bots":0,"server_type":"Dedicated","server_os":"Linux","password":true,"vac":true,"version":"7961495","steam_id":85568392924469993,"keywords":["nocrits","nodmgspread","payload","uncletopia"],"game_id":440,"stv_port":27016,"stv_name":"Uncletopia | New York City | 1 | All Maps | STV","players":null},{"server_id":14,"name":"Uncletopia | New York City | 2 | All Maps","name_short":"nyc-2","host":"nyc-1.us.uncletopia.com","port":27025,"enabled":true,"region":"us-east","cc":"us","latitude":40.73061,"longitude":-73.93524,"reserved":0,"last_update":"0001-01-01T00:00:00Z","name_a2s":"Uncletopia | New York City | 2 | All Maps","protocol":17,"map":"pl_snowycoast","folder":"tf","game":"Team Fortress","app_id":440,"player_count":19,"max_players":24,"Bots":0,"server_type":"Dedicated","server_os":"Linux","password":true,"vac":true,"version":"7961495","steam_id":85568392924469994,"keywords":["nocrits","nodmgspread","payload","uncletopia"],"game_id":440,"stv_port":27026,"stv_name":"Uncletopia | New York City | 2 | All Maps | STV","players":[{"user_id":7,"name":"xochiquetzal","steam_id":76561199064278937,"connected_time":3886000000000,"state":"active","ping":69},{"user_id":65,"name":"el wiwi","steam_id":76561198857304367,"connected_time":45000000000,"state":"active","ping":68},{"user_id":52,"name":"1-800-GHOST-DANCE","steam_id":76561198835430429,"connected_time":1395000000000,"state":"active","ping":75},{"user_id":10,"name":"YourFriendJessie","steam_id":76561198176883097,"connected_time":3587000000000,"state":"active","ping":46},{"user_id":61,"name":"sqerkbo","steam_id":76561198080012700,"connected_time":275000000000,"state":"active","ping":45},{"user_id":58,"name":"Psychosis","steam_id":76561198078659070,"connected_time":650000000000,"state":"active","ping":62},{"user_id":62,"name":"„Éì„Éº„Éä„Éº","steam_id":76561199196918355,"connected_time":250000000000,"state":"active","ping":60},{"user_id":57,"name":"Mr.Hour's 24 Hour Island Challe","steam_id":76561198018995498,"connected_time":785000000000,"state":"active","ping":53},{"user_id":66,"name":"stik","steam_id":76561199482425460,"connected_time":38000000000,"state":"spawning","ping":230},{"user_id":18,"name":"jeremy_wreckage 1337","steam_id":76561198206943507,"connected_time":3280000000000,"state":"active","ping":55},{"user_id":54,"name":"Kaze","steam_id":76561199062949963,"connected_time":1338000000000,"state":"active","ping":70},{"user_id":67,"name":"junior","steam_id":76561198065283506,"connected_time":36000000000,"state":"active","ping":153},{"user_id":56,"name":"bone hurting juice","steam_id":76561198095452955,"connected_time":811000000000,"state":"active","ping":60},{"user_id":47,"name":"TYLER","steam_id":76561198841399048,"connected_time":1727000000000,"state":"active","ping":583},{"user_id":68,"name":"MrDudeMan","steam_id":76561198959351282,"connected_time":28000000000,"state":"active","ping":82},{"user_id":39,"name":"Fletcher","steam_id":76561198317846538,"connected_time":2307000000000,"state":"active","ping":49},{"user_id":64,"name":"puffy","steam_id":76561198411347037,"connected_time":62000000000,"state":"active","ping":49},{"user_id":31,"name":"Popop","steam_id":76561198004793795,"connected_time":3150000000000,"state":"active","ping":111},{"user_id":60,"name":"22:57","steam_id":76561198025668771,"connected_time":402000000000,"state":"active","ping":120}]},{"server_id":15,"name":"Uncletopia | New York City | 3 | Stopwatch Beta","name_short":"nyc-3","host":"nyc-1.us.uncletopia.com","port":27035,"enabled":true,"region":"us-east","cc":"us","latitude":40.73061,"longitude":-73.93524,"reserved":0,"last_update":"0001-01-01T00:00:00Z","name_a2s":"Uncletopia | New York City | 3 | Stopwatch Beta","protocol":17,"map":"cp_mountainlab","folder":"tf","game":"Team Fortress","app_id":440,"player_count":0,"max_players":24,"Bots":0,"server_type":"Dedicated","server_os":"Linux","password":true,"vac":true,"version":"7961495","steam_id":85568392924742820,"keywords":["cp","nocrits","nodmgspread","uncletopia"],"game_id":440,"stv_port":27036,"stv_name":"Uncletopia | New York City | 3 | Stopwatch Beta | STV","players":null},{"server_id":16,"name":"Uncletopia | New York City | 4 | Community","name_short":"nyc-4","host":"nyc-1.us.uncletopia.com","port":27045,"enabled":true,"region":"us-east","cc":"us","latitude":40.73061,"longitude":-73.93524,"reserved":0,"last_update":"0001-01-01T00:00:00Z","name_a2s":"Uncletopia | New York City | 4 | Community","protocol":17,"map":"koth_lakeside_final","folder":"tf","game":"Team Fortress","app_id":440,"player_count":0,"max_players":24,"Bots":0,"server_type":"Dedicated","server_os":"Linux","password":true,"vac":true,"version":"7961495","steam_id":85568392924742821,"keywords":["cp","nocrits","nodmgspread","uncletopia"],"game_id":440,"stv_port":27046,"stv_name":"Uncletopia | New York City | 4 | Community | STV","players":null},{"server_id":142,"name":"Uncletopia | S√£o Paulo | 1 | All Maps","name_short":"sao-1","host":"sao-1.br.uncletopia.com","port":27015,"enabled":true,"region":"sa","cc":"br","latitude":-23.533773,"longitude":-46.62529,"reserved":0,"last_update":"0001-01-01T00:00:00Z","name_a2s":"Uncletopia | S√£o Paulo | 1 | All Maps","protocol":17,"map":"koth_highpass","folder":"tf","game":"Team Fortress","app_id":440,"player_count":0,"max_players":24,"Bots":0,"server_type":"Dedicated","server_os":"Linux","password":true,"vac":true,"version":"7961495","steam_id":85568392924469996,"keywords":["cp","nocrits","nodmgspread","uncletopia"],"game_id":440,"stv_port":27016,"stv_name":"Uncletopia | S√£o Paulo | 1 | All Maps | STV","players":null},{"server_id":143,"name":"Uncletopia | S√£o Paulo | 2 | Community","name_short":"sao-2","host":"sao-2.br.uncletopia.com","port":27015,"enabled":true,"region":"sa","cc":"br","latitude":-23.533773,"longitude":-46.62529,"reserved":0,"last_update":"0001-01-01T00:00:00Z","name_a2s":"Uncletopia | S√£o Paulo | 2 | Community","protocol":17,"map":"cp_snakewater_final1","folder":"tf","game":"Team Fortress","app_id":440,"player_count":0,"max_players":24,"Bots":0,"server_type":"Dedicated","server_os":"Linux","password":true,"vac":true,"version":"7961495","steam_id":85568392924485349,"keywords":["cp","nocrits","nodmgspread","uncletopia"],"game_id":440,"stv_port":27016,"stv_name":"Uncletopia | S√£o Paulo | 2 | Community | STV","players":null},{"server_id":7,"name":"Uncletopia | Seattle | 1 | All Maps","name_short":"sea-1","host":"sea-1.us.uncletopia.com","port":27015,"enabled":true,"region":"us-west","cc":"us","latitude":47.608013,"longitude":-122.33517,"reserved":0,"last_update":"0001-01-01T00:00:00Z","name_a2s":"Uncletopia | Seattle | 1 | All Maps","protocol":17,"map":"koth_lakeside_final","folder":"tf","game":"Team Fortress","app_id":440,"player_count":0,"max_players":24,"Bots":0,"server_type":"Dedicated","server_os":"Linux","password":true,"vac":true,"version":"7961495","steam_id":85568392924469997,"keywords":["cp","nocrits","nodmgspread","uncletopia"],"game_id":440,"stv_port":27016,"stv_name":"Uncletopia | Seattle | 1 | All Maps | STV","players":null},{"server_id":119,"name":"Uncletopia | Seattle | 2 | All Maps","name_short":"sea-2","host":"sea-1.us.uncletopia.com","port":27025,"enabled":true,"region":"us-west","cc":"us","latitude":47.608013,"longitude":-122.33517,"reserved":0,"last_update":"0001-01-01T00:00:00Z","name_a2s":"Uncletopia | Seattle | 2 | All Maps","protocol":17,"map":"cp_process_final","folder":"tf","game":"Team Fortress","app_id":440,"player_count":0,"max_players":24,"Bots":0,"server_type":"Dedicated","server_os":"Linux","password":true,"vac":true,"version":"7961495","steam_id":85568392924469998,"keywords":["cp","nocrits","nodmgspread","uncletopia"],"game_id":440,"stv_port":27026,"stv_name":"Uncletopia | Seattle | 2 | All Maps | STV","players":null},{"server_id":406,"name":"Uncletopia | Seattle | 3 | Stopwatch Beta","name_short":"sea-3","host":"sea-1.us.uncletopia.com","port":27035,"enabled":true,"region":"us-west","cc":"us","latitude":47.608013,"longitude":-122.33517,"reserved":0,"last_update":"0001-01-01T00:00:00Z","name_a2s":"Uncletopia | Seattle | 3 | Stopwatch Beta","protocol":17,"map":"koth_lakeside_final","folder":"tf","game":"Team Fortress","app_id":440,"player_count":0,"max_players":24,"Bots":0,"server_type":"Dedicated","server_os":"Linux","password":true,"vac":true,"version":"7961495","steam_id":85568392924515217,"keywords":["cp","nocrits","nodmgspread","uncletopia"],"game_id":440,"stv_port":27036,"stv_name":"Uncletopia | Seattle | 3 | Stopwatch Beta | STV","players":null},{"server_id":17,"name":"Uncletopia | San Francisco | 1 | All Maps","name_short":"sfo-1","host":"sfo-1.us.uncletopia.com","port":27015,"enabled":true,"region":"us-west","cc":"us","latitude":37.77397,"longitude":-122.4313,"reserved":0,"last_update":"0001-01-01T00:00:00Z","name_a2s":"Uncletopia | San Francisco | 1 | All Maps","protocol":17,"map":"pl_snowycoast","folder":"tf","game":"Team Fortress","app_id":440,"player_count":0,"max_players":24,"Bots":0,"server_type":"Dedicated","server_os":"Linux","password":true,"vac":true,"version":"7961495","steam_id":85568392924469999,"keywords":["nocrits","nodmgspread","payload","uncletopia"],"game_id":440,"stv_port":27016,"stv_name":"Uncletopia | San Francisco | 1 | All Maps | STV","players":null},{"server_id":18,"name":"Uncletopia | San Francisco | 2 | All Maps","name_short":"sfo-2","host":"sfo-1.us.uncletopia.com","port":27025,"enabled":true,"region":"us-west","cc":"us","latitude":37.77397,"longitude":-122.4313,"reserved":0,"last_update":"0001-01-01T00:00:00Z","name_a2s":"Uncletopia | San Francisco | 2 | All Maps","protocol":17,"map":"pl_pier","folder":"tf","game":"Team Fortress","app_id":440,"player_count":0,"max_players":24,"Bots":0,"server_type":"Dedicated","server_os":"Linux","password":true,"vac":true,"version":"7961495","steam_id":85568392924470000,"keywords":["nocrits","nodmgspread","payload","uncletopia"],"game_id":440,"stv_port":27026,"stv_name":"Uncletopia | San Francisco | 2 | All Maps | STV","players":null},{"server_id":19,"name":"Uncletopia | San Francisco | 3 | Stopwatch Beta","name_short":"sfo-3","host":"sfo-1.us.uncletopia.com","port":27035,"enabled":true,"region":"us-west","cc":"us","latitude":37.77397,"longitude":-122.4313,"reserved":0,"last_update":"0001-01-01T00:00:00Z","name_a2s":"Uncletopia | San Francisco | 3 | Stopwatch Beta","protocol":17,"map":"pl_borneo","folder":"tf","game":"Team Fortress","app_id":440,"player_count":0,"max_players":24,"Bots":0,"server_type":"Dedicated","server_os":"Linux","password":true,"vac":true,"version":"7961495","steam_id":85568392924742824,"keywords":["nocrits","nodmgspread","payload","uncletopia"],"game_id":440,"stv_port":27036,"stv_name":"Uncletopia | San Francisco | 3 | Stopwatch Beta | STV","players":null},{"server_id":20,"name":"Uncletopia | San Francisco | 4 | Community","name_short":"sfo-4","host":"sfo-1.us.uncletopia.com","port":27045,"enabled":true,"region":"us-west","cc":"us","latitude":37.77397,"longitude":-122.4313,"reserved":0,"last_update":"0001-01-01T00:00:00Z","name_a2s":"Uncletopia | San Francisco | 4 | Community","protocol":17,"map":"koth_viaduct","folder":"tf","game":"Team Fortress","app_id":440,"player_count":0,"max_players":24,"Bots":0,"server_type":"Dedicated","server_os":"Linux","password":true,"vac":true,"version":"7961495","steam_id":85568392924742826,"keywords":["cp","nocrits","nodmgspread","uncletopia"],"game_id":440,"stv_port":27046,"stv_name":"Uncletopia | San Francisco | 4 | Community | STV","players":null},{"server_id":141,"name":"Uncletopia | Sydney | 1 | All Maps","name_short":"syd-1","host":"syd-1.au.uncletopia.com","port":27015,"enabled":true,"region":"au","cc":"au","latitude":-33.865143,"longitude":151.2099,"reserved":0,"last_update":"0001-01-01T00:00:00Z","name_a2s":"Uncletopia | Sydney | 1 | All Maps","protocol":17,"map":"plr_hightower","folder":"tf","game":"Team Fortress","app_id":440,"player_count":0,"max_players":24,"Bots":0,"server_type":"Dedicated","server_os":"Linux","password":true,"vac":true,"version":"7961495","steam_id":85568392924470001,"keywords":["nocrits","nodmgspread","payload","uncletopia"],"game_id":440,"stv_port":27016,"stv_name":"Uncletopia | Sydney | 1 | All Maps | STV","players":null},{"server_id":123,"name":"Uncletopia | Sydney | 2 | All Maps","name_short":"syd-2","host":"syd-1.au.uncletopia.com","port":27025,"enabled":true,"region":"au","cc":"au","latitude":-33.865143,"longitude":151.2099,"reserved":0,"last_update":"0001-01-01T00:00:00Z","name_a2s":"Uncletopia | Sydney | 2 | All Maps","protocol":17,"map":"pl_swiftwater_final1","folder":"tf","game":"Team Fortress","app_id":440,"player_count":0,"max_players":24,"Bots":0,"server_type":"Dedicated","server_os":"Linux","password":true,"vac":true,"version":"7961495","steam_id":85568392924470002,"keywords":["nocrits","nodmgspread","payload","uncletopia"],"game_id":440,"stv_port":27026,"stv_name":"Uncletopia | Sydney | 2 | All Maps | STV","players":null},{"server_id":395,"name":"Uncletopia | Sydney | 3 | All Maps","name_short":"syd-3","host":"syd-1.au.uncletopia.com","port":27035,"enabled":true,"region":"au","cc":"au","latitude":-33.865143,"longitude":151.2099,"reserved":0,"last_update":"0001-01-01T00:00:00Z","name_a2s":"Uncletopia | Sydney | 3 | All Maps","protocol":17,"map":"cp_dustbowl","folder":"tf","game":"Team Fortress","app_id":440,"player_count":0,"max_players":24,"Bots":0,"server_type":"Dedicated","server_os":"Linux","password":true,"vac":true,"version":"7961495","steam_id":85568392925194467,"keywords":["cp","nocrits","nodmgspread","uncletopia"],"game_id":440,"stv_port":27036,"stv_name":"Uncletopia | Sydney | 3 | All Maps | STV","players":null},{"server_id":396,"name":"Uncletopia | Sydney | 4 | All Maps","name_short":"syd-4","host":"syd-1.au.uncletopia.com","port":27045,"enabled":true,"region":"au","cc":"au","latitude":-33.865143,"longitude":151.2099,"reserved":0,"last_update":"0001-01-01T00:00:00Z","name_a2s":"Uncletopia | Sydney | 4 | All Maps","protocol":17,"map":"cp_mountainlab","folder":"tf","game":"Team Fortress","app_id":440,"player_count":0,"max_players":24,"Bots":0,"server_type":"Dedicated","server_os":"Linux","password":true,"vac":true,"version":"7961495","steam_id":85568392925397958,"keywords":["cp","nocrits","nodmgspread","uncletopia"],"game_id":440,"stv_port":27046,"stv_name":"Uncletopia | Sydney | 4 | All Maps | STV","players":null},{"server_id":58,"name":"Uncletopia | Sydney | 5 | Stopwatch Beta","name_short":"syd-5","host":"syd-1.au.uncletopia.com","port":27055,"enabled":true,"region":"au","cc":"au","latitude":-33.865143,"longitude":151.2099,"reserved":0,"last_update":"0001-01-01T00:00:00Z","name_a2s":"Uncletopia | Sydney | 5 | Stopwatch Beta","protocol":17,"map":"koth_viaduct","folder":"tf","game":"Team Fortress","app_id":440,"player_count":0,"max_players":24,"Bots":0,"server_type":"Dedicated","server_os":"Linux","password":true,"vac":true,"version":"7961495","steam_id":85568392925397959,"keywords":["cp","nocrits","nodmgspread","uncletopia"],"game_id":440,"stv_port":27056,"stv_name":"Uncletopia | Sydney | 5 | Stopwatch Beta | STV","players":null},{"server_id":59,"name":"Uncletopia | Sydney | 6 | Community","name_short":"syd-6","host":"syd-1.au.uncletopia.com","port":27065,"enabled":true,"region":"au","cc":"au","latitude":-33.865143,"longitude":151.2099,"reserved":0,"last_update":"0001-01-01T00:00:00Z","name_a2s":"Uncletopia | Sydney | 6 | Community","protocol":17,"map":"koth_cascade","folder":"tf","game":"Team Fortress","app_id":440,"player_count":0,"max_players":24,"Bots":0,"server_type":"Dedicated","server_os":"Linux","password":true,"vac":true,"version":"7961495","steam_id":85568392925397960,"keywords":["cp","nocrits","nodmgspread","uncletopia"],"game_id":440,"stv_port":27066,"stv_name":"Uncletopia | Sydney | 6 | Community | STV","players":null},{"server_id":49,"name":"Uncletopia | Warsaw | 1 | All Maps","name_short":"waw-1","host":"waw-1.pl.uncletopia.com","port":27015,"enabled":true,"region":"eu","cc":"pl","latitude":52.2297,"longitude":21.017532,"reserved":0,"last_update":"0001-01-01T00:00:00Z","name_a2s":"Uncletopia | Warsaw | 1 | All Maps","protocol":17,"map":"koth_highpass","folder":"tf","game":"Team Fortress","app_id":440,"player_count":0,"max_players":24,"Bots":0,"server_type":"Dedicated","server_os":"Linux","password":true,"vac":true,"version":"7961495","steam_id":85568392925397850,"keywords":["cp","nocrits","nodmgspread","uncletopia"],"game_id":440,"stv_port":27016,"stv_name":"Uncletopia | Warsaw | 1 | All Maps | STV","players":null},{"server_id":50,"name":"Uncletopia | Warsaw | 2 | All Maps","name_short":"waw-2","host":"waw-1.pl.uncletopia.com","port":27025,"enabled":true,"region":"eu","cc":"pl","latitude":52.2297,"longitude":21.017532,"reserved":0,"last_update":"0001-01-01T00:00:00Z","name_a2s":"Uncletopia | Warsaw | 2 | All Maps","protocol":17,"map":"cp_sunshine","folder":"tf","game":"Team Fortress","app_id":440,"player_count":8,"max_players":24,"Bots":0,"server_type":"Dedicated","server_os":"Linux","password":true,"vac":true,"version":"7961495","steam_id":85568392925397851,"keywords":["cp","nocrits","nodmgspread","uncletopia"],"game_id":440,"stv_port":27026,"stv_name":"Uncletopia | Warsaw | 2 | All Maps | STV","players":[{"user_id":247,"name":"2007","steam_id":76561199154081977,"connected_time":1271000000000,"state":"active","ping":70},{"user_id":258,"name":"Dry","steam_id":76561198027164095,"connected_time":845000000000,"state":"active","ping":104},{"user_id":259,"name":"tjeeena gubbbnnn","steam_id":76561199163884827,"connected_time":832000000000,"state":"active","ping":104},{"user_id":261,"name":"I'm breathing in the chemicals.","steam_id":76561198343328308,"connected_time":639000000000,"state":"active","ping":73},{"user_id":252,"name":"Baiterz","steam_id":76561198030815786,"connected_time":1036000000000,"state":"active","ping":75},{"user_id":97,"name":"halow","steam_id":76561198061505163,"connected_time":14412000000000,"state":"active","ping":68},{"user_id":235,"name":"Strangerdanger","steam_id":76561198206728500,"connected_time":3061000000000,"state":"active","ping":80},{"user_id":254,"name":"Fuvuk","steam_id":76561198044458593,"connected_time":1014000000000,"state":"active","ping":104}]},{"server_id":51,"name":"Uncletopia | Warsaw | 3 | All Maps","name_short":"waw-3","host":"waw-1.pl.uncletopia.com","port":27035,"enabled":true,"region":"eu","cc":"pl","latitude":52.2297,"longitude":21.017532,"reserved":0,"last_update":"0001-01-01T00:00:00Z","name_a2s":"Uncletopia | Warsaw | 3 | All Maps","protocol":17,"map":"pl_badwater","folder":"tf","game":"Team Fortress","app_id":440,"player_count":0,"max_players":24,"Bots":0,"server_type":"Dedicated","server_os":"Linux","password":true,"vac":true,"version":"7961495","steam_id":85568392925397852,"keywords":["nocrits","nodmgspread","payload","uncletopia"],"game_id":440,"stv_port":27036,"stv_name":"Uncletopia | Warsaw | 3 | All Maps | STV","players":null},{"server_id":52,"name":"Uncletopia | Warsaw | 4 | All Maps","name_short":"waw-4","host":"waw-1.pl.uncletopia.com","port":27045,"enabled":true,"region":"eu","cc":"pl","latitude":52.2297,"longitude":21.017532,"reserved":0,"last_update":"0001-01-01T00:00:00Z","name_a2s":"Uncletopia | Warsaw | 4 | All Maps","protocol":17,"map":"koth_viaduct","folder":"tf","game":"Team Fortress","app_id":440,"player_count":0,"max_players":24,"Bots":0,"server_type":"Dedicated","server_os":"Linux","password":true,"vac":true,"version":"7961495","steam_id":85568392925397853,"keywords":["cp","nocrits","nodmgspread","uncletopia"],"game_id":440,"stv_port":27046,"stv_name":"Uncletopia | Warsaw | 4 | All Maps | STV","players":null},{"server_id":53,"name":"Uncletopia | Warsaw | 5 | Stopwatch Beta","name_short":"waw-5","host":"waw-1.pl.uncletopia.com","port":27055,"enabled":true,"region":"eu","cc":"pl","latitude":52.2297,"longitude":21.017532,"reserved":0,"last_update":"0001-01-01T00:00:00Z","name_a2s":"Uncletopia | Warsaw | 5 | Stopwatch Beta","protocol":17,"map":"cp_sunshine","folder":"tf","game":"Team Fortress","app_id":440,"player_count":0,"max_players":24,"Bots":0,"server_type":"Dedicated","server_os":"Linux","password":true,"vac":true,"version":"7961495","steam_id":85568392925397854,"keywords":["cp","nocrits","nodmgspread","uncletopia"],"game_id":440,"stv_port":27056,"stv_name":"Uncletopia | Warsaw | 5 | Stopwatch Beta | STV","players":null},{"server_id":54,"name":"Uncletopia | Warsaw | 6 | Community","name_short":"waw-6","host":"waw-1.pl.uncletopia.com","port":27065,"enabled":true,"region":"eu","cc":"pl","latitude":52.2297,"longitude":21.017532,"reserved":0,"last_update":"0001-01-01T00:00:00Z","name_a2s":"Uncletopia | Warsaw | 6 | Community","protocol":17,"map":"cp_mountainlab","folder":"tf","game":"Team Fortress","app_id":440,"player_count":0,"max_players":24,"Bots":0,"server_type":"Dedicated","server_os":"Linux","password":true,"vac":true,"version":"7961495","steam_id":85568392925397856,"keywords":["cp","nocrits","nodmgspread","uncletopia"],"game_id":440,"stv_port":27066,"stv_name":"Uncletopia | Warsaw | 6 | Community | STV","players":null}]}