{"status":true,"message":"","result":[{"server_id":9,"name":"Uncletopia | Atlanta | 1 | All Maps","name_short":"atl-1","host":"atl-1.us.uncletopia.com","port":27015,"enabled":true,"region":"us-east","cc":"us","latitude":33.753746,"longitude":-84.38633,"reserved":0,"last_update":"0001-01-01T00:00:00Z","name_a2s":"Uncletopia | Atlanta | 1 | All Maps","protocol":17,"map":"pl_upward","folder":"tf","game":"Team Fortress","app_id":440,"player_count":0,"max_players":24,"Bots":0,"server_type":"Dedicated","server_os":"Linux","password":true,"vac":true,"version":"7723704","steam_id":85568392924469982,"keywords":["nocrits","nodmgspread","payload","uncletopia"],"game_id":440,"stv_port":27016,"stv_name":"Uncletopia | Atlanta | 1 | All Maps | STV","players":null},{"server_id":400,"name":"Uncletopia | Atlanta | 3 | All Maps","name_short":"atl-3","host":"atl-1.us.uncletopia.com","port":27035,"enabled":true,"region":"us-east","cc":"us","latitude":33.753746,"longitude":-84.38633,"reserved":0,"last_update":"0001-01-01T00:00:00Z","name_a2s":"Uncletopia | Atlanta | 3 | All Maps","protocol":17,"map":"cp_sunshine","folder":"tf","game":"Team Fortress","app_id":440,"player_count":0,"max_players":24,"Bots":0,"server_type":"Dedicated","server_os":"Linux","password":true,"vac":true,"version":"7723704","steam_id":85568392924515187,"keywords":["cp","nocrits","nodmgspread","uncletopia"],"game_id":440,"stv_port":27036,"stv_name":"Uncletopia | Atlanta | 3 | All Maps | STV","players":null},{"server_id":401,"name":"Uncletopia | Atlanta | 4 | No Payload","name_short":"atl-4","host":"atl-1.us.uncletopia.com","port":27045,"enabled":true,"region":"us-east","cc":"us","latitude":33.753746,"longitude":-84.38633,"reserved":0,"last_update":"0001-01-01T00:00:00Z","name_a2s":"Uncletopia | Atlanta | 4 | No Payload","protocol":17,"map":"cp_sunshine","folder":"tf","game":"Team Fortress","app_id":440,"player_count":0,"max_players":24,"Bots":0,"server_type":"Dedicated","server_os":"Linux","password":true,"vac":true,"version":"7723704","steam_id":85568392924515188,"keywords":["cp","nocrits","nodmgspread","uncletopia"],"game_id":440,"stv_port":27046,"stv_name":"Uncletopia | Atlanta | 4 | No Payload | STV","players":null},{"server_id":2,"name":"Uncletopia | Chicago | 1 | All Maps","name_short":"chi-1","host":"chi-1.us.uncletopia.com","port":27015,"enabled":true,"region":"us-central","cc":"us","latitude":41.881832,"longitude":-87.62318,"reserved":0,"last_update":"0001-01-01T00:00:00Z","name_a2s":"Uncletopia | Chicago | 1 | All Maps","protocol":17,"map":"pl_swiftwater_final1","folder":"tf","game":"Team Fortress","app_id":440,"player_count":24,"max_players":24,"Bots":0,"server_type":"Dedicated","server_os":"Linux","password":true,"vac":true,"version":"7723704","steam_id":85568392924469984,"keywords":["nocrits","nodmgspread","payload","uncletopia"],"game_id":440,"stv_port":27016,"stv_name":"Uncletopia | Chicago | 1 | All Maps | STV","players":[{"user_id":3,"name":"√íw√ì","steam_id":76561197997304387,"connected_time":6628000000000,"state":"active","ping":64},{"user_id":74,"name":"Blue Sea","steam_id":76561198156077339,"connected_time":566000000000,"state":"active","ping":88},{"user_id":54,"name":"Vem","steam_id":76561198117273112,"connected_time":1734000000000,"state":"active","ping":68},{"user_id":78,"name":"Taste the Pain","steam_id":76561198081617990,"connected_time":96000000000,"state":"active","ping":96},{"user_id":70,"name":"asbestos","steam_id":76561198079178866,"connected_time":693000000000,"state":"active","ping":63},{"user_id":42,"name":"kablong","steam_id":76561199094392047,"connected_time":2543000000000,"state":"active","ping":84},{"user_id":79,"name":"Rice2MeetYou","steam_id":76561198025504965,"connected_time":80000000000,"state":"active","ping":60},{"user_id":72,"name":"Publo","steam_id":76561198161777140,"connected_time":603000000000,"state":"active","ping":77},{"user_id":58,"name":"bobdragon27","steam_id":76561198065833387,"connected_time":1173000000000,"state":"active","ping":60},{"user_id":45,"name":"MasterAmongRust","steam_id":76561198010160233,"connected_time":2234000000000,"state":"active","ping":70},{"user_id":66,"name":"Im High","steam_id":76561198049954886,"connected_time":828000000000,"state":"active","ping":65},{"user_id":16,"name":"Sickmind33","steam_id":76561198036248611,"connected_time":3966000000000,"state":"active","ping":52},{"user_id":55,"name":"PadrePockets","steam_id":76561197993251606,"connected_time":1643000000000,"state":"active","ping":66},{"user_id":63,"name":"Grassman (Cc)","steam_id":76561198026488532,"connected_time":977000000000,"state":"active","ping":92},{"user_id":80,"name":"Kragilonia","steam_id":76561198027228885,"connected_time":35000000000,"state":"active","ping":98},{"user_id":73,"name":"Ashlyn Rose","steam_id":76561198010426409,"connected_time":588000000000,"state":"active","ping":106},{"user_id":49,"name":"BioWeapons","steam_id":76561199038566105,"connected_time":1952000000000,"state":"active","ping":122},{"user_id":75,"name":"OKlWONT","steam_id":76561198060328407,"connected_time":490000000000,"state":"active","ping":68},{"user_id":51,"name":"Fitts1099","steam_id":76561198044986906,"connected_time":1835000000000,"state":"active","ping":50},{"user_id":77,"name":"Spinch","steam_id":76561198296224166,"connected_time":186000000000,"state":"active","ping":92},{"user_id":29,"name":"Quentin","steam_id":76561198032941413,"connected_time":3339000000000,"state":"active","ping":79},{"user_id":30,"name":"Draconic Ballad","steam_id":76561198027191515,"connected_time":3338000000000,"state":"active","ping":57},{"user_id":46,"name":"‡πá","steam_id":76561198039763676,"connected_time":2230000000000,"state":"active","ping":66},{"user_id":61,"name":"Bigger bathroom","steam_id":76561198034771900,"connected_time":1057000000000,"state":"active","ping":72}]},{"server_id":106,"name":"Uncletopia | Chicago | 2 | All Maps","name_short":"chi-2","host":"chi-1.us.uncletopia.com","port":27025,"enabled":true,"region":"us-central","cc":"us","latitude":41.881832,"longitude":-87.62318,"reserved":0,"last_update":"0001-01-01T00:00:00Z","name_a2s":"Uncletopia | Chicago | 2 | All Maps","protocol":17,"map":"cp_mountainlab","folder":"tf","game":"Team Fortress","app_id":440,"player_count":0,"max_players":24,"Bots":0,"server_type":"Dedicated","server_os":"Linux","password":true,"vac":true,"version":"7723704","steam_id":85568392924469985,"keywords":["cp","nocrits","nodmgspread","uncletopia"],"game_id":440,"stv_port":27026,"stv_name":"Uncletopia | Chicago | 2 | All Maps | STV","players":null},{"server_id":402,"name":"Uncletopia | Chicago | 3 | All Maps","name_short":"chi-3","host":"chi-1.us.uncletopia.com","port":27035,"enabled":true,"region":"us-central","cc":"us","latitude":41.881832,"longitude":-87.62318,"reserved":0,"last_update":"0001-01-01T00:00:00Z","name_a2s":"Uncletopia | Chicago | 3 | All Maps","protocol":17,"map":"pl_swiftwater_final1","folder":"tf","game":"Team Fortress","app_id":440,"player_count":0,"max_players":24,"Bots":0,"server_type":"Dedicated","server_os":"Linux","password":true,"vac":true,"version":"7723704","steam_id":85568392924515191,"keywords":["nocrits","nodmgspread","payload","uncletopia"],"game_id":440,"stv_port":27036,"stv_name":"Uncletopia | Chicago | 3 | All Maps | STV","players":null},{"server_id":403,"name":"Uncletopia | Chicago | 4 | All Maps","name_short":"chi-4","host":"chi-1.us.uncletopia.com","port":27045,"enabled":true,"region":"us-central","cc":"us","latitude":41.881832,"longitude":-87.62318,"reserved":0,"last_update":"0001-01-01T00:00:00Z","name_a2s":"Uncletopia | Chicago | 4 | All Maps","protocol":17,"map":"pl_upward","folder":"tf","game":"Team Fortress","app_id":440,"player_count":24,"max_players":24,"Bots":0,"server_type":"Dedicated","server_os":"Linux","password":true,"vac":true,"version":"7723704","steam_id":85568392924515193,"keywords":["nocrits","nodmgspread","payload","uncletopia"],"game_id":440,"stv_port":27046,"stv_name":"Uncletopia | Chicago | 4 | All Maps | STV","players":[{"user_id":115,"name":"SorcererCat","steam_id":76561199219316179,"connected_time":1676000000000,"state":"active","ping":150},{"user_id":140,"name":"limegrass619","steam_id":76561198167789909,"connected_time":145000000000,"state":"active","ping":107},{"user_id":127,"name":"Gooster","steam_id":76561198255311543,"connected_time":959000000000,"state":"active","ping":66},{"user_id":121,"name":"warband","steam_id":76561198093229614,"connected_time":1352000000000,"state":"active","ping":46},{"user_id":129,"name":"sayad","steam_id":76561198080897870,"connected_time":894000000000,"state":"active","ping":65},{"user_id":117,"name":"Atlas","steam_id":76561198127975050,"connected_time":1535000000000,"state":"active","ping":63},{"user_id":138,"name":"Volkan","steam_id":76561198401314312,"connected_time":254000000000,"state":"active","ping":107},{"user_id":95,"name":"Mustafa","steam_id":76561198269260949,"connected_time":3912000000000,"state":"active","ping":91},{"user_id":128,"name":"upside down cat","steam_id":76561198028288349,"connected_time":911000000000,"state":"active","ping":82},{"user_id":123,"name":"Lusa","steam_id":76561199435564731,"connected_time":1144000000000,"state":"active","ping":182},{"user_id":130,"name":"noblewolf16","steam_id":76561198085885383,"connected_time":851000000000,"state":"active","ping":59},{"user_id":132,"name":"kazoo","steam_id":76561198149768144,"connected_time":746000000000,"state":"active","ping":45},{"user_id":131,"name":"sn00py","steam_id":76561198065339248,"connected_time":840000000000,"state":"active","ping":89},{"user_id":87,"name":"serendipity","steam_id":76561198095087127,"connected_time":4252000000000,"state":"active","ping":73},{"user_id":69,"name":"Jacasola","steam_id":76561198055460402,"connected_time":6261000000000,"state":"active","ping":97},{"user_id":65,"name":"ccog","steam_id":76561198009314845,"connected_time":6505000000000,"state":"active","ping":106},{"user_id":133,"name":"‚óã","steam_id":76561198034560063,"connected_time":741000000000,"state":"active","ping":79},{"user_id":96,"name":"TacoDragon","steam_id":76561198215345581,"connected_time":3907000000000,"state":"active","ping":143},{"user_id":114,"name":"DualiTea","steam_id":76561198081733870,"connected_time":1904000000000,"state":"active","ping":46},{"user_id":134,"name":"Shortyyy","steam_id":76561198059005030,"connected_time":734000000000,"state":"active","ping":138},{"user_id":136,"name":"Ta–øgen","steam_id":76561198120329367,"connected_time":579000000000,"state":"active","ping":160},{"user_id":135,"name":"Kangroe","steam_id":76561198346844814,"connected_time":727000000000,"state":"active","ping":77},{"user_id":120,"name":"Moonadoo","steam_id":76561198133377546,"connected_time":1459000000000,"state":"active","ping":64},{"user_id":137,"name":"MysteryMage","steam_id":76561198074241821,"connected_time":443000000000,"state":"active","ping":114}]},{"server_id":36,"name":"Uncletopia | Chicago | 5 | All Maps","name_short":"chi-5","host":"chi-2.us.uncletopia.com","port":27015,"enabled":true,"region":"us-central","cc":"us","latitude":41.881832,"longitude":-87.62318,"reserved":0,"last_update":"0001-01-01T00:00:00Z","name_a2s":"Uncletopia | Chicago | 5 | All Maps","protocol":17,"map":"koth_cascade","folder":"tf","game":"Team Fortress","app_id":440,"player_count":0,"max_players":24,"Bots":0,"server_type":"Dedicated","server_os":"Linux","password":true,"vac":true,"version":"7723704","steam_id":85568392924866362,"keywords":["cp","nocrits","nodmgspread","uncletopia"],"game_id":440,"stv_port":27016,"stv_name":"Uncletopia | Chicago | 5 | All Maps | STV","players":null},{"server_id":37,"name":"Uncletopia | Chicago | 6 | All Maps","name_short":"chi-6","host":"chi-2.us.uncletopia.com","port":27025,"enabled":true,"region":"us-central","cc":"us","latitude":41.881832,"longitude":-87.62318,"reserved":0,"last_update":"0001-01-01T00:00:00Z","name_a2s":"Uncletopia | Chicago | 6 | All Maps","protocol":17,"map":"cp_altitude","folder":"tf","game":"Team Fortress","app_id":440,"player_count":0,"max_players":24,"Bots":0,"server_type":"Dedicated","server_os":"Linux","password":true,"vac":true,"version":"7723704","steam_id":85568392924866363,"keywords":["cp","nocrits","nodmgspread","uncletopia"],"game_id":440,"stv_port":27026,"stv_name":"Uncletopia | Chicago | 6 | All Maps | STV","players":null},{"server_id":38,"name":"Uncletopia | Chicago | 7 | Stopwatch (test)","name_short":"chi-7","host":"chi-2.us.uncletopia.com","port":27035,"enabled":true,"region":"us-central","cc":"us","latitude":41.881832,"longitude":-87.62318,"reserved":0,"last_update":"0001-01-01T00:00:00Z","name_a2s":"Uncletopia | Chicago | 7 | Stopwatch (test)","protocol":17,"map":"pl_upward","folder":"tf","game":"Team Fortress","app_id":440,"player_count":0,"max_players":24,"Bots":0,"server_type":"Dedicated","server_os":"Linux","password":true,"vac":true,"version":"7723704","steam_id":85568392924866364,"keywords":["nocrits","nodmgspread","payload","uncletopia"],"game_id":440,"stv_port":27036,"stv_name":"Uncletopia | Chicago | 7 | Stopwatch (test) | STV","players":null},{"server_id":39,"name":"Uncletopia | Chicago | 8 | Community","name_short":"chi-8","host":"chi-2.us.uncletopia.com","port":27045,"enabled":true,"region":"us-central","cc":"us","latitude":41.881832,"longitude":-87.62318,"reserved":0,"last_update":"0001-01-01T00:00:00Z","name_a2s":"Uncletopia | Chicago | 8 | Community","protocol":17,"map":"pl_frontier_final","folder":"tf","game":"Team Fortress","app_id":440,"player_count":0,"max_players":24,"Bots":0,"server_type":"Dedicated","server_os":"Linux","password":true,"vac":true,"version":"7723704","steam_id":85568392924866365,"keywords":["nocrits","nodmgspread","payload","uncletopia"],"game_id":440,"stv_port":27046,"stv_name":"Uncletopia | Chicago | 8 | Community | STV","players":null},{"server_id":8,"name":"Uncletopia | Dallas | 1 | All Maps","name_short":"dal-1","host":"dal-1.us.uncletopia.com","port":27015,"enabled":true,"region":"us-central","cc":"us","latitude":32.779167,"longitude":-96.80889,"reserved":0,"last_update":"0001-01-01T00:00:00Z","name_a2s":"Uncletopia | Dallas | 1 | All Maps","protocol":17,"map":"pl_swiftwater_final1","folder":"tf","game":"Team Fortress","app_id":440,"player_count":0,"max_players":24,"Bots":0,"server_type":"Dedicated","server_os":"Linux","password":true,"vac":true,"version":"7723704","steam_id":85568392924469986,"keywords":["nocrits","nodmgspread","payload","uncletopia"],"game_id":440,"stv_port":27016,"stv_name":"Uncletopia | Dallas | 1 | All Maps | STV","players":null},{"server_id":108,"name":"Uncletopia | Dallas | 2 | All Maps","name_short":"dal-2","host":"dal-1.us.uncletopia.com","port":27025,"enabled":true,"region":"us-central","cc":"us","latitude":32.779167,"longitude":-96.80889,"reserved":0,"last_update":"0001-01-01T00:00:00Z","name_a2s":"Uncletopia | Dallas | 2 | All Maps","protocol":17,"map":"cp_snakewater_final1","folder":"tf","game":"Team Fortress","app_id":440,"player_count":0,"max_players":24,"Bots":0,"server_type":"Dedicated","server_os":"Linux","password":true,"vac":true,"version":"7723704","steam_id":85568392924469988,"keywords":["cp","nocrits","nodmgspread","uncletopia"],"game_id":440,"stv_port":27026,"stv_name":"Uncletopia | Dallas | 2 | All Maps | STV","players":null},{"server_id":5,"name":"Uncletopia | Frankfurt | 1 | All Maps","name_short":"frk-1","host":"frk-1.de.uncletopia.com","port":27015,"enabled":true,"region":"eu","cc":"de","latitude":50.110924,"longitude":8.682127,"reserved":0,"last_update":"0001-01-01T00:00:00Z","name_a2s":"Uncletopia | Frankfurt | 1 | All Maps","protocol":17,"map":"koth_harvest_final","folder":"tf","game":"Team Fortress","app_id":440,"player_count":23,"max_players":24,"Bots":0,"server_type":"Dedicated","server_os":"Linux","password":true,"vac":true,"version":"7723704","steam_id":85568392924469989,"keywords":["cp","nocrits","nodmgspread","uncletopia"],"game_id":440,"stv_port":27016,"stv_name":"Uncletopia | Frankfurt | 1 | All Maps | STV","players":[{"user_id":92,"name":"Soda Popinski","steam_id":76561198014042767,"connected_time":696000000000,"state":"active","ping":152},{"user_id":85,"name":"k4nk3r","steam_id":76561199388713923,"connected_time":920000000000,"state":"active","ping":64},{"user_id":78,"name":"Ben Dover","steam_id":76561198034264020,"connected_time":1524000000000,"state":"active","ping":119},{"user_id":46,"name":"anairat","steam_id":76561198863788240,"connected_time":3714000000000,"state":"active","ping":77},{"user_id":83,"name":"assassin","steam_id":76561199016050401,"connected_time":950000000000,"state":"active","ping":124},{"user_id":72,"name":"viziborju","steam_id":76561199145340529,"connected_time":2038000000000,"state":"active","ping":77},{"user_id":102,"name":"snowii","steam_id":76561198836246326,"connected_time":219000000000,"state":"active","ping":77},{"user_id":86,"name":"Vashontrash99","steam_id":76561199250946319,"connected_time":916000000000,"state":"active","ping":119},{"user_id":100,"name":"thovee","steam_id":76561198107206006,"connected_time":299000000000,"state":"active","ping":63},{"user_id":87,"name":"XxSaturnxX ‚òûÔæü„ÉÆÔæü‚òû","steam_id":76561199074095198,"connected_time":913000000000,"state":"active","ping":112},{"user_id":81,"name":"Alice can't hit pipes","steam_id":76561198052410860,"connected_time":1078000000000,"state":"active","ping":149},{"user_id":71,"name":"Silva_mlon","steam_id":76561199310242047,"connected_time":2052000000000,"state":"active","ping":73},{"user_id":101,"name":"Brinier","steam_id":76561199012604288,"connected_time":290000000000,"state":"active","ping":57},{"user_id":47,"name":"Lukero","steam_id":76561198301594341,"connected_time":3705000000000,"state":"active","ping":53},{"user_id":97,"name":"cl","steam_id":76561199436640904,"connected_time":397000000000,"state":"active","ping":61},{"user_id":91,"name":"NaN","steam_id":76561198071098413,"connected_time":788000000000,"state":"active","ping":49},{"user_id":54,"name":"jaMie","steam_id":76561198170148783,"connected_time":3339000000000,"state":"active","ping":53},{"user_id":95,"name":"player","steam_id":76561198054474684,"connected_time":421000000000,"state":"active","ping":76},{"user_id":93,"name":"shima.","steam_id":76561199042470246,"connected_time":687000000000,"state":"active","ping":58},{"user_id":63,"name":"wickEd_","steam_id":76561198048068999,"connected_time":2998000000000,"state":"active","ping":151},{"user_id":76,"name":"Creative","steam_id":76561198835034247,"connected_time":1768000000000,"state":"active","ping":91},{"user_id":99,"name":"PyroHam","steam_id":76561198206285837,"connected_time":373000000000,"state":"active","ping":75},{"user_id":104,"name":"Schedark","steam_id":76561198991704922,"connected_time":60000000000,"state":"active","ping":197}]},{"server_id":110,"name":"Uncletopia | Frankfurt | 2 | All Maps","name_short":"frk-2","host":"frk-1.de.uncletopia.com","port":27025,"enabled":true,"region":"eu","cc":"de","latitude":50.110924,"longitude":8.682127,"reserved":0,"last_update":"0001-01-01T00:00:00Z","name_a2s":"Uncletopia | Frankfurt | 2 | All Maps","protocol":17,"map":"cp_steel","folder":"tf","game":"Team Fortress","app_id":440,"player_count":24,"max_players":24,"Bots":0,"server_type":"Dedicated","server_os":"Linux","password":true,"vac":true,"version":"7723704","steam_id":85568392924469990,"keywords":["cp","nocrits","nodmgspread","uncletopia"],"game_id":440,"stv_port":27026,"stv_name":"Uncletopia | Frankfurt | 2 | All Maps | STV","players":[{"user_id":277,"name":"bigfoot","steam_id":76561198884631958,"connected_time":623000000000,"state":"active","ping":71},{"user_id":293,"name":"shinny","steam_id":76561198196482706,"connected_time":27000000000,"state":"spawning","ping":62},{"user_id":206,"name":"johnskying2011","steam_id":76561198445810164,"connected_time":4675000000000,"state":"active","ping":70},{"user_id":212,"name":"Grim Reaper","steam_id":76561198440139041,"connected_time":4382000000000,"state":"active","ping":63},{"user_id":263,"name":"Beb","steam_id":76561198106119248,"connected_time":2485000000000,"state":"active","ping":68},{"user_id":252,"name":"Drovecz_Hun","steam_id":76561198054703214,"connected_time":2885000000000,"state":"active","ping":76},{"user_id":250,"name":"r06u3","steam_id":76561198254099253,"connected_time":2959000000000,"state":"active","ping":188},{"user_id":273,"name":"Mlody Wilk |S\u003e TF2 KEYS -\u003e RL","steam_id":76561198133663355,"connected_time":1507000000000,"state":"active","ping":74},{"user_id":260,"name":"kyzzie-O","steam_id":76561198099021004,"connected_time":2665000000000,"state":"active","ping":108},{"user_id":286,"name":"huge monster cock","steam_id":76561197994492154,"connected_time":223000000000,"state":"active","ping":64},{"user_id":251,"name":"quillston","steam_id":76561198404802175,"connected_time":2914000000000,"state":"active","ping":146},{"user_id":279,"name":"BrEz","steam_id":76561198124718058,"connected_time":601000000000,"state":"active","ping":90},{"user_id":222,"name":"Quaker Yotes","steam_id":76561198083068263,"connected_time":4200000000000,"state":"active","ping":91},{"user_id":290,"name":"Robi","steam_id":76561198155130815,"connected_time":110000000000,"state":"active","ping":77},{"user_id":268,"name":"Vitamin Weee","steam_id":76561199183937747,"connected_time":2152000000000,"state":"active","ping":70},{"user_id":254,"name":"Uncommon","steam_id":76561198832659399,"connected_time":2835000000000,"state":"active","ping":83},{"user_id":255,"name":"Aprifox","steam_id":76561198022204947,"connected_time":2831000000000,"state":"active","ping":72},{"user_id":228,"name":"Venus‚ö¢","steam_id":76561198018602969,"connected_time":4171000000000,"state":"active","ping":67},{"user_id":229,"name":"Gobbin","steam_id":76561198404460220,"connected_time":4163000000000,"state":"active","ping":85},{"user_id":280,"name":"UL7RA","steam_id":76561198051993563,"connected_time":576000000000,"state":"active","ping":60},{"user_id":281,"name":"Just_Random_Stuf","steam_id":76561199000503438,"connected_time":571000000000,"state":"active","ping":70},{"user_id":291,"name":"Goon Spoons","steam_id":76561198116391675,"connected_time":109000000000,"state":"active","ping":77},{"user_id":289,"name":"cazador","steam_id":76561198123096922,"connected_time":118000000000,"state":"active","ping":102},{"user_id":285,"name":"BrickBobBrick","steam_id":76561198931770279,"connected_time":332000000000,"state":"active","ping":60}]},{"server_id":308,"name":"Uncletopia | Frankfurt | 3 | All Maps","name_short":"frk-3","host":"frk-1.de.uncletopia.com","port":27035,"enabled":true,"region":"eu","cc":"de","latitude":50.110924,"longitude":8.682127,"reserved":0,"last_update":"0001-01-01T00:00:00Z","name_a2s":"Uncletopia | Frankfurt | 3 | All Maps","protocol":17,"map":"cp_mountainlab","folder":"tf","game":"Team Fortress","app_id":440,"player_count":24,"max_players":24,"Bots":0,"server_type":"Dedicated","server_os":"Linux","password":true,"vac":true,"version":"7723704","steam_id":85568392924504274,"keywords":["cp","nocrits","nodmgspread","uncletopia"],"game_id":440,"stv_port":27036,"stv_name":"Uncletopia | Frankfurt | 3 | All Maps | STV","players":[{"user_id":208,"name":"Princess Fuzz","steam_id":76561198025783000,"connected_time":667000000000,"state":"active","ping":56},{"user_id":217,"name":"herman","steam_id":76561198217512589,"connected_time":326000000000,"state":"active","ping":80},{"user_id":216,"name":"Coyote29","steam_id":76561198344502070,"connected_time":456000000000,"state":"active","ping":82},{"user_id":203,"name":"Dunboi","steam_id":76561198120949216,"connected_time":1135000000000,"state":"active","ping":60},{"user_id":214,"name":"KillerPotato!","steam_id":76561198071283721,"connected_time":475000000000,"state":"active","ping":76},{"user_id":218,"name":"Mustard Chef","steam_id":76561198167560993,"connected_time":322000000000,"state":"active","ping":75},{"user_id":204,"name":"Prox","steam_id":76561198351490981,"connected_time":942000000000,"state":"active","ping":54},{"user_id":225,"name":"System","steam_id":76561199442503973,"connected_time":103000000000,"state":"active","ping":51},{"user_id":180,"name":"kvlt","steam_id":76561198119420945,"connected_time":3134000000000,"state":"active","ping":75},{"user_id":213,"name":"FliggerFlitt","steam_id":76561198147711035,"connected_time":517000000000,"state":"active","ping":73},{"user_id":205,"name":"hushhx","steam_id":76561198216200092,"connected_time":823000000000,"state":"active","ping":67},{"user_id":215,"name":"Nickel (28) [F2P]","steam_id":76561199082683456,"connected_time":473000000000,"state":"active","ping":107},{"user_id":150,"name":"Jovy Kujoh","steam_id":76561198410598772,"connected_time":4777000000000,"state":"active","ping":44},{"user_id":170,"name":"Turbo Unge","steam_id":76561199067700855,"connected_time":3699000000000,"state":"active","ping":70},{"user_id":219,"name":"landa","steam_id":76561198175433731,"connected_time":321000000000,"state":"active","ping":69},{"user_id":220,"name":"xXdoge gaming 42069Xx","steam_id":76561198372971096,"connected_time":305000000000,"state":"active","ping":84},{"user_id":222,"name":":(","steam_id":76561198044465070,"connected_time":226000000000,"state":"active","ping":89},{"user_id":197,"name":"ÊÅµ„Åø„Çì","steam_id":76561198335087051,"connected_time":2464000000000,"state":"active","ping":70},{"user_id":186,"name":"Roman Polansky","steam_id":76561198108321988,"connected_time":2867000000000,"state":"active","ping":101},{"user_id":200,"name":"JeanCorben","steam_id":76561197965133561,"connected_time":2371000000000,"state":"active","ping":45},{"user_id":201,"name":"galaxy","steam_id":76561198164819022,"connected_time":1616000000000,"state":"active","ping":68},{"user_id":102,"name":"Binky","steam_id":76561198116681081,"connected_time":7764000000000,"state":"active","ping":105},{"user_id":165,"name":"Devil hater","steam_id":76561198110470565,"connected_time":4043000000000,"state":"active","ping":102},{"user_id":212,"name":"ChaserFogFi","steam_id":76561199119836596,"connected_time":605000000000,"state":"active","ping":44}]},{"server_id":309,"name":"Uncletopia | Frankfurt | 4 | All Maps","name_short":"frk-4","host":"frk-1.de.uncletopia.com","port":27045,"enabled":true,"region":"eu","cc":"de","latitude":50.110924,"longitude":8.682127,"reserved":0,"last_update":"0001-01-01T00:00:00Z","name_a2s":"Uncletopia | Frankfurt | 4 | All Maps","protocol":17,"map":"cp_altitude","folder":"tf","game":"Team Fortress","app_id":440,"player_count":0,"max_players":24,"Bots":0,"server_type":"Dedicated","server_os":"Linux","password":true,"vac":true,"version":"7723704","steam_id":85568392924504275,"keywords":["cp","nocrits","nodmgspread","uncletopia"],"game_id":440,"stv_port":27046,"stv_name":"Uncletopia | Frankfurt | 4 | All Maps | STV","players":null},{"server_id":310,"name":"Uncletopia | Frankfurt | 5 | All Maps","name_short":"frk-5","host":"frk-1.de.uncletopia.com","port":27055,"enabled":true,"region":"eu","cc":"de","latitude":50.110924,"longitude":8.682127,"reserved":0,"last_update":"0001-01-01T00:00:00Z","name_a2s":"Uncletopia | Frankfurt | 5 | All Maps","protocol":17,"map":"cp_snakewater_final1","folder":"tf","game":"Team Fortress","app_id":440,"player_count":24,"max_players":24,"Bots":0,"server_type":"Dedicated","server_os":"Linux","password":true,"vac":true,"version":"7723704","steam_id":85568392924504277,"keywords":["cp","nocrits","nodmgspread","uncletopia"],"game_id":440,"stv_port":27056,"stv_name":"Uncletopia | Frankfurt | 5 | All Maps | STV","players":[{"user_id":93,"name":"Soerlssoelss√∂en","steam_id":76561197993060585,"connected_time":1473000000000,"state":"active","ping":76},{"user_id":103,"name":"don salieri on the marciapaisis","steam_id":76561198937657351,"connected_time":985000000000,"state":"active","ping":84},{"user_id":81,"name":"Sneaky boi","steam_id":76561199195985387,"connected_time":1905000000000,"state":"active","ping":87},{"user_id":94,"name":"Demodestroier","steam_id":76561198958081327,"connected_time":1430000000000,"state":"active","ping":55},{"user_id":102,"name":"Fortezza","steam_id":76561198972539903,"connected_time":1120000000000,"state":"active","ping":46},{"user_id":101,"name":"susie deltarune is cool","steam_id":76561198125919808,"connected_time":1199000000000,"state":"active","ping":123},{"user_id":112,"name":"TheFox.tf","steam_id":76561197996851702,"connected_time":640000000000,"state":"active","ping":71},{"user_id":17,"name":"Him","steam_id":76561198086400484,"connected_time":5664000000000,"state":"active","ping":71},{"user_id":114,"name":"Chen","steam_id":76561198440363619,"connected_time":566000000000,"state":"active","ping":52},{"user_id":121,"name":"Dr. WAH","steam_id":76561198297778149,"connected_time":401000000000,"state":"active","ping":84},{"user_id":127,"name":"VioBeeyo","steam_id":76561198066258544,"connected_time":45000000000,"state":"active","ping":47},{"user_id":125,"name":"Dragonman","steam_id":76561199182014123,"connected_time":314000000000,"state":"active","ping":88},{"user_id":126,"name":"Greyhunter","steam_id":76561197960884202,"connected_time":108000000000,"state":"active","ping":50},{"user_id":110,"name":"guarda-chuva","steam_id":76561198078694330,"connected_time":685000000000,"state":"active","ping":53},{"user_id":111,"name":"Yrj√∂ Koskinen Yrj√∂-Koskinen","steam_id":76561198368181145,"connected_time":676000000000,"state":"active","ping":90},{"user_id":115,"name":"opaacic","steam_id":76561199158514501,"connected_time":555000000000,"state":"active","ping":74},{"user_id":118,"name":"boymilk","steam_id":76561199074208922,"connected_time":470000000000,"state":"active","ping":69},{"user_id":119,"name":"alego","steam_id":76561198974622852,"connected_time":442000000000,"state":"active","ping":58},{"user_id":120,"name":"Criterion","steam_id":76561198128829201,"connected_time":410000000000,"state":"active","ping":65},{"user_id":122,"name":"i am bread","steam_id":76561199180277321,"connected_time":397000000000,"state":"active","ping":68},{"user_id":89,"name":"Rambi","steam_id":76561199058078505,"connected_time":1718000000000,"state":"active","ping":165},{"user_id":46,"name":"massa","steam_id":76561198439516039,"connected_time":4326000000000,"state":"active","ping":73},{"user_id":123,"name":"GodOfGobboz","steam_id":76561198154677956,"connected_time":391000000000,"state":"active","ping":72},{"user_id":124,"name":"kryhu","steam_id":76561198293327713,"connected_time":338000000000,"state":"active","ping":75}]},{"server_id":311,"name":"Uncletopia | Frankfurt | 6 | All Maps","name_short":"frk-6","host":"frk-1.de.uncletopia.com","port":27065,"enabled":true,"region":"eu","cc":"de","latitude":50.110924,"longitude":8.682127,"reserved":0,"last_update":"0001-01-01T00:00:00Z","name_a2s":"Uncletopia | Frankfurt | 6 | All Maps","protocol":17,"map":"cp_process_final","folder":"tf","game":"Team Fortress","app_id":440,"player_count":0,"max_players":24,"Bots":0,"server_type":"Dedicated","server_os":"Linux","password":true,"vac":true,"version":"7723704","steam_id":85568392924504278,"keywords":["cp","nocrits","nodmgspread","uncletopia"],"game_id":440,"stv_port":27066,"stv_name":"Uncletopia | Frankfurt | 6 | All Maps | STV","players":null},{"server_id":23,"name":"Uncletopia | Frankfurt | 7 | No Payload","name_short":"frk-7","host":"frk-1.de.uncletopia.com","port":27075,"enabled":true,"region":"eu","cc":"de","latitude":50.110924,"longitude":8.682127,"reserved":0,"last_update":"0001-01-01T00:00:00Z","name_a2s":"Uncletopia | Frankfurt | 7 | No Payload","protocol":17,"map":"ctf_doublecross","folder":"tf","game":"Team Fortress","app_id":440,"player_count":0,"max_players":24,"Bots":0,"server_type":"Dedicated","server_os":"Linux","password":true,"vac":true,"version":"7723704","steam_id":85568392924742827,"keywords":["ctf","nocrits","nodmgspread","uncletopia"],"game_id":440,"stv_port":27076,"stv_name":"Uncletopia | Frankfurt | 7 | No Payload | STV","players":null},{"server_id":24,"name":"Uncletopia | Frankfurt | 8 | Community","name_short":"frk-8","host":"frk-1.de.uncletopia.com","port":27085,"enabled":true,"region":"eu","cc":"de","latitude":50.110924,"longitude":8.682127,"reserved":0,"last_update":"0001-01-01T00:00:00Z","name_a2s":"Uncletopia | Frankfurt | 8 | Community","protocol":17,"map":"workshop/koth_slaughter_rc1.ugc1712845210","folder":"tf","game":"Team Fortress","app_id":440,"player_count":0,"max_players":24,"Bots":0,"server_type":"Dedicated","server_os":"Linux","password":true,"vac":true,"version":"7723704","steam_id":85568392924742828,"keywords":["cp","nocrits","nodmgspread","uncletopia"],"game_id":440,"stv_port":27086,"stv_name":"Uncletopia | Frankfurt | 8 | Community | STV","players":null},{"server_id":202,"name":"Uncletopia | Hong Kong | 1 | All Maps","name_short":"hgk-1","host":"hgk-1.hk.uncletopia.com","port":27015,"enabled":true,"region":"asia","cc":"hk","latitude":22.302711,"longitude":114.177216,"reserved":0,"last_update":"0001-01-01T00:00:00Z","name_a2s":"Uncletopia | Hong Kong | 1 | All Maps","protocol":17,"map":"pl_snowycoast","folder":"tf","game":"Team Fortress","app_id":440,"player_count":24,"max_players":24,"Bots":0,"server_type":"Dedicated","server_os":"Linux","password":true,"vac":true,"version":"7723704","steam_id":85568392924494504,"keywords":["nocrits","nodmgspread","payload","uncletopia"],"game_id":440,"stv_port":27016,"stv_name":"Uncletopia | Hong Kong | 1 | All Maps | STV","players":[{"user_id":424,"name":"blue mountain coffee","steam_id":76561198823374287,"connected_time":5189000000000,"state":"active","ping":72},{"user_id":389,"name":"it chrmis time","steam_id":76561198055553140,"connected_time":9121000000000,"state":"active","ping":84},{"user_id":442,"name":"+W+","steam_id":76561197997220367,"connected_time":2889000000000,"state":"active","ping":45},{"user_id":449,"name":"mikkusu","steam_id":76561198306574432,"connected_time":2737000000000,"state":"active","ping":69},{"user_id":462,"name":"Puddin","steam_id":76561198140052918,"connected_time":1812000000000,"state":"active","ping":84},{"user_id":466,"name":"Parmajean","steam_id":76561199141112344,"connected_time":1387000000000,"state":"active","ping":76},{"user_id":443,"name":"ÊØç„ÅÆËÇâÂõ£Â≠ê","steam_id":76561198069561896,"connected_time":2830000000000,"state":"active","ping":45},{"user_id":469,"name":"A Toilet","steam_id":76561198148278657,"connected_time":1304000000000,"state":"active","ping":106},{"user_id":444,"name":"L√∫d","steam_id":76561198828840546,"connected_time":2829000000000,"state":"active","ping":74},{"user_id":450,"name":"Wakiiiz","steam_id":76561198850134590,"connected_time":2724000000000,"state":"active","ping":59},{"user_id":446,"name":"IRA car dealership","steam_id":76561199224577498,"connected_time":2822000000000,"state":"active","ping":74},{"user_id":467,"name":"Dashinix","steam_id":76561198129263849,"connected_time":1321000000000,"state":"active","ping":83},{"user_id":460,"name":"Cool_A","steam_id":76561199177496182,"connected_time":2058000000000,"state":"active","ping":91},{"user_id":434,"name":"Pillboi","steam_id":76561198011172886,"connected_time":5085000000000,"state":"active","ping":45},{"user_id":474,"name":"j_rex","steam_id":76561198132473926,"connected_time":424000000000,"state":"active","ping":54},{"user_id":409,"name":"nick","steam_id":76561198400698408,"connected_time":6216000000000,"state":"active","ping":89},{"user_id":475,"name":"brizzard","steam_id":76561198048438653,"connected_time":322000000000,"state":"active","ping":50},{"user_id":430,"name":"Bertengkar","steam_id":76561198213031155,"connected_time":5176000000000,"state":"active","ping":96},{"user_id":464,"name":"Ïó¨Î¶Ñ","steam_id":76561198274438558,"connected_time":1774000000000,"state":"active","ping":88},{"user_id":471,"name":"4G. Turbo.RF4","steam_id":76561199061012484,"connected_time":1062000000000,"state":"active","ping":69},{"user_id":447,"name":"Ape Mode ACTIVATE","steam_id":76561199122491157,"connected_time":2821000000000,"state":"active","ping":68},{"user_id":470,"name":"rabbid horn man","steam_id":76561198154966581,"connected_time":1296000000000,"state":"active","ping":99},{"user_id":459,"name":"PissDrinker98","steam_id":76561198856157761,"connected_time":2137000000000,"state":"active","ping":103},{"user_id":468,"name":"Tet","steam_id":76561198253488438,"connected_time":1321000000000,"state":"active","ping":73}]},{"server_id":1,"name":"Uncletopia | Los Angeles | 1 | All Maps","name_short":"lax-1","host":"lax-1.us.uncletopia.com","port":27015,"enabled":true,"region":"us-west","cc":"us","latitude":33.94279,"longitude":-118.41004,"reserved":0,"last_update":"0001-01-01T00:00:00Z","name_a2s":"Uncletopia | Los Angeles | 1 | All Maps","protocol":17,"map":"cp_sunshine","folder":"tf","game":"Team Fortress","app_id":440,"player_count":0,"max_players":24,"Bots":0,"server_type":"Dedicated","server_os":"Linux","password":true,"vac":true,"version":"7723704","steam_id":85568392924469991,"keywords":["cp","nocrits","nodmgspread","uncletopia"],"game_id":440,"stv_port":27016,"stv_name":"Uncletopia | Los Angeles | 1 | All Maps | STV","players":null},{"server_id":112,"name":"Uncletopia | Los Angeles | 2 | All Maps","name_short":"lax-2","host":"lax-1.us.uncletopia.com","port":27025,"enabled":true,"region":"us-west","cc":"us","latitude":33.94279,"longitude":-118.41004,"reserved":0,"last_update":"0001-01-01T00:00:00Z","name_a2s":"Uncletopia | Los Angeles | 2 | All Maps","protocol":17,"map":"pl_pier","folder":"tf","game":"Team Fortress","app_id":440,"player_count":0,"max_players":24,"Bots":0,"server_type":"Dedicated","server_os":"Linux","password":true,"vac":true,"version":"7723704","steam_id":85568392924469992,"keywords":["nocrits","nodmgspread","payload","uncletopia"],"game_id":440,"stv_port":27026,"stv_name":"Uncletopia | Los Angeles | 2 | All Maps | STV","players":null},{"server_id":324,"name":"Uncletopia | Los Angeles | 3 | All Maps","name_short":"lax-3","host":"lax-1.us.uncletopia.com","port":27035,"enabled":true,"region":"us-west","cc":"us","latitude":33.94279,"longitude":-118.41004,"reserved":0,"last_update":"0001-01-01T00:00:00Z","name_a2s":"Uncletopia | Los Angeles | 3 | All Maps","protocol":17,"map":"koth_highpass","folder":"tf","game":"Team Fortress","app_id":440,"player_count":0,"max_players":24,"Bots":0,"server_type":"Dedicated","server_os":"Linux","password":true,"vac":true,"version":"7723704","steam_id":85568392924510198,"keywords":["cp","nocrits","nodmgspread","uncletopia"],"game_id":440,"stv_port":27036,"stv_name":"Uncletopia | Los Angeles | 3 | All Maps | STV","players":null},{"server_id":25,"name":"Uncletopia | Los Angeles | 4 | No Payload","name_short":"lax-4","host":"lax-1.us.uncletopia.com","port":27045,"enabled":true,"region":"us-west","cc":"us","latitude":33.94279,"longitude":-118.41004,"reserved":0,"last_update":"0001-01-01T00:00:00Z","name_a2s":"Uncletopia | Los Angeles | 4 | No Payload","protocol":17,"map":"cp_mountainlab","folder":"tf","game":"Team Fortress","app_id":440,"player_count":0,"max_players":24,"Bots":0,"server_type":"Dedicated","server_os":"Linux","password":true,"vac":true,"version":"7723704","steam_id":85568392924510199,"keywords":["cp","nocrits","nodmgspread","uncletopia"],"game_id":440,"stv_port":27046,"stv_name":"Uncletopia | Los Angeles | 4 | No Payload | STV","players":null},{"server_id":11,"name":"Uncletopia | London | 1 | All Maps","name_short":"lon-1","host":"lon-1.uk.uncletopia.com","port":27015,"enabled":true,"region":"eu","cc":"gb","latitude":51.509865,"longitude":-0.118092,"reserved":0,"last_update":"0001-01-01T00:00:00Z","name_a2s":"Uncletopia | London | 1 | All Maps","protocol":17,"map":"pl_pier","folder":"tf","game":"Team Fortress","app_id":440,"player_count":24,"max_players":24,"Bots":0,"server_type":"Dedicated","server_os":"Linux","password":true,"vac":true,"version":"7723704","steam_id":85568392924367362,"keywords":["nocrits","nodmgspread","payload","uncletopia"],"game_id":440,"stv_port":27016,"stv_name":"Uncletopia | London | 1 | All Maps | STV","players":[{"user_id":109,"name":"Paper plane Mike","steam_id":76561198367921934,"connected_time":1578000000000,"state":"active","ping":46},{"user_id":121,"name":"Mankor","steam_id":76561198020439322,"connected_time":778000000000,"state":"active","ping":56},{"user_id":116,"name":"skilltissues","steam_id":76561198025828664,"connected_time":1483000000000,"state":"active","ping":56},{"user_id":98,"name":"the hungry","steam_id":76561198447418083,"connected_time":2569000000000,"state":"active","ping":51},{"user_id":107,"name":"lvl. 50 honkler","steam_id":76561198061688660,"connected_time":1931000000000,"state":"active","ping":107},{"user_id":19,"name":"Linakas","steam_id":76561198299757435,"connected_time":6873000000000,"state":"active","ping":80},{"user_id":123,"name":"Chonkmaster","steam_id":76561198075518178,"connected_time":720000000000,"state":"active","ping":54},{"user_id":66,"name":"Hermitcrack","steam_id":76561198149216441,"connected_time":4913000000000,"state":"active","ping":74},{"user_id":77,"name":"Piteras","steam_id":76561198858532207,"connected_time":4616000000000,"state":"active","ping":79},{"user_id":104,"name":"Poor Fucking Infantry","steam_id":76561198055978522,"connected_time":2176000000000,"state":"active","ping":49},{"user_id":110,"name":"Dolcelatte","steam_id":76561198038501770,"connected_time":1563000000000,"state":"active","ping":60},{"user_id":125,"name":"Sipsu","steam_id":76561198059424107,"connected_time":138000000000,"state":"active","ping":92},{"user_id":99,"name":"Fishum","steam_id":76561198148556559,"connected_time":2564000000000,"state":"active","ping":46},{"user_id":111,"name":"azzy","steam_id":76561198061293740,"connected_time":1555000000000,"state":"active","ping":79},{"user_id":112,"name":"JGV","steam_id":76561198094654971,"connected_time":1553000000000,"state":"active","ping":73},{"user_id":71,"name":"Hkitchen","steam_id":76561198194779526,"connected_time":4803000000000,"state":"active","ping":37},{"user_id":124,"name":"ZOGG FearLand","steam_id":76561198352683491,"connected_time":637000000000,"state":"active","ping":41},{"user_id":95,"name":"Redmailbox","steam_id":76561198042930322,"connected_time":3551000000000,"state":"active","ping":69},{"user_id":122,"name":"LyT!","steam_id":76561198406992885,"connected_time":756000000000,"state":"active","ping":147},{"user_id":114,"name":"Knoxx","steam_id":76561198260692541,"connected_time":1548000000000,"state":"active","ping":45},{"user_id":42,"name":"Ork","steam_id":76561197968575924,"connected_time":6259000000000,"state":"active","ping":57},{"user_id":82,"name":"Jeg","steam_id":76561198405291408,"connected_time":4441000000000,"state":"active","ping":72},{"user_id":100,"name":"Kahvi","steam_id":76561198723244199,"connected_time":2563000000000,"state":"active","ping":77},{"user_id":118,"name":"Sebtacular","steam_id":76561198334284616,"connected_time":1357000000000,"state":"active","ping":75}]},{"server_id":114,"name":"Uncletopia | London | 2 | All Maps","name_short":"lon-2","host":"lon-1.uk.uncletopia.com","port":27025,"enabled":true,"region":"eu","cc":"gb","latitude":51.509865,"longitude":-0.118092,"reserved":0,"last_update":"0001-01-01T00:00:00Z","name_a2s":"Uncletopia | London | 2 | All Maps","protocol":17,"map":"koth_highpass","folder":"tf","game":"Team Fortress","app_id":440,"player_count":0,"max_players":24,"Bots":0,"server_type":"Dedicated","server_os":"Linux","password":true,"vac":true,"version":"7723704","steam_id":85568392924470941,"keywords":["cp","nocrits","nodmgspread","uncletopia"],"game_id":440,"stv_port":27026,"stv_name":"Uncletopia | London | 2 | All Maps | STV","players":null},{"server_id":320,"name":"Uncletopia | London | 3 | All Maps","name_short":"lon-3","host":"lon-1.uk.uncletopia.com","port":27035,"enabled":true,"region":"eu","cc":"gb","latitude":51.509865,"longitude":-0.118092,"reserved":0,"last_update":"0001-01-01T00:00:00Z","name_a2s":"Uncletopia | London | 3 | All Maps","protocol":17,"map":"pl_borneo","folder":"tf","game":"Team Fortress","app_id":440,"player_count":24,"max_players":24,"Bots":0,"server_type":"Dedicated","server_os":"Linux","password":true,"vac":true,"version":"7723704","steam_id":85568392924510192,"keywords":["nocrits","nodmgspread","payload","uncletopia"],"game_id":440,"stv_port":27036,"stv_name":"Uncletopia | London | 3 | All Maps | STV","players":[{"user_id":210,"name":"Timo010","steam_id":76561198832395256,"connected_time":433000000000,"state":"active","ping":79},{"user_id":209,"name":"mental","steam_id":76561198803089656,"connected_time":462000000000,"state":"active","ping":71},{"user_id":178,"name":"baby","steam_id":76561198127083425,"connected_time":2011000000000,"state":"active","ping":39},{"user_id":179,"name":"goofy goober","steam_id":76561198013237629,"connected_time":1971000000000,"state":"active","ping":104},{"user_id":150,"name":"gatherer","steam_id":76561198378235611,"connected_time":3602000000000,"state":"active","ping":76},{"user_id":217,"name":"NeoN‚Ñ¢","steam_id":76561198117608366,"connected_time":134000000000,"state":"active","ping":104},{"user_id":186,"name":"üå≠üåº POWER_Hugee","steam_id":76561198245495152,"connected_time":1737000000000,"state":"active","ping":60},{"user_id":207,"name":"kickz","steam_id":76561198038453890,"connected_time":680000000000,"state":"active","ping":34},{"user_id":182,"name":"C√©l√©rio","steam_id":76561198088253576,"connected_time":1905000000000,"state":"active","ping":45},{"user_id":171,"name":":)","steam_id":76561198039964082,"connected_time":2609000000000,"state":"active","ping":67},{"user_id":193,"name":"Vi","steam_id":76561198036546142,"connected_time":1567000000000,"state":"active","ping":35},{"user_id":205,"name":"Uncle Ben's Pilau Rice","steam_id":76561198064795519,"connected_time":814000000000,"state":"active","ping":40},{"user_id":198,"name":"HOI","steam_id":76561198061182117,"connected_time":1162000000000,"state":"active","ping":46},{"user_id":168,"name":"Flare","steam_id":76561198039098320,"connected_time":2699000000000,"state":"active","ping":51},{"user_id":165,"name":"Dominus.","steam_id":76561199065917088,"connected_time":3015000000000,"state":"active","ping":61},{"user_id":218,"name":"PerskuleBenener","steam_id":76561198156899375,"connected_time":0,"state":"spawning","ping":39},{"user_id":199,"name":"KillerQueen (he/they/she)","steam_id":76561199019399725,"connected_time":1117000000000,"state":"active","ping":47},{"user_id":200,"name":"‚ô¶Silvia‚ô¶","steam_id":76561198373039444,"connected_time":1088000000000,"state":"active","ping":107},{"user_id":213,"name":"brtaba","steam_id":76561198796334790,"connected_time":409000000000,"state":"active","ping":68},{"user_id":194,"name":"APPRAISER","steam_id":76561198153031262,"connected_time":1565000000000,"state":"active","ping":75},{"user_id":216,"name":"solus control unit","steam_id":76561198131944941,"connected_time":156000000000,"state":"active","ping":53},{"user_id":208,"name":"Keir1234","steam_id":76561198386147593,"connected_time":635000000000,"state":"active","ping":71},{"user_id":191,"name":"rozen","steam_id":76561198119167317,"connected_time":1697000000000,"state":"active","ping":54},{"user_id":204,"name":"abigail","steam_id":76561198132932617,"connected_time":897000000000,"state":"active","ping":59}]},{"server_id":321,"name":"Uncletopia | London | 4 | All Maps","name_short":"lon-4","host":"lon-1.uk.uncletopia.com","port":27045,"enabled":true,"region":"eu","cc":"gb","latitude":51.509865,"longitude":-0.118092,"reserved":0,"last_update":"0001-01-01T00:00:00Z","name_a2s":"Uncletopia | London | 4 | All Maps","protocol":17,"map":"koth_highpass","folder":"tf","game":"Team Fortress","app_id":440,"player_count":0,"max_players":24,"Bots":0,"server_type":"Dedicated","server_os":"Linux","password":true,"vac":true,"version":"7723704","steam_id":85568392924510193,"keywords":["cp","nocrits","nodmgspread","uncletopia"],"game_id":440,"stv_port":27046,"stv_name":"Uncletopia | London | 4 | All Maps | STV","players":null},{"server_id":21,"name":"Uncletopia | London | 5 | All Maps","name_short":"lon-5","host":"lon-1.uk.uncletopia.com","port":27055,"enabled":true,"region":"eu","cc":"gb","latitude":51.509865,"longitude":-0.118092,"reserved":0,"last_update":"0001-01-01T00:00:00Z","name_a2s":"Uncletopia | London | 5 | All Maps","protocol":17,"map":"koth_lakeside_final","folder":"tf","game":"Team Fortress","app_id":440,"player_count":0,"max_players":24,"Bots":0,"server_type":"Dedicated","server_os":"Linux","password":true,"vac":true,"version":"7723704","steam_id":85568392924742829,"keywords":["cp","nocrits","nodmgspread","uncletopia"],"game_id":440,"stv_port":27056,"stv_name":"Uncletopia | London | 5 | All Maps | STV","players":null},{"server_id":22,"name":"Uncletopia | London | 6 | All Maps","name_short":"lon-6","host":"lon-1.uk.uncletopia.com","port":27065,"enabled":true,"region":"eu","cc":"gb","latitude":51.509865,"longitude":-0.118092,"reserved":0,"last_update":"0001-01-01T00:00:00Z","name_a2s":"Uncletopia | London | 6 | All Maps","protocol":17,"map":"cp_altitude","folder":"tf","game":"Team Fortress","app_id":440,"player_count":0,"max_players":24,"Bots":0,"server_type":"Dedicated","server_os":"Linux","password":true,"vac":true,"version":"7723704","steam_id":85568392924742830,"keywords":["cp","nocrits","nodmgspread","uncletopia"],"game_id":440,"stv_port":27066,"stv_name":"Uncletopia | London | 6 | All Maps | STV","players":null},{"server_id":40,"name":"Uncletopia | London | 7 | No Payload","name_short":"lon-7","host":"lon-1.uk.uncletopia.com","port":27075,"enabled":true,"region":"eu","cc":"gb","latitude":51.509865,"longitude":-0.118092,"reserved":0,"last_update":"0001-01-01T00:00:00Z","name_a2s":"Uncletopia | London | 7 | No Payload","protocol":17,"map":"koth_cascade","folder":"tf","game":"Team Fortress","app_id":440,"player_count":0,"max_players":24,"Bots":0,"server_type":"Dedicated","server_os":"Linux","password":true,"vac":true,"version":"7723704","steam_id":85568392924964314,"keywords":["cp","nocrits","nodmgspread","uncletopia"],"game_id":440,"stv_port":27076,"stv_name":"Uncletopia | London | 7 | No Payload | STV","players":null},{"server_id":41,"name":"Uncletopia | London | 8 | Community","name_short":"lon-8","host":"lon-1.uk.uncletopia.com","port":27085,"enabled":true,"region":"eu","cc":"gb","latitude":51.509865,"longitude":-0.118092,"reserved":0,"last_update":"0001-01-01T00:00:00Z","name_a2s":"Uncletopia | London | 8 | Community","protocol":17,"map":"workshop/cp_villa_b19.ugc2113052569","folder":"tf","game":"Team Fortress","app_id":440,"player_count":0,"max_players":24,"Bots":0,"server_type":"Dedicated","server_os":"Linux","password":true,"vac":true,"version":"7723704","steam_id":85568392924964315,"keywords":["cp","nocrits","nodmgspread","uncletopia"],"game_id":440,"stv_port":27086,"stv_name":"Uncletopia | London | 8 | Community | STV","players":null},{"server_id":300,"name":"Uncletopia | Montr√©al | 1 | All Maps","name_short":"mtl-1","host":"mtl-1.ca.uncletopia.com","port":27015,"enabled":true,"region":"us-east","cc":"ca","latitude":45.50889,"longitude":-73.56167,"reserved":0,"last_update":"0001-01-01T00:00:00Z","name_a2s":"Uncletopia | Montr√©al | 1 | All Maps","protocol":17,"map":"pl_snowycoast","folder":"tf","game":"Team Fortress","app_id":440,"player_count":0,"max_players":24,"Bots":0,"server_type":"Dedicated","server_os":"Linux","password":true,"vac":true,"version":"7723704","steam_id":85568392924500087,"keywords":["nocrits","nodmgspread","payload","uncletopia"],"game_id":440,"stv_port":27016,"stv_name":"Uncletopia | Montr√©al | 1 | All Maps | STV","players":null},{"server_id":301,"name":"Uncletopia | Montr√©al | 2 | All Maps","name_short":"mtl-2","host":"mtl-1.ca.uncletopia.com","port":27025,"enabled":true,"region":"us-east","cc":"ca","latitude":45.50889,"longitude":-73.56167,"reserved":0,"last_update":"0001-01-01T00:00:00Z","name_a2s":"Uncletopia | Montr√©al | 2 | All Maps","protocol":17,"map":"cp_sunshine","folder":"tf","game":"Team Fortress","app_id":440,"player_count":0,"max_players":24,"Bots":0,"server_type":"Dedicated","server_os":"Linux","password":true,"vac":true,"version":"7723704","steam_id":85568392924500088,"keywords":["cp","nocrits","nodmgspread","uncletopia"],"game_id":440,"stv_port":27026,"stv_name":"Uncletopia | Montr√©al | 2 | All Maps | STV","players":null},{"server_id":302,"name":"Uncletopia | Montr√©al | 3 | All Maps","name_short":"mtl-3","host":"mtl-1.ca.uncletopia.com","port":27035,"enabled":true,"region":"us-east","cc":"ca","latitude":45.50889,"longitude":-73.56167,"reserved":0,"last_update":"0001-01-01T00:00:00Z","name_a2s":"Uncletopia | Montr√©al | 3 | All Maps","protocol":17,"map":"cp_dustbowl","folder":"tf","game":"Team Fortress","app_id":440,"player_count":0,"max_players":24,"Bots":0,"server_type":"Dedicated","server_os":"Linux","password":true,"vac":true,"version":"7723704","steam_id":85568392924500089,"keywords":["cp","nocrits","nodmgspread","uncletopia"],"game_id":440,"stv_port":27036,"stv_name":"Uncletopia | Montr√©al | 3 | All Maps | STV","players":null},{"server_id":303,"name":"Uncletopia | Montr√©al | 4 | No Payload","name_short":"mtl-4","host":"mtl-1.ca.uncletopia.com","port":27045,"enabled":true,"region":"us-east","cc":"ca","latitude":45.50889,"longitude":-73.56167,"reserved":0,"last_update":"0001-01-01T00:00:00Z","name_a2s":"Uncletopia | Montr√©al | 4 | No Payload","protocol":17,"map":"cp_process_final","folder":"tf","game":"Team Fortress","app_id":440,"player_count":0,"max_players":24,"Bots":0,"server_type":"Dedicated","server_os":"Linux","password":true,"vac":true,"version":"7723704","steam_id":85568392924500090,"keywords":["cp","nocrits","nodmgspread","uncletopia"],"game_id":440,"stv_port":27046,"stv_name":"Uncletopia | Montr√©al | 4 | No Payload | STV","players":null},{"server_id":13,"name":"Uncletopia | New York City | 1 | All Maps","name_short":"nyc-1","host":"nyc-1.us.uncletopia.com","port":27015,"enabled":true,"region":"us-east","cc":"us","latitude":40.73061,"longitude":-73.93524,"reserved":0,"last_update":"0001-01-01T00:00:00Z","name_a2s":"Uncletopia | New York City | 1 | All Maps","protocol":17,"map":"cp_snakewater_final1","folder":"tf","game":"Team Fortress","app_id":440,"player_count":0,"max_players":24,"Bots":0,"server_type":"Dedicated","server_os":"Linux","password":true,"vac":true,"version":"7723704","steam_id":85568392924469993,"keywords":["cp","nocrits","nodmgspread","uncletopia"],"game_id":440,"stv_port":27016,"stv_name":"Uncletopia | New York City | 1 | All Maps | STV","players":null},{"server_id":14,"name":"Uncletopia | New York City | 2 | All Maps","name_short":"nyc-2","host":"nyc-1.us.uncletopia.com","port":27025,"enabled":true,"region":"us-east","cc":"us","latitude":40.73061,"longitude":-73.93524,"reserved":0,"last_update":"0001-01-01T00:00:00Z","name_a2s":"Uncletopia | New York City | 2 | All Maps","protocol":17,"map":"cp_dustbowl","folder":"tf","game":"Team Fortress","app_id":440,"player_count":0,"max_players":24,"Bots":0,"server_type":"Dedicated","server_os":"Linux","password":true,"vac":true,"version":"7723704","steam_id":85568392924469994,"keywords":["cp","nocrits","nodmgspread","uncletopia"],"game_id":440,"stv_port":27026,"stv_name":"Uncletopia | New York City | 2 | All Maps | STV","players":null},{"server_id":15,"name":"Uncletopia | New York City | 3 | All Maps","name_short":"nyc-3","host":"nyc-1.us.uncletopia.com","port":27035,"enabled":true,"region":"us-east","cc":"us","latitude":40.73061,"longitude":-73.93524,"reserved":0,"last_update":"0001-01-01T00:00:00Z","name_a2s":"Uncletopia | New York City | 3 | All Maps","protocol":17,"map":"pl_frontier_final","folder":"tf","game":"Team Fortress","app_id":440,"player_count":0,"max_players":24,"Bots":0,"server_type":"Dedicated","server_os":"Linux","password":true,"vac":true,"version":"7723704","steam_id":85568392924742820,"keywords":["nocrits","nodmgspread","payload","uncletopia"],"game_id":440,"stv_port":27036,"stv_name":"Uncletopia | New York City | 3 | All Maps | STV","players":null},{"server_id":16,"name":"Uncletopia | New York City | 4 | Community","name_short":"nyc-4","host":"nyc-1.us.uncletopia.com","port":27045,"enabled":true,"region":"us-east","cc":"us","latitude":40.73061,"longitude":-73.93524,"reserved":0,"last_update":"0001-01-01T00:00:00Z","name_a2s":"Uncletopia | New York City | 4 | Community","protocol":17,"map":"cp_process_final","folder":"tf","game":"Team Fortress","app_id":440,"player_count":0,"max_players":24,"Bots":0,"server_type":"Dedicated","server_os":"Linux","password":true,"vac":true,"version":"7723704","steam_id":85568392924742821,"keywords":["cp","nocrits","nodmgspread","uncletopia"],"game_id":440,"stv_port":27046,"stv_name":"Uncletopia | New York City | 4 | Community | STV","players":null},{"server_id":142,"name":"Uncletopia | S√£o Paulo | 1 | All Maps","name_short":"sao-1","host":"sao-1.br.uncletopia.com","port":27015,"enabled":true,"region":"sa","cc":"br","latitude":-23.533773,"longitude":-46.62529,"reserved":0,"last_update":"0001-01-01T00:00:00Z","name_a2s":"Uncletopia | S√£o Paulo | 1 | All Maps","protocol":17,"map":"koth_cascade","folder":"tf","game":"Team Fortress","app_id":440,"player_count":0,"max_players":24,"Bots":0,"server_type":"Dedicated","server_os":"Linux","password":true,"vac":true,"version":"7723704","steam_id":85568392924469996,"keywords":["cp","nocrits","nodmgspread","uncletopia"],"game_id":440,"stv_port":27016,"stv_name":"Uncletopia | S√£o Paulo | 1 | All Maps | STV","players":null},{"server_id":143,"name":"Uncletopia | S√£o Paulo | 2 | All Maps","name_short":"sao-2","host":"sao-2.br.uncletopia.com","port":27015,"enabled":true,"region":"sa","cc":"br","latitude":-23.533773,"longitude":-46.62529,"reserved":0,"last_update":"0001-01-01T00:00:00Z","name_a2s":"Uncletopia | S√£o Paulo | 2 | All Maps","protocol":17,"map":"cp_snakewater_final1","folder":"tf","game":"Team Fortress","app_id":440,"player_count":0,"max_players":24,"Bots":0,"server_type":"Dedicated","server_os":"Linux","password":true,"vac":true,"version":"7723704","steam_id":85568392924485349,"keywords":["cp","nocrits","nodmgspread","uncletopia"],"game_id":440,"stv_port":27016,"stv_name":"Uncletopia | S√£o Paulo | 2 | All Maps | STV","players":null},{"server_id":7,"name":"Uncletopia | Seattle | 1 | All Maps","name_short":"sea-1","host":"sea-1.us.uncletopia.com","port":27015,"enabled":true,"region":"us-west","cc":"us","latitude":47.608013,"longitude":-122.33517,"reserved":0,"last_update":"0001-01-01T00:00:00Z","name_a2s":"Uncletopia | Seattle | 1 | All Maps","protocol":17,"map":"pl_barnblitz","folder":"tf","game":"Team Fortress","app_id":440,"player_count":0,"max_players":24,"Bots":0,"server_type":"Dedicated","server_os":"Linux","password":true,"vac":true,"version":"7723704","steam_id":85568392924469997,"keywords":["nocrits","nodmgspread","payload","uncletopia"],"game_id":440,"stv_port":27016,"stv_name":"Uncletopia | Seattle | 1 | All Maps | STV","players":null},{"server_id":119,"name":"Uncletopia | Seattle | 2 | All Maps","name_short":"sea-2","host":"sea-1.us.uncletopia.com","port":27025,"enabled":true,"region":"us-west","cc":"us","latitude":47.608013,"longitude":-122.33517,"reserved":0,"last_update":"0001-01-01T00:00:00Z","name_a2s":"Uncletopia | Seattle | 2 | All Maps","protocol":17,"map":"pl_upward","folder":"tf","game":"Team Fortress","app_id":440,"player_count":0,"max_players":24,"Bots":0,"server_type":"Dedicated","server_os":"Linux","password":true,"vac":true,"version":"7723704","steam_id":85568392924469998,"keywords":["nocrits","nodmgspread","payload","uncletopia"],"game_id":440,"stv_port":27026,"stv_name":"Uncletopia | Seattle | 2 | All Maps | STV","players":null},{"server_id":17,"name":"Uncletopia | San Francisco | 1 | All Maps","name_short":"sfo-1","host":"sfo-1.us.uncletopia.com","port":27015,"enabled":true,"region":"us-west","cc":"us","latitude":37.77397,"longitude":-122.4313,"reserved":0,"last_update":"0001-01-01T00:00:00Z","name_a2s":"Uncletopia | San Francisco | 1 | All Maps","protocol":17,"map":"koth_viaduct","folder":"tf","game":"Team Fortress","app_id":440,"player_count":0,"max_players":24,"Bots":0,"server_type":"Dedicated","server_os":"Linux","password":true,"vac":true,"version":"7723704","steam_id":85568392924469999,"keywords":["cp","nocrits","nodmgspread","uncletopia"],"game_id":440,"stv_port":27016,"stv_name":"Uncletopia | San Francisco | 1 | All Maps | STV","players":null},{"server_id":18,"name":"Uncletopia | San Francisco | 2 | All Maps","name_short":"sfo-2","host":"sfo-1.us.uncletopia.com","port":27025,"enabled":true,"region":"us-west","cc":"us","latitude":37.77397,"longitude":-122.4313,"reserved":0,"last_update":"0001-01-01T00:00:00Z","name_a2s":"Uncletopia | San Francisco | 2 | All Maps","protocol":17,"map":"cp_dustbowl","folder":"tf","game":"Team Fortress","app_id":440,"player_count":0,"max_players":24,"Bots":0,"server_type":"Dedicated","server_os":"Linux","password":true,"vac":true,"version":"7723704","steam_id":85568392924470000,"keywords":["cp","nocrits","nodmgspread","uncletopia"],"game_id":440,"stv_port":27026,"stv_name":"Uncletopia | San Francisco | 2 | All Maps | STV","players":null},{"server_id":19,"name":"Uncletopia | San Francisco | 3 | No Payload","name_short":"sfo-3","host":"sfo-1.us.uncletopia.com","port":27035,"enabled":true,"region":"us-west","cc":"us","latitude":37.77397,"longitude":-122.4313,"reserved":0,"last_update":"0001-01-01T00:00:00Z","name_a2s":"Uncletopia | San Francisco | 3 | No Payload","protocol":17,"map":"pl_snowycoast","folder":"tf","game":"Team Fortress","app_id":440,"player_count":0,"max_players":24,"Bots":0,"server_type":"Dedicated","server_os":"Linux","password":true,"vac":true,"version":"7723704","steam_id":85568392924742824,"keywords":["nocrits","nodmgspread","payload","uncletopia"],"game_id":440,"stv_port":27036,"stv_name":"Uncletopia | San Francisco | 3 | No Payload | STV","players":null},{"server_id":20,"name":"Uncletopia | San Francisco | 4 | Community","name_short":"sfo-4","host":"sfo-1.us.uncletopia.com","port":27045,"enabled":true,"region":"us-west","cc":"us","latitude":37.77397,"longitude":-122.4313,"reserved":0,"last_update":"0001-01-01T00:00:00Z","name_a2s":"Uncletopia | San Francisco | 4 | Community","protocol":17,"map":"pl_frontier_final","folder":"tf","game":"Team Fortress","app_id":440,"player_count":0,"max_players":24,"Bots":0,"server_type":"Dedicated","server_os":"Linux","password":true,"vac":true,"version":"7723704","steam_id":85568392924742826,"keywords":["nocrits","nodmgspread","payload","uncletopia"],"game_id":440,"stv_port":27046,"stv_name":"Uncletopia | San Francisco | 4 | Community | STV","players":null},{"server_id":141,"name":"Uncletopia | Sydney | 1 | All Maps","name_short":"syd-1","host":"syd-1.au.uncletopia.com","port":27015,"enabled":true,"region":"au","cc":"au","latitude":-33.865143,"longitude":151.2099,"reserved":0,"last_update":"0001-01-01T00:00:00Z","name_a2s":"Uncletopia | Sydney | 1 | All Maps","protocol":17,"map":"pl_swiftwater_final1","folder":"tf","game":"Team Fortress","app_id":440,"player_count":15,"max_players":24,"Bots":0,"server_type":"Dedicated","server_os":"Linux","password":true,"vac":true,"version":"7723704","steam_id":85568392924470001,"keywords":["nocrits","nodmgspread","payload","uncletopia"],"game_id":440,"stv_port":27016,"stv_name":"Uncletopia | Sydney | 1 | All Maps | STV","players":[{"user_id":510,"name":"majima enjoyer","steam_id":76561199054725270,"connected_time":217000000000,"state":"spawning","ping":92},{"user_id":418,"name":"Captain Canadia","steam_id":76561198167967735,"connected_time":6853000000000,"state":"active","ping":64},{"user_id":516,"name":"society for no more society","steam_id":76561198058459622,"connected_time":9000000000,"state":"spawning","ping":62},{"user_id":515,"name":"Fdhou‚ò≠","steam_id":76561198881020399,"connected_time":24000000000,"state":"spawning","ping":318},{"user_id":513,"name":"Exyn","steam_id":76561198130149901,"connected_time":43000000000,"state":"active","ping":148},{"user_id":483,"name":"Kouler","steam_id":76561197960804719,"connected_time":2871000000000,"state":"spawning","ping":76},{"user_id":497,"name":"Sinister80s","steam_id":76561198343540472,"connected_time":1217000000000,"state":"active","ping":68},{"user_id":507,"name":"Amber","steam_id":76561198348492407,"connected_time":533000000000,"state":"spawning","ping":136},{"user_id":500,"name":"Jah","steam_id":76561198145620087,"connected_time":1046000000000,"state":"active","ping":171},{"user_id":487,"name":"Skeptikal01","steam_id":76561199064694137,"connected_time":2167000000000,"state":"spawning","ping":225},{"user_id":512,"name":"Johngamer2418","steam_id":76561198377832282,"connected_time":168000000000,"state":"active","ping":55},{"user_id":486,"name":"JOBMATCH","steam_id":76561198044343775,"connected_time":2353000000000,"state":"spawning","ping":48},{"user_id":420,"name":"Mail Bomb Victim","steam_id":76561198284533039,"connected_time":6825000000000,"state":"spawning","ping":48},{"user_id":502,"name":"badmn","steam_id":76561198056462343,"connected_time":891000000000,"state":"active","ping":56},{"user_id":410,"name":"Jiffy360","steam_id":76561198149550772,"connected_time":7942000000000,"state":"active","ping":95}]},{"server_id":123,"name":"Uncletopia | Sydney | 2 | All Maps","name_short":"syd-2","host":"syd-1.au.uncletopia.com","port":27025,"enabled":true,"region":"au","cc":"au","latitude":-33.865143,"longitude":151.2099,"reserved":0,"last_update":"0001-01-01T00:00:00Z","name_a2s":"Uncletopia | Sydney | 2 | All Maps","protocol":17,"map":"koth_cascade","folder":"tf","game":"Team Fortress","app_id":440,"player_count":0,"max_players":24,"Bots":0,"server_type":"Dedicated","server_os":"Linux","password":true,"vac":true,"version":"7723704","steam_id":85568392924470002,"keywords":["cp","nocrits","nodmgspread","uncletopia"],"game_id":440,"stv_port":27026,"stv_name":"Uncletopia | Sydney | 2 | All Maps | STV","players":null},{"server_id":395,"name":"Uncletopia | Sydney | 3 | All Maps","name_short":"syd-3","host":"syd-1.au.uncletopia.com","port":27035,"enabled":true,"region":"au","cc":"au","latitude":-33.865143,"longitude":151.2099,"reserved":0,"last_update":"0001-01-01T00:00:00Z","name_a2s":"Uncletopia | Sydney | 3 | All Maps","protocol":17,"map":"cp_process_final","folder":"tf","game":"Team Fortress","app_id":440,"player_count":0,"max_players":24,"Bots":0,"server_type":"Dedicated","server_os":"Linux","password":true,"vac":true,"version":"7723704","steam_id":85568392925194467,"keywords":["cp","nocrits","nodmgspread","uncletopia"],"game_id":440,"stv_port":27036,"stv_name":"Uncletopia | Sydney | 3 | All Maps | STV","players":null},{"server_id":396,"name":"Uncletopia | Sydney | 4 | All Maps","name_short":"syd-4","host":"syd-1.au.uncletopia.com","port":27045,"enabled":true,"region":"au","cc":"au","latitude":-33.865143,"longitude":151.2099,"reserved":0,"last_update":"0001-01-01T00:00:00Z","name_a2s":"Uncletopia | Sydney | 4 | All Maps","protocol":17,"map":"pl_pier","folder":"tf","game":"Team Fortress","app_id":440,"player_count":0,"max_players":24,"Bots":0,"server_type":"Dedicated","server_os":"Linux","password":true,"vac":true,"version":"7723704","steam_id":85568392925397958,"keywords":["nocrits","nodmgspread","payload","uncletopia"],"game_id":440,"stv_port":27046,"stv_name":"Uncletopia | Sydney | 4 | All Maps | STV","players":null},{"server_id":58,"name":"Uncletopia | Sydney | 5 | No Payload","name_short":"syd-5","host":"syd-1.au.uncletopia.com","port":27055,"enabled":true,"region":"au","cc":"au","latitude":-33.865143,"longitude":151.2099,"reserved":0,"last_update":"0001-01-01T00:00:00Z","name_a2s":"Uncletopia | Sydney | 5 | No Payload","protocol":17,"map":"cp_steel","folder":"tf","game":"Team Fortress","app_id":440,"player_count":0,"max_players":24,"Bots":0,"server_type":"Dedicated","server_os":"Linux","password":true,"vac":true,"version":"7723704","steam_id":85568392925397959,"keywords":["cp","nocrits","nodmgspread","uncletopia"],"game_id":440,"stv_port":27056,"stv_name":"Uncletopia | Sydney | 5 | No Payload | STV","players":null},{"server_id":59,"name":"Uncletopia | Sydney | 6 | Community","name_short":"syd-6","host":"syd-1.au.uncletopia.com","port":27065,"enabled":true,"region":"au","cc":"au","latitude":-33.865143,"longitude":151.2099,"reserved":0,"last_update":"0001-01-01T00:00:00Z","name_a2s":"Uncletopia | Sydney | 6 | Community","protocol":17,"map":"workshop/koth_ramjam_v2_b2.ugc2865676487","folder":"tf","game":"Team Fortress","app_id":440,"player_count":0,"max_players":24,"Bots":0,"server_type":"Dedicated","server_os":"Linux","password":true,"vac":true,"version":"7723704","steam_id":85568392925397960,"keywords":["cp","nocrits","nodmgspread","uncletopia"],"game_id":440,"stv_port":27066,"stv_name":"Uncletopia | Sydney | 6 | Community | STV","players":null},{"server_id":49,"name":"Uncletopia | Warsaw | 1 | All Maps","name_short":"waw-1","host":"waw-1.pl.uncletopia.com","port":27015,"enabled":true,"region":"eu","cc":"pl","latitude":52.2297,"longitude":21.017532,"reserved":0,"last_update":"0001-01-01T00:00:00Z","name_a2s":"Uncletopia | Warsaw | 1 | All Maps","protocol":17,"map":"koth_highpass","folder":"tf","game":"Team Fortress","app_id":440,"player_count":0,"max_players":24,"Bots":0,"server_type":"Dedicated","server_os":"Linux","password":true,"vac":true,"version":"7723704","steam_id":85568392925397850,"keywords":["cp","nocrits","nodmgspread","uncletopia"],"game_id":440,"stv_port":27016,"stv_name":"Uncletopia | Warsaw | 1 | All Maps | STV","players":null},{"server_id":50,"name":"Uncletopia | Warsaw | 2 | All Maps","name_short":"waw-2","host":"waw-1.pl.uncletopia.com","port":27025,"enabled":true,"region":"eu","cc":"pl","latitude":52.2297,"longitude":21.017532,"reserved":0,"last_update":"0001-01-01T00:00:00Z","name_a2s":"Uncletopia | Warsaw | 2 | All Maps","protocol":17,"map":"pl_snowycoast","folder":"tf","game":"Team Fortress","app_id":440,"player_count":0,"max_players":24,"Bots":0,"server_type":"Dedicated","server_os":"Linux","password":true,"vac":true,"version":"7723704","steam_id":85568392925397851,"keywords":["nocrits","nodmgspread","payload","uncletopia"],"game_id":440,"stv_port":27026,"stv_name":"Uncletopia | Warsaw | 2 | All Maps | STV","players":null},{"server_id":51,"name":"Uncletopia | Warsaw | 3 | All Maps","name_short":"waw-3","host":"waw-1.pl.uncletopia.com","port":27035,"enabled":true,"region":"eu","cc":"pl","latitude":52.2297,"longitude":21.017532,"reserved":0,"last_update":"0001-01-01T00:00:00Z","name_a2s":"Uncletopia | Warsaw | 3 | All Maps","protocol":17,"map":"koth_lakeside_final","folder":"tf","game":"Team Fortress","app_id":440,"player_count":0,"max_players":24,"Bots":0,"server_type":"Dedicated","server_os":"Linux","password":true,"vac":true,"version":"7723704","steam_id":85568392925397852,"keywords":["cp","nocrits","nodmgspread","uncletopia"],"game_id":440,"stv_port":27036,"stv_name":"Uncletopia | Warsaw | 3 | All Maps | STV","players":null},{"server_id":52,"name":"Uncletopia | Warsaw | 4 | All Maps","name_short":"waw-4","host":"waw-1.pl.uncletopia.com","port":27045,"enabled":true,"region":"eu","cc":"pl","latitude":52.2297,"longitude":21.017532,"reserved":0,"last_update":"0001-01-01T00:00:00Z","name_a2s":"Uncletopia | Warsaw | 4 | All Maps","protocol":17,"map":"pl_frontier_final","folder":"tf","game":"Team Fortress","app_id":440,"player_count":0,"max_players":24,"Bots":0,"server_type":"Dedicated","server_os":"Linux","password":true,"vac":true,"version":"7723704","steam_id":85568392925397853,"keywords":["nocrits","nodmgspread","payload","uncletopia"],"game_id":440,"stv_port":27046,"stv_name":"Uncletopia | Warsaw | 4 | All Maps | STV","players":null},{"server_id":53,"name":"Uncletopia | Warsaw | 5 | No Payload","name_short":"waw-5","host":"waw-1.pl.uncletopia.com","port":27055,"enabled":true,"region":"eu","cc":"pl","latitude":52.2297,"longitude":21.017532,"reserved":0,"last_update":"0001-01-01T00:00:00Z","name_a2s":"Uncletopia | Warsaw | 5 | No Payload","protocol":17,"map":"koth_highpass","folder":"tf","game":"Team Fortress","app_id":440,"player_count":0,"max_players":24,"Bots":0,"server_type":"Dedicated","server_os":"Linux","password":true,"vac":true,"version":"7723704","steam_id":85568392925397854,"keywords":["cp","nocrits","nodmgspread","uncletopia"],"game_id":440,"stv_port":27056,"stv_name":"Uncletopia | Warsaw | 5 | No Payload | STV","players":null},{"server_id":54,"name":"Uncletopia | Warsaw | 6 | Community","name_short":"waw-6","host":"waw-1.pl.uncletopia.com","port":27065,"enabled":true,"region":"eu","cc":"pl","latitude":52.2297,"longitude":21.017532,"reserved":0,"last_update":"0001-01-01T00:00:00Z","name_a2s":"Uncletopia | Warsaw | 6 | Community","protocol":17,"map":"koth_viaduct","folder":"tf","game":"Team Fortress","app_id":440,"player_count":0,"max_players":24,"Bots":0,"server_type":"Dedicated","server_os":"Linux","password":true,"vac":true,"version":"7723704","steam_id":85568392925397856,"keywords":["cp","nocrits","nodmgspread","uncletopia"],"game_id":440,"stv_port":27066,"stv_name":"Uncletopia | Warsaw | 6 | Community | STV","players":null}]}