{"status":true,"message":"","result":[{"server_id":9,"name":"Uncletopia | Atlanta | 1 | All Maps","name_short":"atl-1","host":"atl-1.us.uncletopia.com","port":27015,"enabled":true,"region":"us-east","cc":"us","latitude":33.753746,"longitude":-84.38633,"reserved":0,"last_update":"0001-01-01T00:00:00Z","name_a2s":"Uncletopia | Atlanta | 1 | All Maps","protocol":17,"map":"pl_pier","folder":"tf","game":"Team Fortress","app_id":440,"player_count":24,"max_players":24,"Bots":0,"server_type":"Dedicated","server_os":"Linux","password":true,"vac":true,"version":"7742253","steam_id":85568392924469982,"keywords":["nocrits","nodmgspread","payload","uncletopia"],"game_id":440,"stv_port":27016,"stv_name":"Uncletopia | Atlanta | 1 | All Maps | STV","players":[{"user_id":205,"name":"Megadesk","steam_id":76561198078219641,"connected_time":4733000000000,"state":"active","ping":73},{"user_id":241,"name":"poogoblin49","steam_id":76561198124866303,"connected_time":1859000000000,"state":"active","ping":57},{"user_id":270,"name":"Saint Quincy","steam_id":76561198205900359,"connected_time":588000000000,"state":"active","ping":62},{"user_id":264,"name":"Snazzi","steam_id":76561198085208276,"connected_time":632000000000,"state":"active","ping":73},{"user_id":262,"name":"Ninjasupahman","steam_id":76561198083284498,"connected_time":879000000000,"state":"active","ping":60},{"user_id":258,"name":"stunt or die","steam_id":76561198449857428,"connected_time":1034000000000,"state":"active","ping":91},{"user_id":275,"name":"ATL1 | ma0re","steam_id":76561199231971506,"connected_time":363000000000,"state":"active","ping":67},{"user_id":265,"name":"febfowl","steam_id":76561198023888890,"connected_time":624000000000,"state":"active","ping":66},{"user_id":276,"name":"Toestiee","steam_id":76561198263533618,"connected_time":234000000000,"state":"active","ping":59},{"user_id":238,"name":"newyears.jimmy.2014","steam_id":76561199177672325,"connected_time":2350000000000,"state":"active","ping":45},{"user_id":272,"name":"Meraki","steam_id":76561198128098491,"connected_time":504000000000,"state":"active","ping":49},{"user_id":266,"name":"Carl","steam_id":76561198103072673,"connected_time":619000000000,"state":"active","ping":85},{"user_id":263,"name":"SenTreats","steam_id":76561198085835841,"connected_time":651000000000,"state":"active","ping":113},{"user_id":267,"name":"big guapo","steam_id":76561198103228695,"connected_time":616000000000,"state":"active","ping":75},{"user_id":236,"name":"shaderoses","steam_id":76561198070800500,"connected_time":2650000000000,"state":"active","ping":63},{"user_id":274,"name":"Spy_Is_Pye","steam_id":76561199439622967,"connected_time":455000000000,"state":"active","ping":62},{"user_id":248,"name":"JimmySquid","steam_id":76561198254242530,"connected_time":1624000000000,"state":"active","ping":74},{"user_id":269,"name":"FatCuddlyBear","steam_id":76561198133613253,"connected_time":609000000000,"state":"active","ping":80},{"user_id":257,"name":"David De Bergerac","steam_id":76561198010306294,"connected_time":1217000000000,"state":"active","ping":83},{"user_id":271,"name":"Mystical Heart","steam_id":76561198064015187,"connected_time":552000000000,"state":"active","ping":67},{"user_id":261,"name":"_DrunkenGibberish_","steam_id":76561199123070071,"connected_time":950000000000,"state":"active","ping":136},{"user_id":256,"name":"Inky (Coolest)","steam_id":76561198968337022,"connected_time":1260000000000,"state":"active","ping":70},{"user_id":195,"name":"D-MROMA","steam_id":76561198837664861,"connected_time":5981000000000,"state":"active","ping":84},{"user_id":278,"name":"ATL1 | Twa","steam_id":76561198295529541,"connected_time":105000000000,"state":"active","ping":70}]},{"server_id":400,"name":"Uncletopia | Atlanta | 3 | Stopwatch Beta","name_short":"atl-3","host":"atl-1.us.uncletopia.com","port":27035,"enabled":true,"region":"us-east","cc":"us","latitude":33.753746,"longitude":-84.38633,"reserved":0,"last_update":"0001-01-01T00:00:00Z","name_a2s":"Uncletopia | Atlanta | 3 | Stopwatch Beta","protocol":17,"map":"pl_pier","folder":"tf","game":"Team Fortress","app_id":440,"player_count":0,"max_players":24,"Bots":0,"server_type":"Dedicated","server_os":"Linux","password":true,"vac":true,"version":"7742253","steam_id":85568392924515187,"keywords":["nocrits","nodmgspread","payload","uncletopia"],"game_id":440,"stv_port":27036,"stv_name":"Uncletopia | Atlanta | 3 | Stopwatch Beta | STV","players":null},{"server_id":401,"name":"Uncletopia | Atlanta | 4 | No Payload","name_short":"atl-4","host":"atl-1.us.uncletopia.com","port":27045,"enabled":true,"region":"us-east","cc":"us","latitude":33.753746,"longitude":-84.38633,"reserved":0,"last_update":"0001-01-01T00:00:00Z","name_a2s":"Uncletopia | Atlanta | 4 | No Payload","protocol":17,"map":"pl_pier","folder":"tf","game":"Team Fortress","app_id":440,"player_count":0,"max_players":24,"Bots":0,"server_type":"Dedicated","server_os":"Linux","password":true,"vac":true,"version":"7723704","steam_id":85568392924515188,"keywords":["nocrits","nodmgspread","payload","uncletopia"],"game_id":440,"stv_port":27046,"stv_name":"Uncletopia | Atlanta | 4 | No Payload | STV","players":null},{"server_id":2,"name":"Uncletopia | Chicago | 1 | All Maps","name_short":"chi-1","host":"chi-1.us.uncletopia.com","port":27015,"enabled":true,"region":"us-central","cc":"us","latitude":41.881832,"longitude":-87.62318,"reserved":0,"last_update":"0001-01-01T00:00:00Z","name_a2s":"Uncletopia | Chicago | 1 | All Maps","protocol":17,"map":"pl_borneo","folder":"tf","game":"Team Fortress","app_id":440,"player_count":23,"max_players":24,"Bots":0,"server_type":"Dedicated","server_os":"Linux","password":true,"vac":true,"version":"7742253","steam_id":85568392924469984,"keywords":["nocrits","nodmgspread","payload","uncletopia"],"game_id":440,"stv_port":27016,"stv_name":"Uncletopia | Chicago | 1 | All Maps | STV","players":[{"user_id":86,"name":"Stapler","steam_id":76561198099295077,"connected_time":2301000000000,"state":"active","ping":90},{"user_id":124,"name":"sunsetteOS","steam_id":76561198030654079,"connected_time":11000000000,"state":"active","ping":71},{"user_id":89,"name":"goggleOgler","steam_id":76561198044853829,"connected_time":2117000000000,"state":"active","ping":57},{"user_id":107,"name":"Platinum","steam_id":76561198052463484,"connected_time":998000000000,"state":"active","ping":105},{"user_id":108,"name":"StormForce","steam_id":76561198343451685,"connected_time":995000000000,"state":"active","ping":76},{"user_id":114,"name":"TeeTree","steam_id":76561198862307874,"connected_time":595000000000,"state":"active","ping":62},{"user_id":92,"name":"moonage72","steam_id":76561199187008629,"connected_time":2045000000000,"state":"active","ping":63},{"user_id":117,"name":"Catboy Potemkin","steam_id":76561198078474420,"connected_time":361000000000,"state":"active","ping":65},{"user_id":102,"name":"Hylic","steam_id":76561199051314589,"connected_time":1597000000000,"state":"active","ping":60},{"user_id":73,"name":"Soju","steam_id":76561198044130442,"connected_time":3425000000000,"state":"active","ping":68},{"user_id":99,"name":"Pennis the Menace","steam_id":76561198254878037,"connected_time":1891000000000,"state":"active","ping":61},{"user_id":118,"name":"forklift circumcised","steam_id":76561198278756087,"connected_time":218000000000,"state":"active","ping":82},{"user_id":115,"name":"Alt","steam_id":76561197992591984,"connected_time":512000000000,"state":"active","ping":61},{"user_id":88,"name":"‚ô•Stephiebees‚ô•","steam_id":76561198021529860,"connected_time":2121000000000,"state":"active","ping":102},{"user_id":119,"name":"Anxiety","steam_id":76561198365627687,"connected_time":217000000000,"state":"active","ping":107},{"user_id":105,"name":"Aqua UwU","steam_id":76561198108784167,"connected_time":1462000000000,"state":"active","ping":46},{"user_id":121,"name":"BIG HOG","steam_id":76561198126489501,"connected_time":179000000000,"state":"active","ping":55},{"user_id":110,"name":"I like cheese (real)","steam_id":76561198882837408,"connected_time":880000000000,"state":"active","ping":103},{"user_id":113,"name":"sioti","steam_id":76561198128796649,"connected_time":622000000000,"state":"active","ping":63},{"user_id":66,"name":"lostos","steam_id":76561197983869145,"connected_time":4245000000000,"state":"active","ping":150},{"user_id":85,"name":"Merchants of Misery","steam_id":76561199188142396,"connected_time":2594000000000,"state":"active","ping":101},{"user_id":123,"name":"kb","steam_id":76561198115914109,"connected_time":105000000000,"state":"active","ping":78},{"user_id":91,"name":"Ademar","steam_id":76561199391802581,"connected_time":2114000000000,"state":"active","ping":66}]},{"server_id":106,"name":"Uncletopia | Chicago | 2 | All Maps","name_short":"chi-2","host":"chi-1.us.uncletopia.com","port":27025,"enabled":true,"region":"us-central","cc":"us","latitude":41.881832,"longitude":-87.62318,"reserved":0,"last_update":"0001-01-01T00:00:00Z","name_a2s":"Uncletopia | Chicago | 2 | All Maps","protocol":17,"map":"cp_process_final","folder":"tf","game":"Team Fortress","app_id":440,"player_count":24,"max_players":24,"Bots":0,"server_type":"Dedicated","server_os":"Linux","password":true,"vac":true,"version":"7742253","steam_id":85568392924469985,"keywords":["cp","nocrits","nodmgspread","uncletopia"],"game_id":440,"stv_port":27026,"stv_name":"Uncletopia | Chicago | 2 | All Maps | STV","players":[{"user_id":184,"name":"Strange","steam_id":76561198310853086,"connected_time":3965000000000,"state":"active","ping":122},{"user_id":194,"name":"mel","steam_id":76561198097124190,"connected_time":3289000000000,"state":"active","ping":77},{"user_id":249,"name":"Scent Tree","steam_id":76561198444371121,"connected_time":76000000000,"state":"active","ping":78},{"user_id":229,"name":"GrimGryphon","steam_id":76561198169899963,"connected_time":1472000000000,"state":"active","ping":46},{"user_id":202,"name":"LukeLeal","steam_id":76561198049822995,"connected_time":2770000000000,"state":"active","ping":162},{"user_id":246,"name":"brynoffiepie008","steam_id":76561199065378685,"connected_time":334000000000,"state":"active","ping":148},{"user_id":236,"name":"i suffer from ligma","steam_id":76561199158496518,"connected_time":648000000000,"state":"active","ping":70},{"user_id":220,"name":"Donkey","steam_id":76561197968155896,"connected_time":1618000000000,"state":"active","ping":56},{"user_id":150,"name":"magic gay relationships talisma","steam_id":76561197997915494,"connected_time":6523000000000,"state":"active","ping":94},{"user_id":222,"name":"Mrs.Donkey","steam_id":76561197970143019,"connected_time":1599000000000,"state":"active","ping":53},{"user_id":239,"name":"LuckyExplosion_TTV","steam_id":76561198447673571,"connected_time":432000000000,"state":"active","ping":71},{"user_id":240,"name":"helpme","steam_id":76561199219344943,"connected_time":421000000000,"state":"active","ping":60},{"user_id":178,"name":"xXb3nz0_1uv3rXx","steam_id":76561198057536994,"connected_time":4136000000000,"state":"active","ping":79},{"user_id":237,"name":"Pills","steam_id":76561198799440163,"connected_time":594000000000,"state":"active","ping":97},{"user_id":225,"name":"nhbiker","steam_id":76561198081277675,"connected_time":1521000000000,"state":"active","ping":56},{"user_id":251,"name":"jorjor wells","steam_id":76561199073429082,"connected_time":7000000000,"state":"active","ping":123},{"user_id":197,"name":"jae are","steam_id":76561198027906463,"connected_time":3135000000000,"state":"active","ping":45},{"user_id":241,"name":"extinct111","steam_id":76561199013696367,"connected_time":411000000000,"state":"active","ping":57},{"user_id":243,"name":"Vem","steam_id":76561198117273112,"connected_time":370000000000,"state":"active","ping":67},{"user_id":247,"name":"Darkmaen","steam_id":76561198060543390,"connected_time":279000000000,"state":"active","ping":135},{"user_id":244,"name":"Furry Saul Goodman","steam_id":76561198069580305,"connected_time":360000000000,"state":"active","ping":54},{"user_id":245,"name":"cl0useau","steam_id":76561198191050167,"connected_time":354000000000,"state":"active","ping":76},{"user_id":235,"name":"JA","steam_id":76561198308183330,"connected_time":708000000000,"state":"active","ping":54}]},{"server_id":402,"name":"Uncletopia | Chicago | 3 | All Maps","name_short":"chi-3","host":"chi-1.us.uncletopia.com","port":27035,"enabled":true,"region":"us-central","cc":"us","latitude":41.881832,"longitude":-87.62318,"reserved":0,"last_update":"0001-01-01T00:00:00Z","name_a2s":"Uncletopia | Chicago | 3 | All Maps","protocol":17,"map":"pl_wutville_event","folder":"tf","game":"Team Fortress","app_id":440,"player_count":24,"max_players":24,"Bots":0,"server_type":"Dedicated","server_os":"Linux","password":true,"vac":true,"version":"7742253","steam_id":85568392924515191,"keywords":["nocrits","nodmgspread","payload","uncletopia"],"game_id":440,"stv_port":27036,"stv_name":"Uncletopia | Chicago | 3 | All Maps | STV","players":[{"user_id":253,"name":"LuciD","steam_id":76561198242842394,"connected_time":719000000000,"state":"active","ping":113},{"user_id":249,"name":"Dinosaur","steam_id":76561198854695804,"connected_time":891000000000,"state":"active","ping":67},{"user_id":205,"name":"carloseolartec","steam_id":76561198396648023,"connected_time":5705000000000,"state":"active","ping":75},{"user_id":80,"name":"[slug]","steam_id":76561197989592178,"connected_time":14619000000000,"state":"active","ping":66},{"user_id":225,"name":"FACTS \u0026 LQGIC","steam_id":76561197995211570,"connected_time":2329000000000,"state":"active","ping":67},{"user_id":255,"name":"Money Collector","steam_id":76561198046249467,"connected_time":444000000000,"state":"active","ping":55},{"user_id":126,"name":"jstn","steam_id":76561198845283665,"connected_time":10283000000000,"state":"active","ping":71},{"user_id":237,"name":"TF2's Persian Prince","steam_id":76561198156282541,"connected_time":1765000000000,"state":"active","ping":45},{"user_id":244,"name":"Gump","steam_id":76561198799744386,"connected_time":1444000000000,"state":"active","ping":66},{"user_id":156,"name":"Joker","steam_id":76561198825464266,"connected_time":8446000000000,"state":"active","ping":75},{"user_id":230,"name":"Walter White","steam_id":76561198870018009,"connected_time":2035000000000,"state":"active","ping":63},{"user_id":256,"name":"lag","steam_id":76561197963872739,"connected_time":265000000000,"state":"active","ping":90},{"user_id":219,"name":"the deadliest pyroshark","steam_id":76561198374227766,"connected_time":3278000000000,"state":"active","ping":91},{"user_id":227,"name":"Julia","steam_id":76561198175727790,"connected_time":2152000000000,"state":"active","ping":100},{"user_id":232,"name":"DeckofDragons","steam_id":76561198057398213,"connected_time":1946000000000,"state":"active","ping":69},{"user_id":207,"name":"santas.secret.sauce","steam_id":76561198042464635,"connected_time":5681000000000,"state":"active","ping":78},{"user_id":241,"name":"Lish","steam_id":76561198133985045,"connected_time":1507000000000,"state":"active","ping":63},{"user_id":259,"name":"CryoCrab12","steam_id":76561198398818373,"connected_time":98000000000,"state":"active","ping":87},{"user_id":210,"name":"OlympicChamp_12 | Trade.tf","steam_id":76561198830574526,"connected_time":5379000000000,"state":"active","ping":100},{"user_id":252,"name":"ugly sandvich","steam_id":76561198189720069,"connected_time":854000000000,"state":"active","ping":61},{"user_id":226,"name":"Silly Scientist","steam_id":76561199199886079,"connected_time":2157000000000,"state":"active","ping":57},{"user_id":257,"name":"GuyGoom","steam_id":76561198254522178,"connected_time":224000000000,"state":"active","ping":64},{"user_id":239,"name":"Tobaggan","steam_id":76561198164274041,"connected_time":1568000000000,"state":"active","ping":80},{"user_id":240,"name":"bingle","steam_id":76561198359413453,"connected_time":1562000000000,"state":"active","ping":74}]},{"server_id":403,"name":"Uncletopia | Chicago | 4 | All Maps","name_short":"chi-4","host":"chi-1.us.uncletopia.com","port":27045,"enabled":true,"region":"us-central","cc":"us","latitude":41.881832,"longitude":-87.62318,"reserved":0,"last_update":"0001-01-01T00:00:00Z","name_a2s":"Uncletopia | Chicago | 4 | All Maps","protocol":17,"map":"pl_borneo","folder":"tf","game":"Team Fortress","app_id":440,"player_count":24,"max_players":24,"Bots":0,"server_type":"Dedicated","server_os":"Linux","password":true,"vac":true,"version":"7742253","steam_id":85568392924515193,"keywords":["nocrits","nodmgspread","payload","uncletopia"],"game_id":440,"stv_port":27046,"stv_name":"Uncletopia | Chicago | 4 | All Maps | STV","players":[{"user_id":53,"name":"Curdledwizard","steam_id":76561198020051289,"connected_time":1716000000000,"state":"active","ping":75},{"user_id":66,"name":"yomommasabitch","steam_id":76561198323217150,"connected_time":1162000000000,"state":"active","ping":60},{"user_id":57,"name":"Spubbily01","steam_id":76561199025997176,"connected_time":1519000000000,"state":"active","ping":52},{"user_id":65,"name":"nerb","steam_id":76561198038080028,"connected_time":1208000000000,"state":"active","ping":90},{"user_id":74,"name":"moodi catgirl","steam_id":76561198124028045,"connected_time":163000000000,"state":"active","ping":67},{"user_id":67,"name":"Itachi Sippin Lean Arc","steam_id":76561198350895282,"connected_time":979000000000,"state":"active","ping":114},{"user_id":72,"name":"Salixiola","steam_id":76561198042177809,"connected_time":497000000000,"state":"active","ping":69},{"user_id":44,"name":"autogynocelia","steam_id":76561198038995286,"connected_time":2391000000000,"state":"active","ping":77},{"user_id":55,"name":"hinfort","steam_id":76561198046354794,"connected_time":1596000000000,"state":"active","ping":150},{"user_id":31,"name":"Solaire","steam_id":76561198035762837,"connected_time":2539000000000,"state":"active","ping":86},{"user_id":68,"name":"Thog","steam_id":76561198093699060,"connected_time":620000000000,"state":"active","ping":74},{"user_id":73,"name":"Simply G","steam_id":76561199221934609,"connected_time":188000000000,"state":"active","ping":109},{"user_id":59,"name":"WalmartCashier8","steam_id":76561198856762726,"connected_time":1466000000000,"state":"active","ping":69},{"user_id":75,"name":"Female Gamer","steam_id":76561199366482682,"connected_time":95000000000,"state":"active","ping":108},{"user_id":36,"name":"monsterkill4567","steam_id":76561198272986367,"connected_time":2468000000000,"state":"active","ping":106},{"user_id":37,"name":"KatyAnna","steam_id":76561197992684543,"connected_time":2462000000000,"state":"active","ping":70},{"user_id":38,"name":"mellowhype","steam_id":76561198040675606,"connected_time":2445000000000,"state":"active","ping":74},{"user_id":49,"name":"Jyggalag","steam_id":76561198014672516,"connected_time":2274000000000,"state":"active","ping":75},{"user_id":40,"name":"Merconium","steam_id":76561197960551851,"connected_time":2440000000000,"state":"active","ping":53},{"user_id":41,"name":"-","steam_id":76561198021308963,"connected_time":2425000000000,"state":"active","ping":67},{"user_id":76,"name":"Shmoward","steam_id":76561199178557591,"connected_time":94000000000,"state":"active","ping":85},{"user_id":77,"name":"amazing","steam_id":76561198386233160,"connected_time":58000000000,"state":"active","ping":89},{"user_id":48,"name":"Spoger296","steam_id":76561198127432955,"connected_time":2304000000000,"state":"active","ping":84},{"user_id":64,"name":"Forevershooting","steam_id":76561198124213574,"connected_time":1327000000000,"state":"active","ping":82}]},{"server_id":36,"name":"Uncletopia | Chicago | 5 | All Maps","name_short":"chi-5","host":"chi-2.us.uncletopia.com","port":27015,"enabled":true,"region":"us-central","cc":"us","latitude":41.881832,"longitude":-87.62318,"reserved":0,"last_update":"0001-01-01T00:00:00Z","name_a2s":"Uncletopia | Chicago | 5 | All Maps","protocol":17,"map":"cp_dustbowl","folder":"tf","game":"Team Fortress","app_id":440,"player_count":24,"max_players":24,"Bots":0,"server_type":"Dedicated","server_os":"Linux","password":true,"vac":true,"version":"7742253","steam_id":85568392924866362,"keywords":["cp","nocrits","nodmgspread","uncletopia"],"game_id":440,"stv_port":27016,"stv_name":"Uncletopia | Chicago | 5 | All Maps | STV","players":[{"user_id":429,"name":"Chuburn","steam_id":76561199078803862,"connected_time":6038000000000,"state":"active","ping":59},{"user_id":459,"name":"kohi","steam_id":76561198319990195,"connected_time":3604000000000,"state":"active","ping":80},{"user_id":486,"name":"tim-","steam_id":76561199119101315,"connected_time":619000000000,"state":"active","ping":109},{"user_id":494,"name":"Kevin","steam_id":76561198359971852,"connected_time":182000000000,"state":"active","ping":62},{"user_id":488,"name":"Friend","steam_id":76561198156746320,"connected_time":516000000000,"state":"active","ping":45},{"user_id":485,"name":"6t26j","steam_id":76561198278282836,"connected_time":944000000000,"state":"active","ping":50},{"user_id":495,"name":"R{FITH}‚Ñ¢ Izzles","steam_id":76561197964638773,"connected_time":55000000000,"state":"active","ping":94},{"user_id":460,"name":"HollyBlocky","steam_id":76561198030156100,"connected_time":3599000000000,"state":"active","ping":63},{"user_id":423,"name":"artemisjackson2","steam_id":76561199094686268,"connected_time":6459000000000,"state":"active","ping":67},{"user_id":489,"name":"Mr. Ruckus","steam_id":76561198339566190,"connected_time":476000000000,"state":"active","ping":84},{"user_id":491,"name":"Minty Milk","steam_id":76561198277158001,"connected_time":399000000000,"state":"active","ping":79},{"user_id":496,"name":"foxisrealybadatgames","steam_id":76561199378639589,"connected_time":14000000000,"state":"spawning","ping":470},{"user_id":492,"name":"Professor Sex","steam_id":76561198396414319,"connected_time":376000000000,"state":"active","ping":104},{"user_id":476,"name":"LizardGames","steam_id":76561199147525483,"connected_time":2297000000000,"state":"active","ping":91},{"user_id":493,"name":"Admiral Angry","steam_id":76561198058199206,"connected_time":362000000000,"state":"active","ping":60},{"user_id":484,"name":"LinkFromDaPast","steam_id":76561198211437197,"connected_time":1104000000000,"state":"active","ping":80},{"user_id":470,"name":"‚ù§Dumpster Cat‚ù§","steam_id":76561199200969139,"connected_time":2540000000000,"state":"active","ping":115},{"user_id":454,"name":"Japanese Rabbit Enthusiast","steam_id":76561199134895220,"connected_time":3977000000000,"state":"active","ping":70},{"user_id":469,"name":"PizzaPasta","steam_id":76561199125109082,"connected_time":2837000000000,"state":"active","ping":79},{"user_id":422,"name":"coffee bagel","steam_id":76561198141198352,"connected_time":6669000000000,"state":"active","ping":47},{"user_id":384,"name":"Snake Handler","steam_id":76561198027198306,"connected_time":8930000000000,"state":"active","ping":59},{"user_id":465,"name":"Nassu","steam_id":76561198147367577,"connected_time":3398000000000,"state":"active","ping":62},{"user_id":481,"name":"illious","steam_id":76561198169925494,"connected_time":1333000000000,"state":"active","ping":69},{"user_id":393,"name":"Neptune about to cry","steam_id":76561199290469415,"connected_time":8596000000000,"state":"active","ping":76}]},{"server_id":37,"name":"Uncletopia | Chicago | 6 | All Maps","name_short":"chi-6","host":"chi-2.us.uncletopia.com","port":27025,"enabled":true,"region":"us-central","cc":"us","latitude":41.881832,"longitude":-87.62318,"reserved":0,"last_update":"0001-01-01T00:00:00Z","name_a2s":"Uncletopia | Chicago | 6 | All Maps","protocol":17,"map":"pl_pier","folder":"tf","game":"Team Fortress","app_id":440,"player_count":22,"max_players":24,"Bots":0,"server_type":"Dedicated","server_os":"Linux","password":true,"vac":true,"version":"7742253","steam_id":85568392924866363,"keywords":["nocrits","nodmgspread","payload","uncletopia"],"game_id":440,"stv_port":27026,"stv_name":"Uncletopia | Chicago | 6 | All Maps | STV","players":[{"user_id":221,"name":"reaver","steam_id":76561198308531690,"connected_time":65000000000,"state":"active","ping":48},{"user_id":206,"name":"Lord Of Bones","steam_id":76561198184537462,"connected_time":852000000000,"state":"active","ping":182},{"user_id":189,"name":"Razz","steam_id":76561198158027533,"connected_time":1481000000000,"state":"active","ping":53},{"user_id":190,"name":"t.tv/stabslive","steam_id":76561198293116584,"connected_time":1430000000000,"state":"active","ping":68},{"user_id":222,"name":"Bernie Sanders","steam_id":76561199035800539,"connected_time":26000000000,"state":"active","ping":76},{"user_id":177,"name":"Sticxs","steam_id":76561198053369354,"connected_time":2553000000000,"state":"active","ping":66},{"user_id":153,"name":"Ap1hw","steam_id":76561199122883466,"connected_time":3672000000000,"state":"active","ping":77},{"user_id":192,"name":"ProGamingNerd","steam_id":76561198384052807,"connected_time":1420000000000,"state":"active","ping":157},{"user_id":193,"name":"Goat","steam_id":76561198109415404,"connected_time":1417000000000,"state":"active","ping":157},{"user_id":173,"name":"Wilhelmktx","steam_id":76561198158102295,"connected_time":2691000000000,"state":"active","ping":61},{"user_id":217,"name":"goblin","steam_id":76561199004451589,"connected_time":354000000000,"state":"active","ping":71},{"user_id":207,"name":"Ultra Dripstinct","steam_id":76561199059257565,"connected_time":807000000000,"state":"active","ping":93},{"user_id":212,"name":"Johnny Lawrence #JohnnyMaxxing","steam_id":76561199367141671,"connected_time":655000000000,"state":"active","ping":72},{"user_id":197,"name":"shroomish enjoyer","steam_id":76561198149775502,"connected_time":1296000000000,"state":"active","ping":82},{"user_id":198,"name":"Sunshine","steam_id":76561198885528098,"connected_time":1232000000000,"state":"active","ping":75},{"user_id":215,"name":"AmazingPlasma","steam_id":76561199005527586,"connected_time":438000000000,"state":"active","ping":81},{"user_id":182,"name":"Bazowick","steam_id":76561198055318418,"connected_time":1812000000000,"state":"active","ping":51},{"user_id":201,"name":"33","steam_id":76561198894676484,"connected_time":1181000000000,"state":"active","ping":102},{"user_id":203,"name":"C0SMIC PLAGU3","steam_id":76561198051958643,"connected_time":1088000000000,"state":"active","ping":103},{"user_id":220,"name":"Im totally a hacker","steam_id":76561198888005736,"connected_time":182000000000,"state":"active","ping":70},{"user_id":209,"name":"OddAwter","steam_id":76561198073186405,"connected_time":787000000000,"state":"active","ping":96},{"user_id":213,"name":"Athenara_","steam_id":76561199120696315,"connected_time":615000000000,"state":"active","ping":96}]},{"server_id":38,"name":"Uncletopia | Chicago | 7 | Stopwatch Beta","name_short":"chi-7","host":"chi-2.us.uncletopia.com","port":27035,"enabled":true,"region":"us-central","cc":"us","latitude":41.881832,"longitude":-87.62318,"reserved":0,"last_update":"0001-01-01T00:00:00Z","name_a2s":"Uncletopia | Chicago | 7 | Stopwatch Beta","protocol":17,"map":"workshop/pl_badwater_pro_v12.ugc2142942074","folder":"tf","game":"Team Fortress","app_id":440,"player_count":0,"max_players":24,"Bots":0,"server_type":"Dedicated","server_os":"Linux","password":true,"vac":true,"version":"7742253","steam_id":85568392924866364,"keywords":["nocrits","nodmgspread","payload","uncletopia"],"game_id":440,"stv_port":27036,"stv_name":"Uncletopia | Chicago | 7 | Stopwatch Beta | STV","players":null},{"server_id":39,"name":"Uncletopia | Chicago | 8 | Community","name_short":"chi-8","host":"chi-2.us.uncletopia.com","port":27045,"enabled":true,"region":"us-central","cc":"us","latitude":41.881832,"longitude":-87.62318,"reserved":0,"last_update":"0001-01-01T00:00:00Z","name_a2s":"Uncletopia | Chicago | 8 | Community","protocol":17,"map":"workshop/rd_asteroid_redux_rc9.ugc2154902912","folder":"tf","game":"Team Fortress","app_id":440,"player_count":0,"max_players":24,"Bots":0,"server_type":"Dedicated","server_os":"Linux","password":true,"vac":true,"version":"7742253","steam_id":85568392924866365,"keywords":["beta","nocrits","nodmgspread","rd","uncletopia"],"game_id":440,"stv_port":27046,"stv_name":"Uncletopia | Chicago | 8 | Community | STV","players":null},{"server_id":8,"name":"Uncletopia | Dallas | 1 | All Maps","name_short":"dal-1","host":"dal-1.us.uncletopia.com","port":27015,"enabled":true,"region":"us-central","cc":"us","latitude":32.779167,"longitude":-96.80889,"reserved":0,"last_update":"0001-01-01T00:00:00Z","name_a2s":"Uncletopia | Dallas | 1 | All Maps","protocol":17,"map":"ctf_2fort","folder":"tf","game":"Team Fortress","app_id":440,"player_count":24,"max_players":24,"Bots":0,"server_type":"Dedicated","server_os":"Linux","password":true,"vac":true,"version":"7742253","steam_id":85568392924469986,"keywords":["ctf","nocrits","nodmgspread","uncletopia"],"game_id":440,"stv_port":27016,"stv_name":"Uncletopia | Dallas | 1 | All Maps | STV","players":[{"user_id":393,"name":"Rin \"Hindwing\" Redtail","steam_id":76561199074865638,"connected_time":994000000000,"state":"active","ping":56},{"user_id":408,"name":"Bootstrap","steam_id":76561199110353614,"connected_time":471000000000,"state":"active","ping":90},{"user_id":381,"name":"Penguinodle","steam_id":76561199082347306,"connected_time":1584000000000,"state":"active","ping":44},{"user_id":392,"name":"COYOTE","steam_id":76561198988066988,"connected_time":1010000000000,"state":"active","ping":99},{"user_id":379,"name":"BOR XOR","steam_id":76561198063294776,"connected_time":1732000000000,"state":"active","ping":77},{"user_id":391,"name":"Modern Day Wizard","steam_id":76561198354689252,"connected_time":1050000000000,"state":"active","ping":59},{"user_id":385,"name":"Riff","steam_id":76561198066921423,"connected_time":1343000000000,"state":"active","ping":58},{"user_id":364,"name":"Shalom","steam_id":76561198410005222,"connected_time":2392000000000,"state":"active","ping":60},{"user_id":415,"name":"warscout101bro","steam_id":76561198813489938,"connected_time":87000000000,"state":"active","ping":98},{"user_id":337,"name":"maze","steam_id":76561198068443860,"connected_time":5054000000000,"state":"active","ping":74},{"user_id":369,"name":"IZISOO","steam_id":76561198970380577,"connected_time":2228000000000,"state":"active","ping":70},{"user_id":398,"name":"Handle On The Fridge","steam_id":76561198881228117,"connected_time":782000000000,"state":"active","ping":65},{"user_id":308,"name":"cup","steam_id":76561198121245586,"connected_time":7967000000000,"state":"active","ping":78},{"user_id":396,"name":"Dragorf2010","steam_id":76561199238402270,"connected_time":876000000000,"state":"active","ping":86},{"user_id":403,"name":"rflnug","steam_id":76561198001412404,"connected_time":596000000000,"state":"active","ping":52},{"user_id":373,"name":"Dill","steam_id":76561197985091914,"connected_time":2191000000000,"state":"active","ping":83},{"user_id":400,"name":"Gian","steam_id":76561198041434512,"connected_time":770000000000,"state":"active","ping":114},{"user_id":295,"name":"hikari ‚ô•","steam_id":76561198265633146,"connected_time":8952000000000,"state":"active","ping":69},{"user_id":387,"name":"Elmer J. Fapp","steam_id":76561198049339994,"connected_time":1291000000000,"state":"active","ping":74},{"user_id":404,"name":"JayK","steam_id":76561198046277492,"connected_time":574000000000,"state":"active","ping":61},{"user_id":375,"name":"counterstrike mastermind","steam_id":76561197984679528,"connected_time":2160000000000,"state":"active","ping":96},{"user_id":409,"name":"LORDMARF","steam_id":76561198143122675,"connected_time":411000000000,"state":"active","ping":46},{"user_id":338,"name":"head crypto bioengineer analyst","steam_id":76561198070635731,"connected_time":5051000000000,"state":"active","ping":64},{"user_id":416,"name":"bubbles","steam_id":76561198054693706,"connected_time":84000000000,"state":"active","ping":79}]},{"server_id":108,"name":"Uncletopia | Dallas | 2 | All Maps","name_short":"dal-2","host":"dal-1.us.uncletopia.com","port":27025,"enabled":true,"region":"us-central","cc":"us","latitude":32.779167,"longitude":-96.80889,"reserved":0,"last_update":"0001-01-01T00:00:00Z","name_a2s":"Uncletopia | Dallas | 2 | All Maps","protocol":17,"map":"koth_cascade","folder":"tf","game":"Team Fortress","app_id":440,"player_count":0,"max_players":24,"Bots":0,"server_type":"Dedicated","server_os":"Linux","password":true,"vac":true,"version":"7742253","steam_id":85568392924469988,"keywords":["cp","nocrits","nodmgspread","uncletopia"],"game_id":440,"stv_port":27026,"stv_name":"Uncletopia | Dallas | 2 | All Maps | STV","players":null},{"server_id":5,"name":"Uncletopia | Frankfurt | 1 | All Maps","name_short":"frk-1","host":"frk-1.de.uncletopia.com","port":27015,"enabled":true,"region":"eu","cc":"de","latitude":50.110924,"longitude":8.682127,"reserved":0,"last_update":"0001-01-01T00:00:00Z","name_a2s":"Uncletopia | Frankfurt | 1 | All Maps","protocol":17,"map":"pl_snowycoast","folder":"tf","game":"Team Fortress","app_id":440,"player_count":24,"max_players":24,"Bots":0,"server_type":"Dedicated","server_os":"Linux","password":true,"vac":true,"version":"7742253","steam_id":85568392924469989,"keywords":["nocrits","nodmgspread","payload","uncletopia"],"game_id":440,"stv_port":27016,"stv_name":"Uncletopia | Frankfurt | 1 | All Maps | STV","players":[{"user_id":656,"name":"wads","steam_id":76561198175406562,"connected_time":867000000000,"state":"active","ping":61},{"user_id":655,"name":"disturbing polish father","steam_id":76561198126398022,"connected_time":893000000000,"state":"active","ping":75},{"user_id":664,"name":"Relocation Agent","steam_id":76561198026133917,"connected_time":663000000000,"state":"active","ping":129},{"user_id":666,"name":"leonardini.w #SaveTF2","steam_id":76561199097963071,"connected_time":475000000000,"state":"active","ping":81},{"user_id":667,"name":"Icaros","steam_id":76561198814553913,"connected_time":437000000000,"state":"active","ping":62},{"user_id":607,"name":"donk donk","steam_id":76561197980736364,"connected_time":6190000000000,"state":"active","ping":75},{"user_id":653,"name":"..","steam_id":76561198380752444,"connected_time":900000000000,"state":"active","ping":70},{"user_id":649,"name":"freemantel30","steam_id":76561198065669800,"connected_time":2115000000000,"state":"active","ping":42},{"user_id":657,"name":"jovi_","steam_id":76561198449280552,"connected_time":856000000000,"state":"active","ping":65},{"user_id":615,"name":"zero","steam_id":76561198055365234,"connected_time":5718000000000,"state":"active","ping":75},{"user_id":659,"name":"Acidpets","steam_id":76561198875421227,"connected_time":804000000000,"state":"active","ping":61},{"user_id":551,"name":"Cerberus","steam_id":76561198140442059,"connected_time":11248000000000,"state":"active","ping":51},{"user_id":638,"name":"Luke SpyWalker","steam_id":76561198008643276,"connected_time":3333000000000,"state":"active","ping":59},{"user_id":614,"name":"Sneakykindaham","steam_id":76561198158743287,"connected_time":5771000000000,"state":"active","ping":50},{"user_id":660,"name":"Ged","steam_id":76561198079288943,"connected_time":779000000000,"state":"active","ping":117},{"user_id":646,"name":"cadetvs","steam_id":76561198151695651,"connected_time":2388000000000,"state":"active","ping":56},{"user_id":661,"name":"Kuna ‚ò©","steam_id":76561199012155377,"connected_time":774000000000,"state":"active","ping":48},{"user_id":654,"name":"CRWND","steam_id":76561198329810027,"connected_time":899000000000,"state":"active","ping":58},{"user_id":668,"name":"Bobo","steam_id":76561198052308399,"connected_time":402000000000,"state":"active","ping":52},{"user_id":635,"name":"Oupa [·¥ô-Œº]","steam_id":76561198418538887,"connected_time":3485000000000,"state":"active","ping":95},{"user_id":665,"name":"JohnnyRakieta","steam_id":76561198855789287,"connected_time":612000000000,"state":"active","ping":73},{"user_id":633,"name":"MassMaster","steam_id":76561199432936065,"connected_time":3745000000000,"state":"active","ping":146},{"user_id":601,"name":"Hexagon","steam_id":76561198151205758,"connected_time":6976000000000,"state":"active","ping":57},{"user_id":651,"name":"unnam3d","steam_id":76561198286257338,"connected_time":1761000000000,"state":"active","ping":63}]},{"server_id":110,"name":"Uncletopia | Frankfurt | 2 | All Maps","name_short":"frk-2","host":"frk-1.de.uncletopia.com","port":27025,"enabled":true,"region":"eu","cc":"de","latitude":50.110924,"longitude":8.682127,"reserved":0,"last_update":"0001-01-01T00:00:00Z","name_a2s":"Uncletopia | Frankfurt | 2 | All Maps","protocol":17,"map":"cp_sunshine","folder":"tf","game":"Team Fortress","app_id":440,"player_count":23,"max_players":24,"Bots":0,"server_type":"Dedicated","server_os":"Linux","password":true,"vac":true,"version":"7742253","steam_id":85568392924469990,"keywords":["cp","nocrits","nodmgspread","uncletopia"],"game_id":440,"stv_port":27026,"stv_name":"Uncletopia | Frankfurt | 2 | All Maps | STV","players":[{"user_id":404,"name":"Superiumentarius","steam_id":76561198081642249,"connected_time":117000000000,"state":"active","ping":57},{"user_id":395,"name":"Archimist","steam_id":76561198001336480,"connected_time":293000000000,"state":"active","ping":84},{"user_id":393,"name":"‚ù§ Mƒ±llennƒ±um","steam_id":76561197998956368,"connected_time":297000000000,"state":"active","ping":84},{"user_id":405,"name":"o_o","steam_id":76561198113045011,"connected_time":109000000000,"state":"active","ping":90},{"user_id":397,"name":"Eerorri","steam_id":76561199001745671,"connected_time":250000000000,"state":"active","ping":88},{"user_id":310,"name":"MagicTITIKAKA","steam_id":76561198129509548,"connected_time":5941000000000,"state":"active","ping":101},{"user_id":386,"name":"vi","steam_id":76561198303147966,"connected_time":780000000000,"state":"active","ping":55},{"user_id":407,"name":"Glass Kon","steam_id":76561198000042666,"connected_time":14000000000,"state":"spawning","ping":197},{"user_id":396,"name":"Vix","steam_id":76561198039767131,"connected_time":272000000000,"state":"active","ping":91},{"user_id":378,"name":"Hood","steam_id":76561199229682408,"connected_time":1841000000000,"state":"active","ping":59},{"user_id":330,"name":"It's clear that it's not ok","steam_id":76561198123064906,"connected_time":4460000000000,"state":"active","ping":75},{"user_id":406,"name":"Gerry Hannan","steam_id":76561198002349932,"connected_time":94000000000,"state":"active","ping":80},{"user_id":366,"name":"Butt Hurling","steam_id":76561198093229786,"connected_time":2343000000000,"state":"active","ping":64},{"user_id":398,"name":"Tengu","steam_id":76561198024146649,"connected_time":242000000000,"state":"active","ping":50},{"user_id":385,"name":"Vershal Smershal","steam_id":76561198116223995,"connected_time":1141000000000,"state":"active","ping":60},{"user_id":383,"name":"Arthouse hentai","steam_id":76561198977948250,"connected_time":1622000000000,"state":"active","ping":59},{"user_id":399,"name":"MordyQ","steam_id":76561198025613597,"connected_time":234000000000,"state":"active","ping":95},{"user_id":402,"name":"Raymyta","steam_id":76561198026212147,"connected_time":158000000000,"state":"active","ping":52},{"user_id":392,"name":"Frank","steam_id":76561198086672774,"connected_time":396000000000,"state":"active","ping":64},{"user_id":363,"name":"BeS","steam_id":76561198045752247,"connected_time":2963000000000,"state":"active","ping":47},{"user_id":391,"name":"√âs muita maricas","steam_id":76561198043515389,"connected_time":439000000000,"state":"active","ping":85},{"user_id":390,"name":"AforeKingDwarf","steam_id":76561198043562926,"connected_time":456000000000,"state":"active","ping":51},{"user_id":401,"name":"salty","steam_id":76561198343563329,"connected_time":230000000000,"state":"active","ping":46}]},{"server_id":308,"name":"Uncletopia | Frankfurt | 3 | All Maps","name_short":"frk-3","host":"frk-1.de.uncletopia.com","port":27035,"enabled":true,"region":"eu","cc":"de","latitude":50.110924,"longitude":8.682127,"reserved":0,"last_update":"0001-01-01T00:00:00Z","name_a2s":"Uncletopia | Frankfurt | 3 | All Maps","protocol":17,"map":"pl_barnblitz","folder":"tf","game":"Team Fortress","app_id":440,"player_count":24,"max_players":24,"Bots":0,"server_type":"Dedicated","server_os":"Linux","password":true,"vac":true,"version":"7742253","steam_id":85568392924504274,"keywords":["nocrits","nodmgspread","payload","uncletopia"],"game_id":440,"stv_port":27036,"stv_name":"Uncletopia | Frankfurt | 3 | All Maps | STV","players":[{"user_id":63,"name":"Lopata","steam_id":76561198820264239,"connected_time":4674000000000,"state":"active","ping":82},{"user_id":64,"name":"SgtRookie","steam_id":76561198030230427,"connected_time":4673000000000,"state":"active","ping":89},{"user_id":66,"name":"Julez","steam_id":76561198045505082,"connected_time":4497000000000,"state":"active","ping":74},{"user_id":102,"name":"Slav-matros","steam_id":76561198251977912,"connected_time":729000000000,"state":"active","ping":50},{"user_id":29,"name":"jingleboob","steam_id":76561198097507847,"connected_time":6721000000000,"state":"active","ping":74},{"user_id":109,"name":"Mor'du","steam_id":76561198274105878,"connected_time":369000000000,"state":"active","ping":78},{"user_id":31,"name":"jingleelf coordinator","steam_id":76561198170609049,"connected_time":6638000000000,"state":"active","ping":66},{"user_id":61,"name":"Artemis","steam_id":76561198199091801,"connected_time":5704000000000,"state":"active","ping":46},{"user_id":101,"name":"ollimmortal","steam_id":76561198344396635,"connected_time":933000000000,"state":"active","ping":116},{"user_id":34,"name":"Wildfap","steam_id":76561198075816743,"connected_time":6555000000000,"state":"active","ping":66},{"user_id":70,"name":"lord-carlos","steam_id":76561198025150761,"connected_time":4103000000000,"state":"active","ping":54},{"user_id":104,"name":"Jonasüçâ","steam_id":76561198199968734,"connected_time":672000000000,"state":"active","ping":50},{"user_id":112,"name":"Midoriaga","steam_id":76561198010699090,"connected_time":53000000000,"state":"active","ping":45},{"user_id":84,"name":"‚Ä¢stepbro‚Ä¢","steam_id":76561198119607160,"connected_time":3069000000000,"state":"active","ping":70},{"user_id":105,"name":"Tywhip","steam_id":76561199207545191,"connected_time":669000000000,"state":"active","ping":59},{"user_id":62,"name":"Lord of the Lockerroom","steam_id":76561198080619697,"connected_time":5661000000000,"state":"active","ping":90},{"user_id":92,"name":".quickfast.","steam_id":76561199438900919,"connected_time":2195000000000,"state":"active","ping":67},{"user_id":113,"name":"Botoxel","steam_id":76561198321048738,"connected_time":46000000000,"state":"spawning","ping":49},{"user_id":82,"name":"LasseMedQ","steam_id":76561198088534679,"connected_time":3299000000000,"state":"active","ping":60},{"user_id":65,"name":"Sweat Plantation","steam_id":76561198025086883,"connected_time":4672000000000,"state":"active","ping":79},{"user_id":108,"name":"Ruben Zo","steam_id":76561198063855616,"connected_time":420000000000,"state":"active","ping":74},{"user_id":114,"name":"ck","steam_id":76561197984084920,"connected_time":44000000000,"state":"active","ping":63},{"user_id":51,"name":"Jingleboob's 1# Elf","steam_id":76561198067204908,"connected_time":6038000000000,"state":"active","ping":64},{"user_id":60,"name":"Sanctified","steam_id":76561198057092208,"connected_time":5722000000000,"state":"active","ping":60}]},{"server_id":309,"name":"Uncletopia | Frankfurt | 4 | All Maps","name_short":"frk-4","host":"frk-1.de.uncletopia.com","port":27045,"enabled":true,"region":"eu","cc":"de","latitude":50.110924,"longitude":8.682127,"reserved":0,"last_update":"0001-01-01T00:00:00Z","name_a2s":"Uncletopia | Frankfurt | 4 | All Maps","protocol":17,"map":"cp_sunshine","folder":"tf","game":"Team Fortress","app_id":440,"player_count":24,"max_players":24,"Bots":0,"server_type":"Dedicated","server_os":"Linux","password":true,"vac":true,"version":"7742253","steam_id":85568392924504275,"keywords":["cp","nocrits","nodmgspread","uncletopia"],"game_id":440,"stv_port":27046,"stv_name":"Uncletopia | Frankfurt | 4 | All Maps | STV","players":[{"user_id":452,"name":"1 month Big Earner challenge","steam_id":76561198799097492,"connected_time":1136000000000,"state":"active","ping":51},{"user_id":469,"name":"clraffell","steam_id":76561198904469197,"connected_time":613000000000,"state":"active","ping":66},{"user_id":471,"name":"pizzahawaiiEnjoyerwithbigdick","steam_id":76561198079752629,"connected_time":371000000000,"state":"active","ping":60},{"user_id":449,"name":"Jonkheervanflep","steam_id":76561198006853101,"connected_time":1330000000000,"state":"active","ping":88},{"user_id":413,"name":"MoreGun","steam_id":76561199157555246,"connected_time":4829000000000,"state":"active","ping":61},{"user_id":450,"name":"Kinas","steam_id":76561198084438097,"connected_time":1220000000000,"state":"active","ping":112},{"user_id":451,"name":"random dude","steam_id":76561199312009998,"connected_time":1174000000000,"state":"active","ping":70},{"user_id":269,"name":"Noob_with_source","steam_id":76561198870362103,"connected_time":14616000000000,"state":"active","ping":62},{"user_id":462,"name":"arisu","steam_id":76561199010825303,"connected_time":960000000000,"state":"active","ping":72},{"user_id":453,"name":"Mishaswy","steam_id":76561198156848144,"connected_time":1120000000000,"state":"active","ping":99},{"user_id":457,"name":"zezoca 75","steam_id":76561198880439803,"connected_time":1066000000000,"state":"active","ping":93},{"user_id":455,"name":"My pee is red","steam_id":76561198219126032,"connected_time":1084000000000,"state":"active","ping":114},{"user_id":456,"name":"bacanosetubal","steam_id":76561199416349892,"connected_time":1075000000000,"state":"active","ping":71},{"user_id":470,"name":"d u k k i","steam_id":76561198071807437,"connected_time":610000000000,"state":"active","ping":86},{"user_id":349,"name":"Charles Darwin","steam_id":76561197973496139,"connected_time":9767000000000,"state":"active","ping":60},{"user_id":460,"name":"Dumb Monkey‚Ñ¢","steam_id":76561198270165797,"connected_time":1038000000000,"state":"active","ping":74},{"user_id":434,"name":"JohnTraveltime","steam_id":76561199244281754,"connected_time":3016000000000,"state":"active","ping":81},{"user_id":463,"name":"rosepinkyfuzz","steam_id":76561198018546334,"connected_time":955000000000,"state":"active","ping":73},{"user_id":442,"name":"Rask","steam_id":76561198052934944,"connected_time":2174000000000,"state":"active","ping":88},{"user_id":415,"name":"Sunshine Moon","steam_id":76561198022604491,"connected_time":4816000000000,"state":"active","ping":95},{"user_id":468,"name":"Vince","steam_id":76561199103000131,"connected_time":774000000000,"state":"active","ping":60},{"user_id":465,"name":"htraB","steam_id":76561198043122677,"connected_time":878000000000,"state":"active","ping":59},{"user_id":466,"name":"Daddy Donovan","steam_id":76561198140938904,"connected_time":871000000000,"state":"active","ping":63},{"user_id":467,"name":"the joy of recycling","steam_id":76561198138509827,"connected_time":855000000000,"state":"active","ping":88}]},{"server_id":310,"name":"Uncletopia | Frankfurt | 5 | All Maps","name_short":"frk-5","host":"frk-1.de.uncletopia.com","port":27055,"enabled":true,"region":"eu","cc":"de","latitude":50.110924,"longitude":8.682127,"reserved":0,"last_update":"0001-01-01T00:00:00Z","name_a2s":"Uncletopia | Frankfurt | 5 | All Maps","protocol":17,"map":"pl_borneo","folder":"tf","game":"Team Fortress","app_id":440,"player_count":24,"max_players":24,"Bots":0,"server_type":"Dedicated","server_os":"Linux","password":true,"vac":true,"version":"7742253","steam_id":85568392924504277,"keywords":["nocrits","nodmgspread","payload","uncletopia"],"game_id":440,"stv_port":27056,"stv_name":"Uncletopia | Frankfurt | 5 | All Maps | STV","players":[{"user_id":205,"name":"lacurio","steam_id":76561198059701776,"connected_time":2241000000000,"state":"active","ping":58},{"user_id":243,"name":"Lazulura","steam_id":76561198103569919,"connected_time":37000000000,"state":"active","ping":98},{"user_id":214,"name":"RebirthInFire","steam_id":76561198200555755,"connected_time":1575000000000,"state":"active","ping":59},{"user_id":231,"name":"Grape Juice","steam_id":76561198380337568,"connected_time":578000000000,"state":"active","ping":176},{"user_id":220,"name":"DogBazooka23","steam_id":76561198251943518,"connected_time":1473000000000,"state":"active","ping":45},{"user_id":232,"name":"GregerUlander","steam_id":76561198152375055,"connected_time":552000000000,"state":"active","ping":71},{"user_id":233,"name":"Condigium","steam_id":76561198838929185,"connected_time":530000000000,"state":"active","ping":49},{"user_id":234,"name":"Kroto","steam_id":76561198056233760,"connected_time":512000000000,"state":"active","ping":51},{"user_id":175,"name":"–ò–Ω—Å–ø–µ–∫—Ç–æ—Ä –ê—Ç–∞—Å","steam_id":76561199175688390,"connected_time":3688000000000,"state":"active","ping":75},{"user_id":194,"name":"Liba","steam_id":76561198118006754,"connected_time":2554000000000,"state":"active","ping":80},{"user_id":240,"name":"DN77","steam_id":76561199121396324,"connected_time":394000000000,"state":"active","ping":92},{"user_id":198,"name":"cl","steam_id":76561199436640904,"connected_time":2417000000000,"state":"active","ping":62},{"user_id":208,"name":"Fat Pigeon","steam_id":76561198817940142,"connected_time":2134000000000,"state":"active","ping":55},{"user_id":238,"name":"dgz","steam_id":76561197979345019,"connected_time":467000000000,"state":"active","ping":94},{"user_id":200,"name":"mt","steam_id":76561197961319303,"connected_time":2408000000000,"state":"active","ping":55},{"user_id":239,"name":"Dolphin2011","steam_id":76561197997323419,"connected_time":442000000000,"state":"active","ping":93},{"user_id":193,"name":"GOUD","steam_id":76561198071823072,"connected_time":2603000000000,"state":"active","ping":78},{"user_id":206,"name":"GodOfGobboz","steam_id":76561198154677956,"connected_time":2193000000000,"state":"active","ping":68},{"user_id":217,"name":"Morgulan","steam_id":76561198046564543,"connected_time":1526000000000,"state":"active","ping":45},{"user_id":226,"name":"Barnaby","steam_id":76561198130191090,"connected_time":802000000000,"state":"active","ping":57},{"user_id":242,"name":"Tank","steam_id":76561199059174576,"connected_time":106000000000,"state":"active","ping":129},{"user_id":219,"name":"Hans","steam_id":76561198030065935,"connected_time":1518000000000,"state":"active","ping":63},{"user_id":241,"name":"DDUUCCKK","steam_id":76561198141953050,"connected_time":182000000000,"state":"active","ping":69},{"user_id":225,"name":"Segra blw.tf","steam_id":76561198441974031,"connected_time":1189000000000,"state":"active","ping":76}]},{"server_id":311,"name":"Uncletopia | Frankfurt | 6 | All Maps","name_short":"frk-6","host":"frk-1.de.uncletopia.com","port":27065,"enabled":true,"region":"eu","cc":"de","latitude":50.110924,"longitude":8.682127,"reserved":0,"last_update":"0001-01-01T00:00:00Z","name_a2s":"Uncletopia | Frankfurt | 6 | All Maps","protocol":17,"map":"pl_borneo","folder":"tf","game":"Team Fortress","app_id":440,"player_count":15,"max_players":24,"Bots":0,"server_type":"Dedicated","server_os":"Linux","password":true,"vac":true,"version":"7742253","steam_id":85568392924504278,"keywords":["nocrits","nodmgspread","payload","uncletopia"],"game_id":440,"stv_port":27066,"stv_name":"Uncletopia | Frankfurt | 6 | All Maps | STV","players":[{"user_id":602,"name":"man responsible for wutville","steam_id":76561198148304820,"connected_time":26000000000,"state":"active","ping":65},{"user_id":550,"name":"Grimm","steam_id":76561198044684227,"connected_time":4060000000000,"state":"active","ping":62},{"user_id":604,"name":"mylooooooo","steam_id":76561198154714698,"connected_time":19000000000,"state":"spawning","ping":57},{"user_id":566,"name":"HEHE","steam_id":76561198097787759,"connected_time":3031000000000,"state":"active","ping":50},{"user_id":595,"name":"ATOM","steam_id":76561199170063928,"connected_time":1324000000000,"state":"active","ping":45},{"user_id":588,"name":"TheGreenWolf","steam_id":76561198170607033,"connected_time":1413000000000,"state":"active","ping":75},{"user_id":576,"name":"After8","steam_id":76561198090750865,"connected_time":2732000000000,"state":"active","ping":72},{"user_id":533,"name":"a medical potato(f2p)","steam_id":76561199152936401,"connected_time":6123000000000,"state":"active","ping":72},{"user_id":591,"name":"JohnarasGamer1","steam_id":76561198365929872,"connected_time":1395000000000,"state":"active","ping":67},{"user_id":571,"name":"PlebCord","steam_id":76561198120685803,"connected_time":2909000000000,"state":"active","ping":77},{"user_id":587,"name":"xing xilling","steam_id":76561198053394831,"connected_time":1699000000000,"state":"active","ping":57},{"user_id":596,"name":"ScarredPixel123","steam_id":76561199165112703,"connected_time":1282000000000,"state":"active","ping":81},{"user_id":579,"name":"Taipan66","steam_id":76561198154094423,"connected_time":2269000000000,"state":"active","ping":69},{"user_id":582,"name":"lupe.-","steam_id":76561198079813788,"connected_time":2196000000000,"state":"active","ping":60},{"user_id":601,"name":"Saba","steam_id":76561198158253332,"connected_time":405000000000,"state":"active","ping":90}]},{"server_id":23,"name":"Uncletopia | Frankfurt | 7 | Stopwatch Beta","name_short":"frk-7","host":"frk-1.de.uncletopia.com","port":27075,"enabled":true,"region":"eu","cc":"de","latitude":50.110924,"longitude":8.682127,"reserved":0,"last_update":"0001-01-01T00:00:00Z","name_a2s":"Uncletopia | Frankfurt | 7 | Stopwatch Beta","protocol":17,"map":"pl_upward","folder":"tf","game":"Team Fortress","app_id":440,"player_count":0,"max_players":24,"Bots":0,"server_type":"Dedicated","server_os":"Linux","password":true,"vac":true,"version":"7742253","steam_id":85568392924742827,"keywords":["nocrits","nodmgspread","payload","uncletopia"],"game_id":440,"stv_port":27076,"stv_name":"Uncletopia | Frankfurt | 7 | Stopwatch Beta | STV","players":null},{"server_id":24,"name":"Uncletopia | Frankfurt | 8 | Community","name_short":"frk-8","host":"frk-1.de.uncletopia.com","port":27085,"enabled":true,"region":"eu","cc":"de","latitude":50.110924,"longitude":8.682127,"reserved":0,"last_update":"0001-01-01T00:00:00Z","name_a2s":"Uncletopia | Frankfurt | 8 | Community","protocol":17,"map":"workshop/koth_ashville_final.ugc2130459942","folder":"tf","game":"Team Fortress","app_id":440,"player_count":0,"max_players":24,"Bots":0,"server_type":"Dedicated","server_os":"Linux","password":true,"vac":true,"version":"7742253","steam_id":85568392924742828,"keywords":["cp","nocrits","nodmgspread","uncletopia"],"game_id":440,"stv_port":27086,"stv_name":"Uncletopia | Frankfurt | 8 | Community | STV","players":null},{"server_id":202,"name":"Uncletopia | Hong Kong | 1 | All Maps","name_short":"hgk-1","host":"hgk-1.hk.uncletopia.com","port":27015,"enabled":true,"region":"asia","cc":"hk","latitude":22.302711,"longitude":114.177216,"reserved":0,"last_update":"0001-01-01T00:00:00Z","name_a2s":"Uncletopia | Hong Kong | 1 | All Maps","protocol":17,"map":"pl_borneo","folder":"tf","game":"Team Fortress","app_id":440,"player_count":0,"max_players":24,"Bots":0,"server_type":"Dedicated","server_os":"Linux","password":true,"vac":true,"version":"7742253","steam_id":85568392924494504,"keywords":["nocrits","nodmgspread","payload","uncletopia"],"game_id":440,"stv_port":27016,"stv_name":"Uncletopia | Hong Kong | 1 | All Maps | STV","players":null},{"server_id":1,"name":"Uncletopia | Los Angeles | 1 | All Maps","name_short":"lax-1","host":"lax-1.us.uncletopia.com","port":27015,"enabled":true,"region":"us-west","cc":"us","latitude":33.94279,"longitude":-118.41004,"reserved":0,"last_update":"0001-01-01T00:00:00Z","name_a2s":"Uncletopia | Los Angeles | 1 | All Maps","protocol":17,"map":"koth_lakeside_final","folder":"tf","game":"Team Fortress","app_id":440,"player_count":0,"max_players":24,"Bots":0,"server_type":"Dedicated","server_os":"Linux","password":true,"vac":true,"version":"7742253","steam_id":85568392924469991,"keywords":["cp","nocrits","nodmgspread","uncletopia"],"game_id":440,"stv_port":27016,"stv_name":"Uncletopia | Los Angeles | 1 | All Maps | STV","players":null},{"server_id":112,"name":"Uncletopia | Los Angeles | 2 | All Maps","name_short":"lax-2","host":"lax-1.us.uncletopia.com","port":27025,"enabled":true,"region":"us-west","cc":"us","latitude":33.94279,"longitude":-118.41004,"reserved":0,"last_update":"0001-01-01T00:00:00Z","name_a2s":"Uncletopia | Los Angeles | 2 | All Maps","protocol":17,"map":"pl_frontier_final","folder":"tf","game":"Team Fortress","app_id":440,"player_count":0,"max_players":24,"Bots":0,"server_type":"Dedicated","server_os":"Linux","password":true,"vac":true,"version":"7742253","steam_id":85568392924469992,"keywords":["nocrits","nodmgspread","payload","uncletopia"],"game_id":440,"stv_port":27026,"stv_name":"Uncletopia | Los Angeles | 2 | All Maps | STV","players":null},{"server_id":324,"name":"Uncletopia | Los Angeles | 3 | All Maps","name_short":"lax-3","host":"lax-1.us.uncletopia.com","port":27035,"enabled":true,"region":"us-west","cc":"us","latitude":33.94279,"longitude":-118.41004,"reserved":0,"last_update":"0001-01-01T00:00:00Z","name_a2s":"Uncletopia | Los Angeles | 3 | All Maps","protocol":17,"map":"koth_lakeside_final","folder":"tf","game":"Team Fortress","app_id":440,"player_count":0,"max_players":24,"Bots":0,"server_type":"Dedicated","server_os":"Linux","password":true,"vac":true,"version":"7742253","steam_id":85568392924510198,"keywords":["cp","nocrits","nodmgspread","uncletopia"],"game_id":440,"stv_port":27036,"stv_name":"Uncletopia | Los Angeles | 3 | All Maps | STV","players":null},{"server_id":25,"name":"Uncletopia | Los Angeles | 4 | Stopwatch Beta","name_short":"lax-4","host":"lax-1.us.uncletopia.com","port":27045,"enabled":true,"region":"us-west","cc":"us","latitude":33.94279,"longitude":-118.41004,"reserved":0,"last_update":"0001-01-01T00:00:00Z","name_a2s":"Uncletopia | Los Angeles | 4 | Stopwatch Beta","protocol":17,"map":"cp_snakewater_final1","folder":"tf","game":"Team Fortress","app_id":440,"player_count":0,"max_players":24,"Bots":0,"server_type":"Dedicated","server_os":"Linux","password":true,"vac":true,"version":"7742253","steam_id":85568392924510199,"keywords":["cp","nocrits","nodmgspread","uncletopia"],"game_id":440,"stv_port":27046,"stv_name":"Uncletopia | Los Angeles | 4 | Stopwatch Beta | STV","players":null},{"server_id":11,"name":"Uncletopia | London | 1 | All Maps","name_short":"lon-1","host":"lon-1.uk.uncletopia.com","port":27015,"enabled":true,"region":"eu","cc":"gb","latitude":51.509865,"longitude":-0.118092,"reserved":0,"last_update":"0001-01-01T00:00:00Z","name_a2s":"Uncletopia | London | 1 | All Maps","protocol":17,"map":"pl_thundermountain","folder":"tf","game":"Team Fortress","app_id":440,"player_count":25,"max_players":24,"Bots":0,"server_type":"Dedicated","server_os":"Linux","password":true,"vac":true,"version":"7742253","steam_id":85568392924367362,"keywords":["nocrits","nodmgspread","payload","uncletopia"],"game_id":440,"stv_port":27016,"stv_name":"Uncletopia | London | 1 | All Maps | STV","players":[{"user_id":783,"name":"MR.BLOTTO","steam_id":76561198067920111,"connected_time":1041000000000,"state":"active","ping":57},{"user_id":692,"name":"sigma female","steam_id":76561198298576765,"connected_time":3496000000000,"state":"active","ping":69},{"user_id":701,"name":"Dominus.","steam_id":76561199065917088,"connected_time":3225000000000,"state":"active","ping":63},{"user_id":752,"name":"Litsuw","steam_id":76561198081785898,"connected_time":1897000000000,"state":"active","ping":67},{"user_id":777,"name":"Fbafroguy","steam_id":76561199113010473,"connected_time":1277000000000,"state":"active","ping":63},{"user_id":632,"name":"AureateAura","steam_id":76561198046902265,"connected_time":4157000000000,"state":"active","ping":126},{"user_id":672,"name":"‚ú™ J4Ck0","steam_id":76561198094911581,"connected_time":3780000000000,"state":"active","ping":52},{"user_id":790,"name":"Demengies","steam_id":76561198060414484,"connected_time":729000000000,"state":"active","ping":42},{"user_id":785,"name":"ÏõÉ","steam_id":76561199026097466,"connected_time":963000000000,"state":"active","ping":76},{"user_id":779,"name":"kittenkitchen24","steam_id":76561199171056489,"connected_time":1235000000000,"state":"active","ping":191},{"user_id":670,"name":"Son Goku","steam_id":76561199383437138,"connected_time":3819000000000,"state":"active","ping":122},{"user_id":753,"name":"Kurage","steam_id":76561198021221288,"connected_time":1895000000000,"state":"active","ping":76},{"user_id":788,"name":"Dakeyras","steam_id":76561198057069564,"connected_time":820000000000,"state":"active","ping":94},{"user_id":786,"name":"Nedge","steam_id":76561197963549701,"connected_time":928000000000,"state":"active","ping":54},{"user_id":717,"name":"YEEET","steam_id":76561198914938199,"connected_time":2786000000000,"state":"active","ping":99},{"user_id":721,"name":"this is personal now","steam_id":76561198000369215,"connected_time":2642000000000,"state":"active","ping":50},{"user_id":735,"name":"Mannequin","steam_id":76561198128833974,"connected_time":2383000000000,"state":"active","ping":58},{"user_id":740,"name":"12Adam12","steam_id":76561198037882443,"connected_time":2297000000000,"state":"active","ping":48},{"user_id":737,"name":"SOPHIIEE","steam_id":76561198443798981,"connected_time":2347000000000,"state":"active","ping":59},{"user_id":810,"name":"|20BB)\u003eMach","steam_id":76561198952487564,"connected_time":2000000000,"state":"spawning","ping":99},{"user_id":787,"name":"BELADIT","steam_id":76561198011911501,"connected_time":845000000000,"state":"active","ping":78},{"user_id":764,"name":"Premier Joseph Stalin","steam_id":76561198436564012,"connected_time":1604000000000,"state":"active","ping":157},{"user_id":802,"name":"Smilez","steam_id":76561197999353870,"connected_time":237000000000,"state":"active","ping":45},{"user_id":614,"name":"thepoltroon294","steam_id":76561198236015392,"connected_time":4398000000000,"state":"active","ping":126},{"user_id":638,"name":"jones","steam_id":76561198073975078,"connected_time":4121000000000,"state":"active","ping":78}]},{"server_id":114,"name":"Uncletopia | London | 2 | All Maps","name_short":"lon-2","host":"lon-1.uk.uncletopia.com","port":27025,"enabled":true,"region":"eu","cc":"gb","latitude":51.509865,"longitude":-0.118092,"reserved":0,"last_update":"0001-01-01T00:00:00Z","name_a2s":"Uncletopia | London | 2 | All Maps","protocol":17,"map":"pl_frontier_final","folder":"tf","game":"Team Fortress","app_id":440,"player_count":22,"max_players":24,"Bots":0,"server_type":"Dedicated","server_os":"Linux","password":true,"vac":true,"version":"7742253","steam_id":85568392924470941,"keywords":["nocrits","nodmgspread","payload","uncletopia"],"game_id":440,"stv_port":27026,"stv_name":"Uncletopia | London | 2 | All Maps | STV","players":[{"user_id":475,"name":"omnibombulator","steam_id":76561198025858897,"connected_time":3387000000000,"state":"active","ping":45},{"user_id":519,"name":"Two Thousand and Fun","steam_id":76561198030956814,"connected_time":357000000000,"state":"active","ping":41},{"user_id":518,"name":"Not clickbait (not clickbait)","steam_id":76561198951275407,"connected_time":406000000000,"state":"active","ping":80},{"user_id":508,"name":"Golga","steam_id":76561199047745179,"connected_time":1725000000000,"state":"active","ping":70},{"user_id":513,"name":"kavun","steam_id":76561198023461869,"connected_time":1058000000000,"state":"active","ping":85},{"user_id":526,"name":"yuh","steam_id":76561199005555839,"connected_time":25000000000,"state":"active","ping":88},{"user_id":516,"name":"Burpman","steam_id":76561198022897937,"connected_time":537000000000,"state":"active","ping":46},{"user_id":497,"name":"ShawnDawn2","steam_id":76561198165013522,"connected_time":2167000000000,"state":"active","ping":43},{"user_id":498,"name":"Mr.Cupcake","steam_id":76561198152711174,"connected_time":2147000000000,"state":"active","ping":59},{"user_id":512,"name":"_Starlight_","steam_id":76561197993885738,"connected_time":1073000000000,"state":"active","ping":77},{"user_id":521,"name":"Old Man Winter","steam_id":76561198007653168,"connected_time":280000000000,"state":"active","ping":57},{"user_id":514,"name":"Chilson","steam_id":76561198003964474,"connected_time":1038000000000,"state":"active","ping":51},{"user_id":520,"name":"CAMON ENGELAND","steam_id":76561198054301125,"connected_time":342000000000,"state":"active","ping":81},{"user_id":499,"name":"Ecton","steam_id":76561198025103720,"connected_time":2119000000000,"state":"active","ping":56},{"user_id":511,"name":"s a i","steam_id":76561197970379754,"connected_time":1103000000000,"state":"active","ping":67},{"user_id":500,"name":"tf2god2007","steam_id":76561198084174868,"connected_time":2111000000000,"state":"active","ping":63},{"user_id":504,"name":"wamw","steam_id":76561199206660048,"connected_time":1982000000000,"state":"active","ping":70},{"user_id":491,"name":"Suspicious Cabin","steam_id":76561198083261198,"connected_time":2799000000000,"state":"active","ping":55},{"user_id":523,"name":"Cryo","steam_id":76561198324132940,"connected_time":240000000000,"state":"active","ping":86},{"user_id":525,"name":"AsuX","steam_id":76561197990333289,"connected_time":39000000000,"state":"active","ping":56},{"user_id":517,"name":"NiNY√É","steam_id":76561197995685294,"connected_time":522000000000,"state":"active","ping":45},{"user_id":509,"name":"IX","steam_id":76561198039589783,"connected_time":1238000000000,"state":"active","ping":53}]},{"server_id":320,"name":"Uncletopia | London | 3 | All Maps","name_short":"lon-3","host":"lon-1.uk.uncletopia.com","port":27035,"enabled":true,"region":"eu","cc":"gb","latitude":51.509865,"longitude":-0.118092,"reserved":0,"last_update":"0001-01-01T00:00:00Z","name_a2s":"Uncletopia | London | 3 | All Maps","protocol":17,"map":"pl_frontier_final","folder":"tf","game":"Team Fortress","app_id":440,"player_count":23,"max_players":24,"Bots":0,"server_type":"Dedicated","server_os":"Linux","password":true,"vac":true,"version":"7742253","steam_id":85568392924510192,"keywords":["nocrits","nodmgspread","payload","uncletopia"],"game_id":440,"stv_port":27036,"stv_name":"Uncletopia | London | 3 | All Maps | STV","players":[{"user_id":217,"name":"Jokudami","steam_id":76561198346604154,"connected_time":2400000000000,"state":"active","ping":58},{"user_id":230,"name":"reshiram","steam_id":76561198059782462,"connected_time":1931000000000,"state":"active","ping":60},{"user_id":207,"name":"the joy of recycling","steam_id":76561198415564349,"connected_time":3338000000000,"state":"active","ping":60},{"user_id":252,"name":"PongiBoti","steam_id":76561199447073400,"connected_time":948000000000,"state":"active","ping":79},{"user_id":265,"name":"cyanic","steam_id":76561198047828651,"connected_time":351000000000,"state":"active","ping":46},{"user_id":266,"name":"Burgoo_King","steam_id":76561198133572225,"connected_time":311000000000,"state":"active","ping":73},{"user_id":251,"name":"Fleu","steam_id":76561198387966202,"connected_time":998000000000,"state":"active","ping":47},{"user_id":235,"name":"Valoxi","steam_id":76561197995042938,"connected_time":1810000000000,"state":"active","ping":65},{"user_id":249,"name":"Steven Universe ‚ô¶","steam_id":76561198162858633,"connected_time":1019000000000,"state":"active","ping":73},{"user_id":268,"name":"Peaced.old","steam_id":76561197993682469,"connected_time":291000000000,"state":"active","ping":49},{"user_id":220,"name":"Bluetooth Headphones gaming","steam_id":76561198848650365,"connected_time":2311000000000,"state":"active","ping":76},{"user_id":263,"name":"Mr_Pulse_","steam_id":76561198095001602,"connected_time":485000000000,"state":"active","ping":102},{"user_id":267,"name":"BigZZZ","steam_id":76561197998461614,"connected_time":305000000000,"state":"active","ping":55},{"user_id":264,"name":"SteveyWonder","steam_id":76561198168234878,"connected_time":482000000000,"state":"active","ping":49},{"user_id":269,"name":"egg","steam_id":76561198865283728,"connected_time":265000000000,"state":"active","ping":51},{"user_id":148,"name":"BowDoesChilling","steam_id":76561198278133818,"connected_time":7501000000000,"state":"active","ping":37},{"user_id":237,"name":"Furious Frenchman","steam_id":76561198082076952,"connected_time":1777000000000,"state":"active","ping":65},{"user_id":257,"name":"ArekanPL","steam_id":76561198306811916,"connected_time":866000000000,"state":"active","ping":79},{"user_id":258,"name":"Alfiine","steam_id":76561198206082887,"connected_time":834000000000,"state":"active","ping":72},{"user_id":259,"name":"KarlRanzeier","steam_id":76561198066281337,"connected_time":821000000000,"state":"active","ping":62},{"user_id":270,"name":"Burgermeister","steam_id":76561199454619979,"connected_time":255000000000,"state":"active","ping":136},{"user_id":242,"name":"Hedj","steam_id":76561198108369687,"connected_time":1684000000000,"state":"active","ping":47},{"user_id":244,"name":"wolfgang","steam_id":76561199111818670,"connected_time":1475000000000,"state":"active","ping":108}]},{"server_id":321,"name":"Uncletopia | London | 4 | All Maps","name_short":"lon-4","host":"lon-1.uk.uncletopia.com","port":27045,"enabled":true,"region":"eu","cc":"gb","latitude":51.509865,"longitude":-0.118092,"reserved":0,"last_update":"0001-01-01T00:00:00Z","name_a2s":"Uncletopia | London | 4 | All Maps","protocol":17,"map":"pl_badwater","folder":"tf","game":"Team Fortress","app_id":440,"player_count":24,"max_players":24,"Bots":0,"server_type":"Dedicated","server_os":"Linux","password":true,"vac":true,"version":"7742253","steam_id":85568392924510193,"keywords":["nocrits","nodmgspread","payload","uncletopia"],"game_id":440,"stv_port":27046,"stv_name":"Uncletopia | London | 4 | All Maps | STV","players":[{"user_id":790,"name":"Dwevy","steam_id":76561198090379437,"connected_time":1759000000000,"state":"active","ping":42},{"user_id":777,"name":"dairy","steam_id":76561198117033273,"connected_time":2557000000000,"state":"active","ping":60},{"user_id":791,"name":"hamude.alsarhan2011","steam_id":76561199259727736,"connected_time":1605000000000,"state":"active","ping":66},{"user_id":778,"name":"KFD","steam_id":76561198157183003,"connected_time":2451000000000,"state":"active","ping":89},{"user_id":779,"name":"luma","steam_id":76561198081649669,"connected_time":2422000000000,"state":"active","ping":75},{"user_id":774,"name":"Vladimir Lenin","steam_id":76561199438120787,"connected_time":2610000000000,"state":"active","ping":60},{"user_id":809,"name":"Samwise","steam_id":76561198160115838,"connected_time":262000000000,"state":"active","ping":45},{"user_id":807,"name":"Hey, I¬¥m Andy!","steam_id":76561198060337777,"connected_time":492000000000,"state":"active","ping":66},{"user_id":776,"name":"UNO, The Ubisoft Original","steam_id":76561198846784757,"connected_time":2581000000000,"state":"active","ping":54},{"user_id":810,"name":"[AL]-SON-GOHAN","steam_id":76561198010435147,"connected_time":59000000000,"state":"active","ping":79},{"user_id":789,"name":"VioBeeyo ‚ô•","steam_id":76561198066258544,"connected_time":1861000000000,"state":"active","ping":62},{"user_id":793,"name":"Micha≈Ç","steam_id":76561198320346362,"connected_time":1598000000000,"state":"active","ping":74},{"user_id":722,"name":"Lennox","steam_id":76561198069063554,"connected_time":7176000000000,"state":"active","ping":47},{"user_id":780,"name":"Like Ahayo LXIX","steam_id":76561198368508349,"connected_time":2414000000000,"state":"active","ping":89},{"user_id":795,"name":"Dachowiec","steam_id":76561198195408281,"connected_time":1322000000000,"state":"active","ping":71},{"user_id":802,"name":"Krabs","steam_id":76561198161679477,"connected_time":1064000000000,"state":"active","ping":39},{"user_id":803,"name":"Hedgehogdude‚Ö¢","steam_id":76561198305290568,"connected_time":1059000000000,"state":"active","ping":103},{"user_id":797,"name":"Haituga","steam_id":76561198048718174,"connected_time":1301000000000,"state":"active","ping":65},{"user_id":798,"name":"Zigguski","steam_id":76561198022990016,"connected_time":1298000000000,"state":"active","ping":48},{"user_id":808,"name":"MAKENTAKEN","steam_id":76561199127359587,"connected_time":358000000000,"state":"active","ping":98},{"user_id":805,"name":"drug addict","steam_id":76561199072901755,"connected_time":1025000000000,"state":"active","ping":64},{"user_id":723,"name":"PlacebO.-","steam_id":76561197973577950,"connected_time":7175000000000,"state":"active","ping":62},{"user_id":787,"name":"Sotviing","steam_id":76561198154311159,"connected_time":2267000000000,"state":"active","ping":78},{"user_id":806,"name":"Ferenc","steam_id":76561199042905250,"connected_time":994000000000,"state":"active","ping":61}]},{"server_id":21,"name":"Uncletopia | London | 5 | All Maps","name_short":"lon-5","host":"lon-1.uk.uncletopia.com","port":27055,"enabled":true,"region":"eu","cc":"gb","latitude":51.509865,"longitude":-0.118092,"reserved":0,"last_update":"0001-01-01T00:00:00Z","name_a2s":"Uncletopia | London | 5 | All Maps","protocol":17,"map":"cp_sunshine","folder":"tf","game":"Team Fortress","app_id":440,"player_count":0,"max_players":24,"Bots":0,"server_type":"Dedicated","server_os":"Linux","password":true,"vac":true,"version":"7742253","steam_id":85568392924742829,"keywords":["cp","nocrits","nodmgspread","uncletopia"],"game_id":440,"stv_port":27056,"stv_name":"Uncletopia | London | 5 | All Maps | STV","players":null},{"server_id":22,"name":"Uncletopia | London | 6 | All Maps","name_short":"lon-6","host":"lon-1.uk.uncletopia.com","port":27065,"enabled":true,"region":"eu","cc":"gb","latitude":51.509865,"longitude":-0.118092,"reserved":0,"last_update":"0001-01-01T00:00:00Z","name_a2s":"Uncletopia | London | 6 | All Maps","protocol":17,"map":"pl_borneo","folder":"tf","game":"Team Fortress","app_id":440,"player_count":20,"max_players":24,"Bots":0,"server_type":"Dedicated","server_os":"Linux","password":true,"vac":true,"version":"7742253","steam_id":85568392924742830,"keywords":["nocrits","nodmgspread","payload","uncletopia"],"game_id":440,"stv_port":27066,"stv_name":"Uncletopia | London | 6 | All Maps | STV","players":[{"user_id":493,"name":"Uncle Lame","steam_id":76561198089003514,"connected_time":109000000000,"state":"active","ping":46},{"user_id":460,"name":"jt7","steam_id":76561198073655162,"connected_time":1589000000000,"state":"active","ping":65},{"user_id":480,"name":"timothytreestand-041165","steam_id":76561197995676953,"connected_time":996000000000,"state":"active","ping":56},{"user_id":424,"name":"4's up Rigby","steam_id":76561199122067976,"connected_time":3374000000000,"state":"active","ping":72},{"user_id":481,"name":"install gentoo","steam_id":76561198185257982,"connected_time":982000000000,"state":"active","ping":74},{"user_id":462,"name":"Pauler le one","steam_id":76561198398152855,"connected_time":1508000000000,"state":"active","ping":98},{"user_id":483,"name":"ShoobyDooby","steam_id":76561198118473910,"connected_time":791000000000,"state":"active","ping":51},{"user_id":428,"name":"‚ú™Atl4s","steam_id":76561198873209311,"connected_time":3028000000000,"state":"active","ping":72},{"user_id":492,"name":"kiki88","steam_id":76561198263004287,"connected_time":134000000000,"state":"active","ping":80},{"user_id":468,"name":"Jamie Hyneman","steam_id":76561198364121077,"connected_time":1332000000000,"state":"active","ping":88},{"user_id":466,"name":"Billy Genie","steam_id":76561198061724014,"connected_time":1404000000000,"state":"active","ping":41},{"user_id":489,"name":"Penis Contortionist","steam_id":76561198073663784,"connected_time":381000000000,"state":"active","ping":36},{"user_id":490,"name":"sokucu tr","steam_id":76561198055422721,"connected_time":274000000000,"state":"active","ping":100},{"user_id":494,"name":"USB","steam_id":76561199092152371,"connected_time":78000000000,"state":"active","ping":86},{"user_id":495,"name":"rummy","steam_id":76561197997573379,"connected_time":46000000000,"state":"active","ping":44},{"user_id":471,"name":"Denialman (Muted)","steam_id":76561198309182092,"connected_time":1233000000000,"state":"active","ping":63},{"user_id":472,"name":"Mulenmul","steam_id":76561199039796992,"connected_time":1202000000000,"state":"active","ping":59},{"user_id":496,"name":"p!ke","steam_id":76561198416081952,"connected_time":42000000000,"state":"active","ping":61},{"user_id":497,"name":"Jan „Ç∏„É£„É≥","steam_id":76561198030180053,"connected_time":38000000000,"state":"active","ping":79},{"user_id":474,"name":"The Subway Scientist","steam_id":76561198193757646,"connected_time":1166000000000,"state":"active","ping":53}]},{"server_id":40,"name":"Uncletopia | London | 7 | No Payload","name_short":"lon-7","host":"lon-1.uk.uncletopia.com","port":27075,"enabled":true,"region":"eu","cc":"gb","latitude":51.509865,"longitude":-0.118092,"reserved":0,"last_update":"0001-01-01T00:00:00Z","name_a2s":"Uncletopia | London | 7 | No Payload","protocol":17,"map":"koth_lakeside_final","folder":"tf","game":"Team Fortress","app_id":440,"player_count":0,"max_players":24,"Bots":0,"server_type":"Dedicated","server_os":"Linux","password":true,"vac":true,"version":"7742253","steam_id":85568392924964314,"keywords":["cp","nocrits","nodmgspread","uncletopia"],"game_id":440,"stv_port":27076,"stv_name":"Uncletopia | London | 7 | No Payload | STV","players":null},{"server_id":41,"name":"Uncletopia | London | 8 | Community","name_short":"lon-8","host":"lon-1.uk.uncletopia.com","port":27085,"enabled":true,"region":"eu","cc":"gb","latitude":51.509865,"longitude":-0.118092,"reserved":0,"last_update":"0001-01-01T00:00:00Z","name_a2s":"Uncletopia | London | 8 | Community","protocol":17,"map":"workshop/koth_ashville_final.ugc2130459942","folder":"tf","game":"Team Fortress","app_id":440,"player_count":0,"max_players":24,"Bots":0,"server_type":"Dedicated","server_os":"Linux","password":true,"vac":true,"version":"7742253","steam_id":85568392924964315,"keywords":["cp","nocrits","nodmgspread","uncletopia"],"game_id":440,"stv_port":27086,"stv_name":"Uncletopia | London | 8 | Community | STV","players":null},{"server_id":300,"name":"Uncletopia | Montr√©al | 1 | All Maps","name_short":"mtl-1","host":"mtl-1.ca.uncletopia.com","port":27015,"enabled":true,"region":"us-east","cc":"ca","latitude":45.50889,"longitude":-73.56167,"reserved":0,"last_update":"0001-01-01T00:00:00Z","name_a2s":"Uncletopia | Montr√©al | 1 | All Maps","protocol":17,"map":"cp_snakewater_final1","folder":"tf","game":"Team Fortress","app_id":440,"player_count":0,"max_players":24,"Bots":0,"server_type":"Dedicated","server_os":"Linux","password":true,"vac":true,"version":"7742253","steam_id":85568392924500087,"keywords":["cp","nocrits","nodmgspread","uncletopia"],"game_id":440,"stv_port":27016,"stv_name":"Uncletopia | Montr√©al | 1 | All Maps | STV","players":null},{"server_id":301,"name":"Uncletopia | Montr√©al | 2 | All Maps","name_short":"mtl-2","host":"mtl-1.ca.uncletopia.com","port":27025,"enabled":true,"region":"us-east","cc":"ca","latitude":45.50889,"longitude":-73.56167,"reserved":0,"last_update":"0001-01-01T00:00:00Z","name_a2s":"Uncletopia | Montr√©al | 2 | All Maps","protocol":17,"map":"pl_upward","folder":"tf","game":"Team Fortress","app_id":440,"player_count":16,"max_players":24,"Bots":0,"server_type":"Dedicated","server_os":"Linux","password":true,"vac":true,"version":"7742253","steam_id":85568392924500088,"keywords":["nocrits","nodmgspread","payload","uncletopia"],"game_id":440,"stv_port":27026,"stv_name":"Uncletopia | Montr√©al | 2 | All Maps | STV","players":[{"user_id":135,"name":"BREADCHEESE","steam_id":76561199085219706,"connected_time":2405000000000,"state":"active","ping":75},{"user_id":160,"name":"-TG morlo^","steam_id":76561198249301650,"connected_time":572000000000,"state":"active","ping":134},{"user_id":161,"name":"zabes","steam_id":76561199066803158,"connected_time":563000000000,"state":"active","ping":89},{"user_id":79,"name":"Hipp-Dip","steam_id":76561199027874633,"connected_time":5786000000000,"state":"active","ping":46},{"user_id":80,"name":"KRATOS MESSI","steam_id":76561199074026132,"connected_time":5772000000000,"state":"active","ping":51},{"user_id":152,"name":"Spade","steam_id":76561198014983267,"connected_time":862000000000,"state":"active","ping":67},{"user_id":155,"name":"HorseCooker","steam_id":76561198076588370,"connected_time":724000000000,"state":"active","ping":48},{"user_id":168,"name":"`Jace","steam_id":76561198002440462,"connected_time":4000000000,"state":"spawning","ping":64},{"user_id":166,"name":"Patisserie","steam_id":76561198239169752,"connected_time":203000000000,"state":"active","ping":59},{"user_id":156,"name":"Googlm","steam_id":76561198374472850,"connected_time":714000000000,"state":"active","ping":97},{"user_id":164,"name":"CrackSmoker9000","steam_id":76561198117612807,"connected_time":520000000000,"state":"active","ping":101},{"user_id":93,"name":"Wahooka (Manrobics Instructor)","steam_id":76561197962240925,"connected_time":4559000000000,"state":"active","ping":59},{"user_id":165,"name":"Sniper","steam_id":76561198412525293,"connected_time":479000000000,"state":"active","ping":101},{"user_id":125,"name":"IPlayGamez","steam_id":76561198041387508,"connected_time":2959000000000,"state":"active","ping":55},{"user_id":108,"name":"Player AFK","steam_id":76561198036032168,"connected_time":3904000000000,"state":"active","ping":45},{"user_id":149,"name":"MagicGnome","steam_id":76561198060886742,"connected_time":1509000000000,"state":"active","ping":66}]},{"server_id":302,"name":"Uncletopia | Montr√©al | 3 | All Maps","name_short":"mtl-3","host":"mtl-1.ca.uncletopia.com","port":27035,"enabled":true,"region":"us-east","cc":"ca","latitude":45.50889,"longitude":-73.56167,"reserved":0,"last_update":"0001-01-01T00:00:00Z","name_a2s":"Uncletopia | Montr√©al | 3 | All Maps","protocol":17,"map":"cp_mountainlab","folder":"tf","game":"Team Fortress","app_id":440,"player_count":0,"max_players":24,"Bots":0,"server_type":"Dedicated","server_os":"Linux","password":true,"vac":true,"version":"7742253","steam_id":85568392924500089,"keywords":["cp","nocrits","nodmgspread","uncletopia"],"game_id":440,"stv_port":27036,"stv_name":"Uncletopia | Montr√©al | 3 | All Maps | STV","players":null},{"server_id":303,"name":"Uncletopia | Montr√©al | 4 | No Payload","name_short":"mtl-4","host":"mtl-1.ca.uncletopia.com","port":27045,"enabled":true,"region":"us-east","cc":"ca","latitude":45.50889,"longitude":-73.56167,"reserved":0,"last_update":"0001-01-01T00:00:00Z","name_a2s":"Uncletopia | Montr√©al | 4 | No Payload","protocol":17,"map":"koth_sawmill","folder":"tf","game":"Team Fortress","app_id":440,"player_count":0,"max_players":24,"Bots":0,"server_type":"Dedicated","server_os":"Linux","password":true,"vac":true,"version":"7742253","steam_id":85568392924500090,"keywords":["cp","nocrits","nodmgspread","uncletopia"],"game_id":440,"stv_port":27046,"stv_name":"Uncletopia | Montr√©al | 4 | No Payload | STV","players":null},{"server_id":13,"name":"Uncletopia | New York City | 1 | All Maps","name_short":"nyc-1","host":"nyc-1.us.uncletopia.com","port":27015,"enabled":true,"region":"us-east","cc":"us","latitude":40.73061,"longitude":-73.93524,"reserved":0,"last_update":"0001-01-01T00:00:00Z","name_a2s":"Uncletopia | New York City | 1 | All Maps","protocol":17,"map":"koth_highpass","folder":"tf","game":"Team Fortress","app_id":440,"player_count":0,"max_players":24,"Bots":0,"server_type":"Dedicated","server_os":"Linux","password":true,"vac":true,"version":"7742253","steam_id":85568392924469993,"keywords":["cp","nocrits","nodmgspread","uncletopia"],"game_id":440,"stv_port":27016,"stv_name":"Uncletopia | New York City | 1 | All Maps | STV","players":null},{"server_id":14,"name":"Uncletopia | New York City | 2 | All Maps","name_short":"nyc-2","host":"nyc-1.us.uncletopia.com","port":27025,"enabled":true,"region":"us-east","cc":"us","latitude":40.73061,"longitude":-73.93524,"reserved":0,"last_update":"0001-01-01T00:00:00Z","name_a2s":"Uncletopia | New York City | 2 | All Maps","protocol":17,"map":"cp_altitude","folder":"tf","game":"Team Fortress","app_id":440,"player_count":0,"max_players":24,"Bots":0,"server_type":"Dedicated","server_os":"Linux","password":true,"vac":true,"version":"7742253","steam_id":85568392924469994,"keywords":["cp","nocrits","nodmgspread","uncletopia"],"game_id":440,"stv_port":27026,"stv_name":"Uncletopia | New York City | 2 | All Maps | STV","players":null},{"server_id":15,"name":"Uncletopia | New York City | 3 | Stopwatch Beta","name_short":"nyc-3","host":"nyc-1.us.uncletopia.com","port":27035,"enabled":true,"region":"us-east","cc":"us","latitude":40.73061,"longitude":-73.93524,"reserved":0,"last_update":"0001-01-01T00:00:00Z","name_a2s":"Uncletopia | New York City | 3 | Stopwatch Beta","protocol":17,"map":"pl_pier","folder":"tf","game":"Team Fortress","app_id":440,"player_count":0,"max_players":24,"Bots":0,"server_type":"Dedicated","server_os":"Linux","password":true,"vac":true,"version":"7742253","steam_id":85568392924742820,"keywords":["nocrits","nodmgspread","payload","uncletopia"],"game_id":440,"stv_port":27036,"stv_name":"Uncletopia | New York City | 3 | Stopwatch Beta | STV","players":null},{"server_id":16,"name":"Uncletopia | New York City | 4 | Community","name_short":"nyc-4","host":"nyc-1.us.uncletopia.com","port":27045,"enabled":true,"region":"us-east","cc":"us","latitude":40.73061,"longitude":-73.93524,"reserved":0,"last_update":"0001-01-01T00:00:00Z","name_a2s":"Uncletopia | New York City | 4 | Community","protocol":17,"map":"koth_viaduct","folder":"tf","game":"Team Fortress","app_id":440,"player_count":0,"max_players":24,"Bots":0,"server_type":"Dedicated","server_os":"Linux","password":true,"vac":true,"version":"7742253","steam_id":85568392924742821,"keywords":["cp","nocrits","nodmgspread","uncletopia"],"game_id":440,"stv_port":27046,"stv_name":"Uncletopia | New York City | 4 | Community | STV","players":null},{"server_id":142,"name":"Uncletopia | S√£o Paulo | 1 | All Maps","name_short":"sao-1","host":"sao-1.br.uncletopia.com","port":27015,"enabled":true,"region":"sa","cc":"br","latitude":-23.533773,"longitude":-46.62529,"reserved":0,"last_update":"0001-01-01T00:00:00Z","name_a2s":"Uncletopia | S√£o Paulo | 1 | All Maps","protocol":17,"map":"koth_lakeside_final","folder":"tf","game":"Team Fortress","app_id":440,"player_count":2,"max_players":24,"Bots":0,"server_type":"Dedicated","server_os":"Linux","password":true,"vac":true,"version":"7742253","steam_id":85568392924469996,"keywords":["cp","nocrits","nodmgspread","uncletopia"],"game_id":440,"stv_port":27016,"stv_name":"Uncletopia | S√£o Paulo | 1 | All Maps | STV","players":[{"user_id":20,"name":"kate ‚ô°","steam_id":76561198805567120,"connected_time":631000000000,"state":"active","ping":65},{"user_id":21,"name":"jr_rusty","steam_id":76561198313937899,"connected_time":453000000000,"state":"active","ping":58}]},{"server_id":143,"name":"Uncletopia | S√£o Paulo | 2 | All Maps","name_short":"sao-2","host":"sao-2.br.uncletopia.com","port":27015,"enabled":true,"region":"sa","cc":"br","latitude":-23.533773,"longitude":-46.62529,"reserved":0,"last_update":"0001-01-01T00:00:00Z","name_a2s":"Uncletopia | S√£o Paulo | 2 | All Maps","protocol":17,"map":"koth_viaduct","folder":"tf","game":"Team Fortress","app_id":440,"player_count":0,"max_players":24,"Bots":0,"server_type":"Dedicated","server_os":"Linux","password":true,"vac":true,"version":"7742253","steam_id":85568392924485349,"keywords":["cp","nocrits","nodmgspread","uncletopia"],"game_id":440,"stv_port":27016,"stv_name":"Uncletopia | S√£o Paulo | 2 | All Maps | STV","players":null},{"server_id":7,"name":"Uncletopia | Seattle | 1 | All Maps","name_short":"sea-1","host":"sea-1.us.uncletopia.com","port":27015,"enabled":true,"region":"us-west","cc":"us","latitude":47.608013,"longitude":-122.33517,"reserved":0,"last_update":"0001-01-01T00:00:00Z","name_a2s":"Uncletopia | Seattle | 1 | All Maps","protocol":17,"map":"cp_gorge","folder":"tf","game":"Team Fortress","app_id":440,"player_count":24,"max_players":24,"Bots":0,"server_type":"Dedicated","server_os":"Linux","password":true,"vac":true,"version":"7742253","steam_id":85568392924469997,"keywords":["cp","nocrits","nodmgspread","uncletopia"],"game_id":440,"stv_port":27016,"stv_name":"Uncletopia | Seattle | 1 | All Maps | STV","players":[{"user_id":88,"name":"mean penguin","steam_id":76561198174751517,"connected_time":85000000000,"state":"active","ping":80},{"user_id":87,"name":"Greskrendtregk","steam_id":76561197969553142,"connected_time":187000000000,"state":"active","ping":55},{"user_id":21,"name":"Syn_Contamino5311","steam_id":76561199454661432,"connected_time":4876000000000,"state":"active","ping":58},{"user_id":47,"name":"thunderous prophet","steam_id":76561198131166135,"connected_time":3011000000000,"state":"active","ping":40},{"user_id":83,"name":"TURBODERP","steam_id":76561198023405216,"connected_time":506000000000,"state":"active","ping":73},{"user_id":24,"name":"bobtheninjaman","steam_id":76561198066424544,"connected_time":4394000000000,"state":"active","ping":81},{"user_id":25,"name":"kawakami_fan_225","steam_id":76561198799336176,"connected_time":4328000000000,"state":"active","ping":107},{"user_id":26,"name":"TheCowledWiz","steam_id":76561198016735868,"connected_time":4252000000000,"state":"active","ping":49},{"user_id":86,"name":"RaixaR","steam_id":76561198025289430,"connected_time":196000000000,"state":"active","ping":79},{"user_id":81,"name":"GloomyShroomy","steam_id":76561199150895700,"connected_time":538000000000,"state":"active","ping":84},{"user_id":80,"name":"The Classy Ferret","steam_id":76561198200961750,"connected_time":713000000000,"state":"active","ping":77},{"user_id":78,"name":"Lorne Chrones","steam_id":76561198023781211,"connected_time":734000000000,"state":"active","ping":106},{"user_id":32,"name":"DennethThaThinather","steam_id":76561198098121768,"connected_time":3847000000000,"state":"active","ping":52},{"user_id":84,"name":"oil","steam_id":76561198099980149,"connected_time":496000000000,"state":"active","ping":69},{"user_id":68,"name":"ThatGuyFromClass","steam_id":76561198445601688,"connected_time":1788000000000,"state":"active","ping":120},{"user_id":85,"name":"‡∂û","steam_id":76561198256701755,"connected_time":214000000000,"state":"active","ping":65},{"user_id":36,"name":"la loveiathenne","steam_id":76561198046394237,"connected_time":3443000000000,"state":"active","ping":46},{"user_id":50,"name":"Court Wizard, Sir Dr. Clydesdal","steam_id":76561198149267697,"connected_time":2802000000000,"state":"active","ping":64},{"user_id":59,"name":"gatorbelt","steam_id":76561198145784505,"connected_time":2116000000000,"state":"active","ping":77},{"user_id":60,"name":"Mr.Thirteen","steam_id":76561198047468836,"connected_time":2115000000000,"state":"active","ping":69},{"user_id":72,"name":"kebo","steam_id":76561198237159430,"connected_time":1166000000000,"state":"active","ping":87},{"user_id":42,"name":"resh","steam_id":76561198239598834,"connected_time":3265000000000,"state":"active","ping":129},{"user_id":71,"name":"Dimple","steam_id":76561198980324190,"connected_time":1338000000000,"state":"active","ping":50},{"user_id":44,"name":"noraneko","steam_id":76561198025418738,"connected_time":3247000000000,"state":"active","ping":58}]},{"server_id":119,"name":"Uncletopia | Seattle | 2 | All Maps","name_short":"sea-2","host":"sea-1.us.uncletopia.com","port":27025,"enabled":true,"region":"us-west","cc":"us","latitude":47.608013,"longitude":-122.33517,"reserved":0,"last_update":"0001-01-01T00:00:00Z","name_a2s":"Uncletopia | Seattle | 2 | All Maps","protocol":17,"map":"pl_badwater","folder":"tf","game":"Team Fortress","app_id":440,"player_count":9,"max_players":24,"Bots":0,"server_type":"Dedicated","server_os":"Linux","password":true,"vac":true,"version":"7742253","steam_id":85568392924469998,"keywords":["nocrits","nodmgspread","payload","uncletopia"],"game_id":440,"stv_port":27026,"stv_name":"Uncletopia | Seattle | 2 | All Maps | STV","players":[{"user_id":22,"name":"Christmas?!!!!1!11","steam_id":76561199100225735,"connected_time":848000000000,"state":"active","ping":44},{"user_id":11,"name":"dimandos48","steam_id":76561198935148062,"connected_time":2210000000000,"state":"active","ping":221},{"user_id":12,"name":"Femboy Claus","steam_id":76561198821534354,"connected_time":1949000000000,"state":"active","ping":75},{"user_id":15,"name":"Arson","steam_id":76561198424050828,"connected_time":1893000000000,"state":"active","ping":190},{"user_id":21,"name":"Abbreviated","steam_id":76561198088423054,"connected_time":1031000000000,"state":"active","ping":119},{"user_id":26,"name":"Auto","steam_id":76561199002386599,"connected_time":281000000000,"state":"active","ping":105},{"user_id":24,"name":"d4N13L_0100110","steam_id":76561199082205133,"connected_time":532000000000,"state":"active","ping":71},{"user_id":25,"name":"B-0-D-I-E ‚úì","steam_id":76561198079474904,"connected_time":476000000000,"state":"active","ping":60},{"user_id":27,"name":"misu","steam_id":76561198402791683,"connected_time":233000000000,"state":"active","ping":91}]},{"server_id":406,"name":"Uncletopia | Seattle | 3 | Stopwatch Beta","name_short":"sea-3","host":"sea-1.us.uncletopia.com","port":27035,"enabled":true,"region":"us-west","cc":"us","latitude":47.608013,"longitude":-122.33517,"reserved":0,"last_update":"0001-01-01T00:00:00Z","name_a2s":"Uncletopia | Seattle | 3 | Stopwatch Beta","protocol":17,"map":"workshop/koth_ramjam_rc1.ugc459778887","folder":"tf","game":"Team Fortress","app_id":440,"player_count":0,"max_players":24,"Bots":0,"server_type":"Dedicated","server_os":"Linux","password":true,"vac":true,"version":"7742253","steam_id":85568392924515217,"keywords":["cp","nocrits","nodmgspread","uncletopia"],"game_id":440,"stv_port":27036,"stv_name":"Uncletopia | Seattle | 3 | Stopwatch Beta | STV","players":null},{"server_id":17,"name":"Uncletopia | San Francisco | 1 | All Maps","name_short":"sfo-1","host":"sfo-1.us.uncletopia.com","port":27015,"enabled":true,"region":"us-west","cc":"us","latitude":37.77397,"longitude":-122.4313,"reserved":0,"last_update":"0001-01-01T00:00:00Z","name_a2s":"Uncletopia | San Francisco | 1 | All Maps","protocol":17,"map":"pl_barnblitz","folder":"tf","game":"Team Fortress","app_id":440,"player_count":18,"max_players":24,"Bots":0,"server_type":"Dedicated","server_os":"Linux","password":true,"vac":true,"version":"7742253","steam_id":85568392924469999,"keywords":["nocrits","nodmgspread","payload","uncletopia"],"game_id":440,"stv_port":27016,"stv_name":"Uncletopia | San Francisco | 1 | All Maps | STV","players":[{"user_id":28,"name":"hoOmIN","steam_id":76561198334947079,"connected_time":5599000000000,"state":"active","ping":59},{"user_id":97,"name":"facade","steam_id":76561199157009256,"connected_time":657000000000,"state":"active","ping":42},{"user_id":76,"name":"jungus","steam_id":76561198129862008,"connected_time":2376000000000,"state":"active","ping":53},{"user_id":98,"name":"Goonther","steam_id":76561198170128009,"connected_time":633000000000,"state":"active","ping":57},{"user_id":85,"name":"pt","steam_id":76561198143023330,"connected_time":1423000000000,"state":"active","ping":59},{"user_id":75,"name":"Mignyanne :3","steam_id":76561198048754056,"connected_time":2467000000000,"state":"active","ping":45},{"user_id":84,"name":"Frank","steam_id":76561198126681511,"connected_time":1504000000000,"state":"active","ping":60},{"user_id":89,"name":"Kzjytsugn","steam_id":76561198130241974,"connected_time":1286000000000,"state":"active","ping":60},{"user_id":35,"name":"ObiWonJacobi","steam_id":76561198041921071,"connected_time":5261000000000,"state":"active","ping":111},{"user_id":36,"name":"Piper","steam_id":76561198059054032,"connected_time":5255000000000,"state":"active","ping":89},{"user_id":99,"name":"Nada2","steam_id":76561198087039694,"connected_time":525000000000,"state":"active","ping":54},{"user_id":95,"name":"[chef] iron","steam_id":76561197970888616,"connected_time":747000000000,"state":"active","ping":100},{"user_id":83,"name":"Franz","steam_id":76561198041929745,"connected_time":1587000000000,"state":"active","ping":57},{"user_id":78,"name":"OH JIMMY I'M HOME #SaveTf2","steam_id":76561198396658806,"connected_time":1858000000000,"state":"active","ping":52},{"user_id":96,"name":"Seriously Bruh","steam_id":76561198070408485,"connected_time":716000000000,"state":"active","ping":70},{"user_id":61,"name":"Iggy_Isailiah","steam_id":76561199182838313,"connected_time":4062000000000,"state":"active","ping":114},{"user_id":81,"name":"h","steam_id":76561199034215138,"connected_time":1689000000000,"state":"active","ping":63},{"user_id":94,"name":"local","steam_id":76561198069537437,"connected_time":892000000000,"state":"active","ping":73}]},{"server_id":18,"name":"Uncletopia | San Francisco | 2 | All Maps","name_short":"sfo-2","host":"sfo-1.us.uncletopia.com","port":27025,"enabled":true,"region":"us-west","cc":"us","latitude":37.77397,"longitude":-122.4313,"reserved":0,"last_update":"0001-01-01T00:00:00Z","name_a2s":"Uncletopia | San Francisco | 2 | All Maps","protocol":17,"map":"koth_cascade","folder":"tf","game":"Team Fortress","app_id":440,"player_count":2,"max_players":24,"Bots":0,"server_type":"Dedicated","server_os":"Linux","password":true,"vac":true,"version":"7742253","steam_id":85568392924470000,"keywords":["cp","nocrits","nodmgspread","uncletopia"],"game_id":440,"stv_port":27026,"stv_name":"Uncletopia | San Francisco | 2 | All Maps | STV","players":[{"user_id":5,"name":"Robert.Johansez.2005","steam_id":76561199176919819,"connected_time":2989000000000,"state":"active","ping":188},{"user_id":8,"name":"Minecraftalex365","steam_id":76561198821706797,"connected_time":1960000000000,"state":"active","ping":116}]},{"server_id":19,"name":"Uncletopia | San Francisco | 3 | Stopwatch Beta","name_short":"sfo-3","host":"sfo-1.us.uncletopia.com","port":27035,"enabled":true,"region":"us-west","cc":"us","latitude":37.77397,"longitude":-122.4313,"reserved":0,"last_update":"0001-01-01T00:00:00Z","name_a2s":"Uncletopia | San Francisco | 3 | Stopwatch Beta","protocol":17,"map":"koth_lakeside_final","folder":"tf","game":"Team Fortress","app_id":440,"player_count":0,"max_players":24,"Bots":0,"server_type":"Dedicated","server_os":"Linux","password":true,"vac":true,"version":"7742253","steam_id":85568392924742824,"keywords":["cp","nocrits","nodmgspread","uncletopia"],"game_id":440,"stv_port":27036,"stv_name":"Uncletopia | San Francisco | 3 | Stopwatch Beta | STV","players":null},{"server_id":20,"name":"Uncletopia | San Francisco | 4 | Community","name_short":"sfo-4","host":"sfo-1.us.uncletopia.com","port":27045,"enabled":true,"region":"us-west","cc":"us","latitude":37.77397,"longitude":-122.4313,"reserved":0,"last_update":"0001-01-01T00:00:00Z","name_a2s":"Uncletopia | San Francisco | 4 | Community","protocol":17,"map":"workshop/koth_ashville_final.ugc2130459942","folder":"tf","game":"Team Fortress","app_id":440,"player_count":0,"max_players":24,"Bots":0,"server_type":"Dedicated","server_os":"Linux","password":true,"vac":true,"version":"7742253","steam_id":85568392924742826,"keywords":["cp","nocrits","nodmgspread","uncletopia"],"game_id":440,"stv_port":27046,"stv_name":"Uncletopia | San Francisco | 4 | Community | STV","players":null},{"server_id":141,"name":"Uncletopia | Sydney | 1 | All Maps","name_short":"syd-1","host":"syd-1.au.uncletopia.com","port":27015,"enabled":true,"region":"au","cc":"au","latitude":-33.865143,"longitude":151.2099,"reserved":0,"last_update":"0001-01-01T00:00:00Z","name_a2s":"Uncletopia | Sydney | 1 | All Maps","protocol":17,"map":"koth_lakeside_final","folder":"tf","game":"Team Fortress","app_id":440,"player_count":0,"max_players":24,"Bots":0,"server_type":"Dedicated","server_os":"Linux","password":true,"vac":true,"version":"7742253","steam_id":85568392924470001,"keywords":["cp","nocrits","nodmgspread","uncletopia"],"game_id":440,"stv_port":27016,"stv_name":"Uncletopia | Sydney | 1 | All Maps | STV","players":null},{"server_id":123,"name":"Uncletopia | Sydney | 2 | All Maps","name_short":"syd-2","host":"syd-1.au.uncletopia.com","port":27025,"enabled":true,"region":"au","cc":"au","latitude":-33.865143,"longitude":151.2099,"reserved":0,"last_update":"0001-01-01T00:00:00Z","name_a2s":"Uncletopia | Sydney | 2 | All Maps","protocol":17,"map":"pl_badwater","folder":"tf","game":"Team Fortress","app_id":440,"player_count":0,"max_players":24,"Bots":0,"server_type":"Dedicated","server_os":"Linux","password":true,"vac":true,"version":"7742253","steam_id":85568392924470002,"keywords":["nocrits","nodmgspread","payload","uncletopia"],"game_id":440,"stv_port":27026,"stv_name":"Uncletopia | Sydney | 2 | All Maps | STV","players":null},{"server_id":395,"name":"Uncletopia | Sydney | 3 | All Maps","name_short":"syd-3","host":"syd-1.au.uncletopia.com","port":27035,"enabled":true,"region":"au","cc":"au","latitude":-33.865143,"longitude":151.2099,"reserved":0,"last_update":"0001-01-01T00:00:00Z","name_a2s":"Uncletopia | Sydney | 3 | All Maps","protocol":17,"map":"pl_upward","folder":"tf","game":"Team Fortress","app_id":440,"player_count":8,"max_players":24,"Bots":0,"server_type":"Dedicated","server_os":"Linux","password":true,"vac":true,"version":"7742253","steam_id":85568392925194467,"keywords":["nocrits","nodmgspread","payload","uncletopia"],"game_id":440,"stv_port":27036,"stv_name":"Uncletopia | Sydney | 3 | All Maps | STV","players":[{"user_id":6,"name":"squrrel","steam_id":76561198083429611,"connected_time":3131000000000,"state":"active","ping":65},{"user_id":14,"name":"blaze","steam_id":76561198241303512,"connected_time":923000000000,"state":"active","ping":53},{"user_id":9,"name":"Boss","steam_id":76561198148606597,"connected_time":2274000000000,"state":"active","ping":261},{"user_id":11,"name":"JBoss","steam_id":76561198321937857,"connected_time":1638000000000,"state":"active","ping":74},{"user_id":12,"name":"MR Martian","steam_id":76561198157854561,"connected_time":1630000000000,"state":"active","ping":89},{"user_id":15,"name":"Probably not a terrorist","steam_id":76561199257116847,"connected_time":872000000000,"state":"active","ping":47},{"user_id":16,"name":"Skidt","steam_id":76561199229045278,"connected_time":758000000000,"state":"active","ping":221},{"user_id":18,"name":"internetkittenz13","steam_id":76561198881042979,"connected_time":440000000000,"state":"active","ping":69}]},{"server_id":396,"name":"Uncletopia | Sydney | 4 | All Maps","name_short":"syd-4","host":"syd-1.au.uncletopia.com","port":27045,"enabled":true,"region":"au","cc":"au","latitude":-33.865143,"longitude":151.2099,"reserved":0,"last_update":"0001-01-01T00:00:00Z","name_a2s":"Uncletopia | Sydney | 4 | All Maps","protocol":17,"map":"pl_frontier_final","folder":"tf","game":"Team Fortress","app_id":440,"player_count":0,"max_players":24,"Bots":0,"server_type":"Dedicated","server_os":"Linux","password":true,"vac":true,"version":"7742253","steam_id":85568392925397958,"keywords":["nocrits","nodmgspread","payload","uncletopia"],"game_id":440,"stv_port":27046,"stv_name":"Uncletopia | Sydney | 4 | All Maps | STV","players":null},{"server_id":58,"name":"Uncletopia | Sydney | 5 | Stopwatch Beta","name_short":"syd-5","host":"syd-1.au.uncletopia.com","port":27055,"enabled":true,"region":"au","cc":"au","latitude":-33.865143,"longitude":151.2099,"reserved":0,"last_update":"0001-01-01T00:00:00Z","name_a2s":"Uncletopia | Sydney | 5 | Stopwatch Beta","protocol":17,"map":"workshop/koth_clearcut_b15.ugc2107050255","folder":"tf","game":"Team Fortress","app_id":440,"player_count":0,"max_players":24,"Bots":0,"server_type":"Dedicated","server_os":"Linux","password":true,"vac":true,"version":"7742253","steam_id":85568392925397959,"keywords":["cp","nocrits","nodmgspread","uncletopia"],"game_id":440,"stv_port":27056,"stv_name":"Uncletopia | Sydney | 5 | Stopwatch Beta | STV","players":null},{"server_id":59,"name":"Uncletopia | Sydney | 6 | Community","name_short":"syd-6","host":"syd-1.au.uncletopia.com","port":27065,"enabled":true,"region":"au","cc":"au","latitude":-33.865143,"longitude":151.2099,"reserved":0,"last_update":"0001-01-01T00:00:00Z","name_a2s":"Uncletopia | Sydney | 6 | Community","protocol":17,"map":"workshop/cp_reckoner_rc6.ugc674719999","folder":"tf","game":"Team Fortress","app_id":440,"player_count":0,"max_players":24,"Bots":0,"server_type":"Dedicated","server_os":"Linux","password":true,"vac":true,"version":"7742253","steam_id":85568392925397960,"keywords":["cp","nocrits","nodmgspread","uncletopia"],"game_id":440,"stv_port":27066,"stv_name":"Uncletopia | Sydney | 6 | Community | STV","players":null},{"server_id":49,"name":"Uncletopia | Warsaw | 1 | All Maps","name_short":"waw-1","host":"waw-1.pl.uncletopia.com","port":27015,"enabled":true,"region":"eu","cc":"pl","latitude":52.2297,"longitude":21.017532,"reserved":0,"last_update":"0001-01-01T00:00:00Z","name_a2s":"","protocol":0,"map":"","folder":"","game":"","app_id":0,"player_count":0,"max_players":0,"Bots":0,"server_type":"","server_os":"","password":false,"vac":false,"version":"","steam_id":0,"keywords":null,"game_id":0,"stv_port":0,"stv_name":"","players":null},{"server_id":50,"name":"Uncletopia | Warsaw | 2 | All Maps","name_short":"waw-2","host":"waw-1.pl.uncletopia.com","port":27025,"enabled":true,"region":"eu","cc":"pl","latitude":52.2297,"longitude":21.017532,"reserved":0,"last_update":"0001-01-01T00:00:00Z","name_a2s":"Uncletopia | Warsaw | 2 | All Maps","protocol":17,"map":"pl_borneo","folder":"tf","game":"Team Fortress","app_id":440,"player_count":0,"max_players":24,"Bots":0,"server_type":"Dedicated","server_os":"Linux","password":true,"vac":true,"version":"7742253","steam_id":85568392925397851,"keywords":["nocrits","nodmgspread","payload","uncletopia"],"game_id":440,"stv_port":27026,"stv_name":"Uncletopia | Warsaw | 2 | All Maps | STV","players":null},{"server_id":51,"name":"Uncletopia | Warsaw | 3 | All Maps","name_short":"waw-3","host":"waw-1.pl.uncletopia.com","port":27035,"enabled":true,"region":"eu","cc":"pl","latitude":52.2297,"longitude":21.017532,"reserved":0,"last_update":"0001-01-01T00:00:00Z","name_a2s":"Uncletopia | Warsaw | 3 | All Maps","protocol":17,"map":"koth_cascade","folder":"tf","game":"Team Fortress","app_id":440,"player_count":0,"max_players":24,"Bots":0,"server_type":"Dedicated","server_os":"Linux","password":true,"vac":true,"version":"7742253","steam_id":85568392925397852,"keywords":["cp","nocrits","nodmgspread","uncletopia"],"game_id":440,"stv_port":27036,"stv_name":"Uncletopia | Warsaw | 3 | All Maps | STV","players":null},{"server_id":52,"name":"Uncletopia | Warsaw | 4 | All Maps","name_short":"waw-4","host":"waw-1.pl.uncletopia.com","port":27045,"enabled":true,"region":"eu","cc":"pl","latitude":52.2297,"longitude":21.017532,"reserved":0,"last_update":"0001-01-01T00:00:00Z","name_a2s":"Uncletopia | Warsaw | 4 | All Maps","protocol":17,"map":"pl_swiftwater_final1","folder":"tf","game":"Team Fortress","app_id":440,"player_count":0,"max_players":24,"Bots":0,"server_type":"Dedicated","server_os":"Linux","password":true,"vac":true,"version":"7742253","steam_id":85568392925397853,"keywords":["nocrits","nodmgspread","payload","uncletopia"],"game_id":440,"stv_port":27046,"stv_name":"Uncletopia | Warsaw | 4 | All Maps | STV","players":null},{"server_id":53,"name":"Uncletopia | Warsaw | 5 | Stopwatch Beta","name_short":"waw-5","host":"waw-1.pl.uncletopia.com","port":27055,"enabled":true,"region":"eu","cc":"pl","latitude":52.2297,"longitude":21.017532,"reserved":0,"last_update":"0001-01-01T00:00:00Z","name_a2s":"Uncletopia | Warsaw | 5 | Stopwatch Beta","protocol":17,"map":"pl_swiftwater_final1","folder":"tf","game":"Team Fortress","app_id":440,"player_count":0,"max_players":24,"Bots":0,"server_type":"Dedicated","server_os":"Linux","password":true,"vac":true,"version":"7742253","steam_id":85568392925397854,"keywords":["nocrits","nodmgspread","payload","uncletopia"],"game_id":440,"stv_port":27056,"stv_name":"Uncletopia | Warsaw | 5 | Stopwatch Beta | STV","players":null},{"server_id":54,"name":"Uncletopia | Warsaw | 6 | Community","name_short":"waw-6","host":"waw-1.pl.uncletopia.com","port":27065,"enabled":true,"region":"eu","cc":"pl","latitude":52.2297,"longitude":21.017532,"reserved":0,"last_update":"0001-01-01T00:00:00Z","name_a2s":"Uncletopia | Warsaw | 6 | Community","protocol":17,"map":"workshop/koth_ashville_final.ugc2130459942","folder":"tf","game":"Team Fortress","app_id":440,"player_count":0,"max_players":24,"Bots":0,"server_type":"Dedicated","server_os":"Linux","password":true,"vac":true,"version":"7742253","steam_id":85568392925397856,"keywords":["cp","nocrits","nodmgspread","uncletopia"],"game_id":440,"stv_port":27066,"stv_name":"Uncletopia | Warsaw | 6 | Community | STV","players":null}]}