{"status":true,"message":"","result":[{"server_id":2,"name":"Uncletopia | Chicago | 1 | All Maps","name_short":"chi-1","host":"chi-1.us.uncletopia.com","port":27015,"enabled":true,"region":"us-central","cc":"us","latitude":41.881832,"longitude":-87.62318,"reserved":0,"last_update":"0001-01-01T00:00:00Z","name_a2s":"Uncletopia | Chicago | 1 | All Maps","protocol":17,"map":"pl_barnblitz","folder":"tf","game":"Team Fortress","app_id":440,"player_count":17,"max_players":24,"Bots":0,"server_type":"Dedicated","server_os":"Linux","password":true,"vac":true,"version":"7932396","steam_id":85568392924469984,"keywords":["nocrits","nodmgspread","payload","uncletopia"],"game_id":440,"stv_port":27016,"stv_name":"Uncletopia | Chicago | 1 | All Maps | STV","players":[{"user_id":1012,"name":"Zelith","steam_id":76561198234980480,"connected_time":4191000000000,"state":"active","ping":45},{"user_id":1045,"name":"Soulidity","steam_id":76561198429603550,"connected_time":1284000000000,"state":"active","ping":63},{"user_id":1046,"name":"Always Here for You","steam_id":76561198219252313,"connected_time":1018000000000,"state":"active","ping":47},{"user_id":1014,"name":"Lex","steam_id":76561198069948353,"connected_time":4167000000000,"state":"active","ping":79},{"user_id":1059,"name":"e621 mod","steam_id":76561199015360848,"connected_time":301000000000,"state":"active","ping":37},{"user_id":1037,"name":"shittystripper","steam_id":76561198101012071,"connected_time":2226000000000,"state":"active","ping":91},{"user_id":1015,"name":"ShapedSky0","steam_id":76561199486555735,"connected_time":4074000000000,"state":"active","ping":80},{"user_id":1043,"name":"jeffery 1:12","steam_id":76561197993895571,"connected_time":1457000000000,"state":"active","ping":49},{"user_id":1039,"name":"Let ε \u003e 0","steam_id":76561198111790388,"connected_time":2121000000000,"state":"active","ping":81},{"user_id":1008,"name":"Evillou","steam_id":76561198010395648,"connected_time":5251000000000,"state":"active","ping":71},{"user_id":1050,"name":"Random™?","steam_id":76561198103655963,"connected_time":920000000000,"state":"active","ping":64},{"user_id":1025,"name":"Blob","steam_id":76561198283623654,"connected_time":3476000000000,"state":"active","ping":87},{"user_id":1031,"name":"Ludcmorais","steam_id":76561198359217809,"connected_time":3143000000000,"state":"active","ping":187},{"user_id":1040,"name":"weedmonkey69","steam_id":76561198840265176,"connected_time":2093000000000,"state":"active","ping":89},{"user_id":1061,"name":"Mank","steam_id":76561198189421005,"connected_time":186000000000,"state":"active","ping":49},{"user_id":1058,"name":"Unusual Melon","steam_id":76561198989513170,"connected_time":662000000000,"state":"active","ping":99},{"user_id":1055,"name":"Stan","steam_id":76561199057962816,"connected_time":843000000000,"state":"active","ping":62}]},{"server_id":106,"name":"Uncletopia | Chicago | 2 | All Maps","name_short":"chi-2","host":"chi-1.us.uncletopia.com","port":27025,"enabled":true,"region":"us-central","cc":"us","latitude":41.881832,"longitude":-87.62318,"reserved":0,"last_update":"0001-01-01T00:00:00Z","name_a2s":"Uncletopia | Chicago | 2 | All Maps","protocol":17,"map":"pl_upward","folder":"tf","game":"Team Fortress","app_id":440,"player_count":0,"max_players":24,"Bots":0,"server_type":"Dedicated","server_os":"Linux","password":true,"vac":true,"version":"7932396","steam_id":85568392924469985,"keywords":["nocrits","nodmgspread","payload","uncletopia"],"game_id":440,"stv_port":27026,"stv_name":"Uncletopia | Chicago | 2 | All Maps | STV","players":null},{"server_id":402,"name":"Uncletopia | Chicago | 3 | All Maps","name_short":"chi-3","host":"chi-1.us.uncletopia.com","port":27035,"enabled":true,"region":"us-central","cc":"us","latitude":41.881832,"longitude":-87.62318,"reserved":0,"last_update":"0001-01-01T00:00:00Z","name_a2s":"Uncletopia | Chicago | 3 | All Maps","protocol":17,"map":"koth_suijin","folder":"tf","game":"Team Fortress","app_id":440,"player_count":18,"max_players":24,"Bots":0,"server_type":"Dedicated","server_os":"Linux","password":true,"vac":true,"version":"7932396","steam_id":85568392924515191,"keywords":["cp","nocrits","nodmgspread","uncletopia"],"game_id":440,"stv_port":27036,"stv_name":"Uncletopia | Chicago | 3 | All Maps | STV","players":[{"user_id":945,"name":"Maulty","steam_id":76561199281728493,"connected_time":784000000000,"state":"active","ping":104},{"user_id":921,"name":"Miro","steam_id":76561198936412406,"connected_time":2825000000000,"state":"active","ping":78},{"user_id":946,"name":"scrapheap","steam_id":76561198202407087,"connected_time":700000000000,"state":"active","ping":75},{"user_id":877,"name":"ChozoChorizo","steam_id":76561198272609196,"connected_time":5672000000000,"state":"active","ping":58},{"user_id":947,"name":"Ojen","steam_id":76561197998414482,"connected_time":679000000000,"state":"active","ping":71},{"user_id":955,"name":"Hot dog guy","steam_id":76561198159339442,"connected_time":261000000000,"state":"active","ping":60},{"user_id":952,"name":"Benwyatt88","steam_id":76561198823755174,"connected_time":400000000000,"state":"active","ping":89},{"user_id":954,"name":"puffy","steam_id":76561198411347037,"connected_time":365000000000,"state":"active","ping":66},{"user_id":932,"name":"Tommy Pickles (Very Cool)","steam_id":76561198391261463,"connected_time":1270000000000,"state":"active","ping":74},{"user_id":949,"name":"catboy","steam_id":76561198298140571,"connected_time":541000000000,"state":"active","ping":112},{"user_id":956,"name":"sweaterfan","steam_id":76561199389567214,"connected_time":226000000000,"state":"active","ping":49},{"user_id":934,"name":"Nyx","steam_id":76561198100929724,"connected_time":1209000000000,"state":"active","ping":72},{"user_id":901,"name":"Flex Pexico","steam_id":76561198041838930,"connected_time":4637000000000,"state":"active","ping":61},{"user_id":941,"name":"TheArachnidGamer","steam_id":76561198304986752,"connected_time":980000000000,"state":"active","ping":68},{"user_id":888,"name":"Glennithy","steam_id":76561198339332079,"connected_time":5319000000000,"state":"active","ping":85},{"user_id":942,"name":"Yummy Kabobz","steam_id":76561198067661705,"connected_time":966000000000,"state":"active","ping":62},{"user_id":909,"name":"123","steam_id":76561198106308056,"connected_time":3697000000000,"state":"active","ping":133},{"user_id":892,"name":"Yoshimelon","steam_id":76561198253054325,"connected_time":5275000000000,"state":"active","ping":59}]},{"server_id":403,"name":"Uncletopia | Chicago | 4 | All Maps","name_short":"chi-4","host":"chi-1.us.uncletopia.com","port":27045,"enabled":true,"region":"us-central","cc":"us","latitude":41.881832,"longitude":-87.62318,"reserved":0,"last_update":"0001-01-01T00:00:00Z","name_a2s":"Uncletopia | Chicago | 4 | All Maps","protocol":17,"map":"pl_upward","folder":"tf","game":"Team Fortress","app_id":440,"player_count":0,"max_players":24,"Bots":0,"server_type":"Dedicated","server_os":"Linux","password":true,"vac":true,"version":"7932396","steam_id":85568392924515193,"keywords":["nocrits","nodmgspread","payload","uncletopia"],"game_id":440,"stv_port":27046,"stv_name":"Uncletopia | Chicago | 4 | All Maps | STV","players":null},{"server_id":36,"name":"Uncletopia | Chicago | 5 | All Maps","name_short":"chi-5","host":"chi-2.us.uncletopia.com","port":27015,"enabled":true,"region":"us-central","cc":"us","latitude":41.881832,"longitude":-87.62318,"reserved":0,"last_update":"0001-01-01T00:00:00Z","name_a2s":"Uncletopia | Chicago | 5 | All Maps","protocol":17,"map":"pl_borneo","folder":"tf","game":"Team Fortress","app_id":440,"player_count":0,"max_players":24,"Bots":0,"server_type":"Dedicated","server_os":"Linux","password":true,"vac":true,"version":"7932396","steam_id":85568392924866362,"keywords":["nocrits","nodmgspread","payload","uncletopia"],"game_id":440,"stv_port":27016,"stv_name":"Uncletopia | Chicago | 5 | All Maps | STV","players":null},{"server_id":37,"name":"Uncletopia | Chicago | 6 | All Maps","name_short":"chi-6","host":"chi-2.us.uncletopia.com","port":27025,"enabled":true,"region":"us-central","cc":"us","latitude":41.881832,"longitude":-87.62318,"reserved":0,"last_update":"0001-01-01T00:00:00Z","name_a2s":"Uncletopia | Chicago | 6 | All Maps","protocol":17,"map":"pl_upward","folder":"tf","game":"Team Fortress","app_id":440,"player_count":0,"max_players":24,"Bots":0,"server_type":"Dedicated","server_os":"Linux","password":true,"vac":true,"version":"7932396","steam_id":85568392924866363,"keywords":["nocrits","nodmgspread","payload","uncletopia"],"game_id":440,"stv_port":27026,"stv_name":"Uncletopia | Chicago | 6 | All Maps | STV","players":null},{"server_id":38,"name":"Uncletopia | Chicago | 7 | Stopwatch Beta","name_short":"chi-7","host":"chi-2.us.uncletopia.com","port":27035,"enabled":true,"region":"us-central","cc":"us","latitude":41.881832,"longitude":-87.62318,"reserved":0,"last_update":"0001-01-01T00:00:00Z","name_a2s":"Uncletopia | Chicago | 7 | Stopwatch Beta","protocol":17,"map":"workshop/pl_badwater_pro_v12.ugc2142942074","folder":"tf","game":"Team Fortress","app_id":440,"player_count":0,"max_players":24,"Bots":0,"server_type":"Dedicated","server_os":"Linux","password":true,"vac":true,"version":"7932396","steam_id":85568392924866364,"keywords":["nocrits","nodmgspread","payload","uncletopia"],"game_id":440,"stv_port":27036,"stv_name":"Uncletopia | Chicago | 7 | Stopwatch Beta | STV","players":null},{"server_id":39,"name":"Uncletopia | Chicago | 8 | Community","name_short":"chi-8","host":"chi-2.us.uncletopia.com","port":27045,"enabled":true,"region":"us-central","cc":"us","latitude":41.881832,"longitude":-87.62318,"reserved":0,"last_update":"0001-01-01T00:00:00Z","name_a2s":"Uncletopia | Chicago | 8 | Community","protocol":17,"map":"workshop/pl_divulgence_b4b.ugc2884808746","folder":"tf","game":"Team Fortress","app_id":440,"player_count":0,"max_players":24,"Bots":0,"server_type":"Dedicated","server_os":"Linux","password":true,"vac":true,"version":"7932396","steam_id":85568392924866365,"keywords":["nocrits","nodmgspread","payload","uncletopia"],"game_id":440,"stv_port":27046,"stv_name":"Uncletopia | Chicago | 8 | Community | STV","players":null},{"server_id":8,"name":"Uncletopia | Dallas | 1 | All Maps","name_short":"dal-1","host":"dal-1.us.uncletopia.com","port":27015,"enabled":true,"region":"us-central","cc":"us","latitude":32.779167,"longitude":-96.80889,"reserved":0,"last_update":"0001-01-01T00:00:00Z","name_a2s":"Uncletopia | Dallas | 1 | All Maps","protocol":17,"map":"pl_pier","folder":"tf","game":"Team Fortress","app_id":440,"player_count":24,"max_players":24,"Bots":0,"server_type":"Dedicated","server_os":"Linux","password":true,"vac":true,"version":"7932396","steam_id":85568392924469986,"keywords":["nocrits","nodmgspread","payload","uncletopia"],"game_id":440,"stv_port":27016,"stv_name":"Uncletopia | Dallas | 1 | All Maps | STV","players":[{"user_id":850,"name":"Sahbi (she/they)","steam_id":76561199196292242,"connected_time":3300000000000,"state":"active","ping":64},{"user_id":808,"name":"Scorcho","steam_id":76561198071413833,"connected_time":5431000000000,"state":"active","ping":118},{"user_id":911,"name":"boo boo keys","steam_id":76561197999318398,"connected_time":1258000000000,"state":"active","ping":72},{"user_id":852,"name":"Goosey","steam_id":76561198139648585,"connected_time":3082000000000,"state":"active","ping":116},{"user_id":853,"name":"Jeremy","steam_id":76561198286240347,"connected_time":3062000000000,"state":"active","ping":82},{"user_id":939,"name":"yanweh","steam_id":76561198038291026,"connected_time":611000000000,"state":"active","ping":35},{"user_id":878,"name":"Kosmo","steam_id":76561198079015843,"connected_time":2087000000000,"state":"active","ping":59},{"user_id":854,"name":"KrylonHeretic","steam_id":76561198139811459,"connected_time":3059000000000,"state":"active","ping":97},{"user_id":855,"name":"Turrón","steam_id":76561198272381217,"connected_time":3052000000000,"state":"active","ping":86},{"user_id":811,"name":"papersamurai","steam_id":76561198313608698,"connected_time":5248000000000,"state":"active","ping":72},{"user_id":946,"name":"Roods","steam_id":76561197993927151,"connected_time":307000000000,"state":"active","ping":100},{"user_id":856,"name":"Faber","steam_id":76561198156982075,"connected_time":3031000000000,"state":"active","ping":99},{"user_id":942,"name":"columbus, ohio","steam_id":76561198413125750,"connected_time":400000000000,"state":"active","ping":89},{"user_id":944,"name":"funny muffler","steam_id":76561199094873145,"connected_time":378000000000,"state":"active","ping":69},{"user_id":926,"name":"pudl","steam_id":76561198043726592,"connected_time":896000000000,"state":"active","ping":44},{"user_id":945,"name":"im the beef","steam_id":76561198069506128,"connected_time":333000000000,"state":"active","ping":101},{"user_id":936,"name":"DSM-IVCE","steam_id":76561199438515797,"connected_time":685000000000,"state":"active","ping":133},{"user_id":838,"name":"ＣＨＡＭＰＩＯＮ","steam_id":76561198883157736,"connected_time":3832000000000,"state":"active","ping":80},{"user_id":947,"name":"LtK","steam_id":76561197993180943,"connected_time":279000000000,"state":"active","ping":41},{"user_id":842,"name":"Kenku","steam_id":76561199086762926,"connected_time":3726000000000,"state":"active","ping":64},{"user_id":861,"name":"air bnb","steam_id":76561198090531755,"connected_time":2875000000000,"state":"active","ping":46},{"user_id":948,"name":"❤[S'more]❤","steam_id":76561198817361963,"connected_time":166000000000,"state":"active","ping":111},{"user_id":815,"name":"peebs","steam_id":76561198261319753,"connected_time":4709000000000,"state":"active","ping":54},{"user_id":949,"name":"novacaine","steam_id":76561198149443710,"connected_time":62000000000,"state":"active","ping":77}]},{"server_id":108,"name":"Uncletopia | Dallas | 2 | All Maps","name_short":"dal-2","host":"dal-1.us.uncletopia.com","port":27025,"enabled":true,"region":"us-central","cc":"us","latitude":32.779167,"longitude":-96.80889,"reserved":0,"last_update":"0001-01-01T00:00:00Z","name_a2s":"Uncletopia | Dallas | 2 | All Maps","protocol":17,"map":"koth_viaduct","folder":"tf","game":"Team Fortress","app_id":440,"player_count":0,"max_players":24,"Bots":0,"server_type":"Dedicated","server_os":"Linux","password":true,"vac":true,"version":"7932396","steam_id":85568392924469988,"keywords":["cp","nocrits","nodmgspread","uncletopia"],"game_id":440,"stv_port":27026,"stv_name":"Uncletopia | Dallas | 2 | All Maps | STV","players":null},{"server_id":5,"name":"Uncletopia | Frankfurt | 1 | All Maps","name_short":"frk-1","host":"frk-1.de.uncletopia.com","port":27015,"enabled":true,"region":"eu","cc":"de","latitude":50.110924,"longitude":8.682127,"reserved":0,"last_update":"0001-01-01T00:00:00Z","name_a2s":"Uncletopia | Frankfurt | 1 | All Maps","protocol":17,"map":"koth_lakeside_final","folder":"tf","game":"Team Fortress","app_id":440,"player_count":2,"max_players":24,"Bots":0,"server_type":"Dedicated","server_os":"Linux","password":true,"vac":true,"version":"7932396","steam_id":85568392924469989,"keywords":["cp","nocrits","nodmgspread","uncletopia"],"game_id":440,"stv_port":27016,"stv_name":"Uncletopia | Frankfurt | 1 | All Maps | STV","players":[{"user_id":3,"name":"[P Y R O] Anthony.","steam_id":76561199130031516,"connected_time":2790000000000,"state":"active","ping":56},{"user_id":4,"name":"Shanahan","steam_id":76561199420591083,"connected_time":2738000000000,"state":"active","ping":190}]},{"server_id":110,"name":"Uncletopia | Frankfurt | 2 | All Maps","name_short":"frk-2","host":"frk-1.de.uncletopia.com","port":27025,"enabled":true,"region":"eu","cc":"de","latitude":50.110924,"longitude":8.682127,"reserved":0,"last_update":"0001-01-01T00:00:00Z","name_a2s":"Uncletopia | Frankfurt | 2 | All Maps","protocol":17,"map":"pl_borneo","folder":"tf","game":"Team Fortress","app_id":440,"player_count":0,"max_players":24,"Bots":0,"server_type":"Dedicated","server_os":"Linux","password":true,"vac":true,"version":"7932396","steam_id":85568392924469990,"keywords":["nocrits","nodmgspread","payload","uncletopia"],"game_id":440,"stv_port":27026,"stv_name":"Uncletopia | Frankfurt | 2 | All Maps | STV","players":null},{"server_id":308,"name":"Uncletopia | Frankfurt | 3 | All Maps","name_short":"frk-3","host":"frk-1.de.uncletopia.com","port":27035,"enabled":true,"region":"eu","cc":"de","latitude":50.110924,"longitude":8.682127,"reserved":0,"last_update":"0001-01-01T00:00:00Z","name_a2s":"Uncletopia | Frankfurt | 3 | All Maps","protocol":17,"map":"cp_sunshine","folder":"tf","game":"Team Fortress","app_id":440,"player_count":13,"max_players":24,"Bots":0,"server_type":"Dedicated","server_os":"Linux","password":true,"vac":true,"version":"7932396","steam_id":85568392924504274,"keywords":["cp","nocrits","nodmgspread","uncletopia"],"game_id":440,"stv_port":27036,"stv_name":"Uncletopia | Frankfurt | 3 | All Maps | STV","players":[{"user_id":32,"name":"Fire.bonk?","steam_id":76561199059010927,"connected_time":1083000000000,"state":"active","ping":108},{"user_id":5,"name":"Ran33","steam_id":76561197991474499,"connected_time":3682000000000,"state":"active","ping":92},{"user_id":52,"name":"gussysussy69","steam_id":76561198330629228,"connected_time":135000000000,"state":"active","ping":95},{"user_id":49,"name":"CW N","steam_id":76561198056667800,"connected_time":234000000000,"state":"active","ping":63},{"user_id":20,"name":"Snakenutz911","steam_id":76561199270347070,"connected_time":2111000000000,"state":"active","ping":67},{"user_id":47,"name":"RiX","steam_id":76561197969053733,"connected_time":355000000000,"state":"active","ping":68},{"user_id":41,"name":"swag.malafat","steam_id":76561198044428075,"connected_time":667000000000,"state":"active","ping":101},{"user_id":27,"name":"Olvustin","steam_id":76561198272011453,"connected_time":1441000000000,"state":"active","ping":108},{"user_id":48,"name":"Leibeigener","steam_id":76561199275478305,"connected_time":311000000000,"state":"active","ping":40},{"user_id":44,"name":"MEOWMEOWMEOWMEOWMEOWMEOWMEOWMEO","steam_id":76561198723244199,"connected_time":603000000000,"state":"active","ping":89},{"user_id":35,"name":"Раскольник_САВКА","steam_id":76561198056455006,"connected_time":992000000000,"state":"active","ping":111},{"user_id":50,"name":"Xa_n","steam_id":76561199114204143,"connected_time":225000000000,"state":"active","ping":219},{"user_id":51,"name":"errisauroh","steam_id":76561198112701938,"connected_time":188000000000,"state":"active","ping":53}]},{"server_id":309,"name":"Uncletopia | Frankfurt | 4 | All Maps","name_short":"frk-4","host":"frk-1.de.uncletopia.com","port":27045,"enabled":true,"region":"eu","cc":"de","latitude":50.110924,"longitude":8.682127,"reserved":0,"last_update":"0001-01-01T00:00:00Z","name_a2s":"Uncletopia | Frankfurt | 4 | All Maps","protocol":17,"map":"pl_barnblitz","folder":"tf","game":"Team Fortress","app_id":440,"player_count":0,"max_players":24,"Bots":0,"server_type":"Dedicated","server_os":"Linux","password":true,"vac":true,"version":"7932396","steam_id":85568392924504275,"keywords":["nocrits","nodmgspread","payload","uncletopia"],"game_id":440,"stv_port":27046,"stv_name":"Uncletopia | Frankfurt | 4 | All Maps | STV","players":null},{"server_id":310,"name":"Uncletopia | Frankfurt | 5 | All Maps","name_short":"frk-5","host":"frk-1.de.uncletopia.com","port":27055,"enabled":true,"region":"eu","cc":"de","latitude":50.110924,"longitude":8.682127,"reserved":0,"last_update":"0001-01-01T00:00:00Z","name_a2s":"Uncletopia | Frankfurt | 5 | All Maps","protocol":17,"map":"pl_badwater","folder":"tf","game":"Team Fortress","app_id":440,"player_count":0,"max_players":24,"Bots":0,"server_type":"Dedicated","server_os":"Linux","password":true,"vac":true,"version":"7932396","steam_id":85568392924504277,"keywords":["nocrits","nodmgspread","payload","uncletopia"],"game_id":440,"stv_port":27056,"stv_name":"Uncletopia | Frankfurt | 5 | All Maps | STV","players":null},{"server_id":311,"name":"Uncletopia | Frankfurt | 6 | All Maps","name_short":"frk-6","host":"frk-1.de.uncletopia.com","port":27065,"enabled":true,"region":"eu","cc":"de","latitude":50.110924,"longitude":8.682127,"reserved":0,"last_update":"0001-01-01T00:00:00Z","name_a2s":"Uncletopia | Frankfurt | 6 | All Maps","protocol":17,"map":"koth_viaduct","folder":"tf","game":"Team Fortress","app_id":440,"player_count":0,"max_players":24,"Bots":0,"server_type":"Dedicated","server_os":"Linux","password":true,"vac":true,"version":"7932396","steam_id":85568392924504278,"keywords":["cp","nocrits","nodmgspread","uncletopia"],"game_id":440,"stv_port":27066,"stv_name":"Uncletopia | Frankfurt | 6 | All Maps | STV","players":null},{"server_id":23,"name":"Uncletopia | Frankfurt | 7 | Stopwatch Beta","name_short":"frk-7","host":"frk-1.de.uncletopia.com","port":27075,"enabled":true,"region":"eu","cc":"de","latitude":50.110924,"longitude":8.682127,"reserved":0,"last_update":"0001-01-01T00:00:00Z","name_a2s":"Uncletopia | Frankfurt | 7 | Stopwatch Beta","protocol":17,"map":"pl_snowycoast","folder":"tf","game":"Team Fortress","app_id":440,"player_count":0,"max_players":24,"Bots":0,"server_type":"Dedicated","server_os":"Linux","password":true,"vac":true,"version":"7932396","steam_id":85568392924742827,"keywords":["nocrits","nodmgspread","payload","uncletopia"],"game_id":440,"stv_port":27076,"stv_name":"Uncletopia | Frankfurt | 7 | Stopwatch Beta | STV","players":null},{"server_id":24,"name":"Uncletopia | Frankfurt | 8 | Community","name_short":"frk-8","host":"frk-1.de.uncletopia.com","port":27085,"enabled":true,"region":"eu","cc":"de","latitude":50.110924,"longitude":8.682127,"reserved":0,"last_update":"0001-01-01T00:00:00Z","name_a2s":"Uncletopia | Frankfurt | 8 | Community","protocol":17,"map":"pl_barnblitz","folder":"tf","game":"Team Fortress","app_id":440,"player_count":0,"max_players":24,"Bots":0,"server_type":"Dedicated","server_os":"Linux","password":true,"vac":true,"version":"7932396","steam_id":85568392924742828,"keywords":["nocrits","nodmgspread","payload","uncletopia"],"game_id":440,"stv_port":27086,"stv_name":"Uncletopia | Frankfurt | 8 | Community | STV","players":null},{"server_id":202,"name":"Uncletopia | Hong Kong | 1 | All Maps","name_short":"hgk-1","host":"hgk-1.hk.uncletopia.com","port":27015,"enabled":true,"region":"asia","cc":"hk","latitude":22.302711,"longitude":114.177216,"reserved":0,"last_update":"0001-01-01T00:00:00Z","name_a2s":"Uncletopia | Hong Kong | 1 | All Maps","protocol":17,"map":"pl_badwater","folder":"tf","game":"Team Fortress","app_id":440,"player_count":24,"max_players":24,"Bots":0,"server_type":"Dedicated","server_os":"Linux","password":true,"vac":true,"version":"7932396","steam_id":85568392924494504,"keywords":["nocrits","nodmgspread","payload","uncletopia"],"game_id":440,"stv_port":27016,"stv_name":"Uncletopia | Hong Kong | 1 | All Maps | STV","players":[{"user_id":12,"name":"hotgamerth","steam_id":76561199026418153,"connected_time":6785000000000,"state":"active","ping":105},{"user_id":13,"name":"KHMaster","steam_id":76561199198453345,"connected_time":6727000000000,"state":"active","ping":55},{"user_id":26,"name":"ketsu","steam_id":76561197966171554,"connected_time":4178000000000,"state":"active","ping":129},{"user_id":30,"name":"screaming sniper","steam_id":76561199085568674,"connected_time":3787000000000,"state":"active","ping":60},{"user_id":61,"name":"monkeyman536","steam_id":76561197997717737,"connected_time":1179000000000,"state":"active","ping":126},{"user_id":65,"name":"Slonk","steam_id":76561198845070475,"connected_time":717000000000,"state":"active","ping":150},{"user_id":68,"name":"halley","steam_id":76561198344507129,"connected_time":376000000000,"state":"active","ping":82},{"user_id":37,"name":"mike had a dad :(","steam_id":76561199087364410,"connected_time":3034000000000,"state":"active","ping":164},{"user_id":63,"name":"corpse_cadaver","steam_id":76561199225360457,"connected_time":928000000000,"state":"active","ping":71},{"user_id":39,"name":"Chomer","steam_id":76561199034546642,"connected_time":2888000000000,"state":"active","ping":110},{"user_id":40,"name":"Noyour","steam_id":76561198323259830,"connected_time":2743000000000,"state":"active","ping":123},{"user_id":64,"name":"Shibe009 (F2P)","steam_id":76561199118649916,"connected_time":742000000000,"state":"active","ping":164},{"user_id":42,"name":"Prussian","steam_id":76561198974248745,"connected_time":2680000000000,"state":"active","ping":67},{"user_id":43,"name":"Wx","steam_id":76561199217780897,"connected_time":2634000000000,"state":"active","ping":112},{"user_id":44,"name":"wom","steam_id":76561199375834537,"connected_time":2612000000000,"state":"active","ping":78},{"user_id":45,"name":"Marilyn leroe","steam_id":76561199137927625,"connected_time":2603000000000,"state":"active","ping":93},{"user_id":53,"name":"Ace","steam_id":76561198099039451,"connected_time":1960000000000,"state":"active","ping":111},{"user_id":49,"name":"Ivy","steam_id":76561198400698408,"connected_time":2401000000000,"state":"active","ping":92},{"user_id":66,"name":"TomProPlayer","steam_id":76561199223292521,"connected_time":716000000000,"state":"active","ping":69},{"user_id":62,"name":"blobeye","steam_id":76561198420018387,"connected_time":1135000000000,"state":"active","ping":33},{"user_id":67,"name":"yw","steam_id":76561199382726488,"connected_time":716000000000,"state":"active","ping":42},{"user_id":55,"name":"eekynetwo(F2P Piss Sniper)","steam_id":76561198990017441,"connected_time":1895000000000,"state":"active","ping":88},{"user_id":56,"name":"indo slum god","steam_id":76561198412329672,"connected_time":1833000000000,"state":"active","ping":98},{"user_id":70,"name":"Sarc","steam_id":76561198137454070,"connected_time":230000000000,"state":"active","ping":126}]},{"server_id":1,"name":"Uncletopia | Los Angeles | 1 | All Maps","name_short":"lax-1","host":"lax-1.us.uncletopia.com","port":27015,"enabled":true,"region":"us-west","cc":"us","latitude":33.94279,"longitude":-118.41004,"reserved":0,"last_update":"0001-01-01T00:00:00Z","name_a2s":"Uncletopia | Los Angeles | 1 | All Maps","protocol":17,"map":"cp_sunshine","folder":"tf","game":"Team Fortress","app_id":440,"player_count":0,"max_players":24,"Bots":0,"server_type":"Dedicated","server_os":"Linux","password":true,"vac":true,"version":"7932396","steam_id":85568392924469991,"keywords":["cp","nocrits","nodmgspread","uncletopia"],"game_id":440,"stv_port":27016,"stv_name":"Uncletopia | Los Angeles | 1 | All Maps | STV","players":null},{"server_id":112,"name":"Uncletopia | Los Angeles | 2 | All Maps","name_short":"lax-2","host":"lax-1.us.uncletopia.com","port":27025,"enabled":true,"region":"us-west","cc":"us","latitude":33.94279,"longitude":-118.41004,"reserved":0,"last_update":"0001-01-01T00:00:00Z","name_a2s":"Uncletopia | Los Angeles | 2 | All Maps","protocol":17,"map":"koth_cascade","folder":"tf","game":"Team Fortress","app_id":440,"player_count":0,"max_players":24,"Bots":0,"server_type":"Dedicated","server_os":"Linux","password":true,"vac":true,"version":"7932396","steam_id":85568392924469992,"keywords":["cp","nocrits","nodmgspread","uncletopia"],"game_id":440,"stv_port":27026,"stv_name":"Uncletopia | Los Angeles | 2 | All Maps | STV","players":null},{"server_id":324,"name":"Uncletopia | Los Angeles | 3 | All Maps","name_short":"lax-3","host":"lax-1.us.uncletopia.com","port":27035,"enabled":true,"region":"us-west","cc":"us","latitude":33.94279,"longitude":-118.41004,"reserved":0,"last_update":"0001-01-01T00:00:00Z","name_a2s":"Uncletopia | Los Angeles | 3 | All Maps","protocol":17,"map":"cp_mountainlab","folder":"tf","game":"Team Fortress","app_id":440,"player_count":0,"max_players":24,"Bots":0,"server_type":"Dedicated","server_os":"Linux","password":true,"vac":true,"version":"7932396","steam_id":85568392924510198,"keywords":["cp","nocrits","nodmgspread","uncletopia"],"game_id":440,"stv_port":27036,"stv_name":"Uncletopia | Los Angeles | 3 | All Maps | STV","players":null},{"server_id":25,"name":"Uncletopia | Los Angeles | 4 | Stopwatch Beta","name_short":"lax-4","host":"lax-1.us.uncletopia.com","port":27045,"enabled":true,"region":"us-west","cc":"us","latitude":33.94279,"longitude":-118.41004,"reserved":0,"last_update":"0001-01-01T00:00:00Z","name_a2s":"Uncletopia | Los Angeles | 4 | Stopwatch Beta","protocol":17,"map":"cp_granary","folder":"tf","game":"Team Fortress","app_id":440,"player_count":0,"max_players":24,"Bots":0,"server_type":"Dedicated","server_os":"Linux","password":true,"vac":true,"version":"7932396","steam_id":85568392924510199,"keywords":["cp","nocrits","nodmgspread","uncletopia"],"game_id":440,"stv_port":27046,"stv_name":"Uncletopia | Los Angeles | 4 | Stopwatch Beta | STV","players":null},{"server_id":11,"name":"Uncletopia | London | 1 | All Maps","name_short":"lon-1","host":"lon-1.uk.uncletopia.com","port":27015,"enabled":true,"region":"eu","cc":"gb","latitude":51.509865,"longitude":-0.118092,"reserved":0,"last_update":"0001-01-01T00:00:00Z","name_a2s":"Uncletopia | London | 1 | All Maps","protocol":17,"map":"koth_cascade","folder":"tf","game":"Team Fortress","app_id":440,"player_count":0,"max_players":24,"Bots":0,"server_type":"Dedicated","server_os":"Linux","password":true,"vac":true,"version":"7932396","steam_id":85568392924367362,"keywords":["cp","nocrits","nodmgspread","uncletopia"],"game_id":440,"stv_port":27016,"stv_name":"Uncletopia | London | 1 | All Maps | STV","players":null},{"server_id":114,"name":"Uncletopia | London | 2 | All Maps","name_short":"lon-2","host":"lon-1.uk.uncletopia.com","port":27025,"enabled":true,"region":"eu","cc":"gb","latitude":51.509865,"longitude":-0.118092,"reserved":0,"last_update":"0001-01-01T00:00:00Z","name_a2s":"Uncletopia | London | 2 | All Maps","protocol":17,"map":"koth_highpass","folder":"tf","game":"Team Fortress","app_id":440,"player_count":0,"max_players":24,"Bots":0,"server_type":"Dedicated","server_os":"Linux","password":true,"vac":true,"version":"7932396","steam_id":85568392924470941,"keywords":["cp","nocrits","nodmgspread","uncletopia"],"game_id":440,"stv_port":27026,"stv_name":"Uncletopia | London | 2 | All Maps | STV","players":null},{"server_id":320,"name":"Uncletopia | London | 3 | All Maps","name_short":"lon-3","host":"lon-1.uk.uncletopia.com","port":27035,"enabled":true,"region":"eu","cc":"gb","latitude":51.509865,"longitude":-0.118092,"reserved":0,"last_update":"0001-01-01T00:00:00Z","name_a2s":"Uncletopia | London | 3 | All Maps","protocol":17,"map":"cp_altitude","folder":"tf","game":"Team Fortress","app_id":440,"player_count":0,"max_players":24,"Bots":0,"server_type":"Dedicated","server_os":"Linux","password":true,"vac":true,"version":"7932396","steam_id":85568392924510192,"keywords":["cp","nocrits","nodmgspread","uncletopia"],"game_id":440,"stv_port":27036,"stv_name":"Uncletopia | London | 3 | All Maps | STV","players":null},{"server_id":321,"name":"Uncletopia | London | 4 | All Maps","name_short":"lon-4","host":"lon-1.uk.uncletopia.com","port":27045,"enabled":true,"region":"eu","cc":"gb","latitude":51.509865,"longitude":-0.118092,"reserved":0,"last_update":"0001-01-01T00:00:00Z","name_a2s":"Uncletopia | London | 4 | All Maps","protocol":17,"map":"pl_barnblitz","folder":"tf","game":"Team Fortress","app_id":440,"player_count":0,"max_players":24,"Bots":0,"server_type":"Dedicated","server_os":"Linux","password":true,"vac":true,"version":"7932396","steam_id":85568392924510193,"keywords":["nocrits","nodmgspread","payload","uncletopia"],"game_id":440,"stv_port":27046,"stv_name":"Uncletopia | London | 4 | All Maps | STV","players":null},{"server_id":21,"name":"Uncletopia | London | 5 | All Maps","name_short":"lon-5","host":"lon-1.uk.uncletopia.com","port":27055,"enabled":true,"region":"eu","cc":"gb","latitude":51.509865,"longitude":-0.118092,"reserved":0,"last_update":"0001-01-01T00:00:00Z","name_a2s":"Uncletopia | London | 5 | All Maps","protocol":17,"map":"pl_borneo","folder":"tf","game":"Team Fortress","app_id":440,"player_count":0,"max_players":24,"Bots":0,"server_type":"Dedicated","server_os":"Linux","password":true,"vac":true,"version":"7932396","steam_id":85568392924742829,"keywords":["nocrits","nodmgspread","payload","uncletopia"],"game_id":440,"stv_port":27056,"stv_name":"Uncletopia | London | 5 | All Maps | STV","players":null},{"server_id":22,"name":"Uncletopia | London | 6 | All Maps","name_short":"lon-6","host":"lon-1.uk.uncletopia.com","port":27065,"enabled":true,"region":"eu","cc":"gb","latitude":51.509865,"longitude":-0.118092,"reserved":0,"last_update":"0001-01-01T00:00:00Z","name_a2s":"Uncletopia | London | 6 | All Maps","protocol":17,"map":"cp_mountainlab","folder":"tf","game":"Team Fortress","app_id":440,"player_count":0,"max_players":24,"Bots":0,"server_type":"Dedicated","server_os":"Linux","password":true,"vac":true,"version":"7932396","steam_id":85568392924742830,"keywords":["cp","nocrits","nodmgspread","uncletopia"],"game_id":440,"stv_port":27066,"stv_name":"Uncletopia | London | 6 | All Maps | STV","players":null},{"server_id":40,"name":"Uncletopia | London | 7 | No Payload","name_short":"lon-7","host":"lon-1.uk.uncletopia.com","port":27075,"enabled":true,"region":"eu","cc":"gb","latitude":51.509865,"longitude":-0.118092,"reserved":0,"last_update":"0001-01-01T00:00:00Z","name_a2s":"Uncletopia | London | 7 | No Payload","protocol":17,"map":"koth_king","folder":"tf","game":"Team Fortress","app_id":440,"player_count":21,"max_players":24,"Bots":0,"server_type":"Dedicated","server_os":"Linux","password":true,"vac":true,"version":"7932396","steam_id":85568392924964314,"keywords":["cp","nocrits","nodmgspread","uncletopia"],"game_id":440,"stv_port":27076,"stv_name":"Uncletopia | London | 7 | No Payload | STV","players":[{"user_id":33,"name":"leonardini.w","steam_id":76561199097963071,"connected_time":2741000000000,"state":"active","ping":89},{"user_id":61,"name":"Jimmi Amareno","steam_id":76561198327750625,"connected_time":390000000000,"state":"active","ping":36},{"user_id":75,"name":"Furno","steam_id":76561197999723047,"connected_time":14000000000,"state":"spawning","ping":84},{"user_id":52,"name":"TheFancy","steam_id":76561198967675289,"connected_time":1372000000000,"state":"active","ping":135},{"user_id":11,"name":"вася забив","steam_id":76561198947517753,"connected_time":3873000000000,"state":"active","ping":87},{"user_id":54,"name":"SirDirtbag","steam_id":76561198091890855,"connected_time":1273000000000,"state":"active","ping":77},{"user_id":9,"name":"The Hellgineer","steam_id":76561198349622940,"connected_time":4151000000000,"state":"active","ping":57},{"user_id":69,"name":"SkoomaAddicted","steam_id":76561197975241482,"connected_time":239000000000,"state":"active","ping":70},{"user_id":13,"name":"[ShS18] SV","steam_id":76561199025017950,"connected_time":3716000000000,"state":"active","ping":123},{"user_id":58,"name":"AnanasGerste","steam_id":76561198133825211,"connected_time":972000000000,"state":"active","ping":45},{"user_id":55,"name":"Fus in Boots","steam_id":76561198053897722,"connected_time":1148000000000,"state":"active","ping":53},{"user_id":71,"name":"schmick h_stt 0","steam_id":76561198039537958,"connected_time":235000000000,"state":"active","ping":42},{"user_id":62,"name":"KÅY","steam_id":76561198862334903,"connected_time":390000000000,"state":"active","ping":165},{"user_id":43,"name":"Kvadrat","steam_id":76561198022834916,"connected_time":2421000000000,"state":"active","ping":127},{"user_id":63,"name":"Rocket Queen's consort","steam_id":76561198092995429,"connected_time":385000000000,"state":"active","ping":139},{"user_id":66,"name":"Ruth(-less bitch)","steam_id":76561198150006573,"connected_time":330000000000,"state":"active","ping":47},{"user_id":36,"name":"Dr. Loli","steam_id":76561199152487036,"connected_time":2679000000000,"state":"active","ping":134},{"user_id":70,"name":"Mr Stonkles","steam_id":76561198397163021,"connected_time":238000000000,"state":"active","ping":147},{"user_id":72,"name":"Labomarcelo","steam_id":76561198211186473,"connected_time":202000000000,"state":"active","ping":84},{"user_id":73,"name":"Storm's Foreshadow","steam_id":76561198098462526,"connected_time":191000000000,"state":"active","ping":70},{"user_id":74,"name":"Jerryx01","steam_id":76561198145236247,"connected_time":164000000000,"state":"active","ping":71}]},{"server_id":41,"name":"Uncletopia | London | 8 | Community","name_short":"lon-8","host":"lon-1.uk.uncletopia.com","port":27085,"enabled":true,"region":"eu","cc":"gb","latitude":51.509865,"longitude":-0.118092,"reserved":0,"last_update":"0001-01-01T00:00:00Z","name_a2s":"Uncletopia | London | 8 | Community","protocol":17,"map":"pl_barnblitz","folder":"tf","game":"Team Fortress","app_id":440,"player_count":0,"max_players":24,"Bots":0,"server_type":"Dedicated","server_os":"Linux","password":true,"vac":true,"version":"7932396","steam_id":85568392924964315,"keywords":["nocrits","nodmgspread","payload","uncletopia"],"game_id":440,"stv_port":27086,"stv_name":"Uncletopia | London | 8 | Community | STV","players":null},{"server_id":300,"name":"Uncletopia | Montréal | 1 | All Maps","name_short":"mtl-1","host":"mtl-1.ca.uncletopia.com","port":27015,"enabled":true,"region":"us-east","cc":"ca","latitude":45.50889,"longitude":-73.56167,"reserved":0,"last_update":"0001-01-01T00:00:00Z","name_a2s":"Uncletopia | Montréal | 1 | All Maps","protocol":17,"map":"koth_cascade","folder":"tf","game":"Team Fortress","app_id":440,"player_count":0,"max_players":24,"Bots":0,"server_type":"Dedicated","server_os":"Linux","password":true,"vac":true,"version":"7932396","steam_id":85568392924500087,"keywords":["cp","nocrits","nodmgspread","uncletopia"],"game_id":440,"stv_port":27016,"stv_name":"Uncletopia | Montréal | 1 | All Maps | STV","players":null},{"server_id":301,"name":"Uncletopia | Montréal | 2 | All Maps","name_short":"mtl-2","host":"mtl-1.ca.uncletopia.com","port":27025,"enabled":true,"region":"us-east","cc":"ca","latitude":45.50889,"longitude":-73.56167,"reserved":0,"last_update":"0001-01-01T00:00:00Z","name_a2s":"Uncletopia | Montréal | 2 | All Maps","protocol":17,"map":"cp_altitude","folder":"tf","game":"Team Fortress","app_id":440,"player_count":0,"max_players":24,"Bots":0,"server_type":"Dedicated","server_os":"Linux","password":true,"vac":true,"version":"7932396","steam_id":85568392924500088,"keywords":["cp","nocrits","nodmgspread","uncletopia"],"game_id":440,"stv_port":27026,"stv_name":"Uncletopia | Montréal | 2 | All Maps | STV","players":null},{"server_id":302,"name":"Uncletopia | Montréal | 3 | All Maps","name_short":"mtl-3","host":"mtl-1.ca.uncletopia.com","port":27035,"enabled":true,"region":"us-east","cc":"ca","latitude":45.50889,"longitude":-73.56167,"reserved":0,"last_update":"0001-01-01T00:00:00Z","name_a2s":"Uncletopia | Montréal | 3 | All Maps","protocol":17,"map":"pl_swiftwater_final1","folder":"tf","game":"Team Fortress","app_id":440,"player_count":0,"max_players":24,"Bots":0,"server_type":"Dedicated","server_os":"Linux","password":true,"vac":true,"version":"7932396","steam_id":85568392924500089,"keywords":["nocrits","nodmgspread","payload","uncletopia"],"game_id":440,"stv_port":27036,"stv_name":"Uncletopia | Montréal | 3 | All Maps | STV","players":null},{"server_id":303,"name":"Uncletopia | Montréal | 4 | No Payload","name_short":"mtl-4","host":"mtl-1.ca.uncletopia.com","port":27045,"enabled":true,"region":"us-east","cc":"ca","latitude":45.50889,"longitude":-73.56167,"reserved":0,"last_update":"0001-01-01T00:00:00Z","name_a2s":"Uncletopia | Montréal | 4 | No Payload","protocol":17,"map":"plr_nightfall_final","folder":"tf","game":"Team Fortress","app_id":440,"player_count":0,"max_players":24,"Bots":0,"server_type":"Dedicated","server_os":"Linux","password":true,"vac":true,"version":"7932396","steam_id":85568392924500090,"keywords":["nocrits","nodmgspread","payload","uncletopia"],"game_id":440,"stv_port":27046,"stv_name":"Uncletopia | Montréal | 4 | No Payload | STV","players":null},{"server_id":13,"name":"Uncletopia | New York City | 1 | All Maps","name_short":"nyc-1","host":"nyc-1.us.uncletopia.com","port":27015,"enabled":true,"region":"us-east","cc":"us","latitude":40.73061,"longitude":-73.93524,"reserved":0,"last_update":"0001-01-01T00:00:00Z","name_a2s":"Uncletopia | New York City | 1 | All Maps","protocol":17,"map":"cp_mountainlab","folder":"tf","game":"Team Fortress","app_id":440,"player_count":0,"max_players":24,"Bots":0,"server_type":"Dedicated","server_os":"Linux","password":true,"vac":true,"version":"7932396","steam_id":85568392924469993,"keywords":["cp","nocrits","nodmgspread","uncletopia"],"game_id":440,"stv_port":27016,"stv_name":"Uncletopia | New York City | 1 | All Maps | STV","players":null},{"server_id":14,"name":"Uncletopia | New York City | 2 | All Maps","name_short":"nyc-2","host":"nyc-1.us.uncletopia.com","port":27025,"enabled":true,"region":"us-east","cc":"us","latitude":40.73061,"longitude":-73.93524,"reserved":0,"last_update":"0001-01-01T00:00:00Z","name_a2s":"Uncletopia | New York City | 2 | All Maps","protocol":17,"map":"cp_dustbowl","folder":"tf","game":"Team Fortress","app_id":440,"player_count":0,"max_players":24,"Bots":0,"server_type":"Dedicated","server_os":"Linux","password":true,"vac":true,"version":"7932396","steam_id":85568392924469994,"keywords":["cp","nocrits","nodmgspread","uncletopia"],"game_id":440,"stv_port":27026,"stv_name":"Uncletopia | New York City | 2 | All Maps | STV","players":null},{"server_id":15,"name":"Uncletopia | New York City | 3 | Stopwatch Beta","name_short":"nyc-3","host":"nyc-1.us.uncletopia.com","port":27035,"enabled":true,"region":"us-east","cc":"us","latitude":40.73061,"longitude":-73.93524,"reserved":0,"last_update":"0001-01-01T00:00:00Z","name_a2s":"Uncletopia | New York City | 3 | Stopwatch Beta","protocol":17,"map":"workshop/koth_ashville_final.ugc2130459942","folder":"tf","game":"Team Fortress","app_id":440,"player_count":0,"max_players":24,"Bots":0,"server_type":"Dedicated","server_os":"Linux","password":true,"vac":true,"version":"7932396","steam_id":85568392924742820,"keywords":["cp","nocrits","nodmgspread","uncletopia"],"game_id":440,"stv_port":27036,"stv_name":"Uncletopia | New York City | 3 | Stopwatch Beta | STV","players":null},{"server_id":16,"name":"Uncletopia | New York City | 4 | Community","name_short":"nyc-4","host":"nyc-1.us.uncletopia.com","port":27045,"enabled":true,"region":"us-east","cc":"us","latitude":40.73061,"longitude":-73.93524,"reserved":0,"last_update":"0001-01-01T00:00:00Z","name_a2s":"Uncletopia | New York City | 4 | Community","protocol":17,"map":"workshop/cp_logjam_rc12.ugc454812035","folder":"tf","game":"Team Fortress","app_id":440,"player_count":0,"max_players":24,"Bots":0,"server_type":"Dedicated","server_os":"Linux","password":true,"vac":true,"version":"7932396","steam_id":85568392924742821,"keywords":["cp","nocrits","nodmgspread","uncletopia"],"game_id":440,"stv_port":27046,"stv_name":"Uncletopia | New York City | 4 | Community | STV","players":null},{"server_id":142,"name":"Uncletopia | São Paulo | 1 | All Maps","name_short":"sao-1","host":"sao-1.br.uncletopia.com","port":27015,"enabled":true,"region":"sa","cc":"br","latitude":-23.533773,"longitude":-46.62529,"reserved":0,"last_update":"0001-01-01T00:00:00Z","name_a2s":"Uncletopia | São Paulo | 1 | All Maps","protocol":17,"map":"cp_mountainlab","folder":"tf","game":"Team Fortress","app_id":440,"player_count":0,"max_players":24,"Bots":0,"server_type":"Dedicated","server_os":"Linux","password":true,"vac":true,"version":"7932396","steam_id":85568392924469996,"keywords":["cp","nocrits","nodmgspread","uncletopia"],"game_id":440,"stv_port":27016,"stv_name":"Uncletopia | São Paulo | 1 | All Maps | STV","players":null},{"server_id":143,"name":"Uncletopia | São Paulo | 2 | All Maps","name_short":"sao-2","host":"sao-2.br.uncletopia.com","port":27015,"enabled":true,"region":"sa","cc":"br","latitude":-23.533773,"longitude":-46.62529,"reserved":0,"last_update":"0001-01-01T00:00:00Z","name_a2s":"Uncletopia | São Paulo | 2 | All Maps","protocol":17,"map":"pl_swiftwater_final1","folder":"tf","game":"Team Fortress","app_id":440,"player_count":0,"max_players":24,"Bots":0,"server_type":"Dedicated","server_os":"Linux","password":true,"vac":true,"version":"7932396","steam_id":85568392924485349,"keywords":["nocrits","nodmgspread","payload","uncletopia"],"game_id":440,"stv_port":27016,"stv_name":"Uncletopia | São Paulo | 2 | All Maps | STV","players":null},{"server_id":7,"name":"Uncletopia | Seattle | 1 | All Maps","name_short":"sea-1","host":"sea-1.us.uncletopia.com","port":27015,"enabled":true,"region":"us-west","cc":"us","latitude":47.608013,"longitude":-122.33517,"reserved":0,"last_update":"0001-01-01T00:00:00Z","name_a2s":"Uncletopia | Seattle | 1 | All Maps","protocol":17,"map":"pl_borneo","folder":"tf","game":"Team Fortress","app_id":440,"player_count":24,"max_players":24,"Bots":0,"server_type":"Dedicated","server_os":"Linux","password":true,"vac":true,"version":"7932396","steam_id":85568392924469997,"keywords":["nocrits","nodmgspread","payload","uncletopia"],"game_id":440,"stv_port":27016,"stv_name":"Uncletopia | Seattle | 1 | All Maps | STV","players":[{"user_id":885,"name":"reiidaya","steam_id":76561198325306660,"connected_time":6937000000000,"state":"active","ping":56},{"user_id":941,"name":"Lé Mon","steam_id":76561198078626283,"connected_time":1243000000000,"state":"active","ping":121},{"user_id":947,"name":"Viren","steam_id":76561198012636897,"connected_time":336000000000,"state":"active","ping":105},{"user_id":946,"name":"Creature","steam_id":76561198194585781,"connected_time":743000000000,"state":"active","ping":152},{"user_id":948,"name":"charm quark","steam_id":76561198098770777,"connected_time":332000000000,"state":"active","ping":53},{"user_id":931,"name":"obesefarts","steam_id":76561198206922028,"connected_time":1758000000000,"state":"active","ping":75},{"user_id":919,"name":"jorts","steam_id":76561199041179985,"connected_time":3162000000000,"state":"active","ping":58},{"user_id":944,"name":"xp","steam_id":76561199207991492,"connected_time":969000000000,"state":"active","ping":75},{"user_id":952,"name":"roryisveryoutofit","steam_id":76561198065825165,"connected_time":204000000000,"state":"active","ping":128},{"user_id":920,"name":"porksoda","steam_id":76561198021451377,"connected_time":3153000000000,"state":"active","ping":51},{"user_id":937,"name":"Trips","steam_id":76561198054581597,"connected_time":1640000000000,"state":"active","ping":92},{"user_id":914,"name":"June","steam_id":76561198141803658,"connected_time":4024000000000,"state":"active","ping":71},{"user_id":921,"name":"Villenova","steam_id":76561198073606416,"connected_time":3135000000000,"state":"active","ping":83},{"user_id":869,"name":"NEBULA","steam_id":76561198086878595,"connected_time":8577000000000,"state":"active","ping":104},{"user_id":924,"name":"EforEstrogen","steam_id":76561198086787295,"connected_time":3101000000000,"state":"active","ping":51},{"user_id":887,"name":"delight","steam_id":76561197980280272,"connected_time":6933000000000,"state":"active","ping":48},{"user_id":938,"name":"FI LO","steam_id":76561198976530881,"connected_time":1631000000000,"state":"active","ping":74},{"user_id":953,"name":"Vibe Check","steam_id":76561198087326826,"connected_time":41000000000,"state":"active","ping":124},{"user_id":925,"name":"Friggy","steam_id":76561198131467867,"connected_time":2898000000000,"state":"active","ping":86},{"user_id":880,"name":"mike, strange keyboard","steam_id":76561198225411004,"connected_time":7139000000000,"state":"active","ping":64},{"user_id":945,"name":"girl let me she/them titties","steam_id":76561198107941274,"connected_time":833000000000,"state":"active","ping":75},{"user_id":923,"name":"Jango","steam_id":76561198121922413,"connected_time":3103000000000,"state":"active","ping":72},{"user_id":870,"name":"resh","steam_id":76561198239598834,"connected_time":8577000000000,"state":"active","ping":129},{"user_id":949,"name":"s f $","steam_id":76561199064932372,"connected_time":332000000000,"state":"active","ping":75}]},{"server_id":119,"name":"Uncletopia | Seattle | 2 | All Maps","name_short":"sea-2","host":"sea-1.us.uncletopia.com","port":27025,"enabled":true,"region":"us-west","cc":"us","latitude":47.608013,"longitude":-122.33517,"reserved":0,"last_update":"0001-01-01T00:00:00Z","name_a2s":"Uncletopia | Seattle | 2 | All Maps","protocol":17,"map":"koth_viaduct","folder":"tf","game":"Team Fortress","app_id":440,"player_count":0,"max_players":24,"Bots":0,"server_type":"Dedicated","server_os":"Linux","password":true,"vac":true,"version":"7932396","steam_id":85568392924469998,"keywords":["cp","nocrits","nodmgspread","uncletopia"],"game_id":440,"stv_port":27026,"stv_name":"Uncletopia | Seattle | 2 | All Maps | STV","players":null},{"server_id":406,"name":"Uncletopia | Seattle | 3 | Stopwatch Beta","name_short":"sea-3","host":"sea-1.us.uncletopia.com","port":27035,"enabled":true,"region":"us-west","cc":"us","latitude":47.608013,"longitude":-122.33517,"reserved":0,"last_update":"0001-01-01T00:00:00Z","name_a2s":"Uncletopia | Seattle | 3 | Stopwatch Beta","protocol":17,"map":"pl_borneo","folder":"tf","game":"Team Fortress","app_id":440,"player_count":0,"max_players":24,"Bots":0,"server_type":"Dedicated","server_os":"Linux","password":true,"vac":true,"version":"7932396","steam_id":85568392924515217,"keywords":["nocrits","nodmgspread","payload","uncletopia"],"game_id":440,"stv_port":27036,"stv_name":"Uncletopia | Seattle | 3 | Stopwatch Beta | STV","players":null},{"server_id":17,"name":"Uncletopia | San Francisco | 1 | All Maps","name_short":"sfo-1","host":"sfo-1.us.uncletopia.com","port":27015,"enabled":true,"region":"us-west","cc":"us","latitude":37.77397,"longitude":-122.4313,"reserved":0,"last_update":"0001-01-01T00:00:00Z","name_a2s":"Uncletopia | San Francisco | 1 | All Maps","protocol":17,"map":"cp_process_final","folder":"tf","game":"Team Fortress","app_id":440,"player_count":0,"max_players":24,"Bots":0,"server_type":"Dedicated","server_os":"Linux","password":true,"vac":true,"version":"7932396","steam_id":85568392924469999,"keywords":["cp","nocrits","nodmgspread","uncletopia"],"game_id":440,"stv_port":27016,"stv_name":"Uncletopia | San Francisco | 1 | All Maps | STV","players":null},{"server_id":18,"name":"Uncletopia | San Francisco | 2 | All Maps","name_short":"sfo-2","host":"sfo-1.us.uncletopia.com","port":27025,"enabled":true,"region":"us-west","cc":"us","latitude":37.77397,"longitude":-122.4313,"reserved":0,"last_update":"0001-01-01T00:00:00Z","name_a2s":"Uncletopia | San Francisco | 2 | All Maps","protocol":17,"map":"cp_dustbowl","folder":"tf","game":"Team Fortress","app_id":440,"player_count":2,"max_players":24,"Bots":0,"server_type":"Dedicated","server_os":"Linux","password":true,"vac":true,"version":"7932396","steam_id":85568392924470000,"keywords":["cp","nocrits","nodmgspread","uncletopia"],"game_id":440,"stv_port":27026,"stv_name":"Uncletopia | San Francisco | 2 | All Maps | STV","players":[{"user_id":429,"name":"Ant","steam_id":76561198253062337,"connected_time":1088000000000,"state":"active","ping":95},{"user_id":417,"name":"U ω U","steam_id":76561198118802562,"connected_time":2408000000000,"state":"active","ping":66}]},{"server_id":19,"name":"Uncletopia | San Francisco | 3 | Stopwatch Beta","name_short":"sfo-3","host":"sfo-1.us.uncletopia.com","port":27035,"enabled":true,"region":"us-west","cc":"us","latitude":37.77397,"longitude":-122.4313,"reserved":0,"last_update":"0001-01-01T00:00:00Z","name_a2s":"Uncletopia | San Francisco | 3 | Stopwatch Beta","protocol":17,"map":"workshop/koth_product_final.ugc454272353","folder":"tf","game":"Team Fortress","app_id":440,"player_count":0,"max_players":24,"Bots":0,"server_type":"Dedicated","server_os":"Linux","password":true,"vac":true,"version":"7932396","steam_id":85568392924742824,"keywords":["cp","nocrits","nodmgspread","uncletopia"],"game_id":440,"stv_port":27036,"stv_name":"Uncletopia | San Francisco | 3 | Stopwatch Beta | STV","players":null},{"server_id":20,"name":"Uncletopia | San Francisco | 4 | Community","name_short":"sfo-4","host":"sfo-1.us.uncletopia.com","port":27045,"enabled":true,"region":"us-west","cc":"us","latitude":37.77397,"longitude":-122.4313,"reserved":0,"last_update":"0001-01-01T00:00:00Z","name_a2s":"Uncletopia | San Francisco | 4 | Community","protocol":17,"map":"workshop/koth_kemptown_rc1.ugc767410655","folder":"tf","game":"Team Fortress","app_id":440,"player_count":0,"max_players":24,"Bots":0,"server_type":"Dedicated","server_os":"Linux","password":true,"vac":true,"version":"7932396","steam_id":85568392924742826,"keywords":["cp","nocrits","nodmgspread","uncletopia"],"game_id":440,"stv_port":27046,"stv_name":"Uncletopia | San Francisco | 4 | Community | STV","players":null},{"server_id":141,"name":"Uncletopia | Sydney | 1 | All Maps","name_short":"syd-1","host":"syd-1.au.uncletopia.com","port":27015,"enabled":true,"region":"au","cc":"au","latitude":-33.865143,"longitude":151.2099,"reserved":0,"last_update":"0001-01-01T00:00:00Z","name_a2s":"Uncletopia | Sydney | 1 | All Maps","protocol":17,"map":"cp_sunshine","folder":"tf","game":"Team Fortress","app_id":440,"player_count":24,"max_players":24,"Bots":0,"server_type":"Dedicated","server_os":"Linux","password":true,"vac":true,"version":"7932396","steam_id":85568392924470001,"keywords":["cp","nocrits","nodmgspread","uncletopia"],"game_id":440,"stv_port":27016,"stv_name":"Uncletopia | Sydney | 1 | All Maps | STV","players":[{"user_id":244,"name":"Jodelkönig Franzl Lang","steam_id":76561198007667830,"connected_time":187000000000,"state":"active","ping":58},{"user_id":210,"name":"Penguin Wielder","steam_id":76561198169038889,"connected_time":2315000000000,"state":"active","ping":58},{"user_id":240,"name":"pedal powered brain","steam_id":76561198000568803,"connected_time":977000000000,"state":"active","ping":58},{"user_id":226,"name":"Frog Friend","steam_id":76561198054505772,"connected_time":1939000000000,"state":"active","ping":63},{"user_id":238,"name":"Critz Eastwood","steam_id":76561198050094688,"connected_time":1123000000000,"state":"active","ping":58},{"user_id":242,"name":"DIY Miracle","steam_id":76561198046228152,"connected_time":939000000000,"state":"active","ping":63},{"user_id":227,"name":"Flak","steam_id":76561198205833232,"connected_time":1806000000000,"state":"active","ping":50},{"user_id":243,"name":"4-Star Yelp Review","steam_id":76561197995258180,"connected_time":713000000000,"state":"active","ping":43},{"user_id":235,"name":"haze","steam_id":76561198364434717,"connected_time":1365000000000,"state":"active","ping":62},{"user_id":157,"name":"lynx","steam_id":76561198940833932,"connected_time":6561000000000,"state":"active","ping":86},{"user_id":247,"name":"jone","steam_id":76561198285234796,"connected_time":83000000000,"state":"active","ping":162},{"user_id":206,"name":"Tiger_Tan","steam_id":76561198221733844,"connected_time":3124000000000,"state":"active","ping":72},{"user_id":236,"name":"Cozza","steam_id":76561198090069548,"connected_time":1179000000000,"state":"active","ping":69},{"user_id":241,"name":"skye","steam_id":76561198037129845,"connected_time":976000000000,"state":"active","ping":46},{"user_id":208,"name":"lmaopalooza","steam_id":76561198025099660,"connected_time":2963000000000,"state":"active","ping":43},{"user_id":245,"name":"Minimindd","steam_id":76561199006274892,"connected_time":175000000000,"state":"active","ping":53},{"user_id":229,"name":"PhD in Shoe Shining","steam_id":76561198972095766,"connected_time":1702000000000,"state":"active","ping":40},{"user_id":231,"name":"A Burnt Cheeseburger","steam_id":76561198044178223,"connected_time":1599000000000,"state":"active","ping":68},{"user_id":203,"name":"Edgar's can't be choosers","steam_id":76561198301282416,"connected_time":3301000000000,"state":"active","ping":65},{"user_id":166,"name":"theory haver","steam_id":76561198133867907,"connected_time":5754000000000,"state":"active","ping":81},{"user_id":132,"name":"Fleetfoot","steam_id":76561198072845816,"connected_time":8685000000000,"state":"active","ping":59},{"user_id":212,"name":"Abraham Lincoln","steam_id":76561198095292515,"connected_time":2312000000000,"state":"active","ping":74},{"user_id":246,"name":"weezer","steam_id":76561199439508788,"connected_time":175000000000,"state":"active","ping":66},{"user_id":191,"name":"stroob","steam_id":76561198045320644,"connected_time":3685000000000,"state":"active","ping":55}]},{"server_id":123,"name":"Uncletopia | Sydney | 2 | All Maps","name_short":"syd-2","host":"syd-1.au.uncletopia.com","port":27025,"enabled":true,"region":"au","cc":"au","latitude":-33.865143,"longitude":151.2099,"reserved":0,"last_update":"0001-01-01T00:00:00Z","name_a2s":"Uncletopia | Sydney | 2 | All Maps","protocol":17,"map":"koth_highpass","folder":"tf","game":"Team Fortress","app_id":440,"player_count":10,"max_players":24,"Bots":0,"server_type":"Dedicated","server_os":"Linux","password":true,"vac":true,"version":"7932396","steam_id":85568392924470002,"keywords":["cp","nocrits","nodmgspread","uncletopia"],"game_id":440,"stv_port":27026,"stv_name":"Uncletopia | Sydney | 2 | All Maps | STV","players":[{"user_id":28,"name":"Domino","steam_id":76561198109810450,"connected_time":939000000000,"state":"active","ping":86},{"user_id":29,"name":"tim88435","steam_id":76561198089653987,"connected_time":924000000000,"state":"active","ping":54},{"user_id":30,"name":"Toil Mill","steam_id":76561198192226758,"connected_time":861000000000,"state":"active","ping":38},{"user_id":31,"name":"PelicanBrainz","steam_id":76561199228042180,"connected_time":807000000000,"state":"active","ping":78},{"user_id":32,"name":"miyamoto is daddy","steam_id":76561199483818230,"connected_time":701000000000,"state":"active","ping":76},{"user_id":33,"name":"Jellyfish_kurage","steam_id":76561198425670698,"connected_time":656000000000,"state":"active","ping":51},{"user_id":35,"name":"Lumalee ❤","steam_id":76561198157613299,"connected_time":595000000000,"state":"active","ping":71},{"user_id":38,"name":"tenten","steam_id":76561198402822072,"connected_time":334000000000,"state":"active","ping":84},{"user_id":39,"name":"Blondie","steam_id":76561198046977058,"connected_time":120000000000,"state":"active","ping":61},{"user_id":40,"name":"The Lad","steam_id":76561198865537226,"connected_time":67000000000,"state":"active","ping":71}]},{"server_id":395,"name":"Uncletopia | Sydney | 3 | All Maps","name_short":"syd-3","host":"syd-1.au.uncletopia.com","port":27035,"enabled":true,"region":"au","cc":"au","latitude":-33.865143,"longitude":151.2099,"reserved":0,"last_update":"0001-01-01T00:00:00Z","name_a2s":"Uncletopia | Sydney | 3 | All Maps","protocol":17,"map":"koth_highpass","folder":"tf","game":"Team Fortress","app_id":440,"player_count":0,"max_players":24,"Bots":0,"server_type":"Dedicated","server_os":"Linux","password":true,"vac":true,"version":"7932396","steam_id":85568392925194467,"keywords":["cp","nocrits","nodmgspread","uncletopia"],"game_id":440,"stv_port":27036,"stv_name":"Uncletopia | Sydney | 3 | All Maps | STV","players":null},{"server_id":396,"name":"Uncletopia | Sydney | 4 | All Maps","name_short":"syd-4","host":"syd-1.au.uncletopia.com","port":27045,"enabled":true,"region":"au","cc":"au","latitude":-33.865143,"longitude":151.2099,"reserved":0,"last_update":"0001-01-01T00:00:00Z","name_a2s":"Uncletopia | Sydney | 4 | All Maps","protocol":17,"map":"koth_cascade","folder":"tf","game":"Team Fortress","app_id":440,"player_count":0,"max_players":24,"Bots":0,"server_type":"Dedicated","server_os":"Linux","password":true,"vac":true,"version":"7932396","steam_id":85568392925397958,"keywords":["cp","nocrits","nodmgspread","uncletopia"],"game_id":440,"stv_port":27046,"stv_name":"Uncletopia | Sydney | 4 | All Maps | STV","players":null},{"server_id":58,"name":"Uncletopia | Sydney | 5 | Stopwatch Beta","name_short":"syd-5","host":"syd-1.au.uncletopia.com","port":27055,"enabled":true,"region":"au","cc":"au","latitude":-33.865143,"longitude":151.2099,"reserved":0,"last_update":"0001-01-01T00:00:00Z","name_a2s":"Uncletopia | Sydney | 5 | Stopwatch Beta","protocol":17,"map":"pl_borneo","folder":"tf","game":"Team Fortress","app_id":440,"player_count":0,"max_players":24,"Bots":0,"server_type":"Dedicated","server_os":"Linux","password":true,"vac":true,"version":"7932396","steam_id":85568392925397959,"keywords":["nocrits","nodmgspread","payload","uncletopia"],"game_id":440,"stv_port":27056,"stv_name":"Uncletopia | Sydney | 5 | Stopwatch Beta | STV","players":null},{"server_id":59,"name":"Uncletopia | Sydney | 6 | Community","name_short":"syd-6","host":"syd-1.au.uncletopia.com","port":27065,"enabled":true,"region":"au","cc":"au","latitude":-33.865143,"longitude":151.2099,"reserved":0,"last_update":"0001-01-01T00:00:00Z","name_a2s":"Uncletopia | Sydney | 6 | Community","protocol":17,"map":"workshop/cp_glacier_rc6.ugc2905735376","folder":"tf","game":"Team Fortress","app_id":440,"player_count":0,"max_players":24,"Bots":0,"server_type":"Dedicated","server_os":"Linux","password":true,"vac":true,"version":"7932396","steam_id":85568392925397960,"keywords":["cp","nocrits","nodmgspread","uncletopia"],"game_id":440,"stv_port":27066,"stv_name":"Uncletopia | Sydney | 6 | Community | STV","players":null},{"server_id":49,"name":"Uncletopia | Warsaw | 1 | All Maps","name_short":"waw-1","host":"waw-1.pl.uncletopia.com","port":27015,"enabled":true,"region":"eu","cc":"pl","latitude":52.2297,"longitude":21.017532,"reserved":0,"last_update":"0001-01-01T00:00:00Z","name_a2s":"","protocol":0,"map":"","folder":"","game":"","app_id":0,"player_count":0,"max_players":0,"Bots":0,"server_type":"","server_os":"","password":false,"vac":false,"version":"","steam_id":0,"keywords":null,"game_id":0,"stv_port":0,"stv_name":"","players":null},{"server_id":50,"name":"Uncletopia | Warsaw | 2 | All Maps","name_short":"waw-2","host":"waw-1.pl.uncletopia.com","port":27025,"enabled":true,"region":"eu","cc":"pl","latitude":52.2297,"longitude":21.017532,"reserved":0,"last_update":"0001-01-01T00:00:00Z","name_a2s":"Uncletopia | Warsaw | 2 | All Maps","protocol":17,"map":"pl_badwater","folder":"tf","game":"Team Fortress","app_id":440,"player_count":0,"max_players":24,"Bots":0,"server_type":"Dedicated","server_os":"Linux","password":true,"vac":true,"version":"7932396","steam_id":85568392925397851,"keywords":["nocrits","nodmgspread","payload","uncletopia"],"game_id":440,"stv_port":27026,"stv_name":"Uncletopia | Warsaw | 2 | All Maps | STV","players":null},{"server_id":51,"name":"Uncletopia | Warsaw | 3 | All Maps","name_short":"waw-3","host":"waw-1.pl.uncletopia.com","port":27035,"enabled":true,"region":"eu","cc":"pl","latitude":52.2297,"longitude":21.017532,"reserved":0,"last_update":"0001-01-01T00:00:00Z","name_a2s":"Uncletopia | Warsaw | 3 | All Maps","protocol":17,"map":"koth_lakeside_final","folder":"tf","game":"Team Fortress","app_id":440,"player_count":0,"max_players":24,"Bots":0,"server_type":"Dedicated","server_os":"Linux","password":true,"vac":true,"version":"7932396","steam_id":85568392925397852,"keywords":["cp","nocrits","nodmgspread","uncletopia"],"game_id":440,"stv_port":27036,"stv_name":"Uncletopia | Warsaw | 3 | All Maps | STV","players":null},{"server_id":52,"name":"Uncletopia | Warsaw | 4 | All Maps","name_short":"waw-4","host":"waw-1.pl.uncletopia.com","port":27045,"enabled":true,"region":"eu","cc":"pl","latitude":52.2297,"longitude":21.017532,"reserved":0,"last_update":"0001-01-01T00:00:00Z","name_a2s":"Uncletopia | Warsaw | 4 | All Maps","protocol":17,"map":"pl_swiftwater_final1","folder":"tf","game":"Team Fortress","app_id":440,"player_count":0,"max_players":24,"Bots":0,"server_type":"Dedicated","server_os":"Linux","password":true,"vac":true,"version":"7932396","steam_id":85568392925397853,"keywords":["nocrits","nodmgspread","payload","uncletopia"],"game_id":440,"stv_port":27046,"stv_name":"Uncletopia | Warsaw | 4 | All Maps | STV","players":null},{"server_id":53,"name":"Uncletopia | Warsaw | 5 | Stopwatch Beta","name_short":"waw-5","host":"waw-1.pl.uncletopia.com","port":27055,"enabled":true,"region":"eu","cc":"pl","latitude":52.2297,"longitude":21.017532,"reserved":0,"last_update":"0001-01-01T00:00:00Z","name_a2s":"Uncletopia | Warsaw | 5 | Stopwatch Beta","protocol":17,"map":"koth_highpass","folder":"tf","game":"Team Fortress","app_id":440,"player_count":0,"max_players":24,"Bots":0,"server_type":"Dedicated","server_os":"Linux","password":true,"vac":true,"version":"7932396","steam_id":85568392925397854,"keywords":["cp","nocrits","nodmgspread","uncletopia"],"game_id":440,"stv_port":27056,"stv_name":"Uncletopia | Warsaw | 5 | Stopwatch Beta | STV","players":null},{"server_id":54,"name":"Uncletopia | Warsaw | 6 | Community","name_short":"waw-6","host":"waw-1.pl.uncletopia.com","port":27065,"enabled":true,"region":"eu","cc":"pl","latitude":52.2297,"longitude":21.017532,"reserved":0,"last_update":"0001-01-01T00:00:00Z","name_a2s":"Uncletopia | Warsaw | 6 | Community","protocol":17,"map":"pl_upward","folder":"tf","game":"Team Fortress","app_id":440,"player_count":0,"max_players":24,"Bots":0,"server_type":"Dedicated","server_os":"Linux","password":true,"vac":true,"version":"7932396","steam_id":85568392925397856,"keywords":["nocrits","nodmgspread","payload","uncletopia"],"game_id":440,"stv_port":27066,"stv_name":"Uncletopia | Warsaw | 6 | Community | STV","players":null}]}