{"status":true,"message":"","result":[{"server_id":9,"name":"Uncletopia | Atlanta | 1 | All Maps","name_short":"atl-1","host":"atl-1.us.uncletopia.com","port":27015,"enabled":true,"region":"us-east","cc":"us","latitude":33.753746,"longitude":-84.38633,"reserved":0,"last_update":"0001-01-01T00:00:00Z","name_a2s":"Uncletopia | Atlanta | 1 | All Maps","protocol":17,"map":"pl_borneo","folder":"tf","game":"Team Fortress","app_id":440,"player_count":24,"max_players":24,"Bots":0,"server_type":"Dedicated","server_os":"Linux","password":true,"vac":true,"version":"7961495","steam_id":85568392924469982,"keywords":["nocrits","nodmgspread","payload","uncletopia"],"game_id":440,"stv_port":27016,"stv_name":"Uncletopia | Atlanta | 1 | All Maps | STV","players":[{"user_id":203,"name":"Manna","steam_id":76561198172298563,"connected_time":777000000000,"state":"active","ping":52},{"user_id":124,"name":"Jesus Burgess","steam_id":76561199343316814,"connected_time":6114000000000,"state":"active","ping":57},{"user_id":190,"name":"Snivy64","steam_id":76561198423445376,"connected_time":1652000000000,"state":"active","ping":93},{"user_id":195,"name":"the sneeze of 87","steam_id":76561198062451648,"connected_time":1214000000000,"state":"active","ping":59},{"user_id":189,"name":"Waffle Wannabe","steam_id":76561198064510650,"connected_time":1756000000000,"state":"active","ping":62},{"user_id":197,"name":"Wang of Wall St","steam_id":76561198047460598,"connected_time":1144000000000,"state":"active","ping":84},{"user_id":89,"name":"CoffeeZombee","steam_id":76561198172708053,"connected_time":9295000000000,"state":"active","ping":67},{"user_id":205,"name":"e doctor","steam_id":76561198081851446,"connected_time":644000000000,"state":"active","ping":60},{"user_id":199,"name":"Ghetto Smosh Fan","steam_id":76561198097272509,"connected_time":1073000000000,"state":"active","ping":37},{"user_id":160,"name":"The Undead Knight","steam_id":76561198010654500,"connected_time":3420000000000,"state":"active","ping":68},{"user_id":165,"name":"Mystax","steam_id":76561198156485853,"connected_time":3033000000000,"state":"active","ping":87},{"user_id":196,"name":"Deltaco","steam_id":76561198094572694,"connected_time":1179000000000,"state":"active","ping":102},{"user_id":187,"name":"lu","steam_id":76561198080731872,"connected_time":1818000000000,"state":"active","ping":75},{"user_id":201,"name":"Brown_Dream","steam_id":76561198975766145,"connected_time":1026000000000,"state":"active","ping":81},{"user_id":206,"name":"twizted","steam_id":76561197960407274,"connected_time":542000000000,"state":"active","ping":83},{"user_id":113,"name":"stiGGy","steam_id":76561198049311931,"connected_time":7041000000000,"state":"active","ping":91},{"user_id":200,"name":"nerfington","steam_id":76561198062785419,"connected_time":1073000000000,"state":"active","ping":76},{"user_id":198,"name":"NaVi''Un1Soft''","steam_id":76561199059076097,"connected_time":1142000000000,"state":"active","ping":163},{"user_id":175,"name":"Kc","steam_id":76561198210734407,"connected_time":2427000000000,"state":"active","ping":58},{"user_id":152,"name":"Righteou5Dude","steam_id":76561198136291931,"connected_time":4028000000000,"state":"active","ping":85},{"user_id":150,"name":"corg","steam_id":76561198338740292,"connected_time":4033000000000,"state":"active","ping":118},{"user_id":176,"name":"neeko gaming","steam_id":76561198180174734,"connected_time":2412000000000,"state":"active","ping":81},{"user_id":202,"name":"Mr. Krabs AGH AGH AGH","steam_id":76561198068266632,"connected_time":987000000000,"state":"active","ping":52},{"user_id":155,"name":"Lee-Ch","steam_id":76561198164980622,"connected_time":4015000000000,"state":"active","ping":67}]},{"server_id":104,"name":"Uncletopia | Atlanta | 2 | All Maps","name_short":"atl-2","host":"atl-1.us.uncletopia.com","port":27025,"enabled":true,"region":"us-east","cc":"us","latitude":33.753746,"longitude":-84.38633,"reserved":0,"last_update":"0001-01-01T00:00:00Z","name_a2s":"Uncletopia | Atlanta | 2 | All Maps","protocol":17,"map":"pl_borneo","folder":"tf","game":"Team Fortress","app_id":440,"player_count":24,"max_players":24,"Bots":0,"server_type":"Dedicated","server_os":"Linux","password":true,"vac":true,"version":"7961495","steam_id":85568392924469983,"keywords":["nocrits","nodmgspread","payload","uncletopia"],"game_id":440,"stv_port":27026,"stv_name":"Uncletopia | Atlanta | 2 | All Maps | STV","players":[{"user_id":206,"name":"stepho","steam_id":76561199132035586,"connected_time":167000000000,"state":"active","ping":63},{"user_id":146,"name":"bread n butter babyyyyyyyyyy","steam_id":76561198110661425,"connected_time":3758000000000,"state":"active","ping":75},{"user_id":129,"name":"who ate the cheese","steam_id":76561198275408467,"connected_time":4800000000000,"state":"active","ping":49},{"user_id":183,"name":"there is cum in my ramen","steam_id":76561198059815894,"connected_time":1927000000000,"state":"active","ping":61},{"user_id":118,"name":"A Cat","steam_id":76561198221549132,"connected_time":5207000000000,"state":"active","ping":121},{"user_id":204,"name":"hehy","steam_id":76561198250143508,"connected_time":390000000000,"state":"active","ping":59},{"user_id":178,"name":"tryxxy :3","steam_id":76561198344899796,"connected_time":2058000000000,"state":"active","ping":77},{"user_id":203,"name":"GreySweaterCat","steam_id":76561198351860293,"connected_time":412000000000,"state":"active","ping":93},{"user_id":184,"name":"ly","steam_id":76561198062922146,"connected_time":1925000000000,"state":"active","ping":61},{"user_id":202,"name":"Legit_Jaxer","steam_id":76561198172234053,"connected_time":624000000000,"state":"active","ping":108},{"user_id":189,"name":"GnarlySheep","steam_id":76561198067288233,"connected_time":1659000000000,"state":"active","ping":43},{"user_id":207,"name":"Ace Attorney","steam_id":76561198133011705,"connected_time":146000000000,"state":"active","ping":60},{"user_id":186,"name":"confield","steam_id":76561198004322265,"connected_time":1868000000000,"state":"active","ping":46},{"user_id":132,"name":"Always Here for You","steam_id":76561198219252313,"connected_time":4708000000000,"state":"active","ping":82},{"user_id":108,"name":"Tala\u003c3","steam_id":76561198169200739,"connected_time":5704000000000,"state":"active","ping":133},{"user_id":208,"name":"Karma's Camera","steam_id":76561198059385185,"connected_time":121000000000,"state":"active","ping":62},{"user_id":162,"name":"Vaudeville Villain","steam_id":76561197991063996,"connected_time":2416000000000,"state":"active","ping":73},{"user_id":192,"name":"dirty30","steam_id":76561198021226566,"connected_time":1419000000000,"state":"active","ping":104},{"user_id":125,"name":"The All-Seeing Tim","steam_id":76561198075510786,"connected_time":5014000000000,"state":"active","ping":93},{"user_id":209,"name":"Novu","steam_id":76561198886997024,"connected_time":94000000000,"state":"active","ping":88},{"user_id":200,"name":"endwalker simp","steam_id":76561198066177299,"connected_time":685000000000,"state":"active","ping":141},{"user_id":210,"name":"doop","steam_id":76561198370487545,"connected_time":83000000000,"state":"active","ping":71},{"user_id":194,"name":"Kaival","steam_id":76561198082993220,"connected_time":1396000000000,"state":"active","ping":60},{"user_id":173,"name":"acron","steam_id":76561198992182757,"connected_time":2227000000000,"state":"active","ping":90}]},{"server_id":400,"name":"Uncletopia | Atlanta | 3 | Stopwatch","name_short":"atl-3","host":"atl-1.us.uncletopia.com","port":27035,"enabled":true,"region":"us-east","cc":"us","latitude":33.753746,"longitude":-84.38633,"reserved":0,"last_update":"0001-01-01T00:00:00Z","name_a2s":"Uncletopia | Atlanta | 3 | Stopwatch","protocol":17,"map":"workshop/pl_barnblitz_pro7.ugc582280235","folder":"tf","game":"Team Fortress","app_id":440,"player_count":0,"max_players":24,"Bots":0,"server_type":"Dedicated","server_os":"Linux","password":true,"vac":true,"version":"7961495","steam_id":85568392924515187,"keywords":["nocrits","nodmgspread","payload","uncletopia"],"game_id":440,"stv_port":27036,"stv_name":"Uncletopia | Atlanta | 3 | Stopwatch | STV","players":null},{"server_id":401,"name":"Uncletopia | Atlanta | 4 | Community","name_short":"atl-4","host":"atl-1.us.uncletopia.com","port":27045,"enabled":true,"region":"us-east","cc":"us","latitude":33.753746,"longitude":-84.38633,"reserved":0,"last_update":"0001-01-01T00:00:00Z","name_a2s":"Uncletopia | Atlanta | 4 | Community","protocol":17,"map":"workshop/pl_cashworks_final1.ugc2904065412","folder":"tf","game":"Team Fortress","app_id":440,"player_count":0,"max_players":24,"Bots":0,"server_type":"Dedicated","server_os":"Linux","password":true,"vac":true,"version":"7961495","steam_id":85568392924515188,"keywords":["nocrits","nodmgspread","payload","uncletopia"],"game_id":440,"stv_port":27046,"stv_name":"Uncletopia | Atlanta | 4 | Community | STV","players":null},{"server_id":2,"name":"Uncletopia | Chicago | 1 | All Maps","name_short":"chi-1","host":"chi-1.us.uncletopia.com","port":27015,"enabled":true,"region":"us-central","cc":"us","latitude":41.881832,"longitude":-87.62318,"reserved":0,"last_update":"0001-01-01T00:00:00Z","name_a2s":"Uncletopia | Chicago | 1 | All Maps","protocol":17,"map":"pl_borneo","folder":"tf","game":"Team Fortress","app_id":440,"player_count":24,"max_players":24,"Bots":0,"server_type":"Dedicated","server_os":"Linux","password":true,"vac":true,"version":"7961495","steam_id":85568392924469984,"keywords":["nocrits","nodmgspread","payload","uncletopia"],"game_id":440,"stv_port":27016,"stv_name":"Uncletopia | Chicago | 1 | All Maps | STV","players":[{"user_id":186,"name":"Kaleb","steam_id":76561198331013248,"connected_time":1626000000000,"state":"active","ping":70},{"user_id":180,"name":"loser","steam_id":76561198259380127,"connected_time":3001000000000,"state":"active","ping":58},{"user_id":141,"name":"Eomy","steam_id":76561198297783627,"connected_time":7260000000000,"state":"active","ping":73},{"user_id":168,"name":"Squigly","steam_id":76561198084811625,"connected_time":5034000000000,"state":"active","ping":80},{"user_id":178,"name":"THORNFIELDGAMER","steam_id":76561199087167473,"connected_time":3194000000000,"state":"active","ping":86},{"user_id":126,"name":"aurro","steam_id":76561198315692300,"connected_time":9096000000000,"state":"active","ping":46},{"user_id":14,"name":"Nassu","steam_id":76561198147367577,"connected_time":17561000000000,"state":"active","ping":69},{"user_id":171,"name":"Zhong Xina","steam_id":76561198048157121,"connected_time":4343000000000,"state":"active","ping":81},{"user_id":148,"name":"Little Skull Boi","steam_id":76561198093595888,"connected_time":6985000000000,"state":"active","ping":103},{"user_id":195,"name":"TittyBoii69","steam_id":76561198096412234,"connected_time":1001000000000,"state":"active","ping":66},{"user_id":159,"name":"Pyrrhon the Aurum","steam_id":76561198046272856,"connected_time":5291000000000,"state":"active","ping":75},{"user_id":158,"name":"[El Fail] MR.BadassMCLee","steam_id":76561198043787818,"connected_time":5318000000000,"state":"active","ping":106},{"user_id":169,"name":"Siz","steam_id":76561198072962154,"connected_time":4863000000000,"state":"active","ping":61},{"user_id":202,"name":"Creeping Python","steam_id":76561198041636923,"connected_time":22000000000,"state":"active","ping":111},{"user_id":197,"name":"Ockulus","steam_id":76561199069638460,"connected_time":398000000000,"state":"active","ping":106},{"user_id":188,"name":"tonic_tundra","steam_id":76561198081287723,"connected_time":1601000000000,"state":"active","ping":86},{"user_id":198,"name":"Burnside Special","steam_id":76561198822221762,"connected_time":367000000000,"state":"active","ping":107},{"user_id":200,"name":"Rornir","steam_id":76561198081829615,"connected_time":174000000000,"state":"active","ping":41},{"user_id":190,"name":"cotton candy testament","steam_id":76561198058998371,"connected_time":1599000000000,"state":"active","ping":69},{"user_id":201,"name":"Fredrick","steam_id":76561197981419964,"connected_time":163000000000,"state":"active","ping":68},{"user_id":196,"name":"jayzak24","steam_id":76561198354267509,"connected_time":706000000000,"state":"active","ping":81},{"user_id":151,"name":"glensanity","steam_id":76561199500265332,"connected_time":6138000000000,"state":"active","ping":67},{"user_id":177,"name":"Tom","steam_id":76561198070630154,"connected_time":3325000000000,"state":"active","ping":90},{"user_id":191,"name":"SandHanitizer","steam_id":76561198234676500,"connected_time":1396000000000,"state":"active","ping":73}]},{"server_id":106,"name":"Uncletopia | Chicago | 2 | All Maps","name_short":"chi-2","host":"chi-1.us.uncletopia.com","port":27025,"enabled":true,"region":"us-central","cc":"us","latitude":41.881832,"longitude":-87.62318,"reserved":0,"last_update":"0001-01-01T00:00:00Z","name_a2s":"Uncletopia | Chicago | 2 | All Maps","protocol":17,"map":"pl_badwater","folder":"tf","game":"Team Fortress","app_id":440,"player_count":0,"max_players":24,"Bots":0,"server_type":"Dedicated","server_os":"Linux","password":true,"vac":true,"version":"7961495","steam_id":85568392924469985,"keywords":["nocrits","nodmgspread","payload","uncletopia"],"game_id":440,"stv_port":27026,"stv_name":"Uncletopia | Chicago | 2 | All Maps | STV","players":null},{"server_id":402,"name":"Uncletopia | Chicago | 3 | All Maps","name_short":"chi-3","host":"chi-1.us.uncletopia.com","port":27035,"enabled":true,"region":"us-central","cc":"us","latitude":41.881832,"longitude":-87.62318,"reserved":0,"last_update":"0001-01-01T00:00:00Z","name_a2s":"Uncletopia | Chicago | 3 | All Maps","protocol":17,"map":"koth_viaduct","folder":"tf","game":"Team Fortress","app_id":440,"player_count":0,"max_players":24,"Bots":0,"server_type":"Dedicated","server_os":"Linux","password":true,"vac":true,"version":"7961495","steam_id":85568392924515191,"keywords":["cp","nocrits","nodmgspread","uncletopia"],"game_id":440,"stv_port":27036,"stv_name":"Uncletopia | Chicago | 3 | All Maps | STV","players":null},{"server_id":403,"name":"Uncletopia | Chicago | 4 | All Maps","name_short":"chi-4","host":"chi-1.us.uncletopia.com","port":27045,"enabled":true,"region":"us-central","cc":"us","latitude":41.881832,"longitude":-87.62318,"reserved":0,"last_update":"0001-01-01T00:00:00Z","name_a2s":"Uncletopia | Chicago | 4 | All Maps","protocol":17,"map":"cp_altitude","folder":"tf","game":"Team Fortress","app_id":440,"player_count":24,"max_players":24,"Bots":0,"server_type":"Dedicated","server_os":"Linux","password":true,"vac":true,"version":"7961495","steam_id":85568392924515193,"keywords":["cp","nocrits","nodmgspread","uncletopia"],"game_id":440,"stv_port":27046,"stv_name":"Uncletopia | Chicago | 4 | All Maps | STV","players":[{"user_id":114,"name":"In Your Walls","steam_id":76561198798158647,"connected_time":2083000000000,"state":"active","ping":58},{"user_id":152,"name":"1920","steam_id":76561198111669774,"connected_time":85000000000,"state":"active","ping":45},{"user_id":137,"name":"Tones","steam_id":76561198039572032,"connected_time":529000000000,"state":"active","ping":66},{"user_id":108,"name":"anonion","steam_id":76561198056477584,"connected_time":2955000000000,"state":"active","ping":75},{"user_id":153,"name":"Slip","steam_id":76561199057232579,"connected_time":22000000000,"state":"spawning","ping":57},{"user_id":23,"name":"AWGER (don't uber)","steam_id":76561198284683624,"connected_time":8659000000000,"state":"active","ping":76},{"user_id":105,"name":"who","steam_id":76561198134773691,"connected_time":3394000000000,"state":"active","ping":64},{"user_id":139,"name":"Weerk","steam_id":76561199209543551,"connected_time":503000000000,"state":"active","ping":78},{"user_id":149,"name":"Flyinglab","steam_id":76561198042161408,"connected_time":197000000000,"state":"active","ping":78},{"user_id":135,"name":"astrobob911","steam_id":76561199099110654,"connected_time":551000000000,"state":"active","ping":77},{"user_id":144,"name":"SHUSH nikoOS","steam_id":76561198180020521,"connected_time":440000000000,"state":"active","ping":164},{"user_id":143,"name":"Plunderphonic","steam_id":76561198062565784,"connected_time":471000000000,"state":"active","ping":60},{"user_id":116,"name":"Horrowes","steam_id":76561198318446417,"connected_time":2064000000000,"state":"active","ping":73},{"user_id":127,"name":"DeadErebus","steam_id":76561198286117045,"connected_time":1623000000000,"state":"active","ping":34},{"user_id":145,"name":"Soapbar","steam_id":76561198081714169,"connected_time":414000000000,"state":"active","ping":88},{"user_id":150,"name":"TobyM88","steam_id":76561199256838127,"connected_time":175000000000,"state":"active","ping":61},{"user_id":117,"name":"veen","steam_id":76561198084334538,"connected_time":2062000000000,"state":"active","ping":62},{"user_id":109,"name":"dog safe baja blast.","steam_id":76561198294013916,"connected_time":2807000000000,"state":"active","ping":61},{"user_id":136,"name":"a bellhop","steam_id":76561198046797995,"connected_time":543000000000,"state":"active","ping":64},{"user_id":151,"name":"RAWRWAFL","steam_id":76561198032118386,"connected_time":171000000000,"state":"active","ping":93},{"user_id":146,"name":"papyrus","steam_id":76561199123470562,"connected_time":369000000000,"state":"active","ping":67},{"user_id":124,"name":"omnim growing weak and sickly","steam_id":76561198083175190,"connected_time":1853000000000,"state":"active","ping":59},{"user_id":122,"name":"Rein","steam_id":76561198300340427,"connected_time":1933000000000,"state":"active","ping":65},{"user_id":128,"name":"CabezaGrande","steam_id":76561197972555502,"connected_time":1612000000000,"state":"active","ping":68}]},{"server_id":36,"name":"Uncletopia | Chicago | 5 | All Maps","name_short":"chi-5","host":"chi-2.us.uncletopia.com","port":27015,"enabled":true,"region":"us-central","cc":"us","latitude":41.881832,"longitude":-87.62318,"reserved":0,"last_update":"0001-01-01T00:00:00Z","name_a2s":"Uncletopia | Chicago | 5 | All Maps","protocol":17,"map":"koth_viaduct","folder":"tf","game":"Team Fortress","app_id":440,"player_count":0,"max_players":24,"Bots":0,"server_type":"Dedicated","server_os":"Linux","password":true,"vac":true,"version":"7961495","steam_id":85568392924866362,"keywords":["cp","nocrits","nodmgspread","uncletopia"],"game_id":440,"stv_port":27016,"stv_name":"Uncletopia | Chicago | 5 | All Maps | STV","players":null},{"server_id":37,"name":"Uncletopia | Chicago | 6 | All Maps","name_short":"chi-6","host":"chi-2.us.uncletopia.com","port":27025,"enabled":true,"region":"us-central","cc":"us","latitude":41.881832,"longitude":-87.62318,"reserved":0,"last_update":"0001-01-01T00:00:00Z","name_a2s":"Uncletopia | Chicago | 6 | All Maps","protocol":17,"map":"cp_mountainlab","folder":"tf","game":"Team Fortress","app_id":440,"player_count":0,"max_players":24,"Bots":0,"server_type":"Dedicated","server_os":"Linux","password":true,"vac":true,"version":"7961495","steam_id":85568392924866363,"keywords":["cp","nocrits","nodmgspread","uncletopia"],"game_id":440,"stv_port":27026,"stv_name":"Uncletopia | Chicago | 6 | All Maps | STV","players":null},{"server_id":38,"name":"Uncletopia | Chicago | 7 | Stopwatch","name_short":"chi-7","host":"chi-2.us.uncletopia.com","port":27035,"enabled":true,"region":"us-central","cc":"us","latitude":41.881832,"longitude":-87.62318,"reserved":0,"last_update":"0001-01-01T00:00:00Z","name_a2s":"Uncletopia | Chicago | 7 | Stopwatch","protocol":17,"map":"pl_badwater","folder":"tf","game":"Team Fortress","app_id":440,"player_count":0,"max_players":24,"Bots":0,"server_type":"Dedicated","server_os":"Linux","password":true,"vac":true,"version":"7961495","steam_id":85568392924866364,"keywords":["nocrits","nodmgspread","payload","uncletopia"],"game_id":440,"stv_port":27036,"stv_name":"Uncletopia | Chicago | 7 | Stopwatch | STV","players":null},{"server_id":39,"name":"Uncletopia | Chicago | 8 | Community","name_short":"chi-8","host":"chi-2.us.uncletopia.com","port":27045,"enabled":true,"region":"us-central","cc":"us","latitude":41.881832,"longitude":-87.62318,"reserved":0,"last_update":"0001-01-01T00:00:00Z","name_a2s":"Uncletopia | Chicago | 8 | Community","protocol":17,"map":"pl_pier","folder":"tf","game":"Team Fortress","app_id":440,"player_count":0,"max_players":24,"Bots":0,"server_type":"Dedicated","server_os":"Linux","password":true,"vac":true,"version":"7961495","steam_id":85568392924866365,"keywords":["nocrits","nodmgspread","payload","uncletopia"],"game_id":440,"stv_port":27046,"stv_name":"Uncletopia | Chicago | 8 | Community | STV","players":null},{"server_id":8,"name":"Uncletopia | Dallas | 1 | All Maps","name_short":"dal-1","host":"dal-1.us.uncletopia.com","port":27015,"enabled":true,"region":"us-central","cc":"us","latitude":32.779167,"longitude":-96.80889,"reserved":0,"last_update":"0001-01-01T00:00:00Z","name_a2s":"Uncletopia | Dallas | 1 | All Maps","protocol":17,"map":"pl_borneo","folder":"tf","game":"Team Fortress","app_id":440,"player_count":24,"max_players":24,"Bots":0,"server_type":"Dedicated","server_os":"Linux","password":true,"vac":true,"version":"7961495","steam_id":85568392924469986,"keywords":["nocrits","nodmgspread","payload","uncletopia"],"game_id":440,"stv_port":27016,"stv_name":"Uncletopia | Dallas | 1 | All Maps | STV","players":[{"user_id":84,"name":"w a l k  q u i e t","steam_id":76561198143453873,"connected_time":992000000000,"state":"active","ping":92},{"user_id":83,"name":"Kraftlos","steam_id":76561198074350350,"connected_time":1037000000000,"state":"active","ping":96},{"user_id":85,"name":"TerracottaP","steam_id":76561199402983168,"connected_time":991000000000,"state":"active","ping":88},{"user_id":64,"name":"pussyclapper69 (Ape)","steam_id":76561198237827742,"connected_time":3904000000000,"state":"active","ping":87},{"user_id":96,"name":"Major Woody","steam_id":76561198835541533,"connected_time":308000000000,"state":"active","ping":51},{"user_id":69,"name":"keffers","steam_id":76561198202338796,"connected_time":3116000000000,"state":"active","ping":79},{"user_id":53,"name":"Clagger","steam_id":76561198066701092,"connected_time":4715000000000,"state":"active","ping":90},{"user_id":16,"name":"mkl","steam_id":76561197986401685,"connected_time":6285000000000,"state":"active","ping":51},{"user_id":87,"name":"Vazquez Perez","steam_id":76561199185750989,"connected_time":954000000000,"state":"active","ping":92},{"user_id":97,"name":"Caught a Thundah","steam_id":76561198054495572,"connected_time":46000000000,"state":"active","ping":57},{"user_id":93,"name":"Shuko","steam_id":76561197995563378,"connected_time":595000000000,"state":"active","ping":99},{"user_id":73,"name":"corviraptor!!!!!!","steam_id":76561198058284392,"connected_time":2654000000000,"state":"active","ping":50},{"user_id":56,"name":"the keebler","steam_id":76561199486326945,"connected_time":4617000000000,"state":"active","ping":77},{"user_id":70,"name":"Moonflower ✦","steam_id":76561198191782483,"connected_time":2995000000000,"state":"active","ping":54},{"user_id":76,"name":"jg125","steam_id":76561198824953530,"connected_time":2095000000000,"state":"active","ping":156},{"user_id":81,"name":"Dragus","steam_id":76561198032967285,"connected_time":1108000000000,"state":"active","ping":72},{"user_id":45,"name":"Allister","steam_id":76561197999823352,"connected_time":5186000000000,"state":"active","ping":87},{"user_id":78,"name":"Dr. Weird","steam_id":76561198028550499,"connected_time":1723000000000,"state":"active","ping":108},{"user_id":98,"name":"Cayenne","steam_id":76561198004614086,"connected_time":32000000000,"state":"active","ping":76},{"user_id":47,"name":"Roof Rat","steam_id":76561198136475073,"connected_time":5080000000000,"state":"active","ping":84},{"user_id":95,"name":"bladees realest, saddest verse","steam_id":76561198098099826,"connected_time":518000000000,"state":"active","ping":72},{"user_id":90,"name":"UGInfernobroblazeslash gamehag.","steam_id":76561198054745240,"connected_time":907000000000,"state":"active","ping":89},{"user_id":91,"name":"Jim the Fish","steam_id":76561199135784419,"connected_time":881000000000,"state":"active","ping":103},{"user_id":92,"name":"8bean","steam_id":76561198239138132,"connected_time":878000000000,"state":"active","ping":84}]},{"server_id":108,"name":"Uncletopia | Dallas | 2 | All Maps","name_short":"dal-2","host":"dal-1.us.uncletopia.com","port":27025,"enabled":true,"region":"us-central","cc":"us","latitude":32.779167,"longitude":-96.80889,"reserved":0,"last_update":"0001-01-01T00:00:00Z","name_a2s":"Uncletopia | Dallas | 2 | All Maps","protocol":17,"map":"koth_suijin","folder":"tf","game":"Team Fortress","app_id":440,"player_count":22,"max_players":24,"Bots":0,"server_type":"Dedicated","server_os":"Linux","password":true,"vac":true,"version":"7961495","steam_id":85568392924469988,"keywords":["cp","nocrits","nodmgspread","uncletopia"],"game_id":440,"stv_port":27026,"stv_name":"Uncletopia | Dallas | 2 | All Maps | STV","players":[{"user_id":140,"name":"Username","steam_id":76561198198918781,"connected_time":2607000000000,"state":"active","ping":97},{"user_id":153,"name":"SanitysEdge","steam_id":76561198130732813,"connected_time":1227000000000,"state":"active","ping":76},{"user_id":147,"name":"Lunarthrope","steam_id":76561198292132147,"connected_time":1806000000000,"state":"active","ping":84},{"user_id":164,"name":"Hey","steam_id":76561198447517893,"connected_time":787000000000,"state":"active","ping":75},{"user_id":170,"name":"Uncle Danes Clapping Cheeks","steam_id":76561198072544858,"connected_time":266000000000,"state":"active","ping":67},{"user_id":158,"name":"omar","steam_id":76561198240028484,"connected_time":1056000000000,"state":"active","ping":78},{"user_id":155,"name":"Kuyumiester","steam_id":76561198126835302,"connected_time":1182000000000,"state":"active","ping":60},{"user_id":150,"name":"TeriyakiDynamite","steam_id":76561198050049346,"connected_time":1492000000000,"state":"active","ping":115},{"user_id":131,"name":"Greg","steam_id":76561198803498467,"connected_time":2981000000000,"state":"active","ping":123},{"user_id":120,"name":"Jerk Tryhard (roleplay)","steam_id":76561199470538309,"connected_time":3875000000000,"state":"active","ping":84},{"user_id":125,"name":"Mellou","steam_id":76561198212048740,"connected_time":3038000000000,"state":"active","ping":46},{"user_id":156,"name":"The Sorrow of Dandy","steam_id":76561198005551894,"connected_time":1095000000000,"state":"active","ping":89},{"user_id":100,"name":"DualiTea","steam_id":76561198081733870,"connected_time":5825000000000,"state":"active","ping":60},{"user_id":126,"name":"Cave Man Brain","steam_id":76561198090419068,"connected_time":3036000000000,"state":"active","ping":112},{"user_id":157,"name":"Catscr","steam_id":76561198076589280,"connected_time":1076000000000,"state":"active","ping":82},{"user_id":168,"name":"Mocha Josie","steam_id":76561198066452726,"connected_time":504000000000,"state":"active","ping":78},{"user_id":167,"name":"Pickles","steam_id":76561198010609340,"connected_time":665000000000,"state":"active","ping":78},{"user_id":151,"name":"Oni","steam_id":76561198112066584,"connected_time":1434000000000,"state":"active","ping":62},{"user_id":159,"name":"Beau","steam_id":76561198162587622,"connected_time":1043000000000,"state":"active","ping":93},{"user_id":136,"name":"wrist game dumbin","steam_id":76561198247984828,"connected_time":2850000000000,"state":"active","ping":61},{"user_id":171,"name":"Mentally Ill Woman","steam_id":76561198072030567,"connected_time":44000000000,"state":"active","ping":77},{"user_id":161,"name":"Sergeant Joker","steam_id":76561198854616604,"connected_time":1007000000000,"state":"active","ping":90}]},{"server_id":404,"name":"Uncletopia | Dallas | 3 | All Maps","name_short":"dal-3","host":"dal-1.us.uncletopia.com","port":27035,"enabled":true,"region":"us-central","cc":"us","latitude":32.779167,"longitude":-96.80889,"reserved":0,"last_update":"0001-01-01T00:00:00Z","name_a2s":"Uncletopia | Dallas | 3 | All Maps","protocol":17,"map":"koth_viaduct","folder":"tf","game":"Team Fortress","app_id":440,"player_count":0,"max_players":24,"Bots":0,"server_type":"Dedicated","server_os":"Linux","password":true,"vac":true,"version":"7961495","steam_id":85568392924515219,"keywords":["cp","nocrits","nodmgspread","uncletopia"],"game_id":440,"stv_port":27036,"stv_name":"Uncletopia | Dallas | 3 | All Maps | STV","players":null},{"server_id":405,"name":"Uncletopia | Dallas | 4 | Community","name_short":"dal-4","host":"dal-1.us.uncletopia.com","port":27045,"enabled":true,"region":"us-central","cc":"us","latitude":32.779167,"longitude":-96.80889,"reserved":0,"last_update":"0001-01-01T00:00:00Z","name_a2s":"Uncletopia | Dallas | 4 | Community","protocol":17,"map":"pl_pier","folder":"tf","game":"Team Fortress","app_id":440,"player_count":0,"max_players":24,"Bots":0,"server_type":"Dedicated","server_os":"Linux","password":true,"vac":true,"version":"7961495","steam_id":85568392924515220,"keywords":["nocrits","nodmgspread","payload","uncletopia"],"game_id":440,"stv_port":27046,"stv_name":"Uncletopia | Dallas | 4 | Community | STV","players":null},{"server_id":5,"name":"Uncletopia | Frankfurt | 1 | All Maps","name_short":"frk-1","host":"frk-1.de.uncletopia.com","port":27015,"enabled":true,"region":"eu","cc":"de","latitude":50.110924,"longitude":8.682127,"reserved":0,"last_update":"0001-01-01T00:00:00Z","name_a2s":"Uncletopia | Frankfurt | 1 | All Maps","protocol":17,"map":"pl_frontier_final","folder":"tf","game":"Team Fortress","app_id":440,"player_count":24,"max_players":24,"Bots":0,"server_type":"Dedicated","server_os":"Linux","password":true,"vac":true,"version":"7961495","steam_id":85568392924469989,"keywords":["nocrits","nodmgspread","payload","uncletopia"],"game_id":440,"stv_port":27016,"stv_name":"Uncletopia | Frankfurt | 1 | All Maps | STV","players":[{"user_id":654,"name":"Prox","steam_id":76561198351490981,"connected_time":182000000000,"state":"active","ping":54},{"user_id":655,"name":"heuji","steam_id":76561197971067828,"connected_time":173000000000,"state":"active","ping":66},{"user_id":642,"name":"Mentlegen","steam_id":76561198064764010,"connected_time":1549000000000,"state":"active","ping":103},{"user_id":656,"name":"Obscure Rock Album","steam_id":76561198032359132,"connected_time":151000000000,"state":"active","ping":58},{"user_id":623,"name":"G-Man Follower","steam_id":76561199384234822,"connected_time":3873000000000,"state":"active","ping":54},{"user_id":650,"name":"TheSiike","steam_id":76561198104872968,"connected_time":1068000000000,"state":"active","ping":64},{"user_id":647,"name":"Chappi","steam_id":76561198075512843,"connected_time":1439000000000,"state":"active","ping":93},{"user_id":637,"name":"Rastalin","steam_id":76561198037374081,"connected_time":2254000000000,"state":"active","ping":91},{"user_id":636,"name":"Syd","steam_id":76561198020515027,"connected_time":2487000000000,"state":"active","ping":74},{"user_id":653,"name":"PAX","steam_id":76561198046692146,"connected_time":217000000000,"state":"active","ping":75},{"user_id":652,"name":"Equinox","steam_id":76561199055592635,"connected_time":223000000000,"state":"active","ping":67},{"user_id":626,"name":"Barkofthephoenix","steam_id":76561198045037829,"connected_time":3821000000000,"state":"active","ping":76},{"user_id":657,"name":"DOMAIN","steam_id":76561199095640319,"connected_time":126000000000,"state":"active","ping":75},{"user_id":631,"name":"Taez","steam_id":76561198261820803,"connected_time":3553000000000,"state":"active","ping":60},{"user_id":643,"name":"Wdfrodo","steam_id":76561198985647263,"connected_time":1540000000000,"state":"active","ping":70},{"user_id":591,"name":"shadow39344","steam_id":76561198090639618,"connected_time":6844000000000,"state":"active","ping":65},{"user_id":632,"name":"Master coitus","steam_id":76561198050416948,"connected_time":3496000000000,"state":"active","ping":55},{"user_id":598,"name":"soney","steam_id":76561198121177512,"connected_time":6009000000000,"state":"active","ping":72},{"user_id":648,"name":"Fran","steam_id":76561199070516960,"connected_time":1165000000000,"state":"active","ping":63},{"user_id":649,"name":"Mayor Wank from Wanker Town","steam_id":76561197998253588,"connected_time":1164000000000,"state":"active","ping":45},{"user_id":660,"name":"snek","steam_id":76561198393655249,"connected_time":15000000000,"state":"spawning","ping":92},{"user_id":645,"name":"bruh","steam_id":76561197993922244,"connected_time":1535000000000,"state":"active","ping":50},{"user_id":594,"name":"—ฅ/ᐠ. ̫ .ᐟ\\ฅ—meow","steam_id":76561198010662796,"connected_time":6714000000000,"state":"active","ping":97},{"user_id":659,"name":"悪","steam_id":76561198095879087,"connected_time":99000000000,"state":"active","ping":70}]},{"server_id":110,"name":"Uncletopia | Frankfurt | 2 | All Maps","name_short":"frk-2","host":"frk-1.de.uncletopia.com","port":27025,"enabled":true,"region":"eu","cc":"de","latitude":50.110924,"longitude":8.682127,"reserved":0,"last_update":"0001-01-01T00:00:00Z","name_a2s":"Uncletopia | Frankfurt | 2 | All Maps","protocol":17,"map":"pl_swiftwater_final1","folder":"tf","game":"Team Fortress","app_id":440,"player_count":24,"max_players":24,"Bots":0,"server_type":"Dedicated","server_os":"Linux","password":true,"vac":true,"version":"7961495","steam_id":85568392924469990,"keywords":["nocrits","nodmgspread","payload","uncletopia"],"game_id":440,"stv_port":27026,"stv_name":"Uncletopia | Frankfurt | 2 | All Maps | STV","players":[{"user_id":306,"name":"Nurse=Leave","steam_id":76561198103323356,"connected_time":733000000000,"state":"active","ping":60},{"user_id":309,"name":"Senf","steam_id":76561198045147799,"connected_time":613000000000,"state":"active","ping":60},{"user_id":302,"name":"Blackchantingrows","steam_id":76561198972312498,"connected_time":1085000000000,"state":"active","ping":156},{"user_id":310,"name":"Champi","steam_id":76561198830002766,"connected_time":333000000000,"state":"active","ping":68},{"user_id":312,"name":"㋡‏","steam_id":76561199503613102,"connected_time":128000000000,"state":"active","ping":118},{"user_id":308,"name":"PP_master69420","steam_id":76561199019913910,"connected_time":712000000000,"state":"active","ping":134},{"user_id":311,"name":"Leituga","steam_id":76561198051127598,"connected_time":309000000000,"state":"active","ping":84},{"user_id":239,"name":"Klifton","steam_id":76561198803743443,"connected_time":4685000000000,"state":"active","ping":74},{"user_id":274,"name":"Waltcha","steam_id":76561198007691468,"connected_time":3101000000000,"state":"active","ping":60},{"user_id":283,"name":"RedLion","steam_id":76561198337545798,"connected_time":1905000000000,"state":"active","ping":60},{"user_id":305,"name":"Kenny","steam_id":76561198994898206,"connected_time":955000000000,"state":"active","ping":78},{"user_id":288,"name":"Amon Gus","steam_id":76561199094540960,"connected_time":1871000000000,"state":"active","ping":75},{"user_id":267,"name":"Mister Minthey","steam_id":76561197997249321,"connected_time":3812000000000,"state":"active","ping":47},{"user_id":317,"name":"Nonok","steam_id":76561199480685498,"connected_time":79000000000,"state":"spawning","ping":65},{"user_id":316,"name":"HarmlessCanine2","steam_id":76561198389475312,"connected_time":86000000000,"state":"active","ping":60},{"user_id":299,"name":"DozzeD","steam_id":76561198815257504,"connected_time":1521000000000,"state":"active","ping":58},{"user_id":285,"name":"Lozo","steam_id":76561198091866601,"connected_time":1902000000000,"state":"active","ping":68},{"user_id":289,"name":"Anet1k","steam_id":76561198137123138,"connected_time":1862000000000,"state":"active","ping":52},{"user_id":290,"name":"Paramedic_101","steam_id":76561198157205078,"connected_time":1858000000000,"state":"active","ping":79},{"user_id":178,"name":"michalstrach13","steam_id":76561199004687217,"connected_time":8913000000000,"state":"active","ping":70},{"user_id":318,"name":"Driver's drunkest God","steam_id":76561198969373800,"connected_time":78000000000,"state":"active","ping":69},{"user_id":313,"name":"FroTTo","steam_id":76561198186146607,"connected_time":114000000000,"state":"active","ping":75},{"user_id":303,"name":"WinRAR™","steam_id":76561198056522270,"connected_time":1075000000000,"state":"active","ping":55},{"user_id":304,"name":"Lukas","steam_id":76561198009118452,"connected_time":1054000000000,"state":"active","ping":56}]},{"server_id":308,"name":"Uncletopia | Frankfurt | 3 | All Maps","name_short":"frk-3","host":"frk-1.de.uncletopia.com","port":27035,"enabled":true,"region":"eu","cc":"de","latitude":50.110924,"longitude":8.682127,"reserved":0,"last_update":"0001-01-01T00:00:00Z","name_a2s":"Uncletopia | Frankfurt | 3 | All Maps","protocol":17,"map":"cp_mountainlab","folder":"tf","game":"Team Fortress","app_id":440,"player_count":24,"max_players":24,"Bots":0,"server_type":"Dedicated","server_os":"Linux","password":true,"vac":true,"version":"7961495","steam_id":85568392924504274,"keywords":["cp","nocrits","nodmgspread","uncletopia"],"game_id":440,"stv_port":27036,"stv_name":"Uncletopia | Frankfurt | 3 | All Maps | STV","players":[{"user_id":407,"name":"ACG_Dubsy","steam_id":76561198797308565,"connected_time":1944000000000,"state":"active","ping":72},{"user_id":427,"name":"Mr.TEA","steam_id":76561198014381591,"connected_time":1026000000000,"state":"active","ping":64},{"user_id":437,"name":"Frosta","steam_id":76561198201684095,"connected_time":418000000000,"state":"active","ping":63},{"user_id":443,"name":"I have no enemies","steam_id":76561198809430255,"connected_time":216000000000,"state":"active","ping":45},{"user_id":426,"name":"angle dewill","steam_id":76561198316643898,"connected_time":1082000000000,"state":"active","ping":47},{"user_id":382,"name":"sixhundredseventy","steam_id":76561199441772083,"connected_time":3020000000000,"state":"active","ping":55},{"user_id":439,"name":"Watermelon","steam_id":76561198078349914,"connected_time":410000000000,"state":"active","ping":60},{"user_id":412,"name":"Arsonist","steam_id":76561199087953833,"connected_time":1842000000000,"state":"active","ping":94},{"user_id":440,"name":"Gros","steam_id":76561199146274228,"connected_time":405000000000,"state":"active","ping":75},{"user_id":431,"name":"MakeItRainbow","steam_id":76561198045098064,"connected_time":846000000000,"state":"active","ping":59},{"user_id":384,"name":"Just_Dandy","steam_id":76561199051375257,"connected_time":2952000000000,"state":"active","ping":70},{"user_id":432,"name":"Goblin on deez nuts","steam_id":76561199070562554,"connected_time":808000000000,"state":"active","ping":53},{"user_id":429,"name":"L.Ron Hoyabembe","steam_id":76561198009887251,"connected_time":913000000000,"state":"active","ping":73},{"user_id":430,"name":"2bunnies","steam_id":76561198866822016,"connected_time":892000000000,"state":"active","ping":57},{"user_id":434,"name":"mary","steam_id":76561198014828037,"connected_time":739000000000,"state":"active","ping":65},{"user_id":441,"name":"smiley","steam_id":76561198042245117,"connected_time":393000000000,"state":"active","ping":90},{"user_id":444,"name":"=OKB= P4NTH3R","steam_id":76561197999204603,"connected_time":50000000000,"state":"active","ping":53},{"user_id":442,"name":"The Daniella","steam_id":76561198023075547,"connected_time":376000000000,"state":"active","ping":63},{"user_id":401,"name":"Vonacht","steam_id":76561198016033944,"connected_time":2289000000000,"state":"active","ping":61},{"user_id":435,"name":"PROFILE NAME","steam_id":76561198180056982,"connected_time":664000000000,"state":"active","ping":68},{"user_id":402,"name":"zazuza","steam_id":76561198049820905,"connected_time":2285000000000,"state":"active","ping":71},{"user_id":417,"name":"cock","steam_id":76561198307522022,"connected_time":1516000000000,"state":"active","ping":51},{"user_id":428,"name":"Mark applier","steam_id":76561198177722379,"connected_time":983000000000,"state":"active","ping":59},{"user_id":361,"name":"Kavary","steam_id":76561198024792146,"connected_time":4763000000000,"state":"active","ping":77}]},{"server_id":309,"name":"Uncletopia | Frankfurt | 4 | All Maps","name_short":"frk-4","host":"frk-1.de.uncletopia.com","port":27045,"enabled":true,"region":"eu","cc":"de","latitude":50.110924,"longitude":8.682127,"reserved":0,"last_update":"0001-01-01T00:00:00Z","name_a2s":"Uncletopia | Frankfurt | 4 | All Maps","protocol":17,"map":"pl_badwater","folder":"tf","game":"Team Fortress","app_id":440,"player_count":23,"max_players":24,"Bots":0,"server_type":"Dedicated","server_os":"Linux","password":true,"vac":true,"version":"7961495","steam_id":85568392924504275,"keywords":["nocrits","nodmgspread","payload","uncletopia"],"game_id":440,"stv_port":27046,"stv_name":"Uncletopia | Frankfurt | 4 | All Maps | STV","players":[{"user_id":274,"name":"ZaeboS","steam_id":76561198001165307,"connected_time":342000000000,"state":"active","ping":69},{"user_id":240,"name":"GMsU | Smiley","steam_id":76561198121494414,"connected_time":2260000000000,"state":"active","ping":82},{"user_id":242,"name":"DelT","steam_id":76561198204007537,"connected_time":2255000000000,"state":"active","ping":46},{"user_id":261,"name":"Real (Real)","steam_id":76561198323425034,"connected_time":467000000000,"state":"active","ping":69},{"user_id":277,"name":"insanitY","steam_id":76561198055666742,"connected_time":49000000000,"state":"active","ping":103},{"user_id":271,"name":"grr","steam_id":76561199429407130,"connected_time":386000000000,"state":"active","ping":84},{"user_id":212,"name":"lulu","steam_id":76561199147764133,"connected_time":4446000000000,"state":"active","ping":62},{"user_id":233,"name":"Circlefly_","steam_id":76561198138960827,"connected_time":2960000000000,"state":"active","ping":47},{"user_id":276,"name":"Acanda","steam_id":76561198123246537,"connected_time":156000000000,"state":"active","ping":54},{"user_id":234,"name":"Femboy Thighs","steam_id":76561198115496457,"connected_time":2908000000000,"state":"active","ping":53},{"user_id":248,"name":"\u003e:)","steam_id":76561198095560087,"connected_time":2111000000000,"state":"active","ping":68},{"user_id":195,"name":"GMsU | Acoul","steam_id":76561198229222992,"connected_time":5672000000000,"state":"active","ping":45},{"user_id":272,"name":"GogsCrunchyNuts","steam_id":76561198150599213,"connected_time":375000000000,"state":"active","ping":97},{"user_id":249,"name":"zeeko683","steam_id":76561198429788727,"connected_time":1745000000000,"state":"active","ping":45},{"user_id":229,"name":"Technic","steam_id":76561198128096130,"connected_time":3344000000000,"state":"active","ping":45},{"user_id":191,"name":"Ribs grow back","steam_id":76561199067658590,"connected_time":5745000000000,"state":"active","ping":112},{"user_id":253,"name":"Colonel Dimanche","steam_id":76561197994792632,"connected_time":1553000000000,"state":"active","ping":45},{"user_id":257,"name":"Günther","steam_id":76561198333417038,"connected_time":1226000000000,"state":"active","ping":75},{"user_id":196,"name":"GMsU | Rebikas","steam_id":76561198077053764,"connected_time":5637000000000,"state":"active","ping":42},{"user_id":225,"name":"Moses","steam_id":76561198257652671,"connected_time":3865000000000,"state":"active","ping":59},{"user_id":273,"name":"Hurans","steam_id":76561198064853199,"connected_time":363000000000,"state":"active","ping":59},{"user_id":265,"name":"Ruth","steam_id":76561198063296613,"connected_time":456000000000,"state":"active","ping":63},{"user_id":236,"name":"Largo","steam_id":76561198844368927,"connected_time":2774000000000,"state":"active","ping":75}]},{"server_id":310,"name":"Uncletopia | Frankfurt | 5 | All Maps","name_short":"frk-5","host":"frk-1.de.uncletopia.com","port":27055,"enabled":true,"region":"eu","cc":"de","latitude":50.110924,"longitude":8.682127,"reserved":0,"last_update":"0001-01-01T00:00:00Z","name_a2s":"Uncletopia | Frankfurt | 5 | All Maps","protocol":17,"map":"cp_mountainlab","folder":"tf","game":"Team Fortress","app_id":440,"player_count":23,"max_players":24,"Bots":0,"server_type":"Dedicated","server_os":"Linux","password":true,"vac":true,"version":"7961495","steam_id":85568392924504277,"keywords":["cp","nocrits","nodmgspread","uncletopia"],"game_id":440,"stv_port":27056,"stv_name":"Uncletopia | Frankfurt | 5 | All Maps | STV","players":[{"user_id":519,"name":"The Creator Of Sex","steam_id":76561198385989487,"connected_time":1764000000000,"state":"active","ping":99},{"user_id":546,"name":"Mr. Hunts","steam_id":76561197981910397,"connected_time":7000000000,"state":"spawning","ping":61},{"user_id":541,"name":"Dr. Livesey","steam_id":76561198071049943,"connected_time":227000000000,"state":"active","ping":60},{"user_id":543,"name":"---","steam_id":76561198092283741,"connected_time":88000000000,"state":"active","ping":75},{"user_id":547,"name":"DraGOs512","steam_id":76561198438519964,"connected_time":1000000000,"state":"spawning","ping":45},{"user_id":535,"name":"oskaroku00","steam_id":76561199025360128,"connected_time":500000000000,"state":"active","ping":75},{"user_id":515,"name":"Ralistix","steam_id":76561198051654135,"connected_time":1861000000000,"state":"active","ping":90},{"user_id":533,"name":"Bill Clinton","steam_id":76561198060011032,"connected_time":1057000000000,"state":"active","ping":66},{"user_id":500,"name":"d1sk","steam_id":76561197986511308,"connected_time":2801000000000,"state":"active","ping":64},{"user_id":531,"name":"Ynss","steam_id":76561198021472798,"connected_time":1158000000000,"state":"active","ping":58},{"user_id":495,"name":"Aku+","steam_id":76561198813782795,"connected_time":2892000000000,"state":"active","ping":75},{"user_id":538,"name":"BigBoyBroccoli","steam_id":76561198029337108,"connected_time":353000000000,"state":"active","ping":53},{"user_id":511,"name":"Sn1Ch","steam_id":76561198073076943,"connected_time":2427000000000,"state":"active","ping":86},{"user_id":544,"name":"enca55","steam_id":76561198348725257,"connected_time":69000000000,"state":"spawning","ping":50},{"user_id":545,"name":"Siegmeyer","steam_id":76561198328543549,"connected_time":54000000000,"state":"active","ping":80},{"user_id":529,"name":"noot","steam_id":76561198148074472,"connected_time":1618000000000,"state":"active","ping":40},{"user_id":537,"name":"BIG Dave Gaming","steam_id":76561199170843929,"connected_time":366000000000,"state":"active","ping":52},{"user_id":521,"name":"Hoff","steam_id":76561198138540938,"connected_time":1759000000000,"state":"active","ping":78},{"user_id":522,"name":"Murovelho","steam_id":76561198835081622,"connected_time":1751000000000,"state":"active","ping":98},{"user_id":540,"name":"perf","steam_id":76561199077648846,"connected_time":294000000000,"state":"active","ping":79},{"user_id":532,"name":"Daredevil","steam_id":76561198153488940,"connected_time":1157000000000,"state":"active","ping":56},{"user_id":488,"name":"Flash","steam_id":76561198067379855,"connected_time":3636000000000,"state":"active","ping":58},{"user_id":526,"name":"Jeffrey Harpen","steam_id":76561199073314677,"connected_time":1712000000000,"state":"active","ping":65}]},{"server_id":311,"name":"Uncletopia | Frankfurt | 6 | All Maps","name_short":"frk-6","host":"frk-1.de.uncletopia.com","port":27065,"enabled":true,"region":"eu","cc":"de","latitude":50.110924,"longitude":8.682127,"reserved":0,"last_update":"0001-01-01T00:00:00Z","name_a2s":"Uncletopia | Frankfurt | 6 | All Maps","protocol":17,"map":"cp_process_final","folder":"tf","game":"Team Fortress","app_id":440,"player_count":24,"max_players":24,"Bots":0,"server_type":"Dedicated","server_os":"Linux","password":true,"vac":true,"version":"7961495","steam_id":85568392924504278,"keywords":["cp","nocrits","nodmgspread","uncletopia"],"game_id":440,"stv_port":27066,"stv_name":"Uncletopia | Frankfurt | 6 | All Maps | STV","players":[{"user_id":334,"name":"Hexagon","steam_id":76561198151205758,"connected_time":5654000000000,"state":"active","ping":51},{"user_id":383,"name":"Birch","steam_id":76561197998712822,"connected_time":788000000000,"state":"active","ping":45},{"user_id":274,"name":"SuntanPikachu","steam_id":76561198121242476,"connected_time":9116000000000,"state":"active","ping":68},{"user_id":370,"name":"Borb","steam_id":76561198162156226,"connected_time":2259000000000,"state":"active","ping":99},{"user_id":392,"name":"Luka333","steam_id":76561198182066070,"connected_time":298000000000,"state":"active","ping":96},{"user_id":359,"name":"Lembas","steam_id":76561198029909366,"connected_time":2947000000000,"state":"active","ping":72},{"user_id":290,"name":"Pvt Talbot","steam_id":76561198261001389,"connected_time":8009000000000,"state":"active","ping":45},{"user_id":374,"name":"SimplyJarvis","steam_id":76561198000654287,"connected_time":2020000000000,"state":"active","ping":78},{"user_id":297,"name":"alfus","steam_id":76561198071003109,"connected_time":7454000000000,"state":"active","ping":75},{"user_id":355,"name":"Nick","steam_id":76561198036109469,"connected_time":3865000000000,"state":"active","ping":86},{"user_id":394,"name":"AetheR","steam_id":76561198005418838,"connected_time":221000000000,"state":"active","ping":74},{"user_id":388,"name":"Vacys Maslionka","steam_id":76561198126518252,"connected_time":571000000000,"state":"active","ping":77},{"user_id":377,"name":"Fr1Zer","steam_id":76561198357086270,"connected_time":1458000000000,"state":"active","ping":95},{"user_id":376,"name":"Welder","steam_id":76561198355300561,"connected_time":1473000000000,"state":"active","ping":67},{"user_id":390,"name":"tafelpoot","steam_id":76561198080036024,"connected_time":408000000000,"state":"active","ping":51},{"user_id":381,"name":"I Don't Know","steam_id":76561198841011430,"connected_time":1359000000000,"state":"active","ping":51},{"user_id":387,"name":"Merca #savetf2","steam_id":76561198088782472,"connected_time":597000000000,"state":"active","ping":53},{"user_id":365,"name":"Rock","steam_id":76561198314554574,"connected_time":2905000000000,"state":"active","ping":81},{"user_id":375,"name":"dysphoric cycle","steam_id":76561198163615254,"connected_time":1688000000000,"state":"active","ping":59},{"user_id":396,"name":"Yodas Brother","steam_id":76561197970375663,"connected_time":18000000000,"state":"spawning","ping":109},{"user_id":373,"name":"Penis Contortionist","steam_id":76561198073663784,"connected_time":2028000000000,"state":"active","ping":50},{"user_id":393,"name":"Adushka","steam_id":76561198053095808,"connected_time":295000000000,"state":"active","ping":74},{"user_id":358,"name":"Doctor Mobius","steam_id":76561197971281806,"connected_time":3394000000000,"state":"active","ping":65},{"user_id":395,"name":"Saint","steam_id":76561198003296382,"connected_time":220000000000,"state":"active","ping":64}]},{"server_id":23,"name":"Uncletopia | Frankfurt | 7 | Stopwatch","name_short":"frk-7","host":"frk-1.de.uncletopia.com","port":27075,"enabled":true,"region":"eu","cc":"de","latitude":50.110924,"longitude":8.682127,"reserved":0,"last_update":"0001-01-01T00:00:00Z","name_a2s":"Uncletopia | Frankfurt | 7 | Stopwatch","protocol":17,"map":"workshop/koth_ramjam_rc1.ugc459778887","folder":"tf","game":"Team Fortress","app_id":440,"player_count":0,"max_players":24,"Bots":0,"server_type":"Dedicated","server_os":"Linux","password":true,"vac":true,"version":"7961495","steam_id":85568392924742827,"keywords":["cp","nocrits","nodmgspread","uncletopia"],"game_id":440,"stv_port":27076,"stv_name":"Uncletopia | Frankfurt | 7 | Stopwatch | STV","players":null},{"server_id":24,"name":"Uncletopia | Frankfurt | 8 | Community","name_short":"frk-8","host":"frk-1.de.uncletopia.com","port":27085,"enabled":true,"region":"eu","cc":"de","latitude":50.110924,"longitude":8.682127,"reserved":0,"last_update":"0001-01-01T00:00:00Z","name_a2s":"Uncletopia | Frankfurt | 8 | Community","protocol":17,"map":"workshop/pl_cactuscanyon_redux_final2.ugc2579644293","folder":"tf","game":"Team Fortress","app_id":440,"player_count":0,"max_players":24,"Bots":0,"server_type":"Dedicated","server_os":"Linux","password":true,"vac":true,"version":"7961495","steam_id":85568392924742828,"keywords":["nocrits","nodmgspread","payload","uncletopia"],"game_id":440,"stv_port":27086,"stv_name":"Uncletopia | Frankfurt | 8 | Community | STV","players":null},{"server_id":202,"name":"Uncletopia | Hong Kong | 1 | All Maps","name_short":"hgk-1","host":"hgk-1.hk.uncletopia.com","port":27015,"enabled":true,"region":"asia","cc":"hk","latitude":22.302711,"longitude":114.177216,"reserved":0,"last_update":"0001-01-01T00:00:00Z","name_a2s":"Uncletopia | Hong Kong | 1 | All Maps","protocol":17,"map":"koth_king","folder":"tf","game":"Team Fortress","app_id":440,"player_count":0,"max_players":24,"Bots":0,"server_type":"Dedicated","server_os":"Linux","password":true,"vac":true,"version":"7961495","steam_id":85568392924494504,"keywords":["cp","nocrits","nodmgspread","uncletopia"],"game_id":440,"stv_port":27016,"stv_name":"Uncletopia | Hong Kong | 1 | All Maps | STV","players":null},{"server_id":1,"name":"Uncletopia | Los Angeles | 1 | All Maps","name_short":"lax-1","host":"lax-1.us.uncletopia.com","port":27015,"enabled":true,"region":"us-west","cc":"us","latitude":33.94279,"longitude":-118.41004,"reserved":0,"last_update":"0001-01-01T00:00:00Z","name_a2s":"Uncletopia | Los Angeles | 1 | All Maps","protocol":17,"map":"koth_viaduct","folder":"tf","game":"Team Fortress","app_id":440,"player_count":0,"max_players":24,"Bots":0,"server_type":"Dedicated","server_os":"Linux","password":true,"vac":true,"version":"7961495","steam_id":85568392924469991,"keywords":["cp","nocrits","nodmgspread","uncletopia"],"game_id":440,"stv_port":27016,"stv_name":"Uncletopia | Los Angeles | 1 | All Maps | STV","players":null},{"server_id":112,"name":"Uncletopia | Los Angeles | 2 | All Maps","name_short":"lax-2","host":"lax-1.us.uncletopia.com","port":27025,"enabled":true,"region":"us-west","cc":"us","latitude":33.94279,"longitude":-118.41004,"reserved":0,"last_update":"0001-01-01T00:00:00Z","name_a2s":"Uncletopia | Los Angeles | 2 | All Maps","protocol":17,"map":"koth_viaduct","folder":"tf","game":"Team Fortress","app_id":440,"player_count":0,"max_players":24,"Bots":0,"server_type":"Dedicated","server_os":"Linux","password":true,"vac":true,"version":"7961495","steam_id":85568392924469992,"keywords":["cp","nocrits","nodmgspread","uncletopia"],"game_id":440,"stv_port":27026,"stv_name":"Uncletopia | Los Angeles | 2 | All Maps | STV","players":null},{"server_id":324,"name":"Uncletopia | Los Angeles | 3 | All Maps","name_short":"lax-3","host":"lax-1.us.uncletopia.com","port":27035,"enabled":true,"region":"us-west","cc":"us","latitude":33.94279,"longitude":-118.41004,"reserved":0,"last_update":"0001-01-01T00:00:00Z","name_a2s":"Uncletopia | Los Angeles | 3 | All Maps","protocol":17,"map":"pl_barnblitz","folder":"tf","game":"Team Fortress","app_id":440,"player_count":0,"max_players":24,"Bots":0,"server_type":"Dedicated","server_os":"Linux","password":true,"vac":true,"version":"7961495","steam_id":85568392924510198,"keywords":["nocrits","nodmgspread","payload","uncletopia"],"game_id":440,"stv_port":27036,"stv_name":"Uncletopia | Los Angeles | 3 | All Maps | STV","players":null},{"server_id":25,"name":"Uncletopia | Los Angeles | 4 | Stopwatch","name_short":"lax-4","host":"lax-1.us.uncletopia.com","port":27045,"enabled":true,"region":"us-west","cc":"us","latitude":33.94279,"longitude":-118.41004,"reserved":0,"last_update":"0001-01-01T00:00:00Z","name_a2s":"Uncletopia | Los Angeles | 4 | Stopwatch","protocol":17,"map":"pl_barnblitz","folder":"tf","game":"Team Fortress","app_id":440,"player_count":0,"max_players":24,"Bots":0,"server_type":"Dedicated","server_os":"Linux","password":true,"vac":true,"version":"7961495","steam_id":85568392924510199,"keywords":["nocrits","nodmgspread","payload","uncletopia"],"game_id":440,"stv_port":27046,"stv_name":"Uncletopia | Los Angeles | 4 | Stopwatch | STV","players":null},{"server_id":11,"name":"Uncletopia | London | 1 | All Maps","name_short":"lon-1","host":"lon-1.uk.uncletopia.com","port":27015,"enabled":true,"region":"eu","cc":"gb","latitude":51.509865,"longitude":-0.118092,"reserved":0,"last_update":"0001-01-01T00:00:00Z","name_a2s":"Uncletopia | London | 1 | All Maps","protocol":17,"map":"pl_pier","folder":"tf","game":"Team Fortress","app_id":440,"player_count":24,"max_players":24,"Bots":0,"server_type":"Dedicated","server_os":"Linux","password":true,"vac":true,"version":"7961495","steam_id":85568392924367362,"keywords":["nocrits","nodmgspread","payload","uncletopia"],"game_id":440,"stv_port":27016,"stv_name":"Uncletopia | London | 1 | All Maps | STV","players":[{"user_id":570,"name":"trite","steam_id":76561197983765323,"connected_time":3425000000000,"state":"active","ping":53},{"user_id":621,"name":"Vershal Smershal","steam_id":76561198116223995,"connected_time":176000000000,"state":"active","ping":58},{"user_id":581,"name":"three rats in a trenchcoat","steam_id":76561197983889333,"connected_time":3018000000000,"state":"active","ping":73},{"user_id":620,"name":"♦Silvia♦","steam_id":76561198373039444,"connected_time":188000000000,"state":"active","ping":113},{"user_id":591,"name":"Minimi","steam_id":76561198873850443,"connected_time":2309000000000,"state":"active","ping":45},{"user_id":622,"name":"Hasamnas","steam_id":76561199125038537,"connected_time":175000000000,"state":"active","ping":58},{"user_id":617,"name":"tully","steam_id":76561198058012525,"connected_time":321000000000,"state":"active","ping":69},{"user_id":603,"name":"Mébh Óg MacTíre","steam_id":76561198346399624,"connected_time":969000000000,"state":"active","ping":71},{"user_id":592,"name":"Grim the lemon","steam_id":76561199083433988,"connected_time":2193000000000,"state":"active","ping":53},{"user_id":525,"name":"charlotte","steam_id":76561198075129898,"connected_time":8294000000000,"state":"active","ping":31},{"user_id":613,"name":"the lorax","steam_id":76561199180176442,"connected_time":572000000000,"state":"active","ping":72},{"user_id":557,"name":"nappo","steam_id":76561198060105180,"connected_time":4734000000000,"state":"active","ping":60},{"user_id":623,"name":"xavier","steam_id":76561198076494034,"connected_time":122000000000,"state":"active","ping":48},{"user_id":585,"name":"Finkaksu Devourer of Sour Candy","steam_id":76561198201389163,"connected_time":2873000000000,"state":"active","ping":72},{"user_id":522,"name":"whimsy.","steam_id":76561198878171763,"connected_time":8347000000000,"state":"active","ping":50},{"user_id":604,"name":"Citrus","steam_id":76561198090650837,"connected_time":969000000000,"state":"active","ping":57},{"user_id":609,"name":"getpost","steam_id":76561198260064876,"connected_time":793000000000,"state":"active","ping":95},{"user_id":564,"name":"Kahvi","steam_id":76561198723244199,"connected_time":4466000000000,"state":"active","ping":75},{"user_id":618,"name":"spencer pooties","steam_id":76561198123044544,"connected_time":321000000000,"state":"active","ping":79},{"user_id":558,"name":"GoblinGaming","steam_id":76561198360395476,"connected_time":4733000000000,"state":"active","ping":35},{"user_id":529,"name":"Clown :o)","steam_id":76561198074657015,"connected_time":7778000000000,"state":"active","ping":59},{"user_id":616,"name":"Bajas","steam_id":76561198179339326,"connected_time":352000000000,"state":"active","ping":77},{"user_id":573,"name":"Wuffington","steam_id":76561198033762881,"connected_time":3262000000000,"state":"active","ping":49},{"user_id":578,"name":"albert","steam_id":76561198353496134,"connected_time":3199000000000,"state":"active","ping":65}]},{"server_id":114,"name":"Uncletopia | London | 2 | All Maps","name_short":"lon-2","host":"lon-1.uk.uncletopia.com","port":27025,"enabled":true,"region":"eu","cc":"gb","latitude":51.509865,"longitude":-0.118092,"reserved":0,"last_update":"0001-01-01T00:00:00Z","name_a2s":"Uncletopia | London | 2 | All Maps","protocol":17,"map":"pl_barnblitz","folder":"tf","game":"Team Fortress","app_id":440,"player_count":24,"max_players":24,"Bots":0,"server_type":"Dedicated","server_os":"Linux","password":true,"vac":true,"version":"7961495","steam_id":85568392924470941,"keywords":["nocrits","nodmgspread","payload","uncletopia"],"game_id":440,"stv_port":27026,"stv_name":"Uncletopia | London | 2 | All Maps | STV","players":[{"user_id":288,"name":"Ghost","steam_id":76561198110914180,"connected_time":1758000000000,"state":"active","ping":98},{"user_id":305,"name":"Conan","steam_id":76561198158321202,"connected_time":89000000000,"state":"active","ping":56},{"user_id":270,"name":"Woman (Real)","steam_id":76561199151823932,"connected_time":3447000000000,"state":"active","ping":85},{"user_id":280,"name":"QualityRubbish","steam_id":76561198069645046,"connected_time":2391000000000,"state":"active","ping":42},{"user_id":296,"name":"flamingosaurus","steam_id":76561198051455397,"connected_time":774000000000,"state":"active","ping":45},{"user_id":277,"name":"Toeguy","steam_id":76561198293532003,"connected_time":2424000000000,"state":"active","ping":88},{"user_id":278,"name":"Ville","steam_id":76561198137424821,"connected_time":2418000000000,"state":"active","ping":60},{"user_id":298,"name":"ky4nite","steam_id":76561198157738042,"connected_time":432000000000,"state":"active","ping":58},{"user_id":295,"name":"Omni","steam_id":76561197964320557,"connected_time":800000000000,"state":"active","ping":64},{"user_id":279,"name":"We're Great","steam_id":76561198331082274,"connected_time":2406000000000,"state":"active","ping":122},{"user_id":273,"name":"child cruncher","steam_id":76561199376433147,"connected_time":3044000000000,"state":"active","ping":48},{"user_id":299,"name":"[SpA]Scatterbrain","steam_id":76561197998639769,"connected_time":431000000000,"state":"active","ping":45},{"user_id":276,"name":"Ephix","steam_id":76561197977164055,"connected_time":2439000000000,"state":"active","ping":57},{"user_id":291,"name":"jjkun786","steam_id":76561199438517484,"connected_time":1375000000000,"state":"active","ping":30},{"user_id":241,"name":"roblan11","steam_id":76561198066839258,"connected_time":5198000000000,"state":"active","ping":58},{"user_id":271,"name":"=flashpoint=","steam_id":76561197976774456,"connected_time":3363000000000,"state":"active","ping":49},{"user_id":193,"name":"soil.dirt.earth","steam_id":76561198014377623,"connected_time":8924000000000,"state":"active","ping":31},{"user_id":300,"name":"hawkblob","steam_id":76561198803720565,"connected_time":421000000000,"state":"active","ping":70},{"user_id":164,"name":"cp lover","steam_id":76561198413275515,"connected_time":10442000000000,"state":"active","ping":79},{"user_id":301,"name":"Jombus Quan","steam_id":76561198240560666,"connected_time":415000000000,"state":"active","ping":50},{"user_id":260,"name":"Agro | KritzKast","steam_id":76561197970498549,"connected_time":4076000000000,"state":"active","ping":46},{"user_id":250,"name":"Warrior555MainsGanon","steam_id":76561198388627786,"connected_time":4441000000000,"state":"active","ping":70},{"user_id":294,"name":"Coldynator","steam_id":76561198042224175,"connected_time":849000000000,"state":"active","ping":82},{"user_id":304,"name":"Not A Fake Uncletopia Server","steam_id":76561198152871288,"connected_time":288000000000,"state":"active","ping":64}]},{"server_id":320,"name":"Uncletopia | London | 3 | All Maps","name_short":"lon-3","host":"lon-1.uk.uncletopia.com","port":27035,"enabled":true,"region":"eu","cc":"gb","latitude":51.509865,"longitude":-0.118092,"reserved":0,"last_update":"0001-01-01T00:00:00Z","name_a2s":"Uncletopia | London | 3 | All Maps","protocol":17,"map":"pl_thundermountain","folder":"tf","game":"Team Fortress","app_id":440,"player_count":24,"max_players":24,"Bots":0,"server_type":"Dedicated","server_os":"Linux","password":true,"vac":true,"version":"7961495","steam_id":85568392924510192,"keywords":["nocrits","nodmgspread","payload","uncletopia"],"game_id":440,"stv_port":27036,"stv_name":"Uncletopia | London | 3 | All Maps | STV","players":[{"user_id":174,"name":"Beanie","steam_id":76561198173882658,"connected_time":1566000000000,"state":"active","ping":52},{"user_id":179,"name":"RandomName","steam_id":76561198055552108,"connected_time":1082000000000,"state":"active","ping":61},{"user_id":149,"name":"not a nihilist","steam_id":76561198004340466,"connected_time":3118000000000,"state":"active","ping":45},{"user_id":175,"name":"Finem Belli","steam_id":76561198227177976,"connected_time":1507000000000,"state":"active","ping":47},{"user_id":146,"name":"Ricey","steam_id":76561198832961307,"connected_time":3315000000000,"state":"active","ping":45},{"user_id":189,"name":"Jimmy Poppadopolos","steam_id":76561198044825612,"connected_time":46000000000,"state":"active","ping":57},{"user_id":177,"name":"Jersku","steam_id":76561198140994845,"connected_time":1184000000000,"state":"active","ping":76},{"user_id":97,"name":"KFC Manager","steam_id":76561198066374956,"connected_time":6440000000000,"state":"active","ping":84},{"user_id":120,"name":"Razef","steam_id":76561198030309484,"connected_time":4408000000000,"state":"active","ping":56},{"user_id":176,"name":"skittish maiden","steam_id":76561198096856475,"connected_time":1229000000000,"state":"active","ping":46},{"user_id":184,"name":"slippin jimmy","steam_id":76561198090788590,"connected_time":799000000000,"state":"active","ping":45},{"user_id":82,"name":"Deez nuts","steam_id":76561199429562693,"connected_time":6833000000000,"state":"active","ping":84},{"user_id":145,"name":"Cosmic Gamer","steam_id":76561198027357981,"connected_time":3390000000000,"state":"active","ping":100},{"user_id":187,"name":"Dapper Pan Man","steam_id":76561197981874399,"connected_time":244000000000,"state":"active","ping":99},{"user_id":158,"name":"Shoe Gayser","steam_id":76561198063127464,"connected_time":2728000000000,"state":"active","ping":57},{"user_id":186,"name":"tomboys in skirts","steam_id":76561199017293122,"connected_time":705000000000,"state":"active","ping":75},{"user_id":151,"name":"Fallen","steam_id":76561199445283186,"connected_time":2902000000000,"state":"active","ping":119},{"user_id":190,"name":"Ransu","steam_id":76561198211750823,"connected_time":46000000000,"state":"active","ping":70},{"user_id":169,"name":"smk","steam_id":76561198068027379,"connected_time":2044000000000,"state":"active","ping":85},{"user_id":86,"name":"JSX","steam_id":76561198039097662,"connected_time":6787000000000,"state":"active","ping":81},{"user_id":172,"name":"Para Bellum","steam_id":76561198375413446,"connected_time":1855000000000,"state":"active","ping":48},{"user_id":92,"name":"Gkiller","steam_id":76561198169086450,"connected_time":6628000000000,"state":"active","ping":91},{"user_id":173,"name":"sarcasticsatan69","steam_id":76561198407566842,"connected_time":1820000000000,"state":"active","ping":72},{"user_id":148,"name":"JuanCarlosOMG","steam_id":76561198310912671,"connected_time":3263000000000,"state":"active","ping":179}]},{"server_id":321,"name":"Uncletopia | London | 4 | All Maps","name_short":"lon-4","host":"lon-1.uk.uncletopia.com","port":27045,"enabled":true,"region":"eu","cc":"gb","latitude":51.509865,"longitude":-0.118092,"reserved":0,"last_update":"0001-01-01T00:00:00Z","name_a2s":"Uncletopia | London | 4 | All Maps","protocol":17,"map":"pl_barnblitz","folder":"tf","game":"Team Fortress","app_id":440,"player_count":24,"max_players":24,"Bots":0,"server_type":"Dedicated","server_os":"Linux","password":true,"vac":true,"version":"7961495","steam_id":85568392924510193,"keywords":["nocrits","nodmgspread","payload","uncletopia"],"game_id":440,"stv_port":27046,"stv_name":"Uncletopia | London | 4 | All Maps | STV","players":[{"user_id":14,"name":"Sad Potato","steam_id":76561198239654762,"connected_time":3364000000000,"state":"active","ping":45},{"user_id":15,"name":"SpicyBoi","steam_id":76561198137845321,"connected_time":3327000000000,"state":"active","ping":61},{"user_id":68,"name":"你好, 我是希特勒","steam_id":76561198055512527,"connected_time":372000000000,"state":"active","ping":63},{"user_id":53,"name":"Drinking Problem","steam_id":76561198319162953,"connected_time":2020000000000,"state":"active","ping":78},{"user_id":71,"name":"Lunarian","steam_id":76561198055811259,"connected_time":252000000000,"state":"active","ping":65},{"user_id":61,"name":"Kimmukka","steam_id":76561198348781326,"connected_time":1013000000000,"state":"active","ping":120},{"user_id":50,"name":"Zerius","steam_id":76561198044235220,"connected_time":2147000000000,"state":"active","ping":73},{"user_id":21,"name":"Jussukka","steam_id":76561198122894683,"connected_time":3203000000000,"state":"active","ping":85},{"user_id":67,"name":"Pancholín","steam_id":76561198262777640,"connected_time":397000000000,"state":"active","ping":75},{"user_id":69,"name":"Chivler","steam_id":76561198097655395,"connected_time":356000000000,"state":"active","ping":55},{"user_id":57,"name":"Coby","steam_id":76561198060876389,"connected_time":1299000000000,"state":"active","ping":82},{"user_id":31,"name":"Yuzu","steam_id":76561198121694613,"connected_time":2820000000000,"state":"active","ping":52},{"user_id":58,"name":"Plep","steam_id":76561198840259819,"connected_time":1288000000000,"state":"active","ping":52},{"user_id":66,"name":"Dolcelatte","steam_id":76561198038501770,"connected_time":581000000000,"state":"active","ping":60},{"user_id":47,"name":"ruschca","steam_id":76561198041966522,"connected_time":2418000000000,"state":"active","ping":40},{"user_id":37,"name":"Smoking problem","steam_id":76561198361351449,"connected_time":2708000000000,"state":"active","ping":66},{"user_id":38,"name":"s a i","steam_id":76561197970379754,"connected_time":2698000000000,"state":"active","ping":63},{"user_id":49,"name":"Ady Pádlo","steam_id":76561198263104437,"connected_time":2275000000000,"state":"active","ping":84},{"user_id":40,"name":"Magirby","steam_id":76561198818777390,"connected_time":2623000000000,"state":"active","ping":102},{"user_id":41,"name":"JustMayor","steam_id":76561198050515503,"connected_time":2620000000000,"state":"active","ping":74},{"user_id":70,"name":"ice","steam_id":76561198011015750,"connected_time":273000000000,"state":"active","ping":66},{"user_id":52,"name":"2006 Mitsubishi Lancer","steam_id":76561198036632498,"connected_time":2069000000000,"state":"active","ping":36},{"user_id":45,"name":"heddwch","steam_id":76561198076097983,"connected_time":2541000000000,"state":"active","ping":82},{"user_id":55,"name":"fat","steam_id":76561199149307190,"connected_time":1975000000000,"state":"active","ping":86}]},{"server_id":21,"name":"Uncletopia | London | 5 | All Maps","name_short":"lon-5","host":"lon-1.uk.uncletopia.com","port":27055,"enabled":true,"region":"eu","cc":"gb","latitude":51.509865,"longitude":-0.118092,"reserved":0,"last_update":"0001-01-01T00:00:00Z","name_a2s":"Uncletopia | London | 5 | All Maps","protocol":17,"map":"pl_frontier_final","folder":"tf","game":"Team Fortress","app_id":440,"player_count":24,"max_players":24,"Bots":0,"server_type":"Dedicated","server_os":"Linux","password":true,"vac":true,"version":"7961495","steam_id":85568392924742829,"keywords":["nocrits","nodmgspread","payload","uncletopia"],"game_id":440,"stv_port":27056,"stv_name":"Uncletopia | London | 5 | All Maps | STV","players":[{"user_id":46,"name":"Cookies and Bakies","steam_id":76561198017442928,"connected_time":4172000000000,"state":"active","ping":57},{"user_id":49,"name":"spy in the base","steam_id":76561198284570752,"connected_time":4120000000000,"state":"active","ping":71},{"user_id":83,"name":"Testy","steam_id":76561198169996602,"connected_time":365000000000,"state":"active","ping":51},{"user_id":36,"name":"FoOzTV","steam_id":76561197998636728,"connected_time":4582000000000,"state":"active","ping":58},{"user_id":82,"name":"glyph","steam_id":76561197980736364,"connected_time":425000000000,"state":"active","ping":80},{"user_id":73,"name":"Saucisse","steam_id":76561198119955969,"connected_time":2177000000000,"state":"active","ping":59},{"user_id":24,"name":"meatsoupcube","steam_id":76561198276802249,"connected_time":4907000000000,"state":"active","ping":92},{"user_id":84,"name":"Virgil","steam_id":76561198248786778,"connected_time":364000000000,"state":"active","ping":110},{"user_id":71,"name":"Albon","steam_id":76561198060378881,"connected_time":2268000000000,"state":"active","ping":65},{"user_id":76,"name":"permission to cook meth","steam_id":76561198053929269,"connected_time":1072000000000,"state":"active","ping":89},{"user_id":85,"name":"fernandobmwm355555","steam_id":76561198086609447,"connected_time":348000000000,"state":"active","ping":63},{"user_id":31,"name":"FireStorm","steam_id":76561198350478325,"connected_time":4729000000000,"state":"active","ping":43},{"user_id":90,"name":"Fabric","steam_id":76561198118742661,"connected_time":36000000000,"state":"active","ping":102},{"user_id":75,"name":"Oak","steam_id":76561198067315672,"connected_time":1105000000000,"state":"active","ping":46},{"user_id":87,"name":"Werjor","steam_id":76561198845777888,"connected_time":279000000000,"state":"active","ping":43},{"user_id":88,"name":"All my homies love the husk","steam_id":76561198173218318,"connected_time":277000000000,"state":"active","ping":49},{"user_id":57,"name":"Gardvord","steam_id":76561198120715753,"connected_time":3720000000000,"state":"active","ping":71},{"user_id":80,"name":"etc","steam_id":76561197998394797,"connected_time":627000000000,"state":"active","ping":50},{"user_id":64,"name":"(MAC) [BN] Crazyking","steam_id":76561198001668616,"connected_time":3079000000000,"state":"active","ping":64},{"user_id":66,"name":"Demicore","steam_id":76561197976922136,"connected_time":2534000000000,"state":"active","ping":69},{"user_id":59,"name":"Draugluin","steam_id":76561199219965276,"connected_time":3714000000000,"state":"active","ping":60},{"user_id":60,"name":"Beep","steam_id":76561198151248575,"connected_time":3714000000000,"state":"active","ping":76},{"user_id":61,"name":"Bortas","steam_id":76561197972282153,"connected_time":3712000000000,"state":"active","ping":71},{"user_id":89,"name":"Ark-e","steam_id":76561198261870909,"connected_time":60000000000,"state":"active","ping":35}]},{"server_id":22,"name":"Uncletopia | London | 6 | All Maps","name_short":"lon-6","host":"lon-1.uk.uncletopia.com","port":27065,"enabled":true,"region":"eu","cc":"gb","latitude":51.509865,"longitude":-0.118092,"reserved":0,"last_update":"0001-01-01T00:00:00Z","name_a2s":"Uncletopia | London | 6 | All Maps","protocol":17,"map":"koth_lakeside_final","folder":"tf","game":"Team Fortress","app_id":440,"player_count":24,"max_players":24,"Bots":0,"server_type":"Dedicated","server_os":"Linux","password":true,"vac":true,"version":"7961495","steam_id":85568392924742830,"keywords":["cp","nocrits","nodmgspread","uncletopia"],"game_id":440,"stv_port":27066,"stv_name":"Uncletopia | London | 6 | All Maps | STV","players":[{"user_id":56,"name":"Claw","steam_id":76561198060985181,"connected_time":442000000000,"state":"active","ping":60},{"user_id":36,"name":"LǘcКγ کŦriкξ","steam_id":76561198057723275,"connected_time":752000000000,"state":"active","ping":53},{"user_id":53,"name":"Old Hat","steam_id":76561197994673297,"connected_time":590000000000,"state":"active","ping":63},{"user_id":57,"name":"i see b4nny everywhere...","steam_id":76561198034955422,"connected_time":346000000000,"state":"active","ping":53},{"user_id":60,"name":"󠀡󠀡","steam_id":76561198059375315,"connected_time":194000000000,"state":"active","ping":69},{"user_id":33,"name":"kelsey","steam_id":76561198426604784,"connected_time":828000000000,"state":"active","ping":39},{"user_id":31,"name":"[P-roc] BadJacKS","steam_id":76561197972666377,"connected_time":849000000000,"state":"active","ping":66},{"user_id":58,"name":"StepOnLegos","steam_id":76561198149129093,"connected_time":282000000000,"state":"active","ping":60},{"user_id":34,"name":"toomas2018(vote for toomas2018)","steam_id":76561199105796083,"connected_time":827000000000,"state":"active","ping":72},{"user_id":37,"name":"Rez","steam_id":76561198410598772,"connected_time":730000000000,"state":"active","ping":45},{"user_id":38,"name":"aja","steam_id":76561198972253395,"connected_time":719000000000,"state":"active","ping":55},{"user_id":61,"name":"Gillusion","steam_id":76561198138818087,"connected_time":193000000000,"state":"active","ping":46},{"user_id":40,"name":"obi","steam_id":76561198040154461,"connected_time":709000000000,"state":"active","ping":65},{"user_id":54,"name":"Rock..","steam_id":76561198004641963,"connected_time":571000000000,"state":"active","ping":81},{"user_id":42,"name":"Pinkchup","steam_id":76561198106802803,"connected_time":693000000000,"state":"active","ping":82},{"user_id":43,"name":"svepitos","steam_id":76561198287351235,"connected_time":670000000000,"state":"active","ping":65},{"user_id":44,"name":"Gustavo_Fring_6969","steam_id":76561199373610279,"connected_time":659000000000,"state":"active","ping":96},{"user_id":45,"name":"Qdarks","steam_id":76561198013391340,"connected_time":653000000000,"state":"active","ping":143},{"user_id":46,"name":"Nymph","steam_id":76561198042801329,"connected_time":647000000000,"state":"active","ping":70},{"user_id":48,"name":"fish","steam_id":76561199175173199,"connected_time":640000000000,"state":"active","ping":53},{"user_id":49,"name":"Lyxfex","steam_id":76561198050166082,"connected_time":632000000000,"state":"active","ping":132},{"user_id":50,"name":"The Boss","steam_id":76561198426522902,"connected_time":627000000000,"state":"active","ping":55},{"user_id":51,"name":"Alegz","steam_id":76561198287810139,"connected_time":626000000000,"state":"active","ping":85},{"user_id":52,"name":"cringe incarnate","steam_id":76561198086987479,"connected_time":621000000000,"state":"active","ping":94}]},{"server_id":40,"name":"Uncletopia | London | 7 | Stopwatch","name_short":"lon-7","host":"lon-1.uk.uncletopia.com","port":27075,"enabled":true,"region":"eu","cc":"gb","latitude":51.509865,"longitude":-0.118092,"reserved":0,"last_update":"0001-01-01T00:00:00Z","name_a2s":"Uncletopia | London | 7 | Stopwatch","protocol":17,"map":"workshop/pl_badwater_pro_v12.ugc2142942074","folder":"tf","game":"Team Fortress","app_id":440,"player_count":2,"max_players":24,"Bots":0,"server_type":"Dedicated","server_os":"Linux","password":true,"vac":true,"version":"7961495","steam_id":85568392924964314,"keywords":["nocrits","nodmgspread","payload","uncletopia"],"game_id":440,"stv_port":27076,"stv_name":"Uncletopia | London | 7 | Stopwatch | STV","players":[{"user_id":6,"name":"A_GingerIdiot","steam_id":76561198313306026,"connected_time":442000000000,"state":"active","ping":50},{"user_id":7,"name":"Tispy","steam_id":76561199207410049,"connected_time":272000000000,"state":"active","ping":91}]},{"server_id":41,"name":"Uncletopia | London | 8 | Community","name_short":"lon-8","host":"lon-1.uk.uncletopia.com","port":27085,"enabled":true,"region":"eu","cc":"gb","latitude":51.509865,"longitude":-0.118092,"reserved":0,"last_update":"0001-01-01T00:00:00Z","name_a2s":"Uncletopia | London | 8 | Community","protocol":17,"map":"cp_snakewater_final1","folder":"tf","game":"Team Fortress","app_id":440,"player_count":0,"max_players":24,"Bots":0,"server_type":"Dedicated","server_os":"Linux","password":true,"vac":true,"version":"7961495","steam_id":85568392924964315,"keywords":["cp","nocrits","nodmgspread","uncletopia"],"game_id":440,"stv_port":27086,"stv_name":"Uncletopia | London | 8 | Community | STV","players":null},{"server_id":300,"name":"Uncletopia | Montréal | 1 | One Thousand Uncles","name_short":"mtl-1","host":"mtl-1.ca.uncletopia.com","port":27015,"enabled":true,"region":"us-east","cc":"ca","latitude":45.50889,"longitude":-73.56167,"reserved":0,"last_update":"0001-01-01T00:00:00Z","name_a2s":"","protocol":0,"map":"","folder":"","game":"","app_id":0,"player_count":3,"max_players":0,"Bots":0,"server_type":"","server_os":"","password":false,"vac":false,"version":"","steam_id":0,"keywords":null,"game_id":0,"stv_port":0,"stv_name":"","players":[{"user_id":60,"name":"Lucas096br","steam_id":76561198350760997,"connected_time":5404000000000,"state":"active","ping":212},{"user_id":83,"name":"D.T. Katze","steam_id":76561198002280813,"connected_time":478000000000,"state":"active","ping":59},{"user_id":79,"name":"Cactus Man","steam_id":76561198079494660,"connected_time":3633000000000,"state":"active","ping":64}]},{"server_id":301,"name":"Uncletopia | Montréal | 2 | One Thousand Uncles","name_short":"mtl-2","host":"mtl-1.ca.uncletopia.com","port":27025,"enabled":true,"region":"us-east","cc":"ca","latitude":45.50889,"longitude":-73.56167,"reserved":0,"last_update":"0001-01-01T00:00:00Z","name_a2s":"","protocol":0,"map":"","folder":"","game":"","app_id":0,"player_count":0,"max_players":0,"Bots":0,"server_type":"","server_os":"","password":false,"vac":false,"version":"","steam_id":0,"keywords":null,"game_id":0,"stv_port":0,"stv_name":"","players":null},{"server_id":302,"name":"Uncletopia | Montréal | 3 | One Thousand Uncles","name_short":"mtl-3","host":"mtl-1.ca.uncletopia.com","port":27035,"enabled":true,"region":"us-east","cc":"ca","latitude":45.50889,"longitude":-73.56167,"reserved":0,"last_update":"0001-01-01T00:00:00Z","name_a2s":"","protocol":0,"map":"","folder":"","game":"","app_id":0,"player_count":0,"max_players":0,"Bots":0,"server_type":"","server_os":"","password":false,"vac":false,"version":"","steam_id":0,"keywords":null,"game_id":0,"stv_port":0,"stv_name":"","players":null},{"server_id":13,"name":"Uncletopia | New York City | 1 | All Maps","name_short":"nyc-1","host":"nyc-1.us.uncletopia.com","port":27015,"enabled":true,"region":"us-east","cc":"us","latitude":40.73061,"longitude":-73.93524,"reserved":0,"last_update":"0001-01-01T00:00:00Z","name_a2s":"Uncletopia | New York City | 1 | All Maps","protocol":17,"map":"koth_cascade","folder":"tf","game":"Team Fortress","app_id":440,"player_count":0,"max_players":24,"Bots":0,"server_type":"Dedicated","server_os":"Linux","password":true,"vac":true,"version":"7961495","steam_id":85568392924469993,"keywords":["cp","nocrits","nodmgspread","uncletopia"],"game_id":440,"stv_port":27016,"stv_name":"Uncletopia | New York City | 1 | All Maps | STV","players":null},{"server_id":14,"name":"Uncletopia | New York City | 2 | All Maps","name_short":"nyc-2","host":"nyc-1.us.uncletopia.com","port":27025,"enabled":true,"region":"us-east","cc":"us","latitude":40.73061,"longitude":-73.93524,"reserved":0,"last_update":"0001-01-01T00:00:00Z","name_a2s":"Uncletopia | New York City | 2 | All Maps","protocol":17,"map":"cp_dustbowl","folder":"tf","game":"Team Fortress","app_id":440,"player_count":24,"max_players":24,"Bots":0,"server_type":"Dedicated","server_os":"Linux","password":true,"vac":true,"version":"7961495","steam_id":85568392924469994,"keywords":["cp","nocrits","nodmgspread","uncletopia"],"game_id":440,"stv_port":27026,"stv_name":"Uncletopia | New York City | 2 | All Maps | STV","players":[{"user_id":41,"name":"popfulmail","steam_id":76561198865971290,"connected_time":2386000000000,"state":"active","ping":86},{"user_id":69,"name":"toe","steam_id":76561199490509775,"connected_time":523000000000,"state":"active","ping":140},{"user_id":55,"name":"Risingtigerking","steam_id":76561199070704000,"connected_time":1529000000000,"state":"active","ping":74},{"user_id":49,"name":"kofji(but worse)","steam_id":76561198021224745,"connected_time":1671000000000,"state":"active","ping":36},{"user_id":11,"name":"Bother","steam_id":76561198336750909,"connected_time":3353000000000,"state":"active","ping":36},{"user_id":53,"name":"John Fortress","steam_id":76561198999712284,"connected_time":1568000000000,"state":"active","ping":79},{"user_id":65,"name":"loscemo","steam_id":76561197994884609,"connected_time":730000000000,"state":"active","ping":71},{"user_id":59,"name":"ACKnowledge","steam_id":76561198036189303,"connected_time":1361000000000,"state":"active","ping":74},{"user_id":39,"name":"LeGamingProPlays","steam_id":76561198121304032,"connected_time":2445000000000,"state":"active","ping":90},{"user_id":66,"name":"saurhead","steam_id":76561198132937722,"connected_time":692000000000,"state":"active","ping":45},{"user_id":32,"name":"GIGA COMFY","steam_id":76561198310880776,"connected_time":2650000000000,"state":"active","ping":52},{"user_id":68,"name":"Admiral Desto","steam_id":76561198301585815,"connected_time":551000000000,"state":"active","ping":46},{"user_id":28,"name":"Yo Bro","steam_id":76561199020544493,"connected_time":2831000000000,"state":"active","ping":89},{"user_id":58,"name":"haroomg","steam_id":76561198353028714,"connected_time":1390000000000,"state":"active","ping":166},{"user_id":67,"name":"emotional suppport e-cigarette","steam_id":76561198172120615,"connected_time":616000000000,"state":"active","ping":41},{"user_id":23,"name":"ꙮ Best Buddy Noivern ꙮ","steam_id":76561198138783855,"connected_time":2950000000000,"state":"active","ping":121},{"user_id":24,"name":"Midget Jesus","steam_id":76561199275179715,"connected_time":2943000000000,"state":"active","ping":51},{"user_id":60,"name":"neet","steam_id":76561197968115168,"connected_time":1311000000000,"state":"active","ping":50},{"user_id":33,"name":"Dark_Eagle","steam_id":76561198397908108,"connected_time":2626000000000,"state":"active","ping":88},{"user_id":64,"name":"guy","steam_id":76561198163306561,"connected_time":1017000000000,"state":"active","ping":71},{"user_id":35,"name":"catface","steam_id":76561198096347625,"connected_time":2621000000000,"state":"active","ping":76},{"user_id":70,"name":"Strange Diplomat","steam_id":76561198428191920,"connected_time":505000000000,"state":"active","ping":114},{"user_id":71,"name":"AndrewTron","steam_id":76561198301605457,"connected_time":171000000000,"state":"active","ping":75},{"user_id":38,"name":"The Twice-Gorped Morp","steam_id":76561198052636352,"connected_time":2512000000000,"state":"active","ping":115}]},{"server_id":15,"name":"Uncletopia | New York City | 3 | Stopwatch","name_short":"nyc-3","host":"nyc-1.us.uncletopia.com","port":27035,"enabled":true,"region":"us-east","cc":"us","latitude":40.73061,"longitude":-73.93524,"reserved":0,"last_update":"0001-01-01T00:00:00Z","name_a2s":"Uncletopia | New York City | 3 | Stopwatch","protocol":17,"map":"pl_snowycoast","folder":"tf","game":"Team Fortress","app_id":440,"player_count":1,"max_players":24,"Bots":0,"server_type":"Dedicated","server_os":"Linux","password":true,"vac":true,"version":"7961495","steam_id":85568392924742820,"keywords":["nocrits","nodmgspread","payload","uncletopia"],"game_id":440,"stv_port":27036,"stv_name":"Uncletopia | New York City | 3 | Stopwatch | STV","players":[{"user_id":18,"name":"Cyberpunk McDonald's Play Place","steam_id":76561198063512035,"connected_time":30000000000,"state":"active","ping":38}]},{"server_id":16,"name":"Uncletopia | New York City | 4 | Community","name_short":"nyc-4","host":"nyc-1.us.uncletopia.com","port":27045,"enabled":true,"region":"us-east","cc":"us","latitude":40.73061,"longitude":-73.93524,"reserved":0,"last_update":"0001-01-01T00:00:00Z","name_a2s":"Uncletopia | New York City | 4 | Community","protocol":17,"map":"workshop/koth_synthetic_rc6a.ugc1549817316","folder":"tf","game":"Team Fortress","app_id":440,"player_count":0,"max_players":24,"Bots":0,"server_type":"Dedicated","server_os":"Linux","password":true,"vac":true,"version":"7961495","steam_id":85568392924742821,"keywords":["cp","nocrits","nodmgspread","uncletopia"],"game_id":440,"stv_port":27046,"stv_name":"Uncletopia | New York City | 4 | Community | STV","players":null},{"server_id":142,"name":"Uncletopia | São Paulo | 1 | All Maps","name_short":"sao-1","host":"sao-1.br.uncletopia.com","port":27015,"enabled":true,"region":"sa","cc":"br","latitude":-23.533773,"longitude":-46.62529,"reserved":0,"last_update":"0001-01-01T00:00:00Z","name_a2s":"Uncletopia | São Paulo | 1 | All Maps","protocol":17,"map":"koth_lakeside_final","folder":"tf","game":"Team Fortress","app_id":440,"player_count":0,"max_players":24,"Bots":0,"server_type":"Dedicated","server_os":"Linux","password":true,"vac":true,"version":"7961495","steam_id":85568392924469996,"keywords":["cp","nocrits","nodmgspread","uncletopia"],"game_id":440,"stv_port":27016,"stv_name":"Uncletopia | São Paulo | 1 | All Maps | STV","players":null},{"server_id":143,"name":"Uncletopia | São Paulo | 2 | Community","name_short":"sao-2","host":"sao-2.br.uncletopia.com","port":27015,"enabled":true,"region":"sa","cc":"br","latitude":-23.533773,"longitude":-46.62529,"reserved":0,"last_update":"0001-01-01T00:00:00Z","name_a2s":"Uncletopia | São Paulo | 2 | Community","protocol":17,"map":"workshop/pl_cashworks_final1.ugc2904065412","folder":"tf","game":"Team Fortress","app_id":440,"player_count":0,"max_players":24,"Bots":0,"server_type":"Dedicated","server_os":"Linux","password":true,"vac":true,"version":"7961495","steam_id":85568392924485349,"keywords":["nocrits","nodmgspread","payload","uncletopia"],"game_id":440,"stv_port":27016,"stv_name":"Uncletopia | São Paulo | 2 | Community | STV","players":null},{"server_id":7,"name":"Uncletopia | Seattle | 1 | All Maps","name_short":"sea-1","host":"sea-1.us.uncletopia.com","port":27015,"enabled":true,"region":"us-west","cc":"us","latitude":47.608013,"longitude":-122.33517,"reserved":0,"last_update":"0001-01-01T00:00:00Z","name_a2s":"Uncletopia | Seattle | 1 | All Maps","protocol":17,"map":"koth_highpass","folder":"tf","game":"Team Fortress","app_id":440,"player_count":3,"max_players":24,"Bots":0,"server_type":"Dedicated","server_os":"Linux","password":true,"vac":true,"version":"7961495","steam_id":85568392924469997,"keywords":["cp","nocrits","nodmgspread","uncletopia"],"game_id":440,"stv_port":27016,"stv_name":"Uncletopia | Seattle | 1 | All Maps | STV","players":[{"user_id":32,"name":"Boot Mcstink","steam_id":76561199226873917,"connected_time":333000000000,"state":"active","ping":130},{"user_id":31,"name":"harrymcfly623","steam_id":76561198993215179,"connected_time":552000000000,"state":"active","ping":62},{"user_id":34,"name":"Kieran","steam_id":76561198072788168,"connected_time":17000000000,"state":"active","ping":119}]},{"server_id":119,"name":"Uncletopia | Seattle | 2 | All Maps","name_short":"sea-2","host":"sea-1.us.uncletopia.com","port":27025,"enabled":true,"region":"us-west","cc":"us","latitude":47.608013,"longitude":-122.33517,"reserved":0,"last_update":"0001-01-01T00:00:00Z","name_a2s":"Uncletopia | Seattle | 2 | All Maps","protocol":17,"map":"cp_process_final","folder":"tf","game":"Team Fortress","app_id":440,"player_count":0,"max_players":24,"Bots":0,"server_type":"Dedicated","server_os":"Linux","password":true,"vac":true,"version":"7961495","steam_id":85568392924469998,"keywords":["cp","nocrits","nodmgspread","uncletopia"],"game_id":440,"stv_port":27026,"stv_name":"Uncletopia | Seattle | 2 | All Maps | STV","players":null},{"server_id":406,"name":"Uncletopia | Seattle | 3 | Stopwatch","name_short":"sea-3","host":"sea-1.us.uncletopia.com","port":27035,"enabled":true,"region":"us-west","cc":"us","latitude":47.608013,"longitude":-122.33517,"reserved":0,"last_update":"0001-01-01T00:00:00Z","name_a2s":"Uncletopia | Seattle | 3 | Stopwatch","protocol":17,"map":"pl_pier","folder":"tf","game":"Team Fortress","app_id":440,"player_count":0,"max_players":24,"Bots":0,"server_type":"Dedicated","server_os":"Linux","password":true,"vac":true,"version":"7961495","steam_id":85568392924515217,"keywords":["nocrits","nodmgspread","payload","uncletopia"],"game_id":440,"stv_port":27036,"stv_name":"Uncletopia | Seattle | 3 | Stopwatch | STV","players":null},{"server_id":17,"name":"Uncletopia | San Francisco | 1 | All Maps","name_short":"sfo-1","host":"sfo-1.us.uncletopia.com","port":27015,"enabled":true,"region":"us-west","cc":"us","latitude":37.77397,"longitude":-122.4313,"reserved":0,"last_update":"0001-01-01T00:00:00Z","name_a2s":"Uncletopia | San Francisco | 1 | All Maps","protocol":17,"map":"koth_cascade","folder":"tf","game":"Team Fortress","app_id":440,"player_count":0,"max_players":24,"Bots":0,"server_type":"Dedicated","server_os":"Linux","password":true,"vac":true,"version":"7961495","steam_id":85568392924469999,"keywords":["cp","nocrits","nodmgspread","uncletopia"],"game_id":440,"stv_port":27016,"stv_name":"Uncletopia | San Francisco | 1 | All Maps | STV","players":null},{"server_id":18,"name":"Uncletopia | San Francisco | 2 | All Maps","name_short":"sfo-2","host":"sfo-1.us.uncletopia.com","port":27025,"enabled":true,"region":"us-west","cc":"us","latitude":37.77397,"longitude":-122.4313,"reserved":0,"last_update":"0001-01-01T00:00:00Z","name_a2s":"Uncletopia | San Francisco | 2 | All Maps","protocol":17,"map":"koth_highpass","folder":"tf","game":"Team Fortress","app_id":440,"player_count":24,"max_players":24,"Bots":0,"server_type":"Dedicated","server_os":"Linux","password":true,"vac":true,"version":"7961495","steam_id":85568392924470000,"keywords":["cp","nocrits","nodmgspread","uncletopia"],"game_id":440,"stv_port":27026,"stv_name":"Uncletopia | San Francisco | 2 | All Maps | STV","players":[{"user_id":55,"name":"AT✪MIC","steam_id":76561198100385184,"connected_time":2564000000000,"state":"active","ping":57},{"user_id":93,"name":"lmk","steam_id":76561199199765122,"connected_time":372000000000,"state":"active","ping":57},{"user_id":23,"name":"Cael","steam_id":76561198136789464,"connected_time":3880000000000,"state":"active","ping":60},{"user_id":89,"name":"jujual65","steam_id":76561199456281542,"connected_time":791000000000,"state":"active","ping":80},{"user_id":99,"name":"FunnyGoomba","steam_id":76561198279865229,"connected_time":102000000000,"state":"active","ping":70},{"user_id":96,"name":"ronald_stackerusa55","steam_id":76561198150406851,"connected_time":115000000000,"state":"active","ping":48},{"user_id":85,"name":"thunderous prophet","steam_id":76561198131166135,"connected_time":1167000000000,"state":"active","ping":52},{"user_id":14,"name":"the pizza","steam_id":76561198221331476,"connected_time":4211000000000,"state":"active","ping":33},{"user_id":86,"name":"Hovg9000","steam_id":76561199191556710,"connected_time":1137000000000,"state":"active","ping":94},{"user_id":70,"name":"Magician357","steam_id":76561198009308255,"connected_time":2003000000000,"state":"active","ping":53},{"user_id":44,"name":"MORE BOUNCE TO THE OUNCE","steam_id":76561198243399336,"connected_time":3336000000000,"state":"active","ping":62},{"user_id":97,"name":"ryanzandorLX","steam_id":76561199068623664,"connected_time":112000000000,"state":"active","ping":72},{"user_id":36,"name":"Tracey [sillymoder]","steam_id":76561198202235495,"connected_time":3483000000000,"state":"active","ping":60},{"user_id":98,"name":"schizo pride","steam_id":76561198166827208,"connected_time":110000000000,"state":"active","ping":60},{"user_id":83,"name":"miguelrodriguez2013","steam_id":76561198269253587,"connected_time":1183000000000,"state":"active","ping":46},{"user_id":84,"name":"noceof","steam_id":76561198043656816,"connected_time":1182000000000,"state":"active","ping":162},{"user_id":95,"name":"i love you","steam_id":76561198131567365,"connected_time":225000000000,"state":"active","ping":74},{"user_id":79,"name":"Blervis","steam_id":76561198028754781,"connected_time":1709000000000,"state":"active","ping":63},{"user_id":50,"name":"drank baby","steam_id":76561199483723843,"connected_time":3166000000000,"state":"active","ping":65},{"user_id":82,"name":"ItsAChadKing","steam_id":76561199499464350,"connected_time":1356000000000,"state":"active","ping":67},{"user_id":94,"name":"MPINO","steam_id":76561198071217038,"connected_time":245000000000,"state":"active","ping":57},{"user_id":87,"name":"Greskrendtregk","steam_id":76561197969553142,"connected_time":996000000000,"state":"active","ping":66},{"user_id":81,"name":"a chicken","steam_id":76561198313121580,"connected_time":1517000000000,"state":"active","ping":66},{"user_id":92,"name":"Chimp Peen's Revunge","steam_id":76561198165778514,"connected_time":430000000000,"state":"active","ping":87}]},{"server_id":19,"name":"Uncletopia | San Francisco | 3 | Stopwatch","name_short":"sfo-3","host":"sfo-1.us.uncletopia.com","port":27035,"enabled":true,"region":"us-west","cc":"us","latitude":37.77397,"longitude":-122.4313,"reserved":0,"last_update":"0001-01-01T00:00:00Z","name_a2s":"Uncletopia | San Francisco | 3 | Stopwatch","protocol":17,"map":"pl_pier","folder":"tf","game":"Team Fortress","app_id":440,"player_count":0,"max_players":24,"Bots":0,"server_type":"Dedicated","server_os":"Linux","password":true,"vac":true,"version":"7961495","steam_id":85568392924742824,"keywords":["nocrits","nodmgspread","payload","uncletopia"],"game_id":440,"stv_port":27036,"stv_name":"Uncletopia | San Francisco | 3 | Stopwatch | STV","players":null},{"server_id":20,"name":"Uncletopia | San Francisco | 4 | Community","name_short":"sfo-4","host":"sfo-1.us.uncletopia.com","port":27045,"enabled":true,"region":"us-west","cc":"us","latitude":37.77397,"longitude":-122.4313,"reserved":0,"last_update":"0001-01-01T00:00:00Z","name_a2s":"Uncletopia | San Francisco | 4 | Community","protocol":17,"map":"pl_pier","folder":"tf","game":"Team Fortress","app_id":440,"player_count":0,"max_players":24,"Bots":0,"server_type":"Dedicated","server_os":"Linux","password":true,"vac":true,"version":"7961495","steam_id":85568392924742826,"keywords":["nocrits","nodmgspread","payload","uncletopia"],"game_id":440,"stv_port":27046,"stv_name":"Uncletopia | San Francisco | 4 | Community | STV","players":null},{"server_id":141,"name":"Uncletopia | Sydney | 1 | All Maps","name_short":"syd-1","host":"syd-1.au.uncletopia.com","port":27015,"enabled":true,"region":"au","cc":"au","latitude":-33.865143,"longitude":151.2099,"reserved":0,"last_update":"0001-01-01T00:00:00Z","name_a2s":"Uncletopia | Sydney | 1 | All Maps","protocol":17,"map":"ctf_2fort","folder":"tf","game":"Team Fortress","app_id":440,"player_count":0,"max_players":24,"Bots":0,"server_type":"Dedicated","server_os":"Linux","password":true,"vac":true,"version":"7961495","steam_id":85568392924470001,"keywords":["ctf","nocrits","nodmgspread","uncletopia"],"game_id":440,"stv_port":27016,"stv_name":"Uncletopia | Sydney | 1 | All Maps | STV","players":null},{"server_id":123,"name":"Uncletopia | Sydney | 2 | All Maps","name_short":"syd-2","host":"syd-1.au.uncletopia.com","port":27025,"enabled":true,"region":"au","cc":"au","latitude":-33.865143,"longitude":151.2099,"reserved":0,"last_update":"0001-01-01T00:00:00Z","name_a2s":"Uncletopia | Sydney | 2 | All Maps","protocol":17,"map":"cp_mountainlab","folder":"tf","game":"Team Fortress","app_id":440,"player_count":0,"max_players":24,"Bots":0,"server_type":"Dedicated","server_os":"Linux","password":true,"vac":true,"version":"7961495","steam_id":85568392924470002,"keywords":["cp","nocrits","nodmgspread","uncletopia"],"game_id":440,"stv_port":27026,"stv_name":"Uncletopia | Sydney | 2 | All Maps | STV","players":null},{"server_id":395,"name":"Uncletopia | Sydney | 3 | All Maps","name_short":"syd-3","host":"syd-1.au.uncletopia.com","port":27035,"enabled":true,"region":"au","cc":"au","latitude":-33.865143,"longitude":151.2099,"reserved":0,"last_update":"0001-01-01T00:00:00Z","name_a2s":"Uncletopia | Sydney | 3 | All Maps","protocol":17,"map":"koth_cascade","folder":"tf","game":"Team Fortress","app_id":440,"player_count":0,"max_players":24,"Bots":0,"server_type":"Dedicated","server_os":"Linux","password":true,"vac":true,"version":"7961495","steam_id":85568392925194467,"keywords":["cp","nocrits","nodmgspread","uncletopia"],"game_id":440,"stv_port":27036,"stv_name":"Uncletopia | Sydney | 3 | All Maps | STV","players":null},{"server_id":396,"name":"Uncletopia | Sydney | 4 | All Maps","name_short":"syd-4","host":"syd-1.au.uncletopia.com","port":27045,"enabled":true,"region":"au","cc":"au","latitude":-33.865143,"longitude":151.2099,"reserved":0,"last_update":"0001-01-01T00:00:00Z","name_a2s":"Uncletopia | Sydney | 4 | All Maps","protocol":17,"map":"cp_snakewater_final1","folder":"tf","game":"Team Fortress","app_id":440,"player_count":0,"max_players":24,"Bots":0,"server_type":"Dedicated","server_os":"Linux","password":true,"vac":true,"version":"7961495","steam_id":85568392925397958,"keywords":["cp","nocrits","nodmgspread","uncletopia"],"game_id":440,"stv_port":27046,"stv_name":"Uncletopia | Sydney | 4 | All Maps | STV","players":null},{"server_id":58,"name":"Uncletopia | Sydney | 5 | Stopwatch","name_short":"syd-5","host":"syd-1.au.uncletopia.com","port":27055,"enabled":true,"region":"au","cc":"au","latitude":-33.865143,"longitude":151.2099,"reserved":0,"last_update":"0001-01-01T00:00:00Z","name_a2s":"Uncletopia | Sydney | 5 | Stopwatch","protocol":17,"map":"pl_frontier_final","folder":"tf","game":"Team Fortress","app_id":440,"player_count":0,"max_players":24,"Bots":0,"server_type":"Dedicated","server_os":"Linux","password":true,"vac":true,"version":"7961495","steam_id":85568392925397959,"keywords":["nocrits","nodmgspread","payload","uncletopia"],"game_id":440,"stv_port":27056,"stv_name":"Uncletopia | Sydney | 5 | Stopwatch | STV","players":null},{"server_id":59,"name":"Uncletopia | Sydney | 6 | Community","name_short":"syd-6","host":"syd-1.au.uncletopia.com","port":27065,"enabled":true,"region":"au","cc":"au","latitude":-33.865143,"longitude":151.2099,"reserved":0,"last_update":"0001-01-01T00:00:00Z","name_a2s":"Uncletopia | Sydney | 6 | Community","protocol":17,"map":"workshop/koth_product_final.ugc454272353","folder":"tf","game":"Team Fortress","app_id":440,"player_count":0,"max_players":24,"Bots":0,"server_type":"Dedicated","server_os":"Linux","password":true,"vac":true,"version":"7961495","steam_id":85568392925397960,"keywords":["cp","nocrits","nodmgspread","uncletopia"],"game_id":440,"stv_port":27066,"stv_name":"Uncletopia | Sydney | 6 | Community | STV","players":null},{"server_id":49,"name":"Uncletopia | Warsaw | 1 | One Thousand Uncles","name_short":"waw-1","host":"waw-1.pl.uncletopia.com","port":27015,"enabled":true,"region":"eu","cc":"pl","latitude":52.2297,"longitude":21.017532,"reserved":0,"last_update":"0001-01-01T00:00:00Z","name_a2s":"Uncletopia | Warsaw | 1 | One Thousand Uncles","protocol":17,"map":"pl_thundermountain","folder":"tf","game":"Team Fortress","app_id":440,"player_count":29,"max_players":32,"Bots":16,"server_type":"Dedicated","server_os":"Linux","password":true,"vac":true,"version":"7961495","steam_id":85568392925397850,"keywords":["alltalk","bots","danepve","increased_maxplayers","nocrits","norespawntime","payload","uncletopia"],"game_id":440,"stv_port":0,"stv_name":"","players":[{"user_id":564,"name":"[Mann Co]Puzzle Games","steam_id":76561198022078318,"connected_time":1657000000000,"state":"active","ping":70},{"user_id":587,"name":"益代浅黄","steam_id":76561199225554577,"connected_time":391000000000,"state":"active","ping":150},{"user_id":588,"name":"KipxSateee","steam_id":76561198149158137,"connected_time":313000000000,"state":"active","ping":63},{"user_id":578,"name":"kitten ;3","steam_id":76561198097557951,"connected_time":760000000000,"state":"active","ping":75},{"user_id":589,"name":"profikiller","steam_id":76561198156127886,"connected_time":310000000000,"state":"active","ping":60},{"user_id":579,"name":"r06u3","steam_id":76561198254099253,"connected_time":696000000000,"state":"active","ping":182},{"user_id":557,"name":"Olekman","steam_id":76561198035446981,"connected_time":1964000000000,"state":"active","ping":40},{"user_id":574,"name":"GregerUlander","steam_id":76561198152375055,"connected_time":1042000000000,"state":"active","ping":87},{"user_id":566,"name":"JoeFalco","steam_id":76561198064005012,"connected_time":1527000000000,"state":"active","ping":196},{"user_id":451,"name":"the baddest boy in btd5","steam_id":76561199487914508,"connected_time":7702000000000,"state":"active","ping":37},{"user_id":562,"name":"henrique_best","steam_id":76561199317304919,"connected_time":1713000000000,"state":"active","ping":99},{"user_id":583,"name":"Pestilence","steam_id":76561198140938904,"connected_time":639000000000,"state":"active","ping":71},{"user_id":575,"name":"i em de spie","steam_id":76561198807599784,"connected_time":1016000000000,"state":"active","ping":45}]},{"server_id":50,"name":"Uncletopia | Warsaw | 2 | One Thousand Uncles","name_short":"waw-2","host":"waw-1.pl.uncletopia.com","port":27025,"enabled":true,"region":"eu","cc":"pl","latitude":52.2297,"longitude":21.017532,"reserved":0,"last_update":"0001-01-01T00:00:00Z","name_a2s":"Uncletopia | Warsaw | 2 | One Thousand Uncles","protocol":17,"map":"pl_thundermountain","folder":"tf","game":"Team Fortress","app_id":440,"player_count":0,"max_players":32,"Bots":0,"server_type":"Dedicated","server_os":"Linux","password":true,"vac":true,"version":"7961495","steam_id":85568392925397851,"keywords":["alltalk","danepve","increased_maxplayers","nocrits","norespawntime","payload","uncletopia"],"game_id":440,"stv_port":0,"stv_name":"","players":null},{"server_id":51,"name":"Uncletopia | Warsaw | 3 | All Maps","name_short":"waw-3","host":"waw-1.pl.uncletopia.com","port":27035,"enabled":true,"region":"eu","cc":"pl","latitude":52.2297,"longitude":21.017532,"reserved":0,"last_update":"0001-01-01T00:00:00Z","name_a2s":"Uncletopia | Warsaw | 3 | All Maps","protocol":17,"map":"pl_swiftwater_final1","folder":"tf","game":"Team Fortress","app_id":440,"player_count":0,"max_players":24,"Bots":0,"server_type":"Dedicated","server_os":"Linux","password":true,"vac":true,"version":"7961495","steam_id":85568392925397852,"keywords":["nocrits","nodmgspread","payload","uncletopia"],"game_id":440,"stv_port":27036,"stv_name":"Uncletopia | Warsaw | 3 | All Maps | STV","players":null},{"server_id":52,"name":"Uncletopia | Warsaw | 4 | All Maps","name_short":"waw-4","host":"waw-1.pl.uncletopia.com","port":27045,"enabled":true,"region":"eu","cc":"pl","latitude":52.2297,"longitude":21.017532,"reserved":0,"last_update":"0001-01-01T00:00:00Z","name_a2s":"Uncletopia | Warsaw | 4 | All Maps","protocol":17,"map":"koth_cascade","folder":"tf","game":"Team Fortress","app_id":440,"player_count":0,"max_players":24,"Bots":0,"server_type":"Dedicated","server_os":"Linux","password":true,"vac":true,"version":"7961495","steam_id":85568392925397853,"keywords":["cp","nocrits","nodmgspread","uncletopia"],"game_id":440,"stv_port":27046,"stv_name":"Uncletopia | Warsaw | 4 | All Maps | STV","players":null},{"server_id":53,"name":"Uncletopia | Warsaw | 5 | Stopwatch","name_short":"waw-5","host":"waw-1.pl.uncletopia.com","port":27055,"enabled":true,"region":"eu","cc":"pl","latitude":52.2297,"longitude":21.017532,"reserved":0,"last_update":"0001-01-01T00:00:00Z","name_a2s":"Uncletopia | Warsaw | 5 | Stopwatch","protocol":17,"map":"workshop/pl_badwater_pro_v12.ugc2142942074","folder":"tf","game":"Team Fortress","app_id":440,"player_count":25,"max_players":24,"Bots":0,"server_type":"Dedicated","server_os":"Linux","password":true,"vac":true,"version":"7961495","steam_id":85568392925397854,"keywords":["nocrits","nodmgspread","payload","uncletopia"],"game_id":440,"stv_port":27056,"stv_name":"Uncletopia | Warsaw | 5 | Stopwatch | STV","players":[{"user_id":6,"name":"sCy.","steam_id":76561197991923958,"connected_time":3084000000000,"state":"active","ping":31},{"user_id":15,"name":"Daxsiu","steam_id":76561198026854407,"connected_time":2777000000000,"state":"active","ping":47},{"user_id":61,"name":"sun_cola","steam_id":76561199056317430,"connected_time":668000000000,"state":"active","ping":176},{"user_id":39,"name":"suck my d1ck","steam_id":76561198974553024,"connected_time":1338000000000,"state":"active","ping":125},{"user_id":40,"name":"Dagertul","steam_id":76561198102822860,"connected_time":1295000000000,"state":"active","ping":67},{"user_id":63,"name":"Fedmedio","steam_id":76561198128565110,"connected_time":595000000000,"state":"active","ping":74},{"user_id":14,"name":"Silenz.  #NEWTF2Hunt","steam_id":76561198332287002,"connected_time":2814000000000,"state":"active","ping":44},{"user_id":64,"name":"HollyAssasin","steam_id":76561198139370615,"connected_time":590000000000,"state":"active","ping":51},{"user_id":65,"name":"Through Unity, Devastation","steam_id":76561198095448325,"connected_time":589000000000,"state":"active","ping":82},{"user_id":83,"name":"TJ1212","steam_id":76561199013575313,"connected_time":5000000000,"state":"spawning","ping":68},{"user_id":44,"name":"Archioner","steam_id":76561198213221040,"connected_time":1281000000000,"state":"active","ping":65},{"user_id":74,"name":"ʲᶠᵍ ♛","steam_id":76561199062437546,"connected_time":343000000000,"state":"active","ping":52},{"user_id":24,"name":"Redsy","steam_id":76561198360088412,"connected_time":2082000000000,"state":"active","ping":108},{"user_id":66,"name":"Drillboy Jenkins","steam_id":76561198160497421,"connected_time":543000000000,"state":"active","ping":93},{"user_id":67,"name":"Kopejda ♡","steam_id":76561198307751517,"connected_time":513000000000,"state":"active","ping":51},{"user_id":76,"name":"heal","steam_id":76561198046754534,"connected_time":295000000000,"state":"active","ping":101},{"user_id":78,"name":"Frilla5","steam_id":76561198807894111,"connected_time":99000000000,"state":"active","ping":89},{"user_id":30,"name":"Why_Not_Cool","steam_id":76561199175549085,"connected_time":1902000000000,"state":"active","ping":62},{"user_id":36,"name":"Dardemai","steam_id":76561199231958959,"connected_time":1513000000000,"state":"active","ping":64},{"user_id":81,"name":"Kenny Savage","steam_id":76561199049383900,"connected_time":26000000000,"state":"active","ping":95},{"user_id":69,"name":"G_raff","steam_id":76561199048512726,"connected_time":501000000000,"state":"active","ping":90},{"user_id":80,"name":"Reaver","steam_id":76561198805259574,"connected_time":76000000000,"state":"active","ping":146},{"user_id":82,"name":"Krill","steam_id":76561198094978777,"connected_time":20000000000,"state":"active","ping":74},{"user_id":84,"name":"PixelHir","steam_id":76561198088790894,"connected_time":4000000000,"state":"spawning","ping":48},{"user_id":51,"name":"daniki","steam_id":76561198374287345,"connected_time":1218000000000,"state":"active","ping":46}]},{"server_id":54,"name":"Uncletopia | Warsaw | 6 | Community","name_short":"waw-6","host":"waw-1.pl.uncletopia.com","port":27065,"enabled":true,"region":"eu","cc":"pl","latitude":52.2297,"longitude":21.017532,"reserved":0,"last_update":"0001-01-01T00:00:00Z","name_a2s":"Uncletopia | Warsaw | 6 | Community","protocol":17,"map":"workshop/cp_indulge.ugc528106646","folder":"tf","game":"Team Fortress","app_id":440,"player_count":0,"max_players":24,"Bots":0,"server_type":"Dedicated","server_os":"Linux","password":true,"vac":true,"version":"7961495","steam_id":85568392925397856,"keywords":["cp","nocrits","nodmgspread","uncletopia"],"game_id":440,"stv_port":27066,"stv_name":"Uncletopia | Warsaw | 6 | Community | STV","players":null}]}