{"status":true,"message":"","result":[{"server_id":9,"name":"Uncletopia | Atlanta | 1 | All Maps","name_short":"atl-1","host":"atl-1.us.uncletopia.com","port":27015,"enabled":true,"region":"us-east","cc":"us","latitude":33.753746,"longitude":-84.38633,"reserved":0,"last_update":"0001-01-01T00:00:00Z","name_a2s":"Uncletopia | Atlanta | 1 | All Maps","protocol":17,"map":"koth_viaduct","folder":"tf","game":"Team Fortress","app_id":440,"player_count":24,"max_players":24,"Bots":0,"server_type":"Dedicated","server_os":"Linux","password":true,"vac":true,"version":"7961495","steam_id":85568392924469982,"keywords":["cp","nocrits","nodmgspread","uncletopia"],"game_id":440,"stv_port":27016,"stv_name":"Uncletopia | Atlanta | 1 | All Maps | STV","players":null},{"server_id":104,"name":"Uncletopia | Atlanta | 2 | All Maps","name_short":"atl-2","host":"atl-1.us.uncletopia.com","port":27025,"enabled":true,"region":"us-east","cc":"us","latitude":33.753746,"longitude":-84.38633,"reserved":0,"last_update":"0001-01-01T00:00:00Z","name_a2s":"Uncletopia | Atlanta | 2 | All Maps","protocol":17,"map":"pl_upward","folder":"tf","game":"Team Fortress","app_id":440,"player_count":22,"max_players":24,"Bots":0,"server_type":"Dedicated","server_os":"Linux","password":true,"vac":true,"version":"7961495","steam_id":85568392924469983,"keywords":["nocrits","nodmgspread","payload","uncletopia"],"game_id":440,"stv_port":27026,"stv_name":"Uncletopia | Atlanta | 2 | All Maps | STV","players":null},{"server_id":400,"name":"Uncletopia | Atlanta | 3 | Stopwatch","name_short":"atl-3","host":"atl-1.us.uncletopia.com","port":27035,"enabled":true,"region":"us-east","cc":"us","latitude":33.753746,"longitude":-84.38633,"reserved":0,"last_update":"0001-01-01T00:00:00Z","name_a2s":"Uncletopia | Atlanta | 3 | Stopwatch","protocol":17,"map":"koth_lakeside_final","folder":"tf","game":"Team Fortress","app_id":440,"player_count":0,"max_players":24,"Bots":0,"server_type":"Dedicated","server_os":"Linux","password":true,"vac":true,"version":"7961495","steam_id":85568392924515187,"keywords":["cp","nocrits","nodmgspread","uncletopia"],"game_id":440,"stv_port":27036,"stv_name":"Uncletopia | Atlanta | 3 | Stopwatch | STV","players":null},{"server_id":401,"name":"Uncletopia | Atlanta | 4 | Community","name_short":"atl-4","host":"atl-1.us.uncletopia.com","port":27045,"enabled":true,"region":"us-east","cc":"us","latitude":33.753746,"longitude":-84.38633,"reserved":0,"last_update":"0001-01-01T00:00:00Z","name_a2s":"Uncletopia | Atlanta | 4 | Community","protocol":17,"map":"pl_vigil_rc10","folder":"tf","game":"Team Fortress","app_id":440,"player_count":0,"max_players":24,"Bots":0,"server_type":"Dedicated","server_os":"Linux","password":true,"vac":true,"version":"7961495","steam_id":85568392924515188,"keywords":["nocrits","nodmgspread","payload","uncletopia"],"game_id":440,"stv_port":27046,"stv_name":"Uncletopia | Atlanta | 4 | Community | STV","players":null},{"server_id":2,"name":"Uncletopia | Chicago | 1 | All Maps","name_short":"chi-1","host":"chi-1.us.uncletopia.com","port":27015,"enabled":true,"region":"us-central","cc":"us","latitude":41.881832,"longitude":-87.62318,"reserved":0,"last_update":"0001-01-01T00:00:00Z","name_a2s":"Uncletopia | Chicago | 1 | All Maps","protocol":17,"map":"koth_lakeside_final","folder":"tf","game":"Team Fortress","app_id":440,"player_count":23,"max_players":24,"Bots":0,"server_type":"Dedicated","server_os":"Linux","password":true,"vac":true,"version":"7961495","steam_id":85568392924469984,"keywords":["cp","nocrits","nodmgspread","uncletopia"],"game_id":440,"stv_port":27016,"stv_name":"Uncletopia | Chicago | 1 | All Maps | STV","players":[{"user_id":480,"name":"anonion","steam_id":76561198056477584,"connected_time":1846000000000,"state":"active","ping":77},{"user_id":492,"name":"Roz257","steam_id":76561198842844532,"connected_time":1014000000000,"state":"active","ping":51},{"user_id":488,"name":"Rex","steam_id":76561198138365053,"connected_time":1675000000000,"state":"active","ping":134},{"user_id":486,"name":"Santicules","steam_id":76561198209373536,"connected_time":1729000000000,"state":"active","ping":54},{"user_id":472,"name":"Captain Bug","steam_id":76561198137763878,"connected_time":2688000000000,"state":"active","ping":85},{"user_id":468,"name":"Space","steam_id":76561198350489754,"connected_time":2936000000000,"state":"active","ping":40},{"user_id":490,"name":"Word To Your Mothership","steam_id":76561198034329138,"connected_time":1179000000000,"state":"active","ping":93},{"user_id":500,"name":"Gaminglast","steam_id":76561198362927765,"connected_time":164000000000,"state":"active","ping":123},{"user_id":497,"name":"turnip","steam_id":76561197999375941,"connected_time":261000000000,"state":"active","ping":88},{"user_id":495,"name":"Zymiren","steam_id":76561198054985471,"connected_time":493000000000,"state":"active","ping":95},{"user_id":493,"name":"Shoeshocker","steam_id":76561198174302467,"connected_time":1014000000000,"state":"active","ping":69},{"user_id":498,"name":"Trigger!","steam_id":76561198061514186,"connected_time":250000000000,"state":"active","ping":89},{"user_id":455,"name":"NikoOS (NO SOUND)","steam_id":76561198180020521,"connected_time":3370000000000,"state":"active","ping":145},{"user_id":506,"name":"soltuno","steam_id":76561198074430565,"connected_time":81000000000,"state":"active","ping":116},{"user_id":502,"name":"Lektic","steam_id":76561199124304208,"connected_time":147000000000,"state":"active","ping":66},{"user_id":475,"name":"mcmurrayjack998","steam_id":76561199235624366,"connected_time":2102000000000,"state":"active","ping":88},{"user_id":496,"name":"Farm3rJh0nson","steam_id":76561199166153873,"connected_time":315000000000,"state":"active","ping":75},{"user_id":479,"name":"Bluster Kong","steam_id":76561199078590268,"connected_time":1874000000000,"state":"active","ping":91},{"user_id":509,"name":"DinkleBerg","steam_id":76561198891626233,"connected_time":31000000000,"state":"active","ping":65},{"user_id":504,"name":"Biscipline","steam_id":76561198019206178,"connected_time":104000000000,"state":"active","ping":76},{"user_id":505,"name":"Blk_Mage_Ctype","steam_id":76561198041290184,"connected_time":89000000000,"state":"active","ping":70},{"user_id":457,"name":"boog","steam_id":76561197993699665,"connected_time":3257000000000,"state":"active","ping":75},{"user_id":507,"name":"eryn üó∫","steam_id":76561198004433070,"connected_time":68000000000,"state":"active","ping":81}]},{"server_id":106,"name":"Uncletopia | Chicago | 2 | All Maps","name_short":"chi-2","host":"chi-1.us.uncletopia.com","port":27025,"enabled":true,"region":"us-central","cc":"us","latitude":41.881832,"longitude":-87.62318,"reserved":0,"last_update":"0001-01-01T00:00:00Z","name_a2s":"Uncletopia | Chicago | 2 | All Maps","protocol":17,"map":"cp_yukon_final","folder":"tf","game":"Team Fortress","app_id":440,"player_count":24,"max_players":24,"Bots":0,"server_type":"Dedicated","server_os":"Linux","password":true,"vac":true,"version":"7961495","steam_id":85568392924469985,"keywords":["cp","nocrits","nodmgspread","uncletopia"],"game_id":440,"stv_port":27026,"stv_name":"Uncletopia | Chicago | 2 | All Maps | STV","players":[{"user_id":622,"name":"Killerkarate","steam_id":76561198067533929,"connected_time":447000000000,"state":"active","ping":51},{"user_id":612,"name":"„ãõ countblanc","steam_id":76561197993171771,"connected_time":1830000000000,"state":"active","ping":45},{"user_id":607,"name":"Huntpk","steam_id":76561198340591674,"connected_time":1914000000000,"state":"active","ping":37},{"user_id":608,"name":"SomeRandomMail","steam_id":76561199002913110,"connected_time":1900000000000,"state":"active","ping":90},{"user_id":621,"name":"Crystall","steam_id":76561198346607700,"connected_time":576000000000,"state":"active","ping":75},{"user_id":632,"name":"BIG LION","steam_id":76561198091880358,"connected_time":32000000000,"state":"spawning","ping":35},{"user_id":589,"name":"Flammable","steam_id":76561198045274287,"connected_time":2816000000000,"state":"active","ping":55},{"user_id":629,"name":"Sir, this is a Wendy's","steam_id":76561198983656317,"connected_time":326000000000,"state":"active","ping":84},{"user_id":613,"name":"bobletoob","steam_id":76561199184464900,"connected_time":1827000000000,"state":"active","ping":106},{"user_id":623,"name":"xdab","steam_id":76561198086904171,"connected_time":442000000000,"state":"active","ping":62},{"user_id":610,"name":"Toast","steam_id":76561199207957224,"connected_time":1881000000000,"state":"active","ping":70},{"user_id":628,"name":"Gakster","steam_id":76561198998629759,"connected_time":393000000000,"state":"active","ping":72},{"user_id":614,"name":"Mr_Frosty","steam_id":76561199380389079,"connected_time":1817000000000,"state":"active","ping":84},{"user_id":625,"name":"Mango","steam_id":76561198156746320,"connected_time":434000000000,"state":"active","ping":44},{"user_id":616,"name":"son","steam_id":76561198442138731,"connected_time":1797000000000,"state":"active","ping":69},{"user_id":588,"name":"Grand","steam_id":76561198290143399,"connected_time":2859000000000,"state":"active","ping":72},{"user_id":596,"name":"pump","steam_id":76561198071705442,"connected_time":2569000000000,"state":"active","ping":90},{"user_id":530,"name":"Dr. Ducks","steam_id":76561198116100707,"connected_time":7314000000000,"state":"active","ping":62},{"user_id":459,"name":"FOX News goblin","steam_id":76561198167648580,"connected_time":12322000000000,"state":"active","ping":78},{"user_id":586,"name":"TF2R34A","steam_id":76561198151788055,"connected_time":3098000000000,"state":"active","ping":76},{"user_id":591,"name":"He Who Dared Say \"SuS\"","steam_id":76561198123441203,"connected_time":2769000000000,"state":"active","ping":57},{"user_id":627,"name":"Hamz","steam_id":76561199287459211,"connected_time":418000000000,"state":"active","ping":70},{"user_id":618,"name":"NotRommel","steam_id":76561199089324135,"connected_time":1787000000000,"state":"active","ping":123},{"user_id":631,"name":"Mikael_01","steam_id":76561199080253129,"connected_time":217000000000,"state":"active","ping":183}]},{"server_id":402,"name":"Uncletopia | Chicago | 3 | All Maps","name_short":"chi-3","host":"chi-1.us.uncletopia.com","port":27035,"enabled":true,"region":"us-central","cc":"us","latitude":41.881832,"longitude":-87.62318,"reserved":0,"last_update":"0001-01-01T00:00:00Z","name_a2s":"Uncletopia | Chicago | 3 | All Maps","protocol":17,"map":"pl_goldrush","folder":"tf","game":"Team Fortress","app_id":440,"player_count":24,"max_players":24,"Bots":0,"server_type":"Dedicated","server_os":"Linux","password":true,"vac":true,"version":"7961495","steam_id":85568392924515191,"keywords":["nocrits","nodmgspread","payload","uncletopia"],"game_id":440,"stv_port":27036,"stv_name":"Uncletopia | Chicago | 3 | All Maps | STV","players":[{"user_id":255,"name":"EIMB KILLER","steam_id":76561198046870291,"connected_time":810000000000,"state":"active","ping":61},{"user_id":266,"name":"whalemart","steam_id":76561198203395648,"connected_time":215000000000,"state":"active","ping":85},{"user_id":238,"name":"Toasty","steam_id":76561198851752154,"connected_time":2271000000000,"state":"active","ping":45},{"user_id":215,"name":"Rivulet","steam_id":76561198897122890,"connected_time":3859000000000,"state":"active","ping":56},{"user_id":249,"name":"vanxi","steam_id":76561198089852954,"connected_time":1174000000000,"state":"active","ping":79},{"user_id":221,"name":"yay glow stick","steam_id":76561198083463877,"connected_time":3796000000000,"state":"active","ping":56},{"user_id":258,"name":"charm quark","steam_id":76561198098770777,"connected_time":563000000000,"state":"active","ping":104},{"user_id":263,"name":"The Mighty Tingler","steam_id":76561198320121171,"connected_time":353000000000,"state":"active","ping":65},{"user_id":139,"name":"Bussy Bandit","steam_id":76561198034028769,"connected_time":9108000000000,"state":"active","ping":65},{"user_id":264,"name":"Speakeasy","steam_id":76561198134692556,"connected_time":352000000000,"state":"active","ping":62},{"user_id":203,"name":"imng","steam_id":76561198014988031,"connected_time":5372000000000,"state":"active","ping":75},{"user_id":247,"name":"Giggle Warrior","steam_id":76561198131576005,"connected_time":1435000000000,"state":"active","ping":65},{"user_id":231,"name":"Moofins","steam_id":76561198050291949,"connected_time":2936000000000,"state":"active","ping":82},{"user_id":257,"name":"Keyboard Warrior","steam_id":76561198152587680,"connected_time":606000000000,"state":"active","ping":104},{"user_id":220,"name":"Captain Demytri","steam_id":76561198097998607,"connected_time":3799000000000,"state":"active","ping":49},{"user_id":201,"name":"concrete_car","steam_id":76561198388207363,"connected_time":5414000000000,"state":"active","ping":85},{"user_id":251,"name":"juicy j the j stands for juicy","steam_id":76561198113990147,"connected_time":1035000000000,"state":"active","ping":91},{"user_id":267,"name":"tawb","steam_id":76561198024084982,"connected_time":13000000000,"state":"spawning","ping":58},{"user_id":142,"name":"5unny PHD IN HATEOLOGY","steam_id":76561198133111058,"connected_time":8706000000000,"state":"active","ping":75},{"user_id":245,"name":"twix","steam_id":76561198040912048,"connected_time":1529000000000,"state":"active","ping":57},{"user_id":265,"name":"afroadam","steam_id":76561197993377919,"connected_time":333000000000,"state":"active","ping":64},{"user_id":242,"name":"ethanf","steam_id":76561198103930234,"connected_time":1988000000000,"state":"active","ping":52},{"user_id":261,"name":"pootwa","steam_id":76561198111259720,"connected_time":552000000000,"state":"active","ping":72}]},{"server_id":403,"name":"Uncletopia | Chicago | 4 | All Maps","name_short":"chi-4","host":"chi-1.us.uncletopia.com","port":27045,"enabled":true,"region":"us-central","cc":"us","latitude":41.881832,"longitude":-87.62318,"reserved":0,"last_update":"0001-01-01T00:00:00Z","name_a2s":"Uncletopia | Chicago | 4 | All Maps","protocol":17,"map":"cp_dustbowl","folder":"tf","game":"Team Fortress","app_id":440,"player_count":20,"max_players":24,"Bots":0,"server_type":"Dedicated","server_os":"Linux","password":true,"vac":true,"version":"7961495","steam_id":85568392924515193,"keywords":["cp","nocrits","nodmgspread","uncletopia"],"game_id":440,"stv_port":27046,"stv_name":"Uncletopia | Chicago | 4 | All Maps | STV","players":[{"user_id":112,"name":"Lord Typhoid","steam_id":76561199164337878,"connected_time":109000000000,"state":"active","ping":81},{"user_id":94,"name":"Amari","steam_id":76561198272446730,"connected_time":1242000000000,"state":"active","ping":57},{"user_id":103,"name":"Groundlaser49","steam_id":76561198259288290,"connected_time":1097000000000,"state":"active","ping":61},{"user_id":68,"name":"Church","steam_id":76561199214866732,"connected_time":2742000000000,"state":"active","ping":60},{"user_id":104,"name":"vriska serket","steam_id":76561199345823430,"connected_time":1025000000000,"state":"active","ping":65},{"user_id":50,"name":"Alfonso Molestro","steam_id":76561197998677099,"connected_time":4198000000000,"state":"active","ping":68},{"user_id":90,"name":"Deathpill","steam_id":76561197994404793,"connected_time":1325000000000,"state":"active","ping":71},{"user_id":105,"name":"Robzilla","steam_id":76561198035236155,"connected_time":1011000000000,"state":"active","ping":70},{"user_id":110,"name":"stungoperation","steam_id":76561199162409918,"connected_time":610000000000,"state":"active","ping":69},{"user_id":108,"name":"Takumi Fujiwara","steam_id":76561198146281101,"connected_time":655000000000,"state":"active","ping":73},{"user_id":78,"name":"‡πñ€£€úMagic","steam_id":76561199272962550,"connected_time":2059000000000,"state":"active","ping":53},{"user_id":84,"name":"cofi","steam_id":76561198077504898,"connected_time":1428000000000,"state":"active","ping":61},{"user_id":107,"name":"Mortal Flame","steam_id":76561198130698418,"connected_time":786000000000,"state":"active","ping":76},{"user_id":98,"name":"DarkHero","steam_id":76561198197125710,"connected_time":1179000000000,"state":"active","ping":53},{"user_id":58,"name":"DragonHaert","steam_id":76561198132516061,"connected_time":3878000000000,"state":"active","ping":58},{"user_id":99,"name":"big chalupa gaming","steam_id":76561198153504932,"connected_time":1178000000000,"state":"active","ping":60},{"user_id":81,"name":"Hell's Reindeer","steam_id":76561198065310364,"connected_time":1846000000000,"state":"active","ping":60},{"user_id":49,"name":"Michaelpc1","steam_id":76561198088365519,"connected_time":4207000000000,"state":"active","ping":76},{"user_id":101,"name":"P.C. Baby","steam_id":76561198067011379,"connected_time":1153000000000,"state":"active","ping":109},{"user_id":102,"name":"Willem Dafoe","steam_id":76561198037453253,"connected_time":1138000000000,"state":"active","ping":55}]},{"server_id":36,"name":"Uncletopia | Chicago | 5 | All Maps","name_short":"chi-5","host":"chi-2.us.uncletopia.com","port":27015,"enabled":true,"region":"us-central","cc":"us","latitude":41.881832,"longitude":-87.62318,"reserved":0,"last_update":"0001-01-01T00:00:00Z","name_a2s":"Uncletopia | Chicago | 5 | All Maps","protocol":17,"map":"koth_viaduct","folder":"tf","game":"Team Fortress","app_id":440,"player_count":0,"max_players":24,"Bots":0,"server_type":"Dedicated","server_os":"Linux","password":true,"vac":true,"version":"7961495","steam_id":85568392924866362,"keywords":["cp","nocrits","nodmgspread","uncletopia"],"game_id":440,"stv_port":27016,"stv_name":"Uncletopia | Chicago | 5 | All Maps | STV","players":null},{"server_id":37,"name":"Uncletopia | Chicago | 6 | All Maps","name_short":"chi-6","host":"chi-2.us.uncletopia.com","port":27025,"enabled":true,"region":"us-central","cc":"us","latitude":41.881832,"longitude":-87.62318,"reserved":0,"last_update":"0001-01-01T00:00:00Z","name_a2s":"Uncletopia | Chicago | 6 | All Maps","protocol":17,"map":"pl_swiftwater_final1","folder":"tf","game":"Team Fortress","app_id":440,"player_count":23,"max_players":24,"Bots":0,"server_type":"Dedicated","server_os":"Linux","password":true,"vac":true,"version":"7961495","steam_id":85568392924866363,"keywords":["nocrits","nodmgspread","payload","uncletopia"],"game_id":440,"stv_port":27026,"stv_name":"Uncletopia | Chicago | 6 | All Maps | STV","players":[{"user_id":378,"name":"ZofoJackson","steam_id":76561197998366861,"connected_time":222000000000,"state":"active","ping":51},{"user_id":383,"name":"Derrick Rose","steam_id":76561198449527009,"connected_time":59000000000,"state":"active","ping":88},{"user_id":379,"name":"Shockwave","steam_id":76561198059327378,"connected_time":196000000000,"state":"active","ping":43},{"user_id":377,"name":"Berries","steam_id":76561198109312962,"connected_time":470000000000,"state":"active","ping":76},{"user_id":350,"name":"ÓÄòMICEBATH_NGÓÄò","steam_id":76561199194844669,"connected_time":1602000000000,"state":"active","ping":89},{"user_id":375,"name":"HenryHJ","steam_id":76561198206291528,"connected_time":494000000000,"state":"active","ping":72},{"user_id":357,"name":"bhop god","steam_id":76561198127534492,"connected_time":1104000000000,"state":"active","ping":43},{"user_id":351,"name":"bleach65","steam_id":76561198115270571,"connected_time":1566000000000,"state":"active","ping":87},{"user_id":382,"name":"Queen Frau the Round","steam_id":76561197999942134,"connected_time":108000000000,"state":"active","ping":45},{"user_id":359,"name":"Not_Douglas","steam_id":76561199024184136,"connected_time":1066000000000,"state":"active","ping":64},{"user_id":384,"name":"‚í∑‚ì™‚ì™‚ì£‚ì®‚ìí‚ìê‚ìö‚ìî‚ì¢","steam_id":76561198088776421,"connected_time":48000000000,"state":"active","ping":62},{"user_id":385,"name":"(Voice) God","steam_id":76561198118605824,"connected_time":29000000000,"state":"active","ping":67},{"user_id":362,"name":"Circuit Spark","steam_id":76561198832124473,"connected_time":894000000000,"state":"active","ping":72},{"user_id":363,"name":"Carton","steam_id":76561198989473391,"connected_time":888000000000,"state":"active","ping":98},{"user_id":305,"name":"xochiquetzal","steam_id":76561199064278937,"connected_time":4529000000000,"state":"active","ping":55},{"user_id":364,"name":"melting","steam_id":76561198022960795,"connected_time":886000000000,"state":"active","ping":98},{"user_id":366,"name":"Hatsune Miku IRL","steam_id":76561198023770512,"connected_time":853000000000,"state":"active","ping":92},{"user_id":387,"name":"N8","steam_id":76561198077788860,"connected_time":23000000000,"state":"active","ping":70},{"user_id":369,"name":"Cee","steam_id":76561199114277048,"connected_time":847000000000,"state":"active","ping":51},{"user_id":370,"name":"Quark","steam_id":76561198328155605,"connected_time":843000000000,"state":"active","ping":52},{"user_id":372,"name":"x69xsocietyx420x","steam_id":76561198085366098,"connected_time":822000000000,"state":"active","ping":80},{"user_id":373,"name":"Hawk","steam_id":76561198039553144,"connected_time":817000000000,"state":"active","ping":78},{"user_id":374,"name":"i  suffer from brain damage","steam_id":76561199049620145,"connected_time":787000000000,"state":"active","ping":178}]},{"server_id":38,"name":"Uncletopia | Chicago | 7 | Stopwatch","name_short":"chi-7","host":"chi-2.us.uncletopia.com","port":27035,"enabled":true,"region":"us-central","cc":"us","latitude":41.881832,"longitude":-87.62318,"reserved":0,"last_update":"0001-01-01T00:00:00Z","name_a2s":"Uncletopia | Chicago | 7 | Stopwatch","protocol":17,"map":"cp_snakewater_final1","folder":"tf","game":"Team Fortress","app_id":440,"player_count":0,"max_players":24,"Bots":0,"server_type":"Dedicated","server_os":"Linux","password":true,"vac":true,"version":"7961495","steam_id":85568392924866364,"keywords":["cp","nocrits","nodmgspread","uncletopia"],"game_id":440,"stv_port":27036,"stv_name":"Uncletopia | Chicago | 7 | Stopwatch | STV","players":null},{"server_id":39,"name":"Uncletopia | Chicago | 8 | Community","name_short":"chi-8","host":"chi-2.us.uncletopia.com","port":27045,"enabled":true,"region":"us-central","cc":"us","latitude":41.881832,"longitude":-87.62318,"reserved":0,"last_update":"0001-01-01T00:00:00Z","name_a2s":"Uncletopia | Chicago | 8 | Community","protocol":17,"map":"workshop/koth_slaughter_rc1.ugc1712845210","folder":"tf","game":"Team Fortress","app_id":440,"player_count":0,"max_players":24,"Bots":0,"server_type":"Dedicated","server_os":"Linux","password":true,"vac":true,"version":"7961495","steam_id":85568392924866365,"keywords":["cp","nocrits","nodmgspread","uncletopia"],"game_id":440,"stv_port":27046,"stv_name":"Uncletopia | Chicago | 8 | Community | STV","players":null},{"server_id":8,"name":"Uncletopia | Dallas | 1 | All Maps","name_short":"dal-1","host":"dal-1.us.uncletopia.com","port":27015,"enabled":true,"region":"us-central","cc":"us","latitude":32.779167,"longitude":-96.80889,"reserved":0,"last_update":"0001-01-01T00:00:00Z","name_a2s":"Uncletopia | Dallas | 1 | All Maps","protocol":17,"map":"pl_upward","folder":"tf","game":"Team Fortress","app_id":440,"player_count":24,"max_players":24,"Bots":0,"server_type":"Dedicated","server_os":"Linux","password":true,"vac":true,"version":"7961495","steam_id":85568392924469986,"keywords":["nocrits","nodmgspread","payload","uncletopia"],"game_id":440,"stv_port":27016,"stv_name":"Uncletopia | Dallas | 1 | All Maps | STV","players":[{"user_id":266,"name":"B·µ¢g B‚Çí‚Çõ‚Çõ #WeMissYouSold","steam_id":76561198090271815,"connected_time":2658000000000,"state":"active","ping":129},{"user_id":239,"name":"Whimmy_Wham","steam_id":76561198123159670,"connected_time":4934000000000,"state":"active","ping":103},{"user_id":264,"name":"Darling","steam_id":76561198127525888,"connected_time":2706000000000,"state":"active","ping":53},{"user_id":252,"name":"Rob","steam_id":76561199187786660,"connected_time":3381000000000,"state":"active","ping":55},{"user_id":236,"name":"BOB","steam_id":76561198000787196,"connected_time":4973000000000,"state":"active","ping":122},{"user_id":280,"name":"pinglefingle","steam_id":76561198216580197,"connected_time":1352000000000,"state":"active","ping":58},{"user_id":250,"name":"Gamerfan64","steam_id":76561198801410962,"connected_time":3659000000000,"state":"active","ping":49},{"user_id":288,"name":"SantaMuerte","steam_id":76561198039898148,"connected_time":1024000000000,"state":"active","ping":83},{"user_id":244,"name":"kermitcreeper(ZAZA)","steam_id":76561199222829972,"connected_time":4429000000000,"state":"active","ping":64},{"user_id":294,"name":"murakumo","steam_id":76561198110046630,"connected_time":395000000000,"state":"active","ping":76},{"user_id":283,"name":"BurnN8or101","steam_id":76561198132668224,"connected_time":1235000000000,"state":"active","ping":72},{"user_id":281,"name":"Monkey Gaming","steam_id":76561198232461944,"connected_time":1282000000000,"state":"active","ping":95},{"user_id":282,"name":"...","steam_id":76561198199217834,"connected_time":1252000000000,"state":"active","ping":92},{"user_id":194,"name":"flippercurve","steam_id":76561199238295034,"connected_time":7631000000000,"state":"active","ping":63},{"user_id":254,"name":"Ryzema","steam_id":76561198165594229,"connected_time":3302000000000,"state":"active","ping":90},{"user_id":257,"name":"werecat","steam_id":76561198005091213,"connected_time":2982000000000,"state":"active","ping":76},{"user_id":284,"name":"StudLovinLefty","steam_id":76561199132661606,"connected_time":1203000000000,"state":"active","ping":104},{"user_id":255,"name":"Greg Boberton 2012","steam_id":76561198983566026,"connected_time":3091000000000,"state":"active","ping":86},{"user_id":289,"name":"Sigiferd","steam_id":76561198148788110,"connected_time":1023000000000,"state":"active","ping":125},{"user_id":286,"name":"The Super Mario Bros. Movie","steam_id":76561198871692156,"connected_time":1187000000000,"state":"active","ping":119},{"user_id":287,"name":"DoomedMakwa","steam_id":76561198167053158,"connected_time":1177000000000,"state":"active","ping":73},{"user_id":295,"name":"Ice cream sandwich","steam_id":76561198172748357,"connected_time":221000000000,"state":"active","ping":89},{"user_id":277,"name":"the master of cats","steam_id":76561198819255576,"connected_time":2014000000000,"state":"active","ping":80},{"user_id":292,"name":"ExplosiveGamer21","steam_id":76561198132370955,"connected_time":659000000000,"state":"active","ping":100}]},{"server_id":108,"name":"Uncletopia | Dallas | 2 | All Maps","name_short":"dal-2","host":"dal-1.us.uncletopia.com","port":27025,"enabled":true,"region":"us-central","cc":"us","latitude":32.779167,"longitude":-96.80889,"reserved":0,"last_update":"0001-01-01T00:00:00Z","name_a2s":"Uncletopia | Dallas | 2 | All Maps","protocol":17,"map":"pl_barnblitz","folder":"tf","game":"Team Fortress","app_id":440,"player_count":24,"max_players":24,"Bots":0,"server_type":"Dedicated","server_os":"Linux","password":true,"vac":true,"version":"7961495","steam_id":85568392924469988,"keywords":["nocrits","nodmgspread","payload","uncletopia"],"game_id":440,"stv_port":27026,"stv_name":"Uncletopia | Dallas | 2 | All Maps | STV","players":[{"user_id":108,"name":"Captain Chicken","steam_id":76561198047767530,"connected_time":1659000000000,"state":"active","ping":112},{"user_id":97,"name":"Orange Triangle","steam_id":76561198320498182,"connected_time":2315000000000,"state":"active","ping":81},{"user_id":57,"name":"mkl","steam_id":76561197986401685,"connected_time":5174000000000,"state":"active","ping":61},{"user_id":63,"name":"Mellou","steam_id":76561198212048740,"connected_time":4654000000000,"state":"active","ping":44},{"user_id":109,"name":"Bones0010","steam_id":76561198096186958,"connected_time":1638000000000,"state":"active","ping":69},{"user_id":100,"name":"pelt","steam_id":76561197993593754,"connected_time":2085000000000,"state":"active","ping":76},{"user_id":111,"name":"Brightmuffin","steam_id":76561198357333409,"connected_time":1636000000000,"state":"active","ping":78},{"user_id":98,"name":"small meth pouch","steam_id":76561198130412963,"connected_time":2244000000000,"state":"active","ping":64},{"user_id":112,"name":"Sir.TopHats","steam_id":76561198267326839,"connected_time":1625000000000,"state":"active","ping":68},{"user_id":113,"name":"thumb","steam_id":76561198353762582,"connected_time":1531000000000,"state":"active","ping":97},{"user_id":119,"name":"BasedPoweredMan","steam_id":76561198183198382,"connected_time":1199000000000,"state":"active","ping":87},{"user_id":107,"name":"Bobbi Bedazzler È≠îÈêò","steam_id":76561198007405067,"connected_time":1733000000000,"state":"active","ping":58},{"user_id":103,"name":"Cursed Frog","steam_id":76561198090419068,"connected_time":2009000000000,"state":"active","ping":131},{"user_id":123,"name":"Dude bro","steam_id":76561198249916746,"connected_time":779000000000,"state":"active","ping":77},{"user_id":51,"name":"Sp√ºkiiTV","steam_id":76561198098281824,"connected_time":5657000000000,"state":"active","ping":89},{"user_id":124,"name":"cart","steam_id":76561198253731826,"connected_time":710000000000,"state":"active","ping":88},{"user_id":106,"name":"Len","steam_id":76561199141913673,"connected_time":1965000000000,"state":"active","ping":68},{"user_id":105,"name":"Shalom","steam_id":76561198410005222,"connected_time":1994000000000,"state":"active","ping":64},{"user_id":60,"name":"Cheetose Intolerant","steam_id":76561198013399809,"connected_time":4712000000000,"state":"active","ping":62},{"user_id":121,"name":"ShadowDragon0125","steam_id":76561198343849022,"connected_time":952000000000,"state":"active","ping":76},{"user_id":86,"name":"JtsRes","steam_id":76561197994809241,"connected_time":3148000000000,"state":"active","ping":62},{"user_id":120,"name":"Dwarfo","steam_id":76561198119220289,"connected_time":1059000000000,"state":"active","ping":100},{"user_id":125,"name":"Crazy__Biscuit","steam_id":76561198399851872,"connected_time":557000000000,"state":"active","ping":85},{"user_id":68,"name":"Cosmic Soup","steam_id":76561198448801117,"connected_time":4607000000000,"state":"active","ping":78}]},{"server_id":404,"name":"Uncletopia | Dallas | 3 | All Maps","name_short":"dal-3","host":"dal-1.us.uncletopia.com","port":27035,"enabled":true,"region":"us-central","cc":"us","latitude":32.779167,"longitude":-96.80889,"reserved":0,"last_update":"0001-01-01T00:00:00Z","name_a2s":"Uncletopia | Dallas | 3 | All Maps","protocol":17,"map":"pl_badwater","folder":"tf","game":"Team Fortress","app_id":440,"player_count":0,"max_players":24,"Bots":0,"server_type":"Dedicated","server_os":"Linux","password":true,"vac":true,"version":"7961495","steam_id":85568392924515219,"keywords":["nocrits","nodmgspread","payload","uncletopia"],"game_id":440,"stv_port":27036,"stv_name":"Uncletopia | Dallas | 3 | All Maps | STV","players":null},{"server_id":405,"name":"Uncletopia | Dallas | 4 | Community","name_short":"dal-4","host":"dal-1.us.uncletopia.com","port":27045,"enabled":true,"region":"us-central","cc":"us","latitude":32.779167,"longitude":-96.80889,"reserved":0,"last_update":"0001-01-01T00:00:00Z","name_a2s":"Uncletopia | Dallas | 4 | Community","protocol":17,"map":"pl_pier","folder":"tf","game":"Team Fortress","app_id":440,"player_count":0,"max_players":24,"Bots":0,"server_type":"Dedicated","server_os":"Linux","password":true,"vac":true,"version":"7961495","steam_id":85568392924515220,"keywords":["nocrits","nodmgspread","payload","uncletopia"],"game_id":440,"stv_port":27046,"stv_name":"Uncletopia | Dallas | 4 | Community | STV","players":null},{"server_id":5,"name":"Uncletopia | Frankfurt | 1 | All Maps","name_short":"frk-1","host":"frk-1.de.uncletopia.com","port":27015,"enabled":true,"region":"eu","cc":"de","latitude":50.110924,"longitude":8.682127,"reserved":0,"last_update":"0001-01-01T00:00:00Z","name_a2s":"Uncletopia | Frankfurt | 1 | All Maps","protocol":17,"map":"pl_badwater","folder":"tf","game":"Team Fortress","app_id":440,"player_count":23,"max_players":24,"Bots":0,"server_type":"Dedicated","server_os":"Linux","password":true,"vac":true,"version":"7961495","steam_id":85568392924469989,"keywords":["nocrits","nodmgspread","payload","uncletopia"],"game_id":440,"stv_port":27016,"stv_name":"Uncletopia | Frankfurt | 1 | All Maps | STV","players":[{"user_id":464,"name":"F73","steam_id":76561198034994275,"connected_time":72000000000,"state":"active","ping":48},{"user_id":463,"name":"a second plane","steam_id":76561199401283123,"connected_time":106000000000,"state":"active","ping":58},{"user_id":452,"name":"highest noon","steam_id":76561199103959197,"connected_time":535000000000,"state":"active","ping":90},{"user_id":453,"name":"Koli","steam_id":76561197992428783,"connected_time":532000000000,"state":"active","ping":56},{"user_id":318,"name":"n-ski","steam_id":76561198020550849,"connected_time":10380000000000,"state":"active","ping":78},{"user_id":449,"name":"crit hit!","steam_id":76561198112693639,"connected_time":625000000000,"state":"active","ping":64},{"user_id":373,"name":"essah","steam_id":76561197985717714,"connected_time":5883000000000,"state":"active","ping":84},{"user_id":454,"name":"MrWeis","steam_id":76561198115443579,"connected_time":494000000000,"state":"active","ping":69},{"user_id":386,"name":"ozz-man","steam_id":76561198084676522,"connected_time":4959000000000,"state":"active","ping":118},{"user_id":383,"name":"MaTke","steam_id":76561198378170301,"connected_time":5019000000000,"state":"active","ping":70},{"user_id":438,"name":"AIEmil","steam_id":76561198013205559,"connected_time":1472000000000,"state":"active","ping":62},{"user_id":415,"name":"Kiervce","steam_id":76561199175427371,"connected_time":2547000000000,"state":"active","ping":145},{"user_id":365,"name":"simon","steam_id":76561197960506122,"connected_time":6626000000000,"state":"active","ping":84},{"user_id":442,"name":"smell_my_cheese","steam_id":76561198008517427,"connected_time":1160000000000,"state":"active","ping":67},{"user_id":455,"name":"Velvet","steam_id":76561198180081394,"connected_time":484000000000,"state":"active","ping":58},{"user_id":436,"name":"Vitamin Weee","steam_id":76561199183937747,"connected_time":1671000000000,"state":"active","ping":83},{"user_id":444,"name":"Tea","steam_id":76561198797847641,"connected_time":1147000000000,"state":"active","ping":76},{"user_id":460,"name":"Dr Ludwig","steam_id":76561198426522902,"connected_time":373000000000,"state":"active","ping":66},{"user_id":450,"name":"ÍßÅ‡ºíXenon‡ºíÍßÇ","steam_id":76561198120502313,"connected_time":621000000000,"state":"active","ping":87},{"user_id":462,"name":"Senator Palpaprotein","steam_id":76561198081980254,"connected_time":301000000000,"state":"active","ping":54},{"user_id":465,"name":"Watermelon","steam_id":76561198078349914,"connected_time":22000000000,"state":"active","ping":61},{"user_id":459,"name":"Huskai","steam_id":76561198141512362,"connected_time":433000000000,"state":"active","ping":44},{"user_id":425,"name":"–ë—ã–¥–ª–∞ –≤–æ–π","steam_id":76561198041371314,"connected_time":1904000000000,"state":"active","ping":119}]},{"server_id":110,"name":"Uncletopia | Frankfurt | 2 | All Maps","name_short":"frk-2","host":"frk-1.de.uncletopia.com","port":27025,"enabled":true,"region":"eu","cc":"de","latitude":50.110924,"longitude":8.682127,"reserved":0,"last_update":"0001-01-01T00:00:00Z","name_a2s":"Uncletopia | Frankfurt | 2 | All Maps","protocol":17,"map":"pl_pier","folder":"tf","game":"Team Fortress","app_id":440,"player_count":23,"max_players":24,"Bots":0,"server_type":"Dedicated","server_os":"Linux","password":true,"vac":true,"version":"7961495","steam_id":85568392924469990,"keywords":["nocrits","nodmgspread","payload","uncletopia"],"game_id":440,"stv_port":27026,"stv_name":"Uncletopia | Frankfurt | 2 | All Maps | STV","players":[{"user_id":155,"name":"ALGOR","steam_id":76561199157131419,"connected_time":1260000000000,"state":"active","ping":62},{"user_id":167,"name":"Lartsa","steam_id":76561198275690230,"connected_time":767000000000,"state":"active","ping":107},{"user_id":168,"name":"Proto-arc","steam_id":76561198012776747,"connected_time":398000000000,"state":"active","ping":50},{"user_id":169,"name":"78 :3","steam_id":76561198208328357,"connected_time":389000000000,"state":"active","ping":74},{"user_id":143,"name":"sarii ‚òÜ","steam_id":76561199155102111,"connected_time":2797000000000,"state":"active","ping":75},{"user_id":170,"name":"Ixsus\u003c3","steam_id":76561198094756869,"connected_time":387000000000,"state":"active","ping":51},{"user_id":177,"name":"mrappledumb","steam_id":76561199133590774,"connected_time":48000000000,"state":"spawning","ping":161},{"user_id":166,"name":"Vince","steam_id":76561199103000131,"connected_time":861000000000,"state":"active","ping":45},{"user_id":164,"name":"Finkaksu :3","steam_id":76561198201389163,"connected_time":977000000000,"state":"active","ping":60},{"user_id":171,"name":"Vilmukas","steam_id":76561199106648396,"connected_time":377000000000,"state":"active","ping":53},{"user_id":163,"name":"Illy","steam_id":76561198045537823,"connected_time":1116000000000,"state":"active","ping":82},{"user_id":172,"name":"Piellino","steam_id":76561198156873276,"connected_time":359000000000,"state":"active","ping":101},{"user_id":176,"name":"PUBBER GOBLIN CLEANUP SERVICE","steam_id":76561198129828715,"connected_time":196000000000,"state":"active","ping":59},{"user_id":136,"name":"Jack Cable 3.5 mm","steam_id":76561198072998924,"connected_time":2925000000000,"state":"active","ping":52},{"user_id":158,"name":"kakaobune","steam_id":76561199179816950,"connected_time":1233000000000,"state":"active","ping":61},{"user_id":137,"name":"Laryssa","steam_id":76561198271084076,"connected_time":2909000000000,"state":"active","ping":84},{"user_id":127,"name":"N","steam_id":76561198176593895,"connected_time":3818000000000,"state":"active","ping":70},{"user_id":139,"name":"Guthlaf","steam_id":76561198153564078,"connected_time":2891000000000,"state":"active","ping":81},{"user_id":154,"name":"Mr. Luigi","steam_id":76561198167312951,"connected_time":1440000000000,"state":"active","ping":55},{"user_id":159,"name":"3600 dpi gamer","steam_id":76561198977420882,"connected_time":1219000000000,"state":"active","ping":47},{"user_id":175,"name":"heisenberg","steam_id":76561198988867951,"connected_time":241000000000,"state":"active","ping":69},{"user_id":141,"name":"Finn","steam_id":76561198179960193,"connected_time":2855000000000,"state":"active","ping":47},{"user_id":165,"name":"fart poo penis","steam_id":76561199008015028,"connected_time":961000000000,"state":"active","ping":49}]},{"server_id":308,"name":"Uncletopia | Frankfurt | 3 | All Maps","name_short":"frk-3","host":"frk-1.de.uncletopia.com","port":27035,"enabled":true,"region":"eu","cc":"de","latitude":50.110924,"longitude":8.682127,"reserved":0,"last_update":"0001-01-01T00:00:00Z","name_a2s":"Uncletopia | Frankfurt | 3 | All Maps","protocol":17,"map":"cp_sunshine","folder":"tf","game":"Team Fortress","app_id":440,"player_count":24,"max_players":24,"Bots":0,"server_type":"Dedicated","server_os":"Linux","password":true,"vac":true,"version":"7961495","steam_id":85568392924504274,"keywords":["cp","nocrits","nodmgspread","uncletopia"],"game_id":440,"stv_port":27036,"stv_name":"Uncletopia | Frankfurt | 3 | All Maps | STV","players":[{"user_id":634,"name":"idenburg","steam_id":76561198063574956,"connected_time":313000000000,"state":"active","ping":62},{"user_id":522,"name":"you like buff tf2 men don't you","steam_id":76561198837586838,"connected_time":9787000000000,"state":"active","ping":76},{"user_id":593,"name":"Uguyguy","steam_id":76561198348140423,"connected_time":3187000000000,"state":"active","ping":156},{"user_id":596,"name":"vi","steam_id":76561198303147966,"connected_time":3097000000000,"state":"active","ping":49},{"user_id":628,"name":"Favbet ua","steam_id":76561198273199378,"connected_time":629000000000,"state":"active","ping":65},{"user_id":629,"name":"H2n9","steam_id":76561198055811259,"connected_time":580000000000,"state":"active","ping":66},{"user_id":569,"name":"hipster_doofus","steam_id":76561197970902697,"connected_time":6269000000000,"state":"active","ping":73},{"user_id":630,"name":"Francis","steam_id":76561198987134265,"connected_time":564000000000,"state":"active","ping":71},{"user_id":631,"name":"knyazF","steam_id":76561198163278585,"connected_time":530000000000,"state":"active","ping":71},{"user_id":625,"name":"weshanus","steam_id":76561198035380064,"connected_time":704000000000,"state":"active","ping":46},{"user_id":595,"name":"S. Krypt","steam_id":76561199387501738,"connected_time":3113000000000,"state":"active","ping":61},{"user_id":632,"name":"8 Ball","steam_id":76561197960988736,"connected_time":528000000000,"state":"active","ping":60},{"user_id":633,"name":"Zar Shef","steam_id":76561198108499893,"connected_time":487000000000,"state":"active","ping":111},{"user_id":635,"name":"wG Domo","steam_id":76561198056790920,"connected_time":304000000000,"state":"active","ping":61},{"user_id":626,"name":"The guy that killed Hitler","steam_id":76561199106262610,"connected_time":654000000000,"state":"active","ping":67},{"user_id":621,"name":"armadillo","steam_id":76561198324656652,"connected_time":1261000000000,"state":"active","ping":63},{"user_id":619,"name":"powej","steam_id":76561198056381418,"connected_time":1617000000000,"state":"active","ping":53},{"user_id":587,"name":"cat","steam_id":76561198837071509,"connected_time":4234000000000,"state":"active","ping":84},{"user_id":636,"name":"hoshi‚≠ç tiia","steam_id":76561198046196005,"connected_time":297000000000,"state":"active","ping":38},{"user_id":639,"name":"mr sparkles","steam_id":76561197980736364,"connected_time":200000000000,"state":"active","ping":77},{"user_id":641,"name":"Thrembo believer","steam_id":76561198979214026,"connected_time":111000000000,"state":"active","ping":70},{"user_id":620,"name":"Kamina","steam_id":76561198079299570,"connected_time":1580000000000,"state":"active","ping":71},{"user_id":640,"name":"Mr. Glasses","steam_id":76561199093600431,"connected_time":181000000000,"state":"active","ping":94},{"user_id":618,"name":"Mach","steam_id":76561198952487564,"connected_time":1860000000000,"state":"active","ping":153}]},{"server_id":309,"name":"Uncletopia | Frankfurt | 4 | All Maps","name_short":"frk-4","host":"frk-1.de.uncletopia.com","port":27045,"enabled":true,"region":"eu","cc":"de","latitude":50.110924,"longitude":8.682127,"reserved":0,"last_update":"0001-01-01T00:00:00Z","name_a2s":"Uncletopia | Frankfurt | 4 | All Maps","protocol":17,"map":"pl_badwater","folder":"tf","game":"Team Fortress","app_id":440,"player_count":24,"max_players":24,"Bots":0,"server_type":"Dedicated","server_os":"Linux","password":true,"vac":true,"version":"7961495","steam_id":85568392924504275,"keywords":["nocrits","nodmgspread","payload","uncletopia"],"game_id":440,"stv_port":27046,"stv_name":"Uncletopia | Frankfurt | 4 | All Maps | STV","players":[{"user_id":248,"name":"Dewotter","steam_id":76561198007653168,"connected_time":4046000000000,"state":"active","ping":71},{"user_id":290,"name":"LEGEND FUMO.","steam_id":76561198061033903,"connected_time":716000000000,"state":"active","ping":47},{"user_id":278,"name":"Mi Manchi","steam_id":76561198171573129,"connected_time":1506000000000,"state":"active","ping":59},{"user_id":289,"name":"hallu","steam_id":76561198198581079,"connected_time":782000000000,"state":"active","ping":93},{"user_id":269,"name":"Guuse","steam_id":76561198030956814,"connected_time":2866000000000,"state":"active","ping":93},{"user_id":291,"name":"ALARM","steam_id":76561198120686521,"connected_time":708000000000,"state":"active","ping":45},{"user_id":249,"name":"baballe","steam_id":76561198302448192,"connected_time":4034000000000,"state":"active","ping":39},{"user_id":280,"name":"Mammut","steam_id":76561198056773933,"connected_time":1468000000000,"state":"active","ping":50},{"user_id":237,"name":"Worms","steam_id":76561198040442214,"connected_time":4940000000000,"state":"active","ping":59},{"user_id":264,"name":"bliss","steam_id":76561198067459427,"connected_time":3250000000000,"state":"active","ping":45},{"user_id":265,"name":"bohoc","steam_id":76561198051814654,"connected_time":3248000000000,"state":"active","ping":75},{"user_id":271,"name":"squillisky","steam_id":76561198083569327,"connected_time":2751000000000,"state":"active","ping":57},{"user_id":283,"name":"laser","steam_id":76561198036030697,"connected_time":1351000000000,"state":"active","ping":58},{"user_id":284,"name":"TheDeath","steam_id":76561198265038954,"connected_time":1267000000000,"state":"active","ping":75},{"user_id":268,"name":"happy birtday :3","steam_id":76561198086293715,"connected_time":2904000000000,"state":"active","ping":62},{"user_id":282,"name":"Speex","steam_id":76561198829909647,"connected_time":1429000000000,"state":"active","ping":59},{"user_id":130,"name":"dotdotdot","steam_id":76561198057628751,"connected_time":13177000000000,"state":"active","ping":61},{"user_id":288,"name":"mq","steam_id":76561198091888948,"connected_time":1147000000000,"state":"active","ping":46},{"user_id":293,"name":"Sorry","steam_id":76561198040722720,"connected_time":499000000000,"state":"active","ping":146},{"user_id":267,"name":"you're ugleh","steam_id":76561198056844850,"connected_time":3001000000000,"state":"active","ping":74},{"user_id":258,"name":"Donki Wonki","steam_id":76561198327761273,"connected_time":3782000000000,"state":"active","ping":67},{"user_id":266,"name":"Little Villain","steam_id":76561198048634585,"connected_time":3246000000000,"state":"active","ping":81},{"user_id":257,"name":"aleg228","steam_id":76561199236428794,"connected_time":3815000000000,"state":"active","ping":93},{"user_id":294,"name":"Aeglos","steam_id":76561198248698294,"connected_time":20000000000,"state":"active","ping":103}]},{"server_id":310,"name":"Uncletopia | Frankfurt | 5 | All Maps","name_short":"frk-5","host":"frk-1.de.uncletopia.com","port":27055,"enabled":true,"region":"eu","cc":"de","latitude":50.110924,"longitude":8.682127,"reserved":0,"last_update":"0001-01-01T00:00:00Z","name_a2s":"Uncletopia | Frankfurt | 5 | All Maps","protocol":17,"map":"pl_upward","folder":"tf","game":"Team Fortress","app_id":440,"player_count":8,"max_players":24,"Bots":0,"server_type":"Dedicated","server_os":"Linux","password":true,"vac":true,"version":"7961495","steam_id":85568392924504277,"keywords":["nocrits","nodmgspread","payload","uncletopia"],"game_id":440,"stv_port":27056,"stv_name":"Uncletopia | Frankfurt | 5 | All Maps | STV","players":[{"user_id":211,"name":"nakedpee","steam_id":76561198064345980,"connected_time":11000000000,"state":"spawning","ping":1351},{"user_id":210,"name":"Freddy Fazbear Gaming","steam_id":76561198299179114,"connected_time":349000000000,"state":"active","ping":70},{"user_id":198,"name":"eldaou2009","steam_id":76561198966358094,"connected_time":1328000000000,"state":"active","ping":59},{"user_id":203,"name":"NaokiP","steam_id":76561198002788698,"connected_time":871000000000,"state":"active","ping":80},{"user_id":201,"name":"Sad Sandy","steam_id":76561198232913456,"connected_time":1106000000000,"state":"active","ping":79},{"user_id":204,"name":"KingofCubes","steam_id":76561198258037513,"connected_time":662000000000,"state":"active","ping":74},{"user_id":205,"name":"LowRender3","steam_id":76561199491761622,"connected_time":657000000000,"state":"active","ping":72},{"user_id":207,"name":"The Manager of Sex (Real)","steam_id":76561198385989487,"connected_time":455000000000,"state":"active","ping":99}]},{"server_id":311,"name":"Uncletopia | Frankfurt | 6 | All Maps","name_short":"frk-6","host":"frk-1.de.uncletopia.com","port":27065,"enabled":true,"region":"eu","cc":"de","latitude":50.110924,"longitude":8.682127,"reserved":0,"last_update":"0001-01-01T00:00:00Z","name_a2s":"Uncletopia | Frankfurt | 6 | All Maps","protocol":17,"map":"pl_frontier_final","folder":"tf","game":"Team Fortress","app_id":440,"player_count":1,"max_players":24,"Bots":0,"server_type":"Dedicated","server_os":"Linux","password":true,"vac":true,"version":"7961495","steam_id":85568392924504278,"keywords":["nocrits","nodmgspread","payload","uncletopia"],"game_id":440,"stv_port":27066,"stv_name":"Uncletopia | Frankfurt | 6 | All Maps | STV","players":[{"user_id":230,"name":"A Bl√•haj Fan","steam_id":76561199029212388,"connected_time":5000000000,"state":"spawning","ping":55}]},{"server_id":23,"name":"Uncletopia | Frankfurt | 7 | Stopwatch","name_short":"frk-7","host":"frk-1.de.uncletopia.com","port":27075,"enabled":true,"region":"eu","cc":"de","latitude":50.110924,"longitude":8.682127,"reserved":0,"last_update":"0001-01-01T00:00:00Z","name_a2s":"Uncletopia | Frankfurt | 7 | Stopwatch","protocol":17,"map":"koth_lakeside_final","folder":"tf","game":"Team Fortress","app_id":440,"player_count":10,"max_players":24,"Bots":0,"server_type":"Dedicated","server_os":"Linux","password":true,"vac":true,"version":"7961495","steam_id":85568392924742827,"keywords":["cp","nocrits","nodmgspread","uncletopia"],"game_id":440,"stv_port":27076,"stv_name":"Uncletopia | Frankfurt | 7 | Stopwatch | STV","players":[{"user_id":905,"name":"Virgineer","steam_id":76561199140814522,"connected_time":1056000000000,"state":"active","ping":89},{"user_id":915,"name":"dingus","steam_id":76561198966767200,"connected_time":214000000000,"state":"active","ping":146},{"user_id":906,"name":"dash.","steam_id":76561198084796149,"connected_time":991000000000,"state":"active","ping":48},{"user_id":913,"name":"610_senpaibaka","steam_id":76561199234049309,"connected_time":669000000000,"state":"active","ping":96},{"user_id":859,"name":"akakez","steam_id":76561198095432821,"connected_time":2936000000000,"state":"active","ping":116},{"user_id":907,"name":"lacurio","steam_id":76561198059701776,"connected_time":932000000000,"state":"active","ping":48},{"user_id":914,"name":"DragonSlayer","steam_id":76561199145087585,"connected_time":641000000000,"state":"active","ping":56},{"user_id":917,"name":"QR-M5TR","steam_id":76561198197626135,"connected_time":187000000000,"state":"active","ping":55},{"user_id":862,"name":"Massmarine","steam_id":76561198038696531,"connected_time":2846000000000,"state":"active","ping":103},{"user_id":899,"name":"sadistic catgirl","steam_id":76561198974207724,"connected_time":1220000000000,"state":"active","ping":96}]},{"server_id":24,"name":"Uncletopia | Frankfurt | 8 | Community","name_short":"frk-8","host":"frk-1.de.uncletopia.com","port":27085,"enabled":true,"region":"eu","cc":"de","latitude":50.110924,"longitude":8.682127,"reserved":0,"last_update":"0001-01-01T00:00:00Z","name_a2s":"Uncletopia | Frankfurt | 8 | Community","protocol":17,"map":"workshop/koth_product_final.ugc454272353","folder":"tf","game":"Team Fortress","app_id":440,"player_count":0,"max_players":24,"Bots":0,"server_type":"Dedicated","server_os":"Linux","password":true,"vac":true,"version":"7961495","steam_id":85568392924742828,"keywords":["cp","nocrits","nodmgspread","uncletopia"],"game_id":440,"stv_port":27086,"stv_name":"Uncletopia | Frankfurt | 8 | Community | STV","players":null},{"server_id":202,"name":"Uncletopia | Hong Kong | 1 | All Maps","name_short":"hgk-1","host":"hgk-1.hk.uncletopia.com","port":27015,"enabled":true,"region":"asia","cc":"hk","latitude":22.302711,"longitude":114.177216,"reserved":0,"last_update":"0001-01-01T00:00:00Z","name_a2s":"Uncletopia | Hong Kong | 1 | All Maps","protocol":17,"map":"pl_frontier_final","folder":"tf","game":"Team Fortress","app_id":440,"player_count":0,"max_players":24,"Bots":0,"server_type":"Dedicated","server_os":"Linux","password":true,"vac":true,"version":"7961495","steam_id":85568392924494504,"keywords":["nocrits","nodmgspread","payload","uncletopia"],"game_id":440,"stv_port":27016,"stv_name":"Uncletopia | Hong Kong | 1 | All Maps | STV","players":null},{"server_id":1,"name":"Uncletopia | Los Angeles | 1 | All Maps","name_short":"lax-1","host":"lax-1.us.uncletopia.com","port":27015,"enabled":true,"region":"us-west","cc":"us","latitude":33.94279,"longitude":-118.41004,"reserved":0,"last_update":"0001-01-01T00:00:00Z","name_a2s":"Uncletopia | Los Angeles | 1 | All Maps","protocol":17,"map":"cp_altitude","folder":"tf","game":"Team Fortress","app_id":440,"player_count":1,"max_players":24,"Bots":0,"server_type":"Dedicated","server_os":"Linux","password":true,"vac":true,"version":"7961495","steam_id":85568392924469991,"keywords":["cp","nocrits","nodmgspread","uncletopia"],"game_id":440,"stv_port":27016,"stv_name":"Uncletopia | Los Angeles | 1 | All Maps | STV","players":[{"user_id":27,"name":"Yackaboi","steam_id":76561199444911765,"connected_time":104000000000,"state":"active","ping":85}]},{"server_id":112,"name":"Uncletopia | Los Angeles | 2 | All Maps","name_short":"lax-2","host":"lax-1.us.uncletopia.com","port":27025,"enabled":true,"region":"us-west","cc":"us","latitude":33.94279,"longitude":-118.41004,"reserved":0,"last_update":"0001-01-01T00:00:00Z","name_a2s":"Uncletopia | Los Angeles | 2 | All Maps","protocol":17,"map":"koth_highpass","folder":"tf","game":"Team Fortress","app_id":440,"player_count":0,"max_players":24,"Bots":0,"server_type":"Dedicated","server_os":"Linux","password":true,"vac":true,"version":"7961495","steam_id":85568392924469992,"keywords":["cp","nocrits","nodmgspread","uncletopia"],"game_id":440,"stv_port":27026,"stv_name":"Uncletopia | Los Angeles | 2 | All Maps | STV","players":null},{"server_id":324,"name":"Uncletopia | Los Angeles | 3 | All Maps","name_short":"lax-3","host":"lax-1.us.uncletopia.com","port":27035,"enabled":true,"region":"us-west","cc":"us","latitude":33.94279,"longitude":-118.41004,"reserved":0,"last_update":"0001-01-01T00:00:00Z","name_a2s":"Uncletopia | Los Angeles | 3 | All Maps","protocol":17,"map":"cp_altitude","folder":"tf","game":"Team Fortress","app_id":440,"player_count":24,"max_players":24,"Bots":0,"server_type":"Dedicated","server_os":"Linux","password":true,"vac":true,"version":"7961495","steam_id":85568392924510198,"keywords":["cp","nocrits","nodmgspread","uncletopia"],"game_id":440,"stv_port":27036,"stv_name":"Uncletopia | Los Angeles | 3 | All Maps | STV","players":[{"user_id":146,"name":"ShadowZiki","steam_id":76561198145930013,"connected_time":2484000000000,"state":"active","ping":43},{"user_id":156,"name":"raccoonmanthing","steam_id":76561199042222863,"connected_time":1280000000000,"state":"active","ping":59},{"user_id":111,"name":"grand piano tuna","steam_id":76561198135137213,"connected_time":4149000000000,"state":"active","ping":75},{"user_id":108,"name":"blossssssommmmm","steam_id":76561198042735130,"connected_time":4190000000000,"state":"active","ping":79},{"user_id":137,"name":"Green Mario","steam_id":76561198094325997,"connected_time":2921000000000,"state":"active","ping":77},{"user_id":148,"name":"Shazzy","steam_id":76561198145460523,"connected_time":2430000000000,"state":"active","ping":65},{"user_id":164,"name":"banjobun #savelight_env","steam_id":76561198116814525,"connected_time":695000000000,"state":"active","ping":73},{"user_id":152,"name":"Mr8bittripper","steam_id":76561198133894229,"connected_time":2043000000000,"state":"active","ping":69},{"user_id":170,"name":"prospike569","steam_id":76561199491903111,"connected_time":502000000000,"state":"active","ping":117},{"user_id":112,"name":"conmaros45","steam_id":76561199492995447,"connected_time":4134000000000,"state":"active","ping":105},{"user_id":162,"name":"whathashit69","steam_id":76561199013105760,"connected_time":842000000000,"state":"active","ping":128},{"user_id":133,"name":"Boxcars","steam_id":76561198120978767,"connected_time":3200000000000,"state":"active","ping":49},{"user_id":158,"name":"Gerbias","steam_id":76561198001002427,"connected_time":1129000000000,"state":"active","ping":62},{"user_id":171,"name":"C0r0naLight","steam_id":76561198050550310,"connected_time":445000000000,"state":"active","ping":67},{"user_id":167,"name":"jrake \u0026 josh","steam_id":76561198060762287,"connected_time":607000000000,"state":"active","ping":89},{"user_id":172,"name":"TruthHut","steam_id":76561198093452436,"connected_time":442000000000,"state":"active","ping":77},{"user_id":151,"name":"YunKo„ÉÑ","steam_id":76561199107366261,"connected_time":2393000000000,"state":"active","ping":132},{"user_id":169,"name":"Decuplets","steam_id":76561198080661586,"connected_time":544000000000,"state":"active","ping":146},{"user_id":166,"name":"Your Favorite Fearless Hero","steam_id":76561199127590316,"connected_time":692000000000,"state":"active","ping":61},{"user_id":153,"name":"usedhalfcart","steam_id":76561198072621852,"connected_time":1493000000000,"state":"active","ping":86},{"user_id":154,"name":"Stranger","steam_id":76561198043314392,"connected_time":1376000000000,"state":"active","ping":80},{"user_id":142,"name":"azureglxy","steam_id":76561198861388315,"connected_time":2783000000000,"state":"active","ping":42},{"user_id":161,"name":"Big Jack","steam_id":76561198132755619,"connected_time":895000000000,"state":"active","ping":43},{"user_id":145,"name":"Igrium","steam_id":76561198119549811,"connected_time":2724000000000,"state":"active","ping":63}]},{"server_id":25,"name":"Uncletopia | Los Angeles | 4 | Stopwatch","name_short":"lax-4","host":"lax-1.us.uncletopia.com","port":27045,"enabled":true,"region":"us-west","cc":"us","latitude":33.94279,"longitude":-118.41004,"reserved":0,"last_update":"0001-01-01T00:00:00Z","name_a2s":"Uncletopia | Los Angeles | 4 | Stopwatch","protocol":17,"map":"workshop/koth_bagel_rc6.ugc2514036946","folder":"tf","game":"Team Fortress","app_id":440,"player_count":0,"max_players":24,"Bots":0,"server_type":"Dedicated","server_os":"Linux","password":true,"vac":true,"version":"7961495","steam_id":85568392924510199,"keywords":["cp","nocrits","nodmgspread","uncletopia"],"game_id":440,"stv_port":27046,"stv_name":"Uncletopia | Los Angeles | 4 | Stopwatch | STV","players":null},{"server_id":11,"name":"Uncletopia | London | 1 | All Maps","name_short":"lon-1","host":"lon-1.uk.uncletopia.com","port":27015,"enabled":true,"region":"eu","cc":"gb","latitude":51.509865,"longitude":-0.118092,"reserved":0,"last_update":"0001-01-01T00:00:00Z","name_a2s":"Uncletopia | London | 1 | All Maps","protocol":17,"map":"cp_sunshine","folder":"tf","game":"Team Fortress","app_id":440,"player_count":24,"max_players":24,"Bots":0,"server_type":"Dedicated","server_os":"Linux","password":true,"vac":true,"version":"7961495","steam_id":85568392924367362,"keywords":["cp","nocrits","nodmgspread","uncletopia"],"game_id":440,"stv_port":27016,"stv_name":"Uncletopia | London | 1 | All Maps | STV","players":[{"user_id":650,"name":"One Shiny Boi‚Ñ¢","steam_id":76561198199193627,"connected_time":5800000000000,"state":"active","ping":63},{"user_id":681,"name":"jeff","steam_id":76561198008795422,"connected_time":1740000000000,"state":"active","ping":72},{"user_id":684,"name":"Pantroglodytestherapy","steam_id":76561198236015392,"connected_time":1729000000000,"state":"active","ping":118},{"user_id":677,"name":"sora","steam_id":76561198096547662,"connected_time":1762000000000,"state":"active","ping":50},{"user_id":686,"name":"furry feet ü§§ü§§","steam_id":76561198723244199,"connected_time":1721000000000,"state":"active","ping":74},{"user_id":682,"name":"eon","steam_id":76561197971360276,"connected_time":1739000000000,"state":"active","ping":71},{"user_id":690,"name":"Cabbch","steam_id":76561198045955679,"connected_time":1257000000000,"state":"active","ping":45},{"user_id":678,"name":"Slifer the Acorn","steam_id":76561198062255803,"connected_time":1760000000000,"state":"active","ping":96},{"user_id":676,"name":"Aaron","steam_id":76561197990046953,"connected_time":2092000000000,"state":"active","ping":54},{"user_id":693,"name":"SOPHIIEE","steam_id":76561198443798981,"connected_time":1093000000000,"state":"active","ping":58},{"user_id":685,"name":"prophits","steam_id":76561198011854314,"connected_time":1728000000000,"state":"active","ping":62},{"user_id":688,"name":"NeonPixel","steam_id":76561198165901066,"connected_time":1699000000000,"state":"active","ping":77},{"user_id":689,"name":"Kodama#SaveTF2","steam_id":76561199260499934,"connected_time":1692000000000,"state":"active","ping":41},{"user_id":683,"name":"‚ú™ Danny","steam_id":76561198104483241,"connected_time":1736000000000,"state":"active","ping":54},{"user_id":578,"name":"halow","steam_id":76561198061505163,"connected_time":9980000000000,"state":"active","ping":104},{"user_id":638,"name":"Stunner John Mode! „ÉÑ","steam_id":76561199085822219,"connected_time":6685000000000,"state":"active","ping":90},{"user_id":694,"name":"xva","steam_id":76561198969286813,"connected_time":592000000000,"state":"active","ping":62},{"user_id":657,"name":"‚ôÇ Twink Hunter ‚ôÇ","steam_id":76561198397024973,"connected_time":5171000000000,"state":"active","ping":44},{"user_id":652,"name":"Kphi(i)","steam_id":76561198970587061,"connected_time":5695000000000,"state":"active","ping":58},{"user_id":634,"name":"hmscole09","steam_id":76561198811362788,"connected_time":6930000000000,"state":"active","ping":52},{"user_id":664,"name":"BigChunk","steam_id":76561198215962313,"connected_time":3807000000000,"state":"active","ping":35},{"user_id":673,"name":"BreadBubbles","steam_id":76561198174332826,"connected_time":2938000000000,"state":"active","ping":126},{"user_id":679,"name":"meatsoupcube","steam_id":76561198276802249,"connected_time":1760000000000,"state":"active","ping":102},{"user_id":680,"name":"Son Goku","steam_id":76561199383437138,"connected_time":1760000000000,"state":"active","ping":123}]},{"server_id":114,"name":"Uncletopia | London | 2 | All Maps","name_short":"lon-2","host":"lon-1.uk.uncletopia.com","port":27025,"enabled":true,"region":"eu","cc":"gb","latitude":51.509865,"longitude":-0.118092,"reserved":0,"last_update":"0001-01-01T00:00:00Z","name_a2s":"Uncletopia | London | 2 | All Maps","protocol":17,"map":"cp_gorge","folder":"tf","game":"Team Fortress","app_id":440,"player_count":21,"max_players":24,"Bots":0,"server_type":"Dedicated","server_os":"Linux","password":true,"vac":true,"version":"7961495","steam_id":85568392924470941,"keywords":["cp","nocrits","nodmgspread","uncletopia"],"game_id":440,"stv_port":27026,"stv_name":"Uncletopia | London | 2 | All Maps | STV","players":[{"user_id":599,"name":"Toa LightMakuta","steam_id":76561198212178104,"connected_time":22000000000,"state":"active","ping":253},{"user_id":538,"name":"Femboy Gaming","steam_id":76561198174108515,"connected_time":3393000000000,"state":"active","ping":59},{"user_id":537,"name":"Krucial","steam_id":76561198144464665,"connected_time":3464000000000,"state":"active","ping":65},{"user_id":591,"name":"Mato","steam_id":76561198267114673,"connected_time":283000000000,"state":"active","ping":60},{"user_id":561,"name":"rets_","steam_id":76561198061551392,"connected_time":2415000000000,"state":"active","ping":59},{"user_id":523,"name":"–ü—É–±–æ–π (Puboy)","steam_id":76561197984617142,"connected_time":4423000000000,"state":"active","ping":61},{"user_id":544,"name":"Pvt. Prinny","steam_id":76561198030278562,"connected_time":2947000000000,"state":"active","ping":41},{"user_id":581,"name":"Charles Darwin","steam_id":76561197973496139,"connected_time":1389000000000,"state":"active","ping":60},{"user_id":517,"name":"MANTARES","steam_id":76561198183949987,"connected_time":4888000000000,"state":"active","ping":56},{"user_id":592,"name":"Post-It Paige","steam_id":76561198294059159,"connected_time":263000000000,"state":"active","ping":162},{"user_id":555,"name":"jovi_","steam_id":76561198449280552,"connected_time":2708000000000,"state":"active","ping":44},{"user_id":590,"name":"Big Basti","steam_id":76561198261804144,"connected_time":300000000000,"state":"active","ping":68},{"user_id":594,"name":"Anri Okita's Massive Milkers","steam_id":76561199186352720,"connected_time":225000000000,"state":"active","ping":64},{"user_id":573,"name":"AsuX","steam_id":76561197990333289,"connected_time":1632000000000,"state":"active","ping":59},{"user_id":595,"name":"panakid","steam_id":76561198364121077,"connected_time":214000000000,"state":"active","ping":95},{"user_id":580,"name":"Symbols","steam_id":76561198057259825,"connected_time":1433000000000,"state":"active","ping":39},{"user_id":563,"name":"unknown","steam_id":76561198066452389,"connected_time":2357000000000,"state":"active","ping":60},{"user_id":575,"name":"ÿ±ÿßŸäŸÜ","steam_id":76561199167206295,"connected_time":1590000000000,"state":"active","ping":74},{"user_id":576,"name":"Kaen Bedehem","steam_id":76561198084056545,"connected_time":1558000000000,"state":"active","ping":57},{"user_id":585,"name":"Spotmonkey","steam_id":76561198003994092,"connected_time":743000000000,"state":"active","ping":57},{"user_id":588,"name":"harper","steam_id":76561198188642265,"connected_time":625000000000,"state":"active","ping":54}]},{"server_id":320,"name":"Uncletopia | London | 3 | All Maps","name_short":"lon-3","host":"lon-1.uk.uncletopia.com","port":27035,"enabled":true,"region":"eu","cc":"gb","latitude":51.509865,"longitude":-0.118092,"reserved":0,"last_update":"0001-01-01T00:00:00Z","name_a2s":"Uncletopia | London | 3 | All Maps","protocol":17,"map":"pl_pier","folder":"tf","game":"Team Fortress","app_id":440,"player_count":18,"max_players":24,"Bots":0,"server_type":"Dedicated","server_os":"Linux","password":true,"vac":true,"version":"7961495","steam_id":85568392924510192,"keywords":["nocrits","nodmgspread","payload","uncletopia"],"game_id":440,"stv_port":27036,"stv_name":"Uncletopia | London | 3 | All Maps | STV","players":[{"user_id":505,"name":"Alibi","steam_id":76561198061845595,"connected_time":548000000000,"state":"active","ping":50},{"user_id":510,"name":"Arno","steam_id":76561198025329937,"connected_time":284000000000,"state":"active","ping":45},{"user_id":511,"name":"FishD.ck_47","steam_id":76561198114773103,"connected_time":255000000000,"state":"active","ping":70},{"user_id":455,"name":"GoblinGaming","steam_id":76561198360395476,"connected_time":3555000000000,"state":"active","ping":45},{"user_id":508,"name":"Obama gaming","steam_id":76561199219718194,"connected_time":344000000000,"state":"active","ping":84},{"user_id":499,"name":"Real (Real)","steam_id":76561198323425034,"connected_time":1600000000000,"state":"active","ping":83},{"user_id":515,"name":"Astolfo","steam_id":76561198878648487,"connected_time":195000000000,"state":"active","ping":59},{"user_id":452,"name":"Baron","steam_id":76561198021901783,"connected_time":3951000000000,"state":"active","ping":55},{"user_id":453,"name":"Teecho","steam_id":76561197995269610,"connected_time":3878000000000,"state":"active","ping":56},{"user_id":484,"name":"BeefHammer","steam_id":76561198078426223,"connected_time":2283000000000,"state":"active","ping":91},{"user_id":493,"name":"Edgy Femboy Ralsei","steam_id":76561199085624224,"connected_time":2055000000000,"state":"active","ping":64},{"user_id":501,"name":"Roll and Rocker","steam_id":76561198131764464,"connected_time":1127000000000,"state":"active","ping":64},{"user_id":514,"name":"wispo","steam_id":76561198880571990,"connected_time":201000000000,"state":"active","ping":63},{"user_id":516,"name":"pls watch puss in boots","steam_id":76561198046210501,"connected_time":144000000000,"state":"active","ping":76},{"user_id":517,"name":"rozen","steam_id":76561198119167317,"connected_time":74000000000,"state":"active","ping":50},{"user_id":518,"name":"ack","steam_id":76561198139796077,"connected_time":23000000000,"state":"spawning","ping":70},{"user_id":497,"name":"cats and dogs would piss and sh","steam_id":76561198091969871,"connected_time":1861000000000,"state":"active","ping":77},{"user_id":504,"name":"Aroo","steam_id":76561198132601368,"connected_time":737000000000,"state":"active","ping":76}]},{"server_id":321,"name":"Uncletopia | London | 4 | All Maps","name_short":"lon-4","host":"lon-1.uk.uncletopia.com","port":27045,"enabled":true,"region":"eu","cc":"gb","latitude":51.509865,"longitude":-0.118092,"reserved":0,"last_update":"0001-01-01T00:00:00Z","name_a2s":"Uncletopia | London | 4 | All Maps","protocol":17,"map":"pl_swiftwater_final1","folder":"tf","game":"Team Fortress","app_id":440,"player_count":11,"max_players":24,"Bots":0,"server_type":"Dedicated","server_os":"Linux","password":true,"vac":true,"version":"7961495","steam_id":85568392924510193,"keywords":["nocrits","nodmgspread","payload","uncletopia"],"game_id":440,"stv_port":27046,"stv_name":"Uncletopia | London | 4 | All Maps | STV","players":[{"user_id":634,"name":"Theleomaster","steam_id":76561198342580499,"connected_time":550000000000,"state":"active","ping":89},{"user_id":628,"name":"heisenburger","steam_id":76561198284589853,"connected_time":1013000000000,"state":"active","ping":105},{"user_id":550,"name":"Glacierwinter","steam_id":76561198229675152,"connected_time":4942000000000,"state":"active","ping":62},{"user_id":589,"name":"dirty rascal","steam_id":76561198000871038,"connected_time":2856000000000,"state":"active","ping":45},{"user_id":624,"name":"Tort","steam_id":76561198329646769,"connected_time":1159000000000,"state":"active","ping":55},{"user_id":559,"name":"Dyld","steam_id":76561197979603871,"connected_time":4603000000000,"state":"active","ping":72},{"user_id":603,"name":"Professional facestab","steam_id":76561198258721056,"connected_time":1954000000000,"state":"active","ping":53},{"user_id":621,"name":"ScumBall","steam_id":76561199019760284,"connected_time":1225000000000,"state":"active","ping":86},{"user_id":627,"name":"Maldom","steam_id":76561198000687053,"connected_time":1108000000000,"state":"active","ping":57},{"user_id":635,"name":"FTN | Nice1","steam_id":76561198026969020,"connected_time":256000000000,"state":"active","ping":99},{"user_id":633,"name":"FTN | Shakaman","steam_id":76561198039829758,"connected_time":552000000000,"state":"active","ping":120}]},{"server_id":21,"name":"Uncletopia | London | 5 | All Maps","name_short":"lon-5","host":"lon-1.uk.uncletopia.com","port":27055,"enabled":true,"region":"eu","cc":"gb","latitude":51.509865,"longitude":-0.118092,"reserved":0,"last_update":"0001-01-01T00:00:00Z","name_a2s":"Uncletopia | London | 5 | All Maps","protocol":17,"map":"pl_barnblitz","folder":"tf","game":"Team Fortress","app_id":440,"player_count":19,"max_players":24,"Bots":0,"server_type":"Dedicated","server_os":"Linux","password":true,"vac":true,"version":"7961495","steam_id":85568392924742829,"keywords":["nocrits","nodmgspread","payload","uncletopia"],"game_id":440,"stv_port":27056,"stv_name":"Uncletopia | London | 5 | All Maps | STV","players":[{"user_id":456,"name":"Lopco_","steam_id":76561198212741432,"connected_time":839000000000,"state":"active","ping":73},{"user_id":457,"name":"DiviningWizard","steam_id":76561199101096245,"connected_time":776000000000,"state":"active","ping":153},{"user_id":427,"name":"Jed Rowahnn","steam_id":76561198001654576,"connected_time":3400000000000,"state":"active","ping":80},{"user_id":468,"name":"Puss in Boots","steam_id":76561198211599767,"connected_time":228000000000,"state":"active","ping":56},{"user_id":446,"name":"superbug3003","steam_id":76561198311447642,"connected_time":1549000000000,"state":"active","ping":130},{"user_id":416,"name":"BerryOK","steam_id":76561198015756106,"connected_time":3682000000000,"state":"active","ping":58},{"user_id":474,"name":"*Eurobeat Intensifies*","steam_id":76561199019412162,"connected_time":114000000000,"state":"active","ping":50},{"user_id":475,"name":"mossfan1","steam_id":76561198087525446,"connected_time":58000000000,"state":"active","ping":78},{"user_id":404,"name":"Koppa","steam_id":76561197972286376,"connected_time":4144000000000,"state":"active","ping":62},{"user_id":471,"name":"lark","steam_id":76561199496179862,"connected_time":184000000000,"state":"active","ping":49},{"user_id":459,"name":"Vexu","steam_id":76561198113145846,"connected_time":717000000000,"state":"active","ping":89},{"user_id":467,"name":"demolition_cute","steam_id":76561199249401465,"connected_time":332000000000,"state":"active","ping":162},{"user_id":462,"name":"Hans","steam_id":76561198030061999,"connected_time":639000000000,"state":"active","ping":70},{"user_id":472,"name":"pierogi","steam_id":76561198718760200,"connected_time":160000000000,"state":"active","ping":46},{"user_id":476,"name":"Teryon Khan","steam_id":76561198031643268,"connected_time":51000000000,"state":"active","ping":84},{"user_id":477,"name":"SynK","steam_id":76561198443473087,"connected_time":13000000000,"state":"spawning","ping":68},{"user_id":370,"name":"Deemask√©","steam_id":76561199225833593,"connected_time":7589000000000,"state":"active","ping":58},{"user_id":402,"name":"Dougie","steam_id":76561198079567499,"connected_time":4416000000000,"state":"active","ping":63},{"user_id":424,"name":"Zoey The Trans Hoey","steam_id":76561199171843194,"connected_time":3436000000000,"state":"active","ping":55}]},{"server_id":22,"name":"Uncletopia | London | 6 | All Maps","name_short":"lon-6","host":"lon-1.uk.uncletopia.com","port":27065,"enabled":true,"region":"eu","cc":"gb","latitude":51.509865,"longitude":-0.118092,"reserved":0,"last_update":"0001-01-01T00:00:00Z","name_a2s":"Uncletopia | London | 6 | All Maps","protocol":17,"map":"pl_swiftwater_final1","folder":"tf","game":"Team Fortress","app_id":440,"player_count":24,"max_players":24,"Bots":0,"server_type":"Dedicated","server_os":"Linux","password":true,"vac":true,"version":"7961495","steam_id":85568392924742830,"keywords":["nocrits","nodmgspread","payload","uncletopia"],"game_id":440,"stv_port":27066,"stv_name":"Uncletopia | London | 6 | All Maps | STV","players":[{"user_id":241,"name":"gamersans","steam_id":76561199265596497,"connected_time":2776000000000,"state":"active","ping":147},{"user_id":233,"name":"MostSereneDogeBestDoge","steam_id":76561198061196566,"connected_time":3591000000000,"state":"active","ping":60},{"user_id":279,"name":"sad monkey hands on his head","steam_id":76561198116530769,"connected_time":51000000000,"state":"active","ping":87},{"user_id":128,"name":"Voks_","steam_id":76561198159687785,"connected_time":9668000000000,"state":"active","ping":74},{"user_id":261,"name":"Cute Bulge","steam_id":76561198155494332,"connected_time":1785000000000,"state":"active","ping":45},{"user_id":263,"name":"DuckLur","steam_id":76561199148729996,"connected_time":1729000000000,"state":"active","ping":57},{"user_id":278,"name":"brog","steam_id":76561199056467583,"connected_time":276000000000,"state":"active","ping":51},{"user_id":270,"name":"Bradders","steam_id":76561198072225758,"connected_time":1449000000000,"state":"active","ping":38},{"user_id":262,"name":"semen demon","steam_id":76561198091686339,"connected_time":1784000000000,"state":"active","ping":43},{"user_id":265,"name":"Carol Olston","steam_id":76561198080257273,"connected_time":1722000000000,"state":"active","ping":42},{"user_id":267,"name":"Qwerty","steam_id":76561198023525894,"connected_time":1711000000000,"state":"active","ping":90},{"user_id":232,"name":"Donac Dum","steam_id":76561198064089294,"connected_time":3607000000000,"state":"active","ping":50},{"user_id":206,"name":"mohemmedmokhter2005","steam_id":76561199197650506,"connected_time":5999000000000,"state":"active","ping":117},{"user_id":256,"name":"Kjat","steam_id":76561198839433592,"connected_time":2169000000000,"state":"active","ping":55},{"user_id":269,"name":"Norkkom","steam_id":76561198027073521,"connected_time":1490000000000,"state":"active","ping":123},{"user_id":218,"name":"Mineflow","steam_id":76561199073568116,"connected_time":4621000000000,"state":"active","ping":104},{"user_id":271,"name":"Memph","steam_id":76561198093280341,"connected_time":1441000000000,"state":"active","ping":31},{"user_id":272,"name":"j0rdyb0y58","steam_id":76561198035357039,"connected_time":1436000000000,"state":"active","ping":66},{"user_id":277,"name":"Mascotan","steam_id":76561198291799993,"connected_time":975000000000,"state":"active","ping":47},{"user_id":274,"name":"Quackers","steam_id":76561198334042273,"connected_time":1300000000000,"state":"active","ping":52},{"user_id":275,"name":"Haha?","steam_id":76561198056882245,"connected_time":1299000000000,"state":"active","ping":36},{"user_id":183,"name":"meriones","steam_id":76561198034234373,"connected_time":7030000000000,"state":"active","ping":42},{"user_id":212,"name":"David","steam_id":76561198085302725,"connected_time":5357000000000,"state":"active","ping":55},{"user_id":276,"name":"xX_ABDIBEAST2010_Xx","steam_id":76561198152681460,"connected_time":1208000000000,"state":"active","ping":78}]},{"server_id":40,"name":"Uncletopia | London | 7 | Stopwatch","name_short":"lon-7","host":"lon-1.uk.uncletopia.com","port":27075,"enabled":true,"region":"eu","cc":"gb","latitude":51.509865,"longitude":-0.118092,"reserved":0,"last_update":"0001-01-01T00:00:00Z","name_a2s":"Uncletopia | London | 7 | Stopwatch","protocol":17,"map":"koth_lakeside_final","folder":"tf","game":"Team Fortress","app_id":440,"player_count":0,"max_players":24,"Bots":0,"server_type":"Dedicated","server_os":"Linux","password":true,"vac":true,"version":"7961495","steam_id":85568392924964314,"keywords":["cp","nocrits","nodmgspread","uncletopia"],"game_id":440,"stv_port":27076,"stv_name":"Uncletopia | London | 7 | Stopwatch | STV","players":null},{"server_id":41,"name":"Uncletopia | London | 8 | Community","name_short":"lon-8","host":"lon-1.uk.uncletopia.com","port":27085,"enabled":true,"region":"eu","cc":"gb","latitude":51.509865,"longitude":-0.118092,"reserved":0,"last_update":"0001-01-01T00:00:00Z","name_a2s":"Uncletopia | London | 8 | Community","protocol":17,"map":"workshop/cp_propaganda_b18.ugc1603743849","folder":"tf","game":"Team Fortress","app_id":440,"player_count":5,"max_players":24,"Bots":0,"server_type":"Dedicated","server_os":"Linux","password":true,"vac":true,"version":"7961495","steam_id":85568392924964315,"keywords":["cp","nocrits","nodmgspread","uncletopia"],"game_id":440,"stv_port":27086,"stv_name":"Uncletopia | London | 8 | Community | STV","players":[{"user_id":15,"name":"MobBlasterYT","steam_id":76561198360673381,"connected_time":3033000000000,"state":"active","ping":60},{"user_id":17,"name":"Kingdino1233","steam_id":76561198895686666,"connected_time":2960000000000,"state":"active","ping":74},{"user_id":18,"name":"wasdthedragon","steam_id":76561198817909881,"connected_time":2947000000000,"state":"active","ping":73},{"user_id":21,"name":"pineapple guy","steam_id":76561199144546264,"connected_time":833000000000,"state":"active","ping":71},{"user_id":22,"name":"SirDirtbag","steam_id":76561198091890855,"connected_time":491000000000,"state":"active","ping":76}]},{"server_id":300,"name":"Uncletopia | Montr√©al | 1 | All Maps","name_short":"mtl-1","host":"mtl-1.ca.uncletopia.com","port":27015,"enabled":true,"region":"us-east","cc":"ca","latitude":45.50889,"longitude":-73.56167,"reserved":0,"last_update":"0001-01-01T00:00:00Z","name_a2s":"","protocol":0,"map":"","folder":"","game":"","app_id":0,"player_count":5,"max_players":0,"Bots":0,"server_type":"","server_os":"","password":false,"vac":false,"version":"","steam_id":0,"keywords":null,"game_id":0,"stv_port":0,"stv_name":"","players":[{"user_id":47,"name":"CarpenetoClan","steam_id":76561198038973518,"connected_time":1030000000000,"state":"active","ping":47},{"user_id":48,"name":"ThePyroCone","steam_id":76561199217854104,"connected_time":684000000000,"state":"active","ping":50},{"user_id":49,"name":"DrMisteryous2","steam_id":76561198336307012,"connected_time":194000000000,"state":"active","ping":162},{"user_id":50,"name":"Wafflehead","steam_id":76561198053539741,"connected_time":24000000000,"state":"active","ping":43},{"user_id":51,"name":"real Doc Ock","steam_id":76561198207230299,"connected_time":18000000000,"state":"active","ping":76}]},{"server_id":301,"name":"Uncletopia | Montr√©al | 2 | ???","name_short":"mtl-2","host":"mtl-1.ca.uncletopia.com","port":27025,"enabled":true,"region":"us-east","cc":"ca","latitude":45.50889,"longitude":-73.56167,"reserved":0,"last_update":"0001-01-01T00:00:00Z","name_a2s":"","protocol":0,"map":"","folder":"","game":"","app_id":0,"player_count":10,"max_players":0,"Bots":0,"server_type":"","server_os":"","password":false,"vac":false,"version":"","steam_id":0,"keywords":null,"game_id":0,"stv_port":0,"stv_name":"","players":[{"user_id":77,"name":"Kaiga","steam_id":76561198044052046,"connected_time":970000000000,"state":"active","ping":161},{"user_id":4,"name":"raspy","steam_id":76561198027298961,"connected_time":3376000000000,"state":"active","ping":37},{"user_id":78,"name":"Battersüå∏","steam_id":76561198927992205,"connected_time":795000000000,"state":"active","ping":119},{"user_id":36,"name":"Moonly Days","steam_id":76561198188657895,"connected_time":3174000000000,"state":"active","ping":160},{"user_id":37,"name":"I just joined","steam_id":76561198057999536,"connected_time":2949000000000,"state":"active","ping":105},{"user_id":38,"name":"‡∏∏","steam_id":76561198084134025,"connected_time":2904000000000,"state":"active","ping":88},{"user_id":39,"name":"Mikhaila (She/Her)","steam_id":76561198065005979,"connected_time":2882000000000,"state":"active","ping":105},{"user_id":41,"name":"Fofenho","steam_id":76561198436817109,"connected_time":2657000000000,"state":"active","ping":122},{"user_id":105,"name":"AnOKName","steam_id":76561198136812758,"connected_time":18000000000,"state":"spawning","ping":60},{"user_id":106,"name":"Cat \u003c3","steam_id":76561198286888723,"connected_time":12000000000,"state":"spawning","ping":104}]},{"server_id":302,"name":"Uncletopia | Montr√©al | 3 | All Maps","name_short":"mtl-3","host":"mtl-1.ca.uncletopia.com","port":27035,"enabled":true,"region":"us-east","cc":"ca","latitude":45.50889,"longitude":-73.56167,"reserved":0,"last_update":"0001-01-01T00:00:00Z","name_a2s":"","protocol":0,"map":"","folder":"","game":"","app_id":0,"player_count":0,"max_players":0,"Bots":0,"server_type":"","server_os":"","password":false,"vac":false,"version":"","steam_id":0,"keywords":null,"game_id":0,"stv_port":0,"stv_name":"","players":null},{"server_id":303,"name":"Uncletopia | Montr√©al | 4 | No Payload","name_short":"mtl-4","host":"mtl-1.ca.uncletopia.com","port":27045,"enabled":true,"region":"us-east","cc":"ca","latitude":45.50889,"longitude":-73.56167,"reserved":0,"last_update":"0001-01-01T00:00:00Z","name_a2s":"","protocol":0,"map":"","folder":"","game":"","app_id":0,"player_count":0,"max_players":0,"Bots":0,"server_type":"","server_os":"","password":false,"vac":false,"version":"","steam_id":0,"keywords":null,"game_id":0,"stv_port":0,"stv_name":"","players":null},{"server_id":13,"name":"Uncletopia | New York City | 1 | All Maps","name_short":"nyc-1","host":"nyc-1.us.uncletopia.com","port":27015,"enabled":true,"region":"us-east","cc":"us","latitude":40.73061,"longitude":-73.93524,"reserved":0,"last_update":"0001-01-01T00:00:00Z","name_a2s":"Uncletopia | New York City | 1 | All Maps","protocol":17,"map":"cp_snakewater_final1","folder":"tf","game":"Team Fortress","app_id":440,"player_count":24,"max_players":24,"Bots":0,"server_type":"Dedicated","server_os":"Linux","password":true,"vac":true,"version":"7961495","steam_id":85568392924469993,"keywords":["cp","nocrits","nodmgspread","uncletopia"],"game_id":440,"stv_port":27016,"stv_name":"Uncletopia | New York City | 1 | All Maps | STV","players":[{"user_id":202,"name":"brains","steam_id":76561198197388678,"connected_time":1365000000000,"state":"active","ping":80},{"user_id":195,"name":"Buck","steam_id":76561198064244796,"connected_time":2074000000000,"state":"active","ping":58},{"user_id":220,"name":"Yeonwoo","steam_id":76561199082985721,"connected_time":322000000000,"state":"active","ping":57},{"user_id":207,"name":"buford tobagganson","steam_id":76561198240043930,"connected_time":856000000000,"state":"active","ping":73},{"user_id":206,"name":"The Greendale Human Beings","steam_id":76561198055433422,"connected_time":1046000000000,"state":"active","ping":68},{"user_id":208,"name":"Defragmented","steam_id":76561198854210081,"connected_time":853000000000,"state":"active","ping":70},{"user_id":209,"name":"Walmart Employee","steam_id":76561198840373909,"connected_time":841000000000,"state":"active","ping":99},{"user_id":210,"name":"Pistol Freeman","steam_id":76561198026818915,"connected_time":838000000000,"state":"active","ping":72},{"user_id":111,"name":"A Puppy","steam_id":76561198828184456,"connected_time":8970000000000,"state":"active","ping":45},{"user_id":184,"name":"Halibutterhands","steam_id":76561198160361979,"connected_time":2912000000000,"state":"active","ping":173},{"user_id":216,"name":"wafflehamster2000","steam_id":76561198849161820,"connected_time":709000000000,"state":"active","ping":90},{"user_id":218,"name":"Û†Å≥ ‚ÅßArgo","steam_id":76561198353725622,"connected_time":574000000000,"state":"active","ping":73},{"user_id":219,"name":"Juustin","steam_id":76561198121922413,"connected_time":411000000000,"state":"active","ping":111},{"user_id":217,"name":"TopHatWearingKoala","steam_id":76561198068192599,"connected_time":669000000000,"state":"active","ping":103},{"user_id":213,"name":"general.b","steam_id":76561198162480519,"connected_time":779000000000,"state":"active","ping":57},{"user_id":201,"name":"Fat Kid","steam_id":76561198304180941,"connected_time":1498000000000,"state":"active","ping":107},{"user_id":203,"name":"reis","steam_id":76561199232952016,"connected_time":1302000000000,"state":"active","ping":178},{"user_id":169,"name":"SnickerNoodle","steam_id":76561198064359644,"connected_time":3948000000000,"state":"active","ping":59},{"user_id":222,"name":"ham","steam_id":76561198092186935,"connected_time":172000000000,"state":"active","ping":116},{"user_id":224,"name":"YelloGoat","steam_id":76561198367174421,"connected_time":79000000000,"state":"active","ping":100},{"user_id":168,"name":"Minus 8","steam_id":76561198812090491,"connected_time":4234000000000,"state":"active","ping":121},{"user_id":194,"name":"Flowers","steam_id":76561198031669899,"connected_time":2083000000000,"state":"active","ping":69},{"user_id":221,"name":"Parth Makeo","steam_id":76561198002516581,"connected_time":285000000000,"state":"active","ping":47}]},{"server_id":14,"name":"Uncletopia | New York City | 2 | All Maps","name_short":"nyc-2","host":"nyc-1.us.uncletopia.com","port":27025,"enabled":true,"region":"us-east","cc":"us","latitude":40.73061,"longitude":-73.93524,"reserved":0,"last_update":"0001-01-01T00:00:00Z","name_a2s":"Uncletopia | New York City | 2 | All Maps","protocol":17,"map":"pl_snowycoast","folder":"tf","game":"Team Fortress","app_id":440,"player_count":24,"max_players":24,"Bots":0,"server_type":"Dedicated","server_os":"Linux","password":true,"vac":true,"version":"7961495","steam_id":85568392924469994,"keywords":["nocrits","nodmgspread","payload","uncletopia"],"game_id":440,"stv_port":27026,"stv_name":"Uncletopia | New York City | 2 | All Maps | STV","players":[{"user_id":344,"name":"Killbasa","steam_id":76561198064868400,"connected_time":4255000000000,"state":"active","ping":80},{"user_id":397,"name":"[chef] iron","steam_id":76561197970888616,"connected_time":362000000000,"state":"active","ping":75},{"user_id":394,"name":"dab","steam_id":76561197997990613,"connected_time":379000000000,"state":"active","ping":119},{"user_id":387,"name":"Borat Voice My Wife","steam_id":76561198020474727,"connected_time":1183000000000,"state":"active","ping":59},{"user_id":395,"name":"pim","steam_id":76561198095163441,"connected_time":372000000000,"state":"active","ping":95},{"user_id":373,"name":"quack","steam_id":76561198138783216,"connected_time":1676000000000,"state":"active","ping":57},{"user_id":363,"name":"Aku+","steam_id":76561198813782795,"connected_time":2520000000000,"state":"active","ping":154},{"user_id":396,"name":"daxx","steam_id":76561197971296086,"connected_time":364000000000,"state":"active","ping":68},{"user_id":367,"name":"Nightman","steam_id":76561198089513762,"connected_time":2302000000000,"state":"active","ping":70},{"user_id":399,"name":"lego star wars on the psp","steam_id":76561198148014773,"connected_time":301000000000,"state":"active","ping":55},{"user_id":400,"name":"Krustytoepaste","steam_id":76561198320265524,"connected_time":288000000000,"state":"active","ping":134},{"user_id":378,"name":"Horse","steam_id":76561198332887086,"connected_time":1432000000000,"state":"active","ping":40},{"user_id":390,"name":"Poi","steam_id":76561198176914898,"connected_time":832000000000,"state":"active","ping":86},{"user_id":388,"name":"GooseorMoose","steam_id":76561198128886267,"connected_time":1177000000000,"state":"active","ping":89},{"user_id":379,"name":"Big McThankies From McSpankies","steam_id":76561198020516880,"connected_time":1404000000000,"state":"active","ping":97},{"user_id":406,"name":"MetalNavigator","steam_id":76561198974231439,"connected_time":168000000000,"state":"active","ping":98},{"user_id":389,"name":"VerrucktMedic","steam_id":76561198093144226,"connected_time":1087000000000,"state":"active","ping":101},{"user_id":391,"name":"Park","steam_id":76561198057222814,"connected_time":671000000000,"state":"active","ping":49},{"user_id":401,"name":"Venus! Trans Rights!","steam_id":76561198208700051,"connected_time":279000000000,"state":"active","ping":99},{"user_id":402,"name":"Stauxie","steam_id":76561198255030077,"connected_time":278000000000,"state":"active","ping":90},{"user_id":403,"name":"Dum_Bass(Fish)","steam_id":76561197988105207,"connected_time":277000000000,"state":"active","ping":59},{"user_id":404,"name":"nbwingdinger","steam_id":76561198412627015,"connected_time":269000000000,"state":"active","ping":148},{"user_id":383,"name":"Rick Assley","steam_id":76561198365019199,"connected_time":1310000000000,"state":"active","ping":80},{"user_id":405,"name":"Phillip Jeffries","steam_id":76561198064052174,"connected_time":262000000000,"state":"active","ping":59}]},{"server_id":15,"name":"Uncletopia | New York City | 3 | Stopwatch","name_short":"nyc-3","host":"nyc-1.us.uncletopia.com","port":27035,"enabled":true,"region":"us-east","cc":"us","latitude":40.73061,"longitude":-73.93524,"reserved":0,"last_update":"0001-01-01T00:00:00Z","name_a2s":"Uncletopia | New York City | 3 | Stopwatch","protocol":17,"map":"pl_upward","folder":"tf","game":"Team Fortress","app_id":440,"player_count":19,"max_players":24,"Bots":0,"server_type":"Dedicated","server_os":"Linux","password":true,"vac":true,"version":"7961495","steam_id":85568392924742820,"keywords":["nocrits","nodmgspread","payload","uncletopia"],"game_id":440,"stv_port":27036,"stv_name":"Uncletopia | New York City | 3 | Stopwatch | STV","players":[{"user_id":58,"name":"·óúÀ¨·óú","steam_id":76561198049076233,"connected_time":56000000000,"state":"active","ping":45},{"user_id":31,"name":"CapTheSailor","steam_id":76561198372356791,"connected_time":1695000000000,"state":"active","ping":68},{"user_id":32,"name":"”®chpochmak","steam_id":76561198434212101,"connected_time":1661000000000,"state":"active","ping":83},{"user_id":18,"name":"MARKED","steam_id":76561199086346913,"connected_time":2703000000000,"state":"active","ping":83},{"user_id":53,"name":"primordialheath","steam_id":76561199386942638,"connected_time":373000000000,"state":"active","ping":45},{"user_id":22,"name":"Bee_Pirate","steam_id":76561199000599111,"connected_time":2362000000000,"state":"active","ping":85},{"user_id":19,"name":"PinyaVI","steam_id":76561198813760694,"connected_time":2697000000000,"state":"active","ping":53},{"user_id":20,"name":"J_Fish","steam_id":76561198264237871,"connected_time":2636000000000,"state":"active","ping":83},{"user_id":23,"name":"BackupYAHmax","steam_id":76561198309468681,"connected_time":2342000000000,"state":"active","ping":48},{"user_id":43,"name":"Pork Soda","steam_id":76561198119575082,"connected_time":982000000000,"state":"active","ping":67},{"user_id":47,"name":"Bombshell_25","steam_id":76561199205139223,"connected_time":712000000000,"state":"active","ping":80},{"user_id":45,"name":"SomeRandomCat","steam_id":76561199107044061,"connected_time":829000000000,"state":"active","ping":82},{"user_id":46,"name":"Trout","steam_id":76561198075180255,"connected_time":775000000000,"state":"active","ping":56},{"user_id":41,"name":"uhooter","steam_id":76561198007829078,"connected_time":1111000000000,"state":"active","ping":65},{"user_id":42,"name":"Rock Kickass","steam_id":76561198450510841,"connected_time":1055000000000,"state":"active","ping":132},{"user_id":48,"name":"Boredbombknight","steam_id":76561199124037552,"connected_time":640000000000,"state":"active","ping":47},{"user_id":49,"name":"GandalfTheGrey6","steam_id":76561199116701903,"connected_time":571000000000,"state":"active","ping":87},{"user_id":50,"name":"RocketTheSnail","steam_id":76561199114359829,"connected_time":570000000000,"state":"active","ping":79},{"user_id":51,"name":"Xrath","steam_id":76561198220741860,"connected_time":541000000000,"state":"active","ping":55}]},{"server_id":16,"name":"Uncletopia | New York City | 4 | Community","name_short":"nyc-4","host":"nyc-1.us.uncletopia.com","port":27045,"enabled":true,"region":"us-east","cc":"us","latitude":40.73061,"longitude":-73.93524,"reserved":0,"last_update":"0001-01-01T00:00:00Z","name_a2s":"Uncletopia | New York City | 4 | Community","protocol":17,"map":"workshop/koth_trenchfoot_b1a.ugc731436616","folder":"tf","game":"Team Fortress","app_id":440,"player_count":0,"max_players":24,"Bots":0,"server_type":"Dedicated","server_os":"Linux","password":true,"vac":true,"version":"7961495","steam_id":85568392924742821,"keywords":["cp","nocrits","nodmgspread","uncletopia"],"game_id":440,"stv_port":27046,"stv_name":"Uncletopia | New York City | 4 | Community | STV","players":null},{"server_id":142,"name":"Uncletopia | S√£o Paulo | 1 | All Maps","name_short":"sao-1","host":"sao-1.br.uncletopia.com","port":27015,"enabled":true,"region":"sa","cc":"br","latitude":-23.533773,"longitude":-46.62529,"reserved":0,"last_update":"0001-01-01T00:00:00Z","name_a2s":"Uncletopia | S√£o Paulo | 1 | All Maps","protocol":17,"map":"koth_lakeside_final","folder":"tf","game":"Team Fortress","app_id":440,"player_count":0,"max_players":24,"Bots":0,"server_type":"Dedicated","server_os":"Linux","password":true,"vac":true,"version":"7961495","steam_id":85568392924469996,"keywords":["cp","nocrits","nodmgspread","uncletopia"],"game_id":440,"stv_port":27016,"stv_name":"Uncletopia | S√£o Paulo | 1 | All Maps | STV","players":null},{"server_id":143,"name":"Uncletopia | S√£o Paulo | 2 | Community","name_short":"sao-2","host":"sao-2.br.uncletopia.com","port":27015,"enabled":true,"region":"sa","cc":"br","latitude":-23.533773,"longitude":-46.62529,"reserved":0,"last_update":"0001-01-01T00:00:00Z","name_a2s":"Uncletopia | S√£o Paulo | 2 | Community","protocol":17,"map":"workshop/koth_ramjam_rc1.ugc459778887","folder":"tf","game":"Team Fortress","app_id":440,"player_count":0,"max_players":24,"Bots":0,"server_type":"Dedicated","server_os":"Linux","password":true,"vac":true,"version":"7961495","steam_id":85568392924485349,"keywords":["cp","nocrits","nodmgspread","uncletopia"],"game_id":440,"stv_port":27016,"stv_name":"Uncletopia | S√£o Paulo | 2 | Community | STV","players":null},{"server_id":7,"name":"Uncletopia | Seattle | 1 | All Maps","name_short":"sea-1","host":"sea-1.us.uncletopia.com","port":27015,"enabled":true,"region":"us-west","cc":"us","latitude":47.608013,"longitude":-122.33517,"reserved":0,"last_update":"0001-01-01T00:00:00Z","name_a2s":"Uncletopia | Seattle | 1 | All Maps","protocol":17,"map":"pl_swiftwater_final1","folder":"tf","game":"Team Fortress","app_id":440,"player_count":24,"max_players":24,"Bots":0,"server_type":"Dedicated","server_os":"Linux","password":true,"vac":true,"version":"7961495","steam_id":85568392924469997,"keywords":["nocrits","nodmgspread","payload","uncletopia"],"game_id":440,"stv_port":27016,"stv_name":"Uncletopia | Seattle | 1 | All Maps | STV","players":[{"user_id":316,"name":"FrostNova","steam_id":76561198348354629,"connected_time":1200000000000,"state":"active","ping":68},{"user_id":284,"name":"Pikky","steam_id":76561198133170057,"connected_time":3210000000000,"state":"active","ping":69},{"user_id":320,"name":"KellyKapoor","steam_id":76561198040828123,"connected_time":537000000000,"state":"active","ping":47},{"user_id":274,"name":"Viena","steam_id":76561198346193512,"connected_time":4045000000000,"state":"active","ping":39},{"user_id":318,"name":"jayeskae","steam_id":76561198144220801,"connected_time":1083000000000,"state":"active","ping":45},{"user_id":266,"name":"=Silver=","steam_id":76561198292307127,"connected_time":4805000000000,"state":"active","ping":72},{"user_id":269,"name":"Shark Sandwich","steam_id":76561198025007938,"connected_time":4711000000000,"state":"active","ping":56},{"user_id":323,"name":"Keamy","steam_id":76561199471434875,"connected_time":382000000000,"state":"active","ping":43},{"user_id":308,"name":"greens beans","steam_id":76561198153611491,"connected_time":1715000000000,"state":"active","ping":42},{"user_id":321,"name":"Bollar I din mun","steam_id":76561198334977151,"connected_time":459000000000,"state":"active","ping":60},{"user_id":283,"name":"CaiGaming","steam_id":76561198313023508,"connected_time":3326000000000,"state":"active","ping":79},{"user_id":319,"name":"yolginmo","steam_id":76561198157985901,"connected_time":780000000000,"state":"active","ping":60},{"user_id":272,"name":"ZEKKER","steam_id":76561197967968980,"connected_time":4251000000000,"state":"active","ping":49},{"user_id":301,"name":"TinCanDim","steam_id":76561198184039682,"connected_time":2075000000000,"state":"active","ping":62},{"user_id":290,"name":"Who loves orange soda?","steam_id":76561198059808982,"connected_time":3097000000000,"state":"active","ping":60},{"user_id":312,"name":"bottom pride burger","steam_id":76561198322247602,"connected_time":1257000000000,"state":"active","ping":78},{"user_id":317,"name":"Vincent Van Bro","steam_id":76561197966919802,"connected_time":1135000000000,"state":"active","ping":58},{"user_id":322,"name":"kwetzal","steam_id":76561198845749671,"connected_time":446000000000,"state":"active","ping":78},{"user_id":302,"name":"mega","steam_id":76561198089520959,"connected_time":2062000000000,"state":"active","ping":93},{"user_id":309,"name":"zinnk","steam_id":76561198092081825,"connected_time":1372000000000,"state":"active","ping":60},{"user_id":292,"name":"4 life","steam_id":76561198175961598,"connected_time":3065000000000,"state":"active","ping":91},{"user_id":306,"name":"Lili W.","steam_id":76561199391478575,"connected_time":1828000000000,"state":"active","ping":66},{"user_id":293,"name":"evilOlive","steam_id":76561198106222025,"connected_time":2791000000000,"state":"active","ping":83},{"user_id":315,"name":"squart guy","steam_id":76561199411560141,"connected_time":1214000000000,"state":"active","ping":49}]},{"server_id":119,"name":"Uncletopia | Seattle | 2 | All Maps","name_short":"sea-2","host":"sea-1.us.uncletopia.com","port":27025,"enabled":true,"region":"us-west","cc":"us","latitude":47.608013,"longitude":-122.33517,"reserved":0,"last_update":"0001-01-01T00:00:00Z","name_a2s":"Uncletopia | Seattle | 2 | All Maps","protocol":17,"map":"cp_snakewater_final1","folder":"tf","game":"Team Fortress","app_id":440,"player_count":2,"max_players":24,"Bots":0,"server_type":"Dedicated","server_os":"Linux","password":true,"vac":true,"version":"7961495","steam_id":85568392924469998,"keywords":["cp","nocrits","nodmgspread","uncletopia"],"game_id":440,"stv_port":27026,"stv_name":"Uncletopia | Seattle | 2 | All Maps | STV","players":[{"user_id":21,"name":"Nightstalker","steam_id":76561199004204111,"connected_time":218000000000,"state":"active","ping":54},{"user_id":22,"name":"Petrivus","steam_id":76561198202152453,"connected_time":20000000000,"state":"spawning","ping":29}]},{"server_id":406,"name":"Uncletopia | Seattle | 3 | Stopwatch","name_short":"sea-3","host":"sea-1.us.uncletopia.com","port":27035,"enabled":true,"region":"us-west","cc":"us","latitude":47.608013,"longitude":-122.33517,"reserved":0,"last_update":"0001-01-01T00:00:00Z","name_a2s":"Uncletopia | Seattle | 3 | Stopwatch","protocol":17,"map":"workshop/cp_process_f12.ugc2302948105","folder":"tf","game":"Team Fortress","app_id":440,"player_count":0,"max_players":24,"Bots":0,"server_type":"Dedicated","server_os":"Linux","password":true,"vac":true,"version":"7961495","steam_id":85568392924515217,"keywords":["cp","nocrits","nodmgspread","uncletopia"],"game_id":440,"stv_port":27036,"stv_name":"Uncletopia | Seattle | 3 | Stopwatch | STV","players":null},{"server_id":17,"name":"Uncletopia | San Francisco | 1 | All Maps","name_short":"sfo-1","host":"sfo-1.us.uncletopia.com","port":27015,"enabled":true,"region":"us-west","cc":"us","latitude":37.77397,"longitude":-122.4313,"reserved":0,"last_update":"0001-01-01T00:00:00Z","name_a2s":"Uncletopia | San Francisco | 1 | All Maps","protocol":17,"map":"koth_cascade","folder":"tf","game":"Team Fortress","app_id":440,"player_count":0,"max_players":24,"Bots":0,"server_type":"Dedicated","server_os":"Linux","password":true,"vac":true,"version":"7961495","steam_id":85568392924469999,"keywords":["cp","nocrits","nodmgspread","uncletopia"],"game_id":440,"stv_port":27016,"stv_name":"Uncletopia | San Francisco | 1 | All Maps | STV","players":null},{"server_id":18,"name":"Uncletopia | San Francisco | 2 | All Maps","name_short":"sfo-2","host":"sfo-1.us.uncletopia.com","port":27025,"enabled":true,"region":"us-west","cc":"us","latitude":37.77397,"longitude":-122.4313,"reserved":0,"last_update":"0001-01-01T00:00:00Z","name_a2s":"Uncletopia | San Francisco | 2 | All Maps","protocol":17,"map":"koth_cascade","folder":"tf","game":"Team Fortress","app_id":440,"player_count":0,"max_players":24,"Bots":0,"server_type":"Dedicated","server_os":"Linux","password":true,"vac":true,"version":"7961495","steam_id":85568392924470000,"keywords":["cp","nocrits","nodmgspread","uncletopia"],"game_id":440,"stv_port":27026,"stv_name":"Uncletopia | San Francisco | 2 | All Maps | STV","players":null},{"server_id":19,"name":"Uncletopia | San Francisco | 3 | Stopwatch","name_short":"sfo-3","host":"sfo-1.us.uncletopia.com","port":27035,"enabled":true,"region":"us-west","cc":"us","latitude":37.77397,"longitude":-122.4313,"reserved":0,"last_update":"0001-01-01T00:00:00Z","name_a2s":"Uncletopia | San Francisco | 3 | Stopwatch","protocol":17,"map":"pl_pier","folder":"tf","game":"Team Fortress","app_id":440,"player_count":0,"max_players":24,"Bots":0,"server_type":"Dedicated","server_os":"Linux","password":true,"vac":true,"version":"7961495","steam_id":85568392924742824,"keywords":["nocrits","nodmgspread","payload","uncletopia"],"game_id":440,"stv_port":27036,"stv_name":"Uncletopia | San Francisco | 3 | Stopwatch | STV","players":null},{"server_id":20,"name":"Uncletopia | San Francisco | 4 | Community","name_short":"sfo-4","host":"sfo-1.us.uncletopia.com","port":27045,"enabled":true,"region":"us-west","cc":"us","latitude":37.77397,"longitude":-122.4313,"reserved":0,"last_update":"0001-01-01T00:00:00Z","name_a2s":"Uncletopia | San Francisco | 4 | Community","protocol":17,"map":"pl_pier","folder":"tf","game":"Team Fortress","app_id":440,"player_count":0,"max_players":24,"Bots":0,"server_type":"Dedicated","server_os":"Linux","password":true,"vac":true,"version":"7961495","steam_id":85568392924742826,"keywords":["nocrits","nodmgspread","payload","uncletopia"],"game_id":440,"stv_port":27046,"stv_name":"Uncletopia | San Francisco | 4 | Community | STV","players":null},{"server_id":141,"name":"Uncletopia | Sydney | 1 | All Maps","name_short":"syd-1","host":"syd-1.au.uncletopia.com","port":27015,"enabled":true,"region":"au","cc":"au","latitude":-33.865143,"longitude":151.2099,"reserved":0,"last_update":"0001-01-01T00:00:00Z","name_a2s":"Uncletopia | Sydney | 1 | All Maps","protocol":17,"map":"koth_viaduct","folder":"tf","game":"Team Fortress","app_id":440,"player_count":0,"max_players":24,"Bots":0,"server_type":"Dedicated","server_os":"Linux","password":true,"vac":true,"version":"7961495","steam_id":85568392924470001,"keywords":["cp","nocrits","nodmgspread","uncletopia"],"game_id":440,"stv_port":27016,"stv_name":"Uncletopia | Sydney | 1 | All Maps | STV","players":null},{"server_id":123,"name":"Uncletopia | Sydney | 2 | All Maps","name_short":"syd-2","host":"syd-1.au.uncletopia.com","port":27025,"enabled":true,"region":"au","cc":"au","latitude":-33.865143,"longitude":151.2099,"reserved":0,"last_update":"0001-01-01T00:00:00Z","name_a2s":"Uncletopia | Sydney | 2 | All Maps","protocol":17,"map":"koth_lakeside_final","folder":"tf","game":"Team Fortress","app_id":440,"player_count":0,"max_players":24,"Bots":0,"server_type":"Dedicated","server_os":"Linux","password":true,"vac":true,"version":"7961495","steam_id":85568392924470002,"keywords":["cp","nocrits","nodmgspread","uncletopia"],"game_id":440,"stv_port":27026,"stv_name":"Uncletopia | Sydney | 2 | All Maps | STV","players":null},{"server_id":395,"name":"Uncletopia | Sydney | 3 | All Maps","name_short":"syd-3","host":"syd-1.au.uncletopia.com","port":27035,"enabled":true,"region":"au","cc":"au","latitude":-33.865143,"longitude":151.2099,"reserved":0,"last_update":"0001-01-01T00:00:00Z","name_a2s":"Uncletopia | Sydney | 3 | All Maps","protocol":17,"map":"pl_frontier_final","folder":"tf","game":"Team Fortress","app_id":440,"player_count":0,"max_players":24,"Bots":0,"server_type":"Dedicated","server_os":"Linux","password":true,"vac":true,"version":"7961495","steam_id":85568392925194467,"keywords":["nocrits","nodmgspread","payload","uncletopia"],"game_id":440,"stv_port":27036,"stv_name":"Uncletopia | Sydney | 3 | All Maps | STV","players":null},{"server_id":396,"name":"Uncletopia | Sydney | 4 | All Maps","name_short":"syd-4","host":"syd-1.au.uncletopia.com","port":27045,"enabled":true,"region":"au","cc":"au","latitude":-33.865143,"longitude":151.2099,"reserved":0,"last_update":"0001-01-01T00:00:00Z","name_a2s":"Uncletopia | Sydney | 4 | All Maps","protocol":17,"map":"pl_snowycoast","folder":"tf","game":"Team Fortress","app_id":440,"player_count":2,"max_players":24,"Bots":0,"server_type":"Dedicated","server_os":"Linux","password":true,"vac":true,"version":"7961495","steam_id":85568392925397958,"keywords":["nocrits","nodmgspread","payload","uncletopia"],"game_id":440,"stv_port":27046,"stv_name":"Uncletopia | Sydney | 4 | All Maps | STV","players":[{"user_id":3,"name":"synthemesc","steam_id":76561198046712125,"connected_time":1481000000000,"state":"active","ping":162},{"user_id":4,"name":"Kerryn's boyfriend","steam_id":76561199124736340,"connected_time":842000000000,"state":"active","ping":63}]},{"server_id":58,"name":"Uncletopia | Sydney | 5 | Stopwatch","name_short":"syd-5","host":"syd-1.au.uncletopia.com","port":27055,"enabled":true,"region":"au","cc":"au","latitude":-33.865143,"longitude":151.2099,"reserved":0,"last_update":"0001-01-01T00:00:00Z","name_a2s":"Uncletopia | Sydney | 5 | Stopwatch","protocol":17,"map":"pl_frontier_final","folder":"tf","game":"Team Fortress","app_id":440,"player_count":0,"max_players":24,"Bots":0,"server_type":"Dedicated","server_os":"Linux","password":true,"vac":true,"version":"7961495","steam_id":85568392925397959,"keywords":["nocrits","nodmgspread","payload","uncletopia"],"game_id":440,"stv_port":27056,"stv_name":"Uncletopia | Sydney | 5 | Stopwatch | STV","players":null},{"server_id":59,"name":"Uncletopia | Sydney | 6 | Community","name_short":"syd-6","host":"syd-1.au.uncletopia.com","port":27065,"enabled":true,"region":"au","cc":"au","latitude":-33.865143,"longitude":151.2099,"reserved":0,"last_update":"0001-01-01T00:00:00Z","name_a2s":"Uncletopia | Sydney | 6 | Community","protocol":17,"map":"cp_sunshine","folder":"tf","game":"Team Fortress","app_id":440,"player_count":0,"max_players":24,"Bots":0,"server_type":"Dedicated","server_os":"Linux","password":true,"vac":true,"version":"7961495","steam_id":85568392925397960,"keywords":["cp","nocrits","nodmgspread","uncletopia"],"game_id":440,"stv_port":27066,"stv_name":"Uncletopia | Sydney | 6 | Community | STV","players":null},{"server_id":49,"name":"Uncletopia | Warsaw | 1 | All Maps","name_short":"waw-1","host":"waw-1.pl.uncletopia.com","port":27015,"enabled":true,"region":"eu","cc":"pl","latitude":52.2297,"longitude":21.017532,"reserved":0,"last_update":"0001-01-01T00:00:00Z","name_a2s":"Uncletopia | Warsaw | 1 | All Maps","protocol":17,"map":"koth_lakeside_final","folder":"tf","game":"Team Fortress","app_id":440,"player_count":0,"max_players":24,"Bots":0,"server_type":"Dedicated","server_os":"Linux","password":true,"vac":true,"version":"7961495","steam_id":85568392925397850,"keywords":["cp","nocrits","nodmgspread","uncletopia"],"game_id":440,"stv_port":27016,"stv_name":"Uncletopia | Warsaw | 1 | All Maps | STV","players":null},{"server_id":50,"name":"Uncletopia | Warsaw | 2 | All Maps","name_short":"waw-2","host":"waw-1.pl.uncletopia.com","port":27025,"enabled":true,"region":"eu","cc":"pl","latitude":52.2297,"longitude":21.017532,"reserved":0,"last_update":"0001-01-01T00:00:00Z","name_a2s":"Uncletopia | Warsaw | 2 | All Maps","protocol":17,"map":"koth_suijin","folder":"tf","game":"Team Fortress","app_id":440,"player_count":3,"max_players":24,"Bots":0,"server_type":"Dedicated","server_os":"Linux","password":true,"vac":true,"version":"7961495","steam_id":85568392925397851,"keywords":["cp","nocrits","nodmgspread","uncletopia"],"game_id":440,"stv_port":27026,"stv_name":"Uncletopia | Warsaw | 2 | All Maps | STV","players":[{"user_id":10,"name":"39","steam_id":76561199091672937,"connected_time":8660000000000,"state":"active","ping":84},{"user_id":9,"name":"sk≈ô√≠tek ≈°pind√≠ra","steam_id":76561198406483941,"connected_time":8891000000000,"state":"active","ping":77},{"user_id":20,"name":"CheapMeds","steam_id":76561197990309210,"connected_time":1259000000000,"state":"active","ping":112}]},{"server_id":51,"name":"Uncletopia | Warsaw | 3 | All Maps","name_short":"waw-3","host":"waw-1.pl.uncletopia.com","port":27035,"enabled":true,"region":"eu","cc":"pl","latitude":52.2297,"longitude":21.017532,"reserved":0,"last_update":"0001-01-01T00:00:00Z","name_a2s":"Uncletopia | Warsaw | 3 | All Maps","protocol":17,"map":"koth_highpass","folder":"tf","game":"Team Fortress","app_id":440,"player_count":0,"max_players":24,"Bots":0,"server_type":"Dedicated","server_os":"Linux","password":true,"vac":true,"version":"7961495","steam_id":85568392925397852,"keywords":["cp","nocrits","nodmgspread","uncletopia"],"game_id":440,"stv_port":27036,"stv_name":"Uncletopia | Warsaw | 3 | All Maps | STV","players":null},{"server_id":52,"name":"Uncletopia | Warsaw | 4 | All Maps","name_short":"waw-4","host":"waw-1.pl.uncletopia.com","port":27045,"enabled":true,"region":"eu","cc":"pl","latitude":52.2297,"longitude":21.017532,"reserved":0,"last_update":"0001-01-01T00:00:00Z","name_a2s":"Uncletopia | Warsaw | 4 | All Maps","protocol":17,"map":"cp_altitude","folder":"tf","game":"Team Fortress","app_id":440,"player_count":0,"max_players":24,"Bots":0,"server_type":"Dedicated","server_os":"Linux","password":true,"vac":true,"version":"7961495","steam_id":85568392925397853,"keywords":["cp","nocrits","nodmgspread","uncletopia"],"game_id":440,"stv_port":27046,"stv_name":"Uncletopia | Warsaw | 4 | All Maps | STV","players":null},{"server_id":53,"name":"Uncletopia | Warsaw | 5 | Stopwatch","name_short":"waw-5","host":"waw-1.pl.uncletopia.com","port":27055,"enabled":true,"region":"eu","cc":"pl","latitude":52.2297,"longitude":21.017532,"reserved":0,"last_update":"0001-01-01T00:00:00Z","name_a2s":"Uncletopia | Warsaw | 5 | Stopwatch","protocol":17,"map":"cp_metalworks","folder":"tf","game":"Team Fortress","app_id":440,"player_count":0,"max_players":24,"Bots":0,"server_type":"Dedicated","server_os":"Linux","password":true,"vac":true,"version":"7961495","steam_id":85568392925397854,"keywords":["cp","nocrits","nodmgspread","uncletopia"],"game_id":440,"stv_port":27056,"stv_name":"Uncletopia | Warsaw | 5 | Stopwatch | STV","players":null},{"server_id":54,"name":"Uncletopia | Warsaw | 6 | Community","name_short":"waw-6","host":"waw-1.pl.uncletopia.com","port":27065,"enabled":true,"region":"eu","cc":"pl","latitude":52.2297,"longitude":21.017532,"reserved":0,"last_update":"0001-01-01T00:00:00Z","name_a2s":"Uncletopia | Warsaw | 6 | Community","protocol":17,"map":"workshop/koth_synthetic_rc6a.ugc1549817316","folder":"tf","game":"Team Fortress","app_id":440,"player_count":0,"max_players":24,"Bots":0,"server_type":"Dedicated","server_os":"Linux","password":true,"vac":true,"version":"7961495","steam_id":85568392925397856,"keywords":["cp","nocrits","nodmgspread","uncletopia"],"game_id":440,"stv_port":27066,"stv_name":"Uncletopia | Warsaw | 6 | Community | STV","players":null}]}