{"status":true,"message":"","result":[{"server_id":9,"name":"Uncletopia | Atlanta | 1 | All Maps","name_short":"atl-1","host":"atl-1.us.uncletopia.com","port":27015,"enabled":true,"region":"us-east","cc":"us","latitude":33.753746,"longitude":-84.38633,"reserved":0,"last_update":"0001-01-01T00:00:00Z","name_a2s":"Uncletopia | Atlanta | 1 | All Maps","protocol":17,"map":"pl_snowycoast","folder":"tf","game":"Team Fortress","app_id":440,"player_count":24,"max_players":24,"Bots":0,"server_type":"Dedicated","server_os":"Linux","password":true,"vac":true,"version":"7757534","steam_id":85568392924469982,"keywords":["nocrits","nodmgspread","payload","uncletopia"],"game_id":440,"stv_port":27016,"stv_name":"Uncletopia | Atlanta | 1 | All Maps | STV","players":[{"user_id":207,"name":"Ashes!","steam_id":76561197998475441,"connected_time":3274000000000,"state":"active","ping":91},{"user_id":191,"name":"Oxyclean","steam_id":76561198042954813,"connected_time":5415000000000,"state":"active","ping":74},{"user_id":213,"name":"bogginwater","steam_id":76561198155547142,"connected_time":2566000000000,"state":"active","ping":65},{"user_id":158,"name":"knotsofunny","steam_id":76561198071336304,"connected_time":8946000000000,"state":"active","ping":70},{"user_id":220,"name":"BotchyAlarm8","steam_id":76561198092682129,"connected_time":986000000000,"state":"active","ping":90},{"user_id":226,"name":"BLU1 | Pango","steam_id":76561198069811545,"connected_time":888000000000,"state":"active","ping":45},{"user_id":200,"name":"fart","steam_id":76561198046405072,"connected_time":4417000000000,"state":"active","ping":79},{"user_id":201,"name":"MyamE","steam_id":76561198133278462,"connected_time":4411000000000,"state":"active","ping":75},{"user_id":225,"name":"RED1 | icyy","steam_id":76561198968001329,"connected_time":965000000000,"state":"active","ping":49},{"user_id":203,"name":"smile","steam_id":76561198166710027,"connected_time":3893000000000,"state":"active","ping":65},{"user_id":194,"name":"wife","steam_id":76561198141795632,"connected_time":4955000000000,"state":"active","ping":59},{"user_id":196,"name":"RED1 | Le4n!!!","steam_id":76561198045522596,"connected_time":4832000000000,"state":"active","ping":66},{"user_id":197,"name":"ATL1 | Bandicario","steam_id":76561198432036026,"connected_time":4731000000000,"state":"active","ping":54},{"user_id":221,"name":"melancholy","steam_id":76561198024301465,"connected_time":985000000000,"state":"active","ping":43},{"user_id":230,"name":"RED1 | p4ka","steam_id":76561198315291317,"connected_time":570000000000,"state":"active","ping":77},{"user_id":147,"name":"mothsprings","steam_id":76561198928604937,"connected_time":9744000000000,"state":"active","ping":86},{"user_id":212,"name":"Devilkid","steam_id":76561199082474364,"connected_time":2815000000000,"state":"active","ping":85},{"user_id":227,"name":"DuckMann","steam_id":76561198197058638,"connected_time":812000000000,"state":"active","ping":61},{"user_id":214,"name":"Bottom Trans Cowgirl","steam_id":76561198304239680,"connected_time":2135000000000,"state":"active","ping":75},{"user_id":231,"name":"Caught a Thundah","steam_id":76561198054495572,"connected_time":216000000000,"state":"active","ping":76},{"user_id":215,"name":"Marshy","steam_id":76561198421784454,"connected_time":2135000000000,"state":"active","ping":142},{"user_id":229,"name":"SamFec","steam_id":76561198414538682,"connected_time":809000000000,"state":"active","ping":111},{"user_id":217,"name":"CheesySpectre","steam_id":76561198332606276,"connected_time":1803000000000,"state":"active","ping":127},{"user_id":199,"name":"lil hog","steam_id":76561199230929836,"connected_time":4532000000000,"state":"active","ping":95}]},{"server_id":400,"name":"Uncletopia | Atlanta | 3 | Community","name_short":"atl-3","host":"atl-1.us.uncletopia.com","port":27035,"enabled":true,"region":"us-east","cc":"us","latitude":33.753746,"longitude":-84.38633,"reserved":0,"last_update":"0001-01-01T00:00:00Z","name_a2s":"Uncletopia | Atlanta | 3 | Community","protocol":17,"map":"workshop/pl_divulgence_b4b.ugc2884808746","folder":"tf","game":"Team Fortress","app_id":440,"player_count":0,"max_players":24,"Bots":0,"server_type":"Dedicated","server_os":"Linux","password":true,"vac":true,"version":"7757534","steam_id":85568392924515187,"keywords":["nocrits","nodmgspread","payload","uncletopia"],"game_id":440,"stv_port":27036,"stv_name":"Uncletopia | Atlanta | 3 | Community | STV","players":null},{"server_id":401,"name":"Uncletopia | Atlanta | 4 | No Payload","name_short":"atl-4","host":"atl-1.us.uncletopia.com","port":27045,"enabled":true,"region":"us-east","cc":"us","latitude":33.753746,"longitude":-84.38633,"reserved":0,"last_update":"0001-01-01T00:00:00Z","name_a2s":"","protocol":0,"map":"","folder":"","game":"","app_id":0,"player_count":0,"max_players":0,"Bots":0,"server_type":"","server_os":"","password":false,"vac":false,"version":"","steam_id":0,"keywords":null,"game_id":0,"stv_port":0,"stv_name":"","players":null},{"server_id":2,"name":"Uncletopia | Chicago | 1 | All Maps","name_short":"chi-1","host":"chi-1.us.uncletopia.com","port":27015,"enabled":true,"region":"us-central","cc":"us","latitude":41.881832,"longitude":-87.62318,"reserved":0,"last_update":"0001-01-01T00:00:00Z","name_a2s":"Uncletopia | Chicago | 1 | All Maps","protocol":17,"map":"koth_lakeside_final","folder":"tf","game":"Team Fortress","app_id":440,"player_count":24,"max_players":24,"Bots":0,"server_type":"Dedicated","server_os":"Linux","password":true,"vac":true,"version":"7757534","steam_id":85568392924469984,"keywords":["cp","nocrits","nodmgspread","uncletopia"],"game_id":440,"stv_port":27016,"stv_name":"Uncletopia | Chicago | 1 | All Maps | STV","players":[{"user_id":467,"name":"Commodore_Perry","steam_id":76561197986675784,"connected_time":1115000000000,"state":"active","ping":71},{"user_id":438,"name":"the deadliest pyroshark","steam_id":76561198374227766,"connected_time":3223000000000,"state":"active","ping":69},{"user_id":480,"name":"Sentry Gun (American)","steam_id":76561198313770809,"connected_time":111000000000,"state":"active","ping":56},{"user_id":463,"name":"hamster.assassination","steam_id":76561199419949968,"connected_time":1233000000000,"state":"active","ping":160},{"user_id":439,"name":"Big Phony","steam_id":76561199092395311,"connected_time":3211000000000,"state":"active","ping":60},{"user_id":428,"name":"PKBEAST_7","steam_id":76561198177136537,"connected_time":3983000000000,"state":"active","ping":84},{"user_id":462,"name":"BONG THREAT","steam_id":76561197988234127,"connected_time":1254000000000,"state":"active","ping":64},{"user_id":443,"name":"caption cool","steam_id":76561197990612056,"connected_time":2812000000000,"state":"active","ping":49},{"user_id":413,"name":"Snugboo","steam_id":76561198147970327,"connected_time":4895000000000,"state":"active","ping":55},{"user_id":459,"name":"Dr. Hurrible","steam_id":76561198080070400,"connected_time":1878000000000,"state":"active","ping":70},{"user_id":474,"name":"Swordslash50","steam_id":76561198275769907,"connected_time":361000000000,"state":"active","ping":74},{"user_id":405,"name":"moe","steam_id":76561198929586245,"connected_time":5620000000000,"state":"active","ping":89},{"user_id":476,"name":"TheIronFluff","steam_id":76561197961122533,"connected_time":290000000000,"state":"active","ping":73},{"user_id":481,"name":"the","steam_id":76561198311446636,"connected_time":109000000000,"state":"active","ping":58},{"user_id":475,"name":"PrimePickle","steam_id":76561199470598716,"connected_time":312000000000,"state":"active","ping":89},{"user_id":431,"name":"Silly Scientist","steam_id":76561199199886079,"connected_time":3631000000000,"state":"active","ping":73},{"user_id":469,"name":"B45Guy","steam_id":76561198117290531,"connected_time":826000000000,"state":"active","ping":57},{"user_id":464,"name":"Macko","steam_id":76561198452005461,"connected_time":1211000000000,"state":"active","ping":86},{"user_id":471,"name":"FiveStryker","steam_id":76561198366172207,"connected_time":653000000000,"state":"active","ping":34},{"user_id":449,"name":"{bee gaming}","steam_id":76561198103194393,"connected_time":2235000000000,"state":"active","ping":70},{"user_id":402,"name":"ROGUE-PLANET","steam_id":76561198116023052,"connected_time":5716000000000,"state":"active","ping":61},{"user_id":417,"name":"drugger. (cochlear implant)","steam_id":76561198353463585,"connected_time":4869000000000,"state":"active","ping":69},{"user_id":460,"name":"Magik","steam_id":76561198200169706,"connected_time":1826000000000,"state":"active","ping":79},{"user_id":437,"name":"bary","steam_id":76561197988317087,"connected_time":3364000000000,"state":"active","ping":57}]},{"server_id":106,"name":"Uncletopia | Chicago | 2 | All Maps","name_short":"chi-2","host":"chi-1.us.uncletopia.com","port":27025,"enabled":true,"region":"us-central","cc":"us","latitude":41.881832,"longitude":-87.62318,"reserved":0,"last_update":"0001-01-01T00:00:00Z","name_a2s":"Uncletopia | Chicago | 2 | All Maps","protocol":17,"map":"pl_swiftwater_final1","folder":"tf","game":"Team Fortress","app_id":440,"player_count":23,"max_players":24,"Bots":0,"server_type":"Dedicated","server_os":"Linux","password":true,"vac":true,"version":"7757534","steam_id":85568392924469985,"keywords":["nocrits","nodmgspread","payload","uncletopia"],"game_id":440,"stv_port":27026,"stv_name":"Uncletopia | Chicago | 2 | All Maps | STV","players":[{"user_id":321,"name":"dwnkins","steam_id":76561198856016840,"connected_time":3244000000000,"state":"active","ping":67},{"user_id":362,"name":"deim o","steam_id":76561198419049162,"connected_time":123000000000,"state":"active","ping":73},{"user_id":346,"name":"Nexusthenormie","steam_id":76561198880184146,"connected_time":803000000000,"state":"active","ping":63},{"user_id":298,"name":"Kase","steam_id":76561198055510230,"connected_time":4840000000000,"state":"active","ping":63},{"user_id":336,"name":"JettSettRF","steam_id":76561198035927799,"connected_time":2238000000000,"state":"active","ping":58},{"user_id":347,"name":"Darknile55","steam_id":76561198042029359,"connected_time":706000000000,"state":"active","ping":76},{"user_id":354,"name":"StunningGaming","steam_id":76561198091855849,"connected_time":417000000000,"state":"active","ping":85},{"user_id":365,"name":"Velocircopter","steam_id":76561198847582048,"connected_time":6000000000,"state":"spawning","ping":86},{"user_id":356,"name":"spimtmot733","steam_id":76561199029189825,"connected_time":350000000000,"state":"active","ping":70},{"user_id":349,"name":"The Juicer","steam_id":76561198027247542,"connected_time":683000000000,"state":"active","ping":68},{"user_id":315,"name":"Schwagz","steam_id":76561198038330649,"connected_time":3789000000000,"state":"active","ping":82},{"user_id":364,"name":"M∆GE","steam_id":76561198058449993,"connected_time":31000000000,"state":"active","ping":72},{"user_id":358,"name":"Minty Boi","steam_id":76561198381016557,"connected_time":333000000000,"state":"active","ping":82},{"user_id":363,"name":"Try Gardening","steam_id":76561198120311340,"connected_time":74000000000,"state":"active","ping":47},{"user_id":345,"name":"Tofu","steam_id":76561198056736463,"connected_time":1089000000000,"state":"active","ping":74},{"user_id":331,"name":"Buttons :)","steam_id":76561198139478534,"connected_time":3055000000000,"state":"active","ping":104},{"user_id":283,"name":"Morgster","steam_id":76561198131697761,"connected_time":5584000000000,"state":"active","ping":92},{"user_id":300,"name":"Every death is 10 squats","steam_id":76561198162170585,"connected_time":4831000000000,"state":"active","ping":95},{"user_id":303,"name":"auby","steam_id":76561198088024854,"connected_time":4721000000000,"state":"active","ping":77},{"user_id":360,"name":"the grungler!","steam_id":76561198058485742,"connected_time":324000000000,"state":"active","ping":54},{"user_id":361,"name":"FemboyNate","steam_id":76561198146636410,"connected_time":324000000000,"state":"active","ping":91},{"user_id":353,"name":"HackySphee","steam_id":76561198278987956,"connected_time":661000000000,"state":"active","ping":91},{"user_id":340,"name":"Starlie","steam_id":76561198102100102,"connected_time":2054000000000,"state":"active","ping":128}]},{"server_id":402,"name":"Uncletopia | Chicago | 3 | All Maps","name_short":"chi-3","host":"chi-1.us.uncletopia.com","port":27035,"enabled":true,"region":"us-central","cc":"us","latitude":41.881832,"longitude":-87.62318,"reserved":0,"last_update":"0001-01-01T00:00:00Z","name_a2s":"Uncletopia | Chicago | 3 | All Maps","protocol":17,"map":"pl_snowycoast","folder":"tf","game":"Team Fortress","app_id":440,"player_count":24,"max_players":24,"Bots":0,"server_type":"Dedicated","server_os":"Linux","password":true,"vac":true,"version":"7757534","steam_id":85568392924515191,"keywords":["nocrits","nodmgspread","payload","uncletopia"],"game_id":440,"stv_port":27036,"stv_name":"Uncletopia | Chicago | 3 | All Maps | STV","players":[{"user_id":79,"name":"Hugh Mann","steam_id":76561198212049401,"connected_time":808000000000,"state":"active","ping":84},{"user_id":89,"name":"kablong","steam_id":76561199094392047,"connected_time":24000000000,"state":"active","ping":296},{"user_id":75,"name":"Fresh0c0","steam_id":76561198271933283,"connected_time":962000000000,"state":"active","ping":59},{"user_id":27,"name":"the fart","steam_id":76561198073176682,"connected_time":2802000000000,"state":"active","ping":60},{"user_id":83,"name":"Johnny Lawrence #JohnnyMaxxing","steam_id":76561199367141671,"connected_time":436000000000,"state":"active","ping":60},{"user_id":82,"name":"Uncle Meat","steam_id":76561198012534850,"connected_time":565000000000,"state":"active","ping":65},{"user_id":73,"name":"dick bubkis","steam_id":76561198057374871,"connected_time":1361000000000,"state":"active","ping":60},{"user_id":47,"name":"LordOfTheNoobs","steam_id":76561197962697523,"connected_time":2014000000000,"state":"active","ping":69},{"user_id":48,"name":"Aldinach","steam_id":76561198079912615,"connected_time":1949000000000,"state":"active","ping":45},{"user_id":85,"name":"a1ex","steam_id":76561198341411993,"connected_time":282000000000,"state":"active","ping":64},{"user_id":64,"name":"Pixeled","steam_id":76561198088917077,"connected_time":1674000000000,"state":"active","ping":85},{"user_id":65,"name":"T17","steam_id":76561198064249841,"connected_time":1660000000000,"state":"active","ping":64},{"user_id":80,"name":"Cade","steam_id":76561199076193300,"connected_time":698000000000,"state":"active","ping":75},{"user_id":86,"name":"Chunky7453","steam_id":76561198937660929,"connected_time":268000000000,"state":"active","ping":100},{"user_id":58,"name":"GAME GAMING","steam_id":76561199222119901,"connected_time":1732000000000,"state":"active","ping":100},{"user_id":88,"name":"DumplingDestroyer","steam_id":76561199071371893,"connected_time":194000000000,"state":"active","ping":94},{"user_id":56,"name":"gretchling","steam_id":76561198046111695,"connected_time":1825000000000,"state":"active","ping":60},{"user_id":87,"name":"Grey_Wolf2009","steam_id":76561199037118016,"connected_time":246000000000,"state":"active","ping":110},{"user_id":60,"name":"Jason Gaming","steam_id":76561198215467601,"connected_time":1713000000000,"state":"active","ping":73},{"user_id":61,"name":"♥ Femboy♥Ventily ♥","steam_id":76561198157260335,"connected_time":1709000000000,"state":"active","ping":48},{"user_id":81,"name":"shemp","steam_id":76561199148892845,"connected_time":634000000000,"state":"active","ping":70},{"user_id":67,"name":"Gobby Princess","steam_id":76561198051902438,"connected_time":1656000000000,"state":"active","ping":77},{"user_id":68,"name":"Rebel","steam_id":76561197998591246,"connected_time":1647000000000,"state":"active","ping":79},{"user_id":69,"name":"Kaluka","steam_id":76561198036861445,"connected_time":1632000000000,"state":"active","ping":66}]},{"server_id":403,"name":"Uncletopia | Chicago | 4 | All Maps","name_short":"chi-4","host":"chi-1.us.uncletopia.com","port":27045,"enabled":true,"region":"us-central","cc":"us","latitude":41.881832,"longitude":-87.62318,"reserved":0,"last_update":"0001-01-01T00:00:00Z","name_a2s":"Uncletopia | Chicago | 4 | All Maps","protocol":17,"map":"pl_badwater","folder":"tf","game":"Team Fortress","app_id":440,"player_count":24,"max_players":24,"Bots":0,"server_type":"Dedicated","server_os":"Linux","password":true,"vac":true,"version":"7757534","steam_id":85568392924515193,"keywords":["nocrits","nodmgspread","payload","uncletopia"],"game_id":440,"stv_port":27046,"stv_name":"Uncletopia | Chicago | 4 | All Maps | STV","players":[{"user_id":140,"name":"cozy times","steam_id":76561198147391779,"connected_time":2416000000000,"state":"active","ping":78},{"user_id":64,"name":"shokie","steam_id":76561197997961542,"connected_time":7126000000000,"state":"active","ping":79},{"user_id":155,"name":"DeadErebus","steam_id":76561198286117045,"connected_time":1742000000000,"state":"active","ping":41},{"user_id":166,"name":"None of that $9.99 bullshit","steam_id":76561198116169903,"connected_time":761000000000,"state":"active","ping":57},{"user_id":167,"name":"MajorZero","steam_id":76561198078731318,"connected_time":645000000000,"state":"active","ping":54},{"user_id":65,"name":"washy","steam_id":76561198046622670,"connected_time":7071000000000,"state":"active","ping":83},{"user_id":141,"name":"Kleine","steam_id":76561198042556857,"connected_time":2409000000000,"state":"active","ping":51},{"user_id":177,"name":"Mug Maniac","steam_id":76561198120866920,"connected_time":107000000000,"state":"active","ping":71},{"user_id":175,"name":"Pancetta's vore window","steam_id":76561198428086758,"connected_time":281000000000,"state":"active","ping":87},{"user_id":176,"name":"Carl Weathers","steam_id":76561197960298966,"connected_time":246000000000,"state":"active","ping":141},{"user_id":137,"name":"Stupid frogs!","steam_id":76561198069415057,"connected_time":2466000000000,"state":"active","ping":60},{"user_id":83,"name":"Mervous Thrifty","steam_id":76561198063250819,"connected_time":5495000000000,"state":"active","ping":45},{"user_id":148,"name":"The Big Iron","steam_id":76561198117276391,"connected_time":2092000000000,"state":"active","ping":72},{"user_id":138,"name":"HaphazardHazel","steam_id":76561198316812693,"connected_time":2456000000000,"state":"active","ping":91},{"user_id":153,"name":"pointless_potato","steam_id":76561199177144165,"connected_time":1902000000000,"state":"active","ping":71},{"user_id":125,"name":"IPlayGamez","steam_id":76561198041387508,"connected_time":3333000000000,"state":"active","ping":70},{"user_id":164,"name":"-","steam_id":76561198057717934,"connected_time":938000000000,"state":"active","ping":45},{"user_id":169,"name":"Mad Medic","steam_id":76561198371199141,"connected_time":610000000000,"state":"active","ping":66},{"user_id":161,"name":"the zoo","steam_id":76561198013732450,"connected_time":1162000000000,"state":"active","ping":48},{"user_id":174,"name":"Tusk","steam_id":76561198085765096,"connected_time":513000000000,"state":"active","ping":65},{"user_id":139,"name":"must","steam_id":76561198005637112,"connected_time":2451000000000,"state":"active","ping":138},{"user_id":163,"name":"Lennu","steam_id":76561198060730154,"connected_time":1159000000000,"state":"active","ping":81},{"user_id":173,"name":"Dog Deodorant","steam_id":76561199225832228,"connected_time":584000000000,"state":"active","ping":102}]},{"server_id":36,"name":"Uncletopia | Chicago | 5 | All Maps","name_short":"chi-5","host":"chi-2.us.uncletopia.com","port":27015,"enabled":true,"region":"us-central","cc":"us","latitude":41.881832,"longitude":-87.62318,"reserved":0,"last_update":"0001-01-01T00:00:00Z","name_a2s":"Uncletopia | Chicago | 5 | All Maps","protocol":17,"map":"pl_upward","folder":"tf","game":"Team Fortress","app_id":440,"player_count":24,"max_players":24,"Bots":0,"server_type":"Dedicated","server_os":"Linux","password":true,"vac":true,"version":"7757534","steam_id":85568392924866362,"keywords":["nocrits","nodmgspread","payload","uncletopia"],"game_id":440,"stv_port":27016,"stv_name":"Uncletopia | Chicago | 5 | All Maps | STV","players":[{"user_id":234,"name":"ShitsandGiggles™","steam_id":76561198058708019,"connected_time":652000000000,"state":"active","ping":54},{"user_id":148,"name":"teaf","steam_id":76561198406252824,"connected_time":5493000000000,"state":"active","ping":102},{"user_id":205,"name":"Foomfa","steam_id":76561198007033616,"connected_time":2254000000000,"state":"active","ping":72},{"user_id":230,"name":"wobba wobba","steam_id":76561198249206656,"connected_time":664000000000,"state":"active","ping":75},{"user_id":229,"name":"plushie","steam_id":76561198088103572,"connected_time":676000000000,"state":"active","ping":93},{"user_id":215,"name":"ash^","steam_id":76561198388233907,"connected_time":1331000000000,"state":"active","ping":82},{"user_id":236,"name":"coochie smoochies","steam_id":76561198103496593,"connected_time":420000000000,"state":"active","ping":83},{"user_id":239,"name":"TehLolz","steam_id":76561198091782065,"connected_time":10000000000,"state":"spawning","ping":87},{"user_id":143,"name":"sean","steam_id":76561198354473513,"connected_time":5887000000000,"state":"active","ping":55},{"user_id":231,"name":"the great equalizer","steam_id":76561198796394610,"connected_time":657000000000,"state":"active","ping":77},{"user_id":196,"name":"Snimca","steam_id":76561198453519709,"connected_time":2577000000000,"state":"active","ping":68},{"user_id":235,"name":"El Monte","steam_id":76561198263562991,"connected_time":622000000000,"state":"active","ping":96},{"user_id":233,"name":"frozenwasanokmovie","steam_id":76561198157407952,"connected_time":655000000000,"state":"active","ping":117},{"user_id":238,"name":"Glory","steam_id":76561198013975080,"connected_time":130000000000,"state":"active","ping":72},{"user_id":195,"name":"Zicky Nee","steam_id":76561198042601111,"connected_time":2589000000000,"state":"active","ping":74},{"user_id":237,"name":"HOLY SHIT! ITS SLENDERMAN","steam_id":76561198085815757,"connected_time":371000000000,"state":"active","ping":65},{"user_id":226,"name":"tf2s worst player","steam_id":76561199108820058,"connected_time":937000000000,"state":"active","ping":108},{"user_id":216,"name":"backflipping trans woman","steam_id":76561198100189571,"connected_time":1321000000000,"state":"active","ping":64},{"user_id":213,"name":"antrobot","steam_id":76561198281039672,"connected_time":1483000000000,"state":"active","ping":68},{"user_id":192,"name":"mio","steam_id":76561198239286750,"connected_time":3068000000000,"state":"active","ping":73},{"user_id":221,"name":"Redd Guy","steam_id":76561198041034155,"connected_time":1234000000000,"state":"active","ping":94},{"user_id":223,"name":"Agent Orange Soda","steam_id":76561198099296029,"connected_time":1142000000000,"state":"active","ping":57},{"user_id":204,"name":"Icaras","steam_id":76561198416724843,"connected_time":2291000000000,"state":"active","ping":133},{"user_id":219,"name":"Feldspar","steam_id":76561198027437590,"connected_time":1307000000000,"state":"active","ping":85}]},{"server_id":37,"name":"Uncletopia | Chicago | 6 | All Maps","name_short":"chi-6","host":"chi-2.us.uncletopia.com","port":27025,"enabled":true,"region":"us-central","cc":"us","latitude":41.881832,"longitude":-87.62318,"reserved":0,"last_update":"0001-01-01T00:00:00Z","name_a2s":"Uncletopia | Chicago | 6 | All Maps","protocol":17,"map":"cp_snakewater_final1","folder":"tf","game":"Team Fortress","app_id":440,"player_count":23,"max_players":24,"Bots":0,"server_type":"Dedicated","server_os":"Linux","password":true,"vac":true,"version":"7757534","steam_id":85568392924866363,"keywords":["cp","nocrits","nodmgspread","uncletopia"],"game_id":440,"stv_port":27026,"stv_name":"Uncletopia | Chicago | 6 | All Maps | STV","players":[{"user_id":311,"name":"exx","steam_id":76561198041421969,"connected_time":1637000000000,"state":"active","ping":91},{"user_id":294,"name":"John Dungus (the real one)","steam_id":76561198049191027,"connected_time":2285000000000,"state":"active","ping":61},{"user_id":303,"name":"Wso1123","steam_id":76561198048040111,"connected_time":1728000000000,"state":"active","ping":69},{"user_id":258,"name":"Just_Bad","steam_id":76561198145153093,"connected_time":3989000000000,"state":"active","ping":43},{"user_id":304,"name":"pop","steam_id":76561199151206130,"connected_time":1727000000000,"state":"active","ping":48},{"user_id":279,"name":"Romo","steam_id":76561198243101572,"connected_time":3233000000000,"state":"active","ping":88},{"user_id":328,"name":"Illegal Gaming","steam_id":76561198030323714,"connected_time":215000000000,"state":"active","ping":83},{"user_id":314,"name":"Elizabeth truss","steam_id":76561198058250979,"connected_time":1510000000000,"state":"active","ping":71},{"user_id":326,"name":"All Tomorrow's Parties","steam_id":76561197995936212,"connected_time":526000000000,"state":"active","ping":57},{"user_id":235,"name":"SenTreats","steam_id":76561198085835841,"connected_time":5724000000000,"state":"active","ping":116},{"user_id":329,"name":"Lord Scrubling","steam_id":76561198263744445,"connected_time":197000000000,"state":"active","ping":76},{"user_id":310,"name":"rude boi","steam_id":76561198006783260,"connected_time":1667000000000,"state":"active","ping":63},{"user_id":330,"name":"Meat Sage","steam_id":76561198360205908,"connected_time":154000000000,"state":"active","ping":136},{"user_id":282,"name":"Aztea","steam_id":76561198982089893,"connected_time":3048000000000,"state":"active","ping":94},{"user_id":312,"name":"wG dogmeat","steam_id":76561198964002142,"connected_time":1617000000000,"state":"active","ping":107},{"user_id":315,"name":"Pills","steam_id":76561198799440163,"connected_time":1510000000000,"state":"active","ping":103},{"user_id":331,"name":"Xuey","steam_id":76561199120960187,"connected_time":149000000000,"state":"active","ping":58},{"user_id":272,"name":"$3.99 Shrimps","steam_id":76561198077272494,"connected_time":3640000000000,"state":"active","ping":54},{"user_id":317,"name":"squaggles!","steam_id":76561197994995011,"connected_time":1478000000000,"state":"active","ping":60},{"user_id":325,"name":"nhbiker","steam_id":76561198081277675,"connected_time":777000000000,"state":"active","ping":59},{"user_id":327,"name":"gasparmx","steam_id":76561197998611994,"connected_time":272000000000,"state":"active","ping":113},{"user_id":229,"name":"Wug","steam_id":76561198084112264,"connected_time":5968000000000,"state":"active","ping":88},{"user_id":323,"name":"LunaError","steam_id":76561198040603999,"connected_time":888000000000,"state":"active","ping":73}]},{"server_id":38,"name":"Uncletopia | Chicago | 7 | Stopwatch Beta","name_short":"chi-7","host":"chi-2.us.uncletopia.com","port":27035,"enabled":true,"region":"us-central","cc":"us","latitude":41.881832,"longitude":-87.62318,"reserved":0,"last_update":"0001-01-01T00:00:00Z","name_a2s":"Uncletopia | Chicago | 7 | Stopwatch Beta","protocol":17,"map":"pl_upward","folder":"tf","game":"Team Fortress","app_id":440,"player_count":0,"max_players":24,"Bots":0,"server_type":"Dedicated","server_os":"Linux","password":true,"vac":true,"version":"7757534","steam_id":85568392924866364,"keywords":["nocrits","nodmgspread","payload","uncletopia"],"game_id":440,"stv_port":27036,"stv_name":"Uncletopia | Chicago | 7 | Stopwatch Beta | STV","players":null},{"server_id":39,"name":"Uncletopia | Chicago | 8 | Community","name_short":"chi-8","host":"chi-2.us.uncletopia.com","port":27045,"enabled":true,"region":"us-central","cc":"us","latitude":41.881832,"longitude":-87.62318,"reserved":0,"last_update":"0001-01-01T00:00:00Z","name_a2s":"Uncletopia | Chicago | 8 | Community","protocol":17,"map":"workshop/cp_villa_b19.ugc2113052569","folder":"tf","game":"Team Fortress","app_id":440,"player_count":12,"max_players":24,"Bots":0,"server_type":"Dedicated","server_os":"Linux","password":true,"vac":true,"version":"7757534","steam_id":85568392924866365,"keywords":["cp","nocrits","nodmgspread","uncletopia"],"game_id":440,"stv_port":27046,"stv_name":"Uncletopia | Chicago | 8 | Community | STV","players":[{"user_id":57,"name":"Dr Smeggman","steam_id":76561197966614845,"connected_time":336000000000,"state":"active","ping":153},{"user_id":33,"name":"Yayifications","steam_id":76561198066227208,"connected_time":3027000000000,"state":"active","ping":60},{"user_id":42,"name":"walterfishing_17","steam_id":76561198976904099,"connected_time":1761000000000,"state":"active","ping":69},{"user_id":43,"name":"Meet The Kill","steam_id":76561197967650566,"connected_time":1645000000000,"state":"active","ping":60},{"user_id":40,"name":"annoying scout","steam_id":76561199051955859,"connected_time":1959000000000,"state":"active","ping":158},{"user_id":62,"name":"asm_ghost","steam_id":76561199205363547,"connected_time":22000000000,"state":"active","ping":127},{"user_id":30,"name":"Slitherywriter1","steam_id":76561198284357754,"connected_time":3283000000000,"state":"active","ping":61},{"user_id":51,"name":"praveus","steam_id":76561199227557263,"connected_time":518000000000,"state":"active","ping":70},{"user_id":53,"name":"ShadowWasUhOh","steam_id":76561198400361935,"connected_time":454000000000,"state":"active","ping":92},{"user_id":56,"name":"Zarik","steam_id":76561197967269007,"connected_time":433000000000,"state":"active","ping":62},{"user_id":58,"name":"Magnus Rex","steam_id":76561197987091236,"connected_time":333000000000,"state":"active","ping":74},{"user_id":59,"name":"とつげき Gaming","steam_id":76561198216826373,"connected_time":314000000000,"state":"active","ping":94}]},{"server_id":8,"name":"Uncletopia | Dallas | 1 | All Maps","name_short":"dal-1","host":"dal-1.us.uncletopia.com","port":27015,"enabled":true,"region":"us-central","cc":"us","latitude":32.779167,"longitude":-96.80889,"reserved":0,"last_update":"0001-01-01T00:00:00Z","name_a2s":"Uncletopia | Dallas | 1 | All Maps","protocol":17,"map":"koth_lakeside_final","folder":"tf","game":"Team Fortress","app_id":440,"player_count":24,"max_players":24,"Bots":0,"server_type":"Dedicated","server_os":"Linux","password":true,"vac":true,"version":"7757534","steam_id":85568392924469986,"keywords":["cp","nocrits","nodmgspread","uncletopia"],"game_id":440,"stv_port":27016,"stv_name":"Uncletopia | Dallas | 1 | All Maps | STV","players":[{"user_id":204,"name":"dr4gon","steam_id":76561198847749278,"connected_time":5632000000000,"state":"active","ping":44},{"user_id":263,"name":"Knightly Knight","steam_id":76561198399569659,"connected_time":379000000000,"state":"active","ping":56},{"user_id":245,"name":"KyePerson","steam_id":76561198145597212,"connected_time":2691000000000,"state":"active","ping":79},{"user_id":265,"name":"viscodolante","steam_id":76561198013650292,"connected_time":173000000000,"state":"active","ping":103},{"user_id":267,"name":"IZISOO","steam_id":76561198970380577,"connected_time":115000000000,"state":"active","ping":70},{"user_id":260,"name":"purply-ghost","steam_id":76561199204779865,"connected_time":1129000000000,"state":"active","ping":44},{"user_id":247,"name":"Yonkerbonk","steam_id":76561198097628353,"connected_time":2188000000000,"state":"active","ping":40},{"user_id":270,"name":"jodie.blend","steam_id":76561198140701807,"connected_time":13000000000,"state":"active","ping":70},{"user_id":197,"name":"Brass beast heavy","steam_id":76561198274197623,"connected_time":6510000000000,"state":"active","ping":164},{"user_id":264,"name":"Baked_Bread","steam_id":76561198842106628,"connected_time":287000000000,"state":"active","ping":55},{"user_id":208,"name":"DocDankDandy","steam_id":76561197999440195,"connected_time":5602000000000,"state":"active","ping":61},{"user_id":268,"name":"shake","steam_id":76561199064204750,"connected_time":113000000000,"state":"active","ping":93},{"user_id":271,"name":"Hobity","steam_id":76561198135386781,"connected_time":7000000000,"state":"spawning","ping":74},{"user_id":258,"name":"Fishstall","steam_id":76561198038126034,"connected_time":1163000000000,"state":"active","ping":61},{"user_id":154,"name":"LegendaryMister151","steam_id":76561198064890524,"connected_time":9812000000000,"state":"active","ping":87},{"user_id":234,"name":"Tribute","steam_id":76561198081594043,"connected_time":4037000000000,"state":"active","ping":54},{"user_id":243,"name":"Wallem","steam_id":76561198052361822,"connected_time":2734000000000,"state":"active","ping":94},{"user_id":250,"name":"wiiblob","steam_id":76561198109106242,"connected_time":2008000000000,"state":"active","ping":151},{"user_id":236,"name":"Brian","steam_id":76561198089908485,"connected_time":3888000000000,"state":"active","ping":96},{"user_id":255,"name":"axis","steam_id":76561198065535856,"connected_time":1578000000000,"state":"active","ping":84},{"user_id":256,"name":"LordOfLemons","steam_id":76561198904408482,"connected_time":1428000000000,"state":"active","ping":97},{"user_id":220,"name":"gps","steam_id":76561198067492304,"connected_time":5272000000000,"state":"active","ping":58},{"user_id":262,"name":"Hephaesta13","steam_id":76561199026788557,"connected_time":1091000000000,"state":"active","ping":78},{"user_id":259,"name":"Derply","steam_id":76561198871211642,"connected_time":1159000000000,"state":"active","ping":70}]},{"server_id":108,"name":"Uncletopia | Dallas | 2 | All Maps","name_short":"dal-2","host":"dal-1.us.uncletopia.com","port":27025,"enabled":true,"region":"us-central","cc":"us","latitude":32.779167,"longitude":-96.80889,"reserved":0,"last_update":"0001-01-01T00:00:00Z","name_a2s":"Uncletopia | Dallas | 2 | All Maps","protocol":17,"map":"cp_snakewater_final1","folder":"tf","game":"Team Fortress","app_id":440,"player_count":24,"max_players":24,"Bots":0,"server_type":"Dedicated","server_os":"Linux","password":true,"vac":true,"version":"7757534","steam_id":85568392924469988,"keywords":["cp","nocrits","nodmgspread","uncletopia"],"game_id":440,"stv_port":27026,"stv_name":"Uncletopia | Dallas | 2 | All Maps | STV","players":[{"user_id":403,"name":"peanut butter","steam_id":76561198117839474,"connected_time":78000000000,"state":"active","ping":75},{"user_id":387,"name":"Triforce141","steam_id":76561198063896776,"connected_time":1203000000000,"state":"active","ping":39},{"user_id":401,"name":"Robomandude","steam_id":76561198043909566,"connected_time":227000000000,"state":"active","ping":59},{"user_id":355,"name":"Literally a Trans Woman","steam_id":76561198054639925,"connected_time":3427000000000,"state":"active","ping":85},{"user_id":391,"name":"TheRiGuy21","steam_id":76561199466243640,"connected_time":645000000000,"state":"active","ping":77},{"user_id":383,"name":"moint pan","steam_id":76561198968773067,"connected_time":1423000000000,"state":"active","ping":94},{"user_id":394,"name":"Hsepirn","steam_id":76561198152395431,"connected_time":486000000000,"state":"active","ping":93},{"user_id":328,"name":"Justis","steam_id":76561197963835016,"connected_time":4675000000000,"state":"active","ping":100},{"user_id":400,"name":"Lightfeather57","steam_id":76561198353851502,"connected_time":356000000000,"state":"active","ping":70},{"user_id":388,"name":"pathways","steam_id":76561198054832333,"connected_time":1153000000000,"state":"active","ping":120},{"user_id":393,"name":"Iroquois Pliskin","steam_id":76561198056704533,"connected_time":585000000000,"state":"active","ping":81},{"user_id":396,"name":"lettucelover2014","steam_id":76561198041017977,"connected_time":463000000000,"state":"active","ping":99},{"user_id":384,"name":"bottom pride burger","steam_id":76561198322247602,"connected_time":1420000000000,"state":"active","ping":88},{"user_id":370,"name":"Gyr0sphere","steam_id":76561198183900735,"connected_time":2461000000000,"state":"active","ping":94},{"user_id":371,"name":"Spectre","steam_id":76561198810506409,"connected_time":2430000000000,"state":"active","ping":69},{"user_id":354,"name":"i eat sawdust","steam_id":76561199153238395,"connected_time":3510000000000,"state":"active","ping":101},{"user_id":356,"name":"Rin \"Hindwing\" Redtail","steam_id":76561199074865638,"connected_time":3384000000000,"state":"active","ping":47},{"user_id":402,"name":"SGT Disoriented","steam_id":76561198058177958,"connected_time":176000000000,"state":"active","ping":62},{"user_id":385,"name":"rumes","steam_id":76561198349219467,"connected_time":1414000000000,"state":"active","ping":74},{"user_id":357,"name":"Socialism Enjoyer","steam_id":76561197991817974,"connected_time":3383000000000,"state":"active","ping":99},{"user_id":386,"name":"ItsDonut","steam_id":76561198862163064,"connected_time":1376000000000,"state":"active","ping":77},{"user_id":392,"name":"skrt","steam_id":76561198233984300,"connected_time":630000000000,"state":"active","ping":71},{"user_id":397,"name":"e","steam_id":76561198131245396,"connected_time":455000000000,"state":"active","ping":82},{"user_id":399,"name":"BluyBubble","steam_id":76561199071705710,"connected_time":441000000000,"state":"active","ping":102}]},{"server_id":5,"name":"Uncletopia | Frankfurt | 1 | All Maps","name_short":"frk-1","host":"frk-1.de.uncletopia.com","port":27015,"enabled":true,"region":"eu","cc":"de","latitude":50.110924,"longitude":8.682127,"reserved":0,"last_update":"0001-01-01T00:00:00Z","name_a2s":"Uncletopia | Frankfurt | 1 | All Maps","protocol":17,"map":"koth_harvest_final","folder":"tf","game":"Team Fortress","app_id":440,"player_count":24,"max_players":24,"Bots":0,"server_type":"Dedicated","server_os":"Linux","password":true,"vac":true,"version":"7757534","steam_id":85568392924469989,"keywords":["cp","nocrits","nodmgspread","uncletopia"],"game_id":440,"stv_port":27016,"stv_name":"Uncletopia | Frankfurt | 1 | All Maps | STV","players":[{"user_id":420,"name":"restloud","steam_id":76561198265722644,"connected_time":1741000000000,"state":"active","ping":87},{"user_id":364,"name":"LarsInABox","steam_id":76561198028329262,"connected_time":4323000000000,"state":"active","ping":67},{"user_id":365,"name":"Mach |=|20BB|)","steam_id":76561198952487564,"connected_time":4257000000000,"state":"active","ping":83},{"user_id":442,"name":"Ocelot9610","steam_id":76561199227216384,"connected_time":299000000000,"state":"active","ping":64},{"user_id":408,"name":"Serton♝","steam_id":76561198011061126,"connected_time":2523000000000,"state":"active","ping":86},{"user_id":436,"name":"jovi_","steam_id":76561198449280552,"connected_time":678000000000,"state":"active","ping":56},{"user_id":441,"name":"Videogamer","steam_id":76561198106012909,"connected_time":391000000000,"state":"active","ping":67},{"user_id":428,"name":"Teecho","steam_id":76561197995269610,"connected_time":1193000000000,"state":"active","ping":70},{"user_id":444,"name":"Carl","steam_id":76561198045638738,"connected_time":31000000000,"state":"spawning","ping":63},{"user_id":417,"name":"Cosmetic brain","steam_id":76561198055936410,"connected_time":2080000000000,"state":"active","ping":83},{"user_id":412,"name":"Bond","steam_id":76561198070654906,"connected_time":2220000000000,"state":"active","ping":56},{"user_id":409,"name":"Giovine Killjoy","steam_id":76561198059375315,"connected_time":2436000000000,"state":"active","ping":69},{"user_id":421,"name":"Professor_Why_","steam_id":76561198184054187,"connected_time":1699000000000,"state":"active","ping":75},{"user_id":443,"name":"Meki","steam_id":76561198108279631,"connected_time":177000000000,"state":"active","ping":73},{"user_id":383,"name":"Baron","steam_id":76561198021901783,"connected_time":3434000000000,"state":"active","ping":75},{"user_id":398,"name":"minn","steam_id":76561198099101232,"connected_time":3137000000000,"state":"active","ping":68},{"user_id":424,"name":"Xx_えななんxX69","steam_id":76561199427679148,"connected_time":1593000000000,"state":"active","ping":60},{"user_id":411,"name":"theo von","steam_id":76561198125381319,"connected_time":2242000000000,"state":"active","ping":81},{"user_id":437,"name":"DrRavioli","steam_id":76561198170822595,"connected_time":669000000000,"state":"active","ping":73},{"user_id":433,"name":"I jazzed myself","steam_id":76561198203016603,"connected_time":788000000000,"state":"active","ping":70},{"user_id":439,"name":"Fatty_McFatFat [NL]","steam_id":76561198073362707,"connected_time":665000000000,"state":"active","ping":45},{"user_id":425,"name":"Dr. Le Quack","steam_id":76561197995711176,"connected_time":1261000000000,"state":"active","ping":85},{"user_id":427,"name":"Moe Jama","steam_id":76561198021676997,"connected_time":1254000000000,"state":"active","ping":74},{"user_id":406,"name":"Bruschetta","steam_id":76561198251927162,"connected_time":2913000000000,"state":"active","ping":63}]},{"server_id":110,"name":"Uncletopia | Frankfurt | 2 | All Maps","name_short":"frk-2","host":"frk-1.de.uncletopia.com","port":27025,"enabled":true,"region":"eu","cc":"de","latitude":50.110924,"longitude":8.682127,"reserved":0,"last_update":"0001-01-01T00:00:00Z","name_a2s":"Uncletopia | Frankfurt | 2 | All Maps","protocol":17,"map":"cp_mountainlab","folder":"tf","game":"Team Fortress","app_id":440,"player_count":13,"max_players":24,"Bots":0,"server_type":"Dedicated","server_os":"Linux","password":true,"vac":true,"version":"7757534","steam_id":85568392924469990,"keywords":["cp","nocrits","nodmgspread","uncletopia"],"game_id":440,"stv_port":27026,"stv_name":"Uncletopia | Frankfurt | 2 | All Maps | STV","players":[{"user_id":569,"name":"man door hand hook car door","steam_id":76561198334042273,"connected_time":657000000000,"state":"active","ping":123},{"user_id":565,"name":"Burgoo_King","steam_id":76561198133572225,"connected_time":1067000000000,"state":"active","ping":77},{"user_id":564,"name":"Garden Freeman","steam_id":76561199073314677,"connected_time":1303000000000,"state":"active","ping":66},{"user_id":588,"name":"Professional PP Rater","steam_id":76561198393134915,"connected_time":149000000000,"state":"active","ping":113},{"user_id":546,"name":"mesoni","steam_id":76561199141290973,"connected_time":2923000000000,"state":"active","ping":80},{"user_id":590,"name":"Sexdefender","steam_id":76561198255904077,"connected_time":63000000000,"state":"active","ping":55},{"user_id":589,"name":"kotamine","steam_id":76561198068907991,"connected_time":71000000000,"state":"active","ping":60},{"user_id":572,"name":"John Fortress","steam_id":76561198043743881,"connected_time":626000000000,"state":"active","ping":45},{"user_id":573,"name":"❥Shinru","steam_id":76561198285951918,"connected_time":600000000000,"state":"active","ping":81},{"user_id":575,"name":"Log","steam_id":76561198439616085,"connected_time":587000000000,"state":"active","ping":62},{"user_id":534,"name":"pezza","steam_id":76561197995173247,"connected_time":4038000000000,"state":"active","ping":66},{"user_id":576,"name":"HOI","steam_id":76561198061182117,"connected_time":569000000000,"state":"active","ping":59},{"user_id":578,"name":"sesw","steam_id":76561198057332404,"connected_time":492000000000,"state":"active","ping":48}]},{"server_id":308,"name":"Uncletopia | Frankfurt | 3 | All Maps","name_short":"frk-3","host":"frk-1.de.uncletopia.com","port":27035,"enabled":true,"region":"eu","cc":"de","latitude":50.110924,"longitude":8.682127,"reserved":0,"last_update":"0001-01-01T00:00:00Z","name_a2s":"Uncletopia | Frankfurt | 3 | All Maps","protocol":17,"map":"cp_sunshine","folder":"tf","game":"Team Fortress","app_id":440,"player_count":24,"max_players":24,"Bots":0,"server_type":"Dedicated","server_os":"Linux","password":true,"vac":true,"version":"7757534","steam_id":85568392924504274,"keywords":["cp","nocrits","nodmgspread","uncletopia"],"game_id":440,"stv_port":27036,"stv_name":"Uncletopia | Frankfurt | 3 | All Maps | STV","players":[{"user_id":214,"name":"!!!!!!!!!!!!!!!!!!!!!!!!!!!!!!!","steam_id":76561198069649097,"connected_time":7374000000000,"state":"active","ping":63},{"user_id":301,"name":"Yangus","steam_id":76561198147796010,"connected_time":2069000000000,"state":"active","ping":63},{"user_id":257,"name":"Bajas","steam_id":76561198179339326,"connected_time":4731000000000,"state":"active","ping":74},{"user_id":310,"name":"Innocent Bystander","steam_id":76561198259885007,"connected_time":1563000000000,"state":"active","ping":56},{"user_id":287,"name":"akakez","steam_id":76561198095432821,"connected_time":3245000000000,"state":"active","ping":118},{"user_id":258,"name":"Mi Manchi","steam_id":76561198171573129,"connected_time":4705000000000,"state":"active","ping":49},{"user_id":295,"name":"Pilaarius","steam_id":76561198120273212,"connected_time":2989000000000,"state":"active","ping":110},{"user_id":284,"name":"Vershal Smershal","steam_id":76561198116223995,"connected_time":3280000000000,"state":"active","ping":60},{"user_id":277,"name":"Jonathan","steam_id":76561198087988880,"connected_time":4219000000000,"state":"active","ping":46},{"user_id":297,"name":"Volcyy","steam_id":76561198063979124,"connected_time":2712000000000,"state":"active","ping":63},{"user_id":314,"name":"blizz gamming","steam_id":76561198253692868,"connected_time":455000000000,"state":"active","ping":68},{"user_id":302,"name":"player","steam_id":76561198054474684,"connected_time":2008000000000,"state":"active","ping":74},{"user_id":272,"name":"stickyspaghetti45","steam_id":76561199418489332,"connected_time":4484000000000,"state":"active","ping":62},{"user_id":317,"name":"Arthur","steam_id":76561198114107421,"connected_time":172000000000,"state":"active","ping":87},{"user_id":308,"name":"Sixten the Pale","steam_id":76561197981806008,"connected_time":1769000000000,"state":"active","ping":82},{"user_id":316,"name":"bing bar","steam_id":76561198040950083,"connected_time":182000000000,"state":"active","ping":60},{"user_id":309,"name":"Fat Pigeon","steam_id":76561198817940142,"connected_time":1760000000000,"state":"active","ping":54},{"user_id":300,"name":"PizzaPete123","steam_id":76561198089478290,"connected_time":2342000000000,"state":"active","ping":59},{"user_id":296,"name":"@_@","steam_id":76561198076494034,"connected_time":2780000000000,"state":"active","ping":57},{"user_id":290,"name":"rabbitface26","steam_id":76561198327540113,"connected_time":3122000000000,"state":"active","ping":56},{"user_id":319,"name":"mcdonaldburger54@yahoo.com","steam_id":76561198846982793,"connected_time":143000000000,"state":"active","ping":60},{"user_id":320,"name":"Merca #savetf2","steam_id":76561198088782472,"connected_time":128000000000,"state":"active","ping":48},{"user_id":271,"name":"Udinese Dion","steam_id":76561198067931573,"connected_time":4534000000000,"state":"active","ping":46},{"user_id":311,"name":"sareena","steam_id":76561198810194062,"connected_time":1250000000000,"state":"active","ping":75}]},{"server_id":309,"name":"Uncletopia | Frankfurt | 4 | All Maps","name_short":"frk-4","host":"frk-1.de.uncletopia.com","port":27045,"enabled":true,"region":"eu","cc":"de","latitude":50.110924,"longitude":8.682127,"reserved":0,"last_update":"0001-01-01T00:00:00Z","name_a2s":"Uncletopia | Frankfurt | 4 | All Maps","protocol":17,"map":"pl_upward","folder":"tf","game":"Team Fortress","app_id":440,"player_count":24,"max_players":24,"Bots":0,"server_type":"Dedicated","server_os":"Linux","password":true,"vac":true,"version":"7757534","steam_id":85568392924504275,"keywords":["nocrits","nodmgspread","payload","uncletopia"],"game_id":440,"stv_port":27046,"stv_name":"Uncletopia | Frankfurt | 4 | All Maps | STV","players":[{"user_id":219,"name":"XXDANTEFANXX","steam_id":76561198197910725,"connected_time":1647000000000,"state":"active","ping":73},{"user_id":237,"name":"Gearless","steam_id":76561198362367074,"connected_time":546000000000,"state":"active","ping":103},{"user_id":239,"name":"FunynMan","steam_id":76561198070387328,"connected_time":316000000000,"state":"active","ping":129},{"user_id":128,"name":"tm","steam_id":76561198256619964,"connected_time":8028000000000,"state":"active","ping":76},{"user_id":229,"name":"KingTeddy","steam_id":76561198131757499,"connected_time":913000000000,"state":"active","ping":64},{"user_id":202,"name":"earl","steam_id":76561199004370870,"connected_time":2547000000000,"state":"active","ping":79},{"user_id":186,"name":"Sylbar","steam_id":76561198065379590,"connected_time":4504000000000,"state":"active","ping":60},{"user_id":242,"name":"bonney","steam_id":76561198132995289,"connected_time":253000000000,"state":"active","ping":78},{"user_id":243,"name":"marlbruh","steam_id":76561198023211417,"connected_time":88000000000,"state":"active","ping":62},{"user_id":240,"name":"Pyrolander","steam_id":76561198050785450,"connected_time":316000000000,"state":"active","ping":58},{"user_id":227,"name":"Baspla","steam_id":76561198066260876,"connected_time":1071000000000,"state":"active","ping":44},{"user_id":215,"name":"Spoody #JustPassing","steam_id":76561198031523769,"connected_time":1916000000000,"state":"active","ping":84},{"user_id":238,"name":"Savlon","steam_id":76561198011597274,"connected_time":504000000000,"state":"active","ping":57},{"user_id":230,"name":"skibidi bop yes yes yes","steam_id":76561198306177608,"connected_time":906000000000,"state":"active","ping":77},{"user_id":216,"name":"Volterion #SaveTf2","steam_id":76561198293088484,"connected_time":1840000000000,"state":"active","ping":62},{"user_id":236,"name":"Sketchthekiller91","steam_id":76561197972578692,"connected_time":580000000000,"state":"active","ping":52},{"user_id":226,"name":"Ged","steam_id":76561198079288943,"connected_time":1246000000000,"state":"active","ping":115},{"user_id":172,"name":"another stale meme","steam_id":76561198163244605,"connected_time":6180000000000,"state":"active","ping":67},{"user_id":210,"name":"Der_Milchmann","steam_id":76561198001417748,"connected_time":2431000000000,"state":"active","ping":56},{"user_id":232,"name":"SuntanPikachu","steam_id":76561198121242476,"connected_time":667000000000,"state":"active","ping":121},{"user_id":221,"name":"E","steam_id":76561198166340115,"connected_time":1612000000000,"state":"active","ping":80},{"user_id":174,"name":"Arcweld","steam_id":76561198816060720,"connected_time":5841000000000,"state":"active","ping":81},{"user_id":225,"name":"Mor'du","steam_id":76561198274105878,"connected_time":1306000000000,"state":"active","ping":82},{"user_id":241,"name":"blue","steam_id":76561198216200092,"connected_time":261000000000,"state":"active","ping":61}]},{"server_id":310,"name":"Uncletopia | Frankfurt | 5 | All Maps","name_short":"frk-5","host":"frk-1.de.uncletopia.com","port":27055,"enabled":true,"region":"eu","cc":"de","latitude":50.110924,"longitude":8.682127,"reserved":0,"last_update":"0001-01-01T00:00:00Z","name_a2s":"Uncletopia | Frankfurt | 5 | All Maps","protocol":17,"map":"pl_pier","folder":"tf","game":"Team Fortress","app_id":440,"player_count":0,"max_players":24,"Bots":0,"server_type":"Dedicated","server_os":"Linux","password":true,"vac":true,"version":"7757534","steam_id":85568392924504277,"keywords":["nocrits","nodmgspread","payload","uncletopia"],"game_id":440,"stv_port":27056,"stv_name":"Uncletopia | Frankfurt | 5 | All Maps | STV","players":null},{"server_id":311,"name":"Uncletopia | Frankfurt | 6 | All Maps","name_short":"frk-6","host":"frk-1.de.uncletopia.com","port":27065,"enabled":true,"region":"eu","cc":"de","latitude":50.110924,"longitude":8.682127,"reserved":0,"last_update":"0001-01-01T00:00:00Z","name_a2s":"Uncletopia | Frankfurt | 6 | All Maps","protocol":17,"map":"cp_dustbowl","folder":"tf","game":"Team Fortress","app_id":440,"player_count":9,"max_players":24,"Bots":0,"server_type":"Dedicated","server_os":"Linux","password":true,"vac":true,"version":"7757534","steam_id":85568392924504278,"keywords":["cp","nocrits","nodmgspread","uncletopia"],"game_id":440,"stv_port":27066,"stv_name":"Uncletopia | Frankfurt | 6 | All Maps | STV","players":[{"user_id":252,"name":"MILF Milker","steam_id":76561198138925326,"connected_time":277000000000,"state":"active","ping":73},{"user_id":253,"name":"obamna","steam_id":76561198262187934,"connected_time":237000000000,"state":"active","ping":82},{"user_id":247,"name":"Pinhers","steam_id":76561198291077862,"connected_time":701000000000,"state":"active","ping":89},{"user_id":221,"name":"KeanuCheems","steam_id":76561198145580689,"connected_time":2329000000000,"state":"active","ping":73},{"user_id":251,"name":"Zero (Orbital Gear Mastermind)","steam_id":76561198017416816,"connected_time":298000000000,"state":"active","ping":52},{"user_id":218,"name":"alcoholics anonymous","steam_id":76561198274114551,"connected_time":2571000000000,"state":"active","ping":111},{"user_id":250,"name":"Intern","steam_id":76561198062744679,"connected_time":339000000000,"state":"active","ping":84},{"user_id":236,"name":"Noah May","steam_id":76561198411732527,"connected_time":1358000000000,"state":"active","ping":46},{"user_id":242,"name":"SP1R4L","steam_id":76561198051387644,"connected_time":1082000000000,"state":"active","ping":57}]},{"server_id":23,"name":"Uncletopia | Frankfurt | 7 | Stopwatch Beta","name_short":"frk-7","host":"frk-1.de.uncletopia.com","port":27075,"enabled":true,"region":"eu","cc":"de","latitude":50.110924,"longitude":8.682127,"reserved":0,"last_update":"0001-01-01T00:00:00Z","name_a2s":"Uncletopia | Frankfurt | 7 | Stopwatch Beta","protocol":17,"map":"pl_frontier_final","folder":"tf","game":"Team Fortress","app_id":440,"player_count":0,"max_players":24,"Bots":0,"server_type":"Dedicated","server_os":"Linux","password":true,"vac":true,"version":"7757534","steam_id":85568392924742827,"keywords":["nocrits","nodmgspread","payload","uncletopia"],"game_id":440,"stv_port":27076,"stv_name":"Uncletopia | Frankfurt | 7 | Stopwatch Beta | STV","players":null},{"server_id":24,"name":"Uncletopia | Frankfurt | 8 | Community","name_short":"frk-8","host":"frk-1.de.uncletopia.com","port":27085,"enabled":true,"region":"eu","cc":"de","latitude":50.110924,"longitude":8.682127,"reserved":0,"last_update":"0001-01-01T00:00:00Z","name_a2s":"Uncletopia | Frankfurt | 8 | Community","protocol":17,"map":"workshop/koth_product_final.ugc454272353","folder":"tf","game":"Team Fortress","app_id":440,"player_count":0,"max_players":24,"Bots":0,"server_type":"Dedicated","server_os":"Linux","password":true,"vac":true,"version":"7757534","steam_id":85568392924742828,"keywords":["cp","nocrits","nodmgspread","uncletopia"],"game_id":440,"stv_port":27086,"stv_name":"Uncletopia | Frankfurt | 8 | Community | STV","players":null},{"server_id":202,"name":"Uncletopia | Hong Kong | 1 | All Maps","name_short":"hgk-1","host":"hgk-1.hk.uncletopia.com","port":27015,"enabled":true,"region":"asia","cc":"hk","latitude":22.302711,"longitude":114.177216,"reserved":0,"last_update":"0001-01-01T00:00:00Z","name_a2s":"Uncletopia | Hong Kong | 1 | All Maps","protocol":17,"map":"koth_lakeside_final","folder":"tf","game":"Team Fortress","app_id":440,"player_count":0,"max_players":24,"Bots":0,"server_type":"Dedicated","server_os":"Linux","password":true,"vac":true,"version":"7757534","steam_id":85568392924494504,"keywords":["cp","nocrits","nodmgspread","uncletopia"],"game_id":440,"stv_port":27016,"stv_name":"Uncletopia | Hong Kong | 1 | All Maps | STV","players":null},{"server_id":1,"name":"Uncletopia | Los Angeles | 1 | All Maps","name_short":"lax-1","host":"lax-1.us.uncletopia.com","port":27015,"enabled":true,"region":"us-west","cc":"us","latitude":33.94279,"longitude":-118.41004,"reserved":0,"last_update":"0001-01-01T00:00:00Z","name_a2s":"Uncletopia | Los Angeles | 1 | All Maps","protocol":17,"map":"koth_cascade","folder":"tf","game":"Team Fortress","app_id":440,"player_count":0,"max_players":24,"Bots":0,"server_type":"Dedicated","server_os":"Linux","password":true,"vac":true,"version":"7757534","steam_id":85568392924469991,"keywords":["cp","nocrits","nodmgspread","uncletopia"],"game_id":440,"stv_port":27016,"stv_name":"Uncletopia | Los Angeles | 1 | All Maps | STV","players":null},{"server_id":112,"name":"Uncletopia | Los Angeles | 2 | All Maps","name_short":"lax-2","host":"lax-1.us.uncletopia.com","port":27025,"enabled":true,"region":"us-west","cc":"us","latitude":33.94279,"longitude":-118.41004,"reserved":0,"last_update":"0001-01-01T00:00:00Z","name_a2s":"Uncletopia | Los Angeles | 2 | All Maps","protocol":17,"map":"koth_cascade","folder":"tf","game":"Team Fortress","app_id":440,"player_count":0,"max_players":24,"Bots":0,"server_type":"Dedicated","server_os":"Linux","password":true,"vac":true,"version":"7757534","steam_id":85568392924469992,"keywords":["cp","nocrits","nodmgspread","uncletopia"],"game_id":440,"stv_port":27026,"stv_name":"Uncletopia | Los Angeles | 2 | All Maps | STV","players":null},{"server_id":324,"name":"Uncletopia | Los Angeles | 3 | All Maps","name_short":"lax-3","host":"lax-1.us.uncletopia.com","port":27035,"enabled":true,"region":"us-west","cc":"us","latitude":33.94279,"longitude":-118.41004,"reserved":0,"last_update":"0001-01-01T00:00:00Z","name_a2s":"Uncletopia | Los Angeles | 3 | All Maps","protocol":17,"map":"pl_borneo","folder":"tf","game":"Team Fortress","app_id":440,"player_count":24,"max_players":24,"Bots":0,"server_type":"Dedicated","server_os":"Linux","password":true,"vac":true,"version":"7757534","steam_id":85568392924510198,"keywords":["nocrits","nodmgspread","payload","uncletopia"],"game_id":440,"stv_port":27036,"stv_name":"Uncletopia | Los Angeles | 3 | All Maps | STV","players":[{"user_id":120,"name":"yeyoi","steam_id":76561198069821885,"connected_time":825000000000,"state":"active","ping":71},{"user_id":134,"name":"Zetaleu","steam_id":76561198149673080,"connected_time":24000000000,"state":"active","ping":45},{"user_id":108,"name":"chanoc","steam_id":76561198026734746,"connected_time":1562000000000,"state":"active","ping":52},{"user_id":109,"name":"Doober","steam_id":76561198056661095,"connected_time":1561000000000,"state":"active","ping":84},{"user_id":12,"name":"aoka","steam_id":76561198838294547,"connected_time":6014000000000,"state":"active","ping":81},{"user_id":117,"name":"hoOmIN","steam_id":76561198334947079,"connected_time":905000000000,"state":"active","ping":44},{"user_id":131,"name":"TeCon","steam_id":76561198049127236,"connected_time":147000000000,"state":"active","ping":51},{"user_id":121,"name":"Bigfootjinx","steam_id":76561199128050459,"connected_time":807000000000,"state":"active","ping":117},{"user_id":64,"name":"Superman123389","steam_id":76561198267472539,"connected_time":3532000000000,"state":"active","ping":91},{"user_id":127,"name":"DragonHeart","steam_id":76561198013245625,"connected_time":490000000000,"state":"active","ping":99},{"user_id":84,"name":"potty trained","steam_id":76561198141557766,"connected_time":2824000000000,"state":"active","ping":120},{"user_id":100,"name":"WannaSeeA","steam_id":76561198097701042,"connected_time":1944000000000,"state":"active","ping":80},{"user_id":130,"name":"no vc no c","steam_id":76561197989503095,"connected_time":158000000000,"state":"active","ping":161},{"user_id":94,"name":"WaterWorks","steam_id":76561198801899310,"connected_time":2278000000000,"state":"active","ping":28},{"user_id":115,"name":"Cute Gatito","steam_id":76561198351147780,"connected_time":1212000000000,"state":"active","ping":56},{"user_id":132,"name":"shadow wizard money gang","steam_id":76561198150406851,"connected_time":136000000000,"state":"active","ping":57},{"user_id":107,"name":"icarly enjoyer","steam_id":76561198161199653,"connected_time":1604000000000,"state":"active","ping":107},{"user_id":112,"name":"❄ Alice ♥","steam_id":76561198869945051,"connected_time":1503000000000,"state":"active","ping":85},{"user_id":101,"name":"probably","steam_id":76561197975080641,"connected_time":1939000000000,"state":"active","ping":51},{"user_id":87,"name":"gravy","steam_id":76561198089644778,"connected_time":2785000000000,"state":"active","ping":54},{"user_id":113,"name":"🌹Vince🐝","steam_id":76561198983122997,"connected_time":1495000000000,"state":"active","ping":104},{"user_id":116,"name":"jean","steam_id":76561198986534519,"connected_time":1194000000000,"state":"active","ping":70},{"user_id":123,"name":"$5 Biggie Bag from Wendy's","steam_id":76561198107219183,"connected_time":646000000000,"state":"active","ping":46},{"user_id":133,"name":"superx","steam_id":76561198044976613,"connected_time":126000000000,"state":"active","ping":119}]},{"server_id":25,"name":"Uncletopia | Los Angeles | 4 | Stopwatch Beta","name_short":"lax-4","host":"lax-1.us.uncletopia.com","port":27045,"enabled":true,"region":"us-west","cc":"us","latitude":33.94279,"longitude":-118.41004,"reserved":0,"last_update":"0001-01-01T00:00:00Z","name_a2s":"Uncletopia | Los Angeles | 4 | Stopwatch Beta","protocol":17,"map":"pl_frontier_final","folder":"tf","game":"Team Fortress","app_id":440,"player_count":0,"max_players":24,"Bots":0,"server_type":"Dedicated","server_os":"Linux","password":true,"vac":true,"version":"7757534","steam_id":85568392924510199,"keywords":["nocrits","nodmgspread","payload","uncletopia"],"game_id":440,"stv_port":27046,"stv_name":"Uncletopia | Los Angeles | 4 | Stopwatch Beta | STV","players":null},{"server_id":11,"name":"Uncletopia | London | 1 | All Maps","name_short":"lon-1","host":"lon-1.uk.uncletopia.com","port":27015,"enabled":true,"region":"eu","cc":"gb","latitude":51.509865,"longitude":-0.118092,"reserved":0,"last_update":"0001-01-01T00:00:00Z","name_a2s":"Uncletopia | London | 1 | All Maps","protocol":17,"map":"pl_hoodoo_final","folder":"tf","game":"Team Fortress","app_id":440,"player_count":25,"max_players":24,"Bots":0,"server_type":"Dedicated","server_os":"Linux","password":true,"vac":true,"version":"7757534","steam_id":85568392924367362,"keywords":["nocrits","nodmgspread","payload","uncletopia"],"game_id":440,"stv_port":27016,"stv_name":"Uncletopia | London | 1 | All Maps | STV","players":[{"user_id":727,"name":"Pintarolas","steam_id":76561198124839451,"connected_time":1114000000000,"state":"active","ping":107},{"user_id":731,"name":"His Spy","steam_id":76561198071224721,"connected_time":538000000000,"state":"active","ping":58},{"user_id":721,"name":"iPhone 4S","steam_id":76561198281913312,"connected_time":1290000000000,"state":"active","ping":47},{"user_id":726,"name":"tiktok vasectomy","steam_id":76561198260363522,"connected_time":1243000000000,"state":"active","ping":82},{"user_id":711,"name":"Posho","steam_id":76561198062396436,"connected_time":1957000000000,"state":"active","ping":40},{"user_id":690,"name":"caps.","steam_id":76561198116528817,"connected_time":3222000000000,"state":"active","ping":59},{"user_id":728,"name":"aspect","steam_id":76561198315032412,"connected_time":1033000000000,"state":"active","ping":71},{"user_id":733,"name":"teddy_!","steam_id":76561198396274438,"connected_time":293000000000,"state":"active","ping":49},{"user_id":732,"name":"Åberg","steam_id":76561198160537076,"connected_time":529000000000,"state":"active","ping":85},{"user_id":734,"name":"Silent Person","steam_id":76561198107763537,"connected_time":283000000000,"state":"active","ping":220},{"user_id":718,"name":"Founder","steam_id":76561198193763778,"connected_time":1684000000000,"state":"active","ping":70},{"user_id":634,"name":"ciliorkun18","steam_id":76561198228942500,"connected_time":6685000000000,"state":"active","ping":92},{"user_id":719,"name":"schizophrenia","steam_id":76561198308439257,"connected_time":1331000000000,"state":"active","ping":54},{"user_id":735,"name":"[BROBOT] Nergal","steam_id":76561198098172161,"connected_time":23000000000,"state":"active","ping":192},{"user_id":724,"name":"Gandhi the Grater","steam_id":76561198051198555,"connected_time":1258000000000,"state":"active","ping":56},{"user_id":717,"name":"Raulca25","steam_id":76561199068256964,"connected_time":1703000000000,"state":"active","ping":78},{"user_id":713,"name":"Frazzle","steam_id":76561198262577951,"connected_time":1925000000000,"state":"active","ping":70},{"user_id":672,"name":"Farao Ramses II","steam_id":76561198078722712,"connected_time":4367000000000,"state":"active","ping":47},{"user_id":715,"name":"vi","steam_id":76561198303147966,"connected_time":1799000000000,"state":"active","ping":44},{"user_id":692,"name":"Leobaker202","steam_id":76561198117884710,"connected_time":3027000000000,"state":"active","ping":151},{"user_id":683,"name":"Katie","steam_id":76561198056193753,"connected_time":3910000000000,"state":"active","ping":48},{"user_id":706,"name":"N","steam_id":76561198154394182,"connected_time":2563000000000,"state":"active","ping":96},{"user_id":725,"name":"Indigolake","steam_id":76561198202215807,"connected_time":1255000000000,"state":"active","ping":129},{"user_id":708,"name":"Koi-Koi","steam_id":76561198045527771,"connected_time":2415000000000,"state":"active","ping":56},{"user_id":736,"name":"gerg","steam_id":76561198041663219,"connected_time":17000000000,"state":"spawning","ping":56}]},{"server_id":114,"name":"Uncletopia | London | 2 | All Maps","name_short":"lon-2","host":"lon-1.uk.uncletopia.com","port":27025,"enabled":true,"region":"eu","cc":"gb","latitude":51.509865,"longitude":-0.118092,"reserved":0,"last_update":"0001-01-01T00:00:00Z","name_a2s":"Uncletopia | London | 2 | All Maps","protocol":17,"map":"cp_altitude","folder":"tf","game":"Team Fortress","app_id":440,"player_count":24,"max_players":24,"Bots":0,"server_type":"Dedicated","server_os":"Linux","password":true,"vac":true,"version":"7757534","steam_id":85568392924470941,"keywords":["cp","nocrits","nodmgspread","uncletopia"],"game_id":440,"stv_port":27026,"stv_name":"Uncletopia | London | 2 | All Maps | STV","players":[{"user_id":556,"name":"Raider","steam_id":76561198065444938,"connected_time":1251000000000,"state":"active","ping":72},{"user_id":524,"name":"Thalgorock","steam_id":76561198195315022,"connected_time":3880000000000,"state":"active","ping":72},{"user_id":514,"name":"Boil em mash em","steam_id":76561198026508026,"connected_time":4549000000000,"state":"active","ping":69},{"user_id":483,"name":"KittyKate ❤","steam_id":76561198116340817,"connected_time":6423000000000,"state":"active","ping":61},{"user_id":542,"name":"Rezkey","steam_id":76561198206079048,"connected_time":2721000000000,"state":"active","ping":55},{"user_id":536,"name":"Daud","steam_id":76561199177668753,"connected_time":3183000000000,"state":"active","ping":37},{"user_id":555,"name":"Cheshie cdna","steam_id":76561198067204908,"connected_time":1681000000000,"state":"active","ping":59},{"user_id":499,"name":"ellie","steam_id":76561198134650962,"connected_time":5397000000000,"state":"active","ping":45},{"user_id":474,"name":"BuzzBees ❤","steam_id":76561198101502273,"connected_time":6691000000000,"state":"active","ping":45},{"user_id":554,"name":"Tlad2","steam_id":76561198854897667,"connected_time":1691000000000,"state":"active","ping":71},{"user_id":545,"name":"BeefHammer","steam_id":76561198078426223,"connected_time":2708000000000,"state":"active","ping":90},{"user_id":549,"name":"BROKEN_MIC","steam_id":76561198310031791,"connected_time":2454000000000,"state":"active","ping":85},{"user_id":546,"name":"pizza time","steam_id":76561199015899793,"connected_time":2704000000000,"state":"active","ping":51},{"user_id":553,"name":"DeadpoolDealsDamage","steam_id":76561198399472908,"connected_time":1945000000000,"state":"active","ping":55},{"user_id":548,"name":"Ready Rice™","steam_id":76561198091969871,"connected_time":2670000000000,"state":"active","ping":82},{"user_id":547,"name":"FishD.ck_47","steam_id":76561198114773103,"connected_time":2702000000000,"state":"active","ping":69},{"user_id":501,"name":"gwen","steam_id":76561198006680814,"connected_time":5377000000000,"state":"active","ping":44},{"user_id":558,"name":"Caro-Kann","steam_id":76561198065506317,"connected_time":1190000000000,"state":"active","ping":73},{"user_id":510,"name":"MAKENTAKEN","steam_id":76561199127359587,"connected_time":4728000000000,"state":"active","ping":103},{"user_id":532,"name":"Laurie","steam_id":76561198082951750,"connected_time":3420000000000,"state":"active","ping":47},{"user_id":526,"name":"rez777ka","steam_id":76561198107605938,"connected_time":3868000000000,"state":"active","ping":99},{"user_id":559,"name":"Rabbit","steam_id":76561198254566214,"connected_time":1060000000000,"state":"active","ping":122},{"user_id":561,"name":"eddiehobbs","steam_id":76561198384635410,"connected_time":25000000000,"state":"spawning","ping":91},{"user_id":541,"name":"Xie Xil Ling","steam_id":76561198053394831,"connected_time":2864000000000,"state":"active","ping":61}]},{"server_id":320,"name":"Uncletopia | London | 3 | All Maps","name_short":"lon-3","host":"lon-1.uk.uncletopia.com","port":27035,"enabled":true,"region":"eu","cc":"gb","latitude":51.509865,"longitude":-0.118092,"reserved":0,"last_update":"0001-01-01T00:00:00Z","name_a2s":"Uncletopia | London | 3 | All Maps","protocol":17,"map":"cp_steel","folder":"tf","game":"Team Fortress","app_id":440,"player_count":14,"max_players":24,"Bots":0,"server_type":"Dedicated","server_os":"Linux","password":true,"vac":true,"version":"7757534","steam_id":85568392924510192,"keywords":["cp","nocrits","nodmgspread","uncletopia"],"game_id":440,"stv_port":27036,"stv_name":"Uncletopia | London | 3 | All Maps | STV","players":[{"user_id":495,"name":"OutOfDucks","steam_id":76561198166376227,"connected_time":2066000000000,"state":"active","ping":55},{"user_id":519,"name":"Grinch Gun","steam_id":76561198097789669,"connected_time":371000000000,"state":"active","ping":67},{"user_id":522,"name":"ANEY☆ The Music Man","steam_id":76561198074404564,"connected_time":301000000000,"state":"active","ping":54},{"user_id":520,"name":"Balenciaga StarWars TShirt Owne","steam_id":76561198283409788,"connected_time":336000000000,"state":"active","ping":51},{"user_id":523,"name":"Juiceydough","steam_id":76561197997323419,"connected_time":204000000000,"state":"active","ping":89},{"user_id":521,"name":"Kigg","steam_id":76561198094581524,"connected_time":333000000000,"state":"active","ping":54},{"user_id":526,"name":"RoXeUr-KaMiKaZe","steam_id":76561197998204782,"connected_time":38000000000,"state":"active","ping":58},{"user_id":500,"name":"Wacht","steam_id":76561199033018467,"connected_time":2002000000000,"state":"active","ping":39},{"user_id":515,"name":"NeonNewt","steam_id":76561198066699212,"connected_time":950000000000,"state":"active","ping":58},{"user_id":527,"name":"Kroto","steam_id":76561198056233760,"connected_time":15000000000,"state":"active","ping":63},{"user_id":508,"name":"ketoky frychiken","steam_id":76561198190583242,"connected_time":1715000000000,"state":"active","ping":77},{"user_id":489,"name":"❤ Sparx ❤","steam_id":76561198095009261,"connected_time":2717000000000,"state":"active","ping":60},{"user_id":503,"name":"Pruff","steam_id":76561198377084417,"connected_time":1966000000000,"state":"active","ping":71},{"user_id":481,"name":"Lyra","steam_id":76561198043601838,"connected_time":3433000000000,"state":"active","ping":67}]},{"server_id":321,"name":"Uncletopia | London | 4 | All Maps","name_short":"lon-4","host":"lon-1.uk.uncletopia.com","port":27045,"enabled":true,"region":"eu","cc":"gb","latitude":51.509865,"longitude":-0.118092,"reserved":0,"last_update":"0001-01-01T00:00:00Z","name_a2s":"Uncletopia | London | 4 | All Maps","protocol":17,"map":"pl_frontier_final","folder":"tf","game":"Team Fortress","app_id":440,"player_count":24,"max_players":24,"Bots":0,"server_type":"Dedicated","server_os":"Linux","password":true,"vac":true,"version":"7757534","steam_id":85568392924510193,"keywords":["nocrits","nodmgspread","payload","uncletopia"],"game_id":440,"stv_port":27046,"stv_name":"Uncletopia | London | 4 | All Maps | STV","players":[{"user_id":266,"name":"Harrison256","steam_id":76561198078975210,"connected_time":3078000000000,"state":"active","ping":54},{"user_id":294,"name":"Bisago!","steam_id":76561198181794353,"connected_time":2180000000000,"state":"active","ping":41},{"user_id":320,"name":"The Red Death | trade.tf","steam_id":76561198170754223,"connected_time":1659000000000,"state":"active","ping":56},{"user_id":248,"name":"Space Rimmer","steam_id":76561198069243201,"connected_time":3407000000000,"state":"active","ping":54},{"user_id":324,"name":"edgar","steam_id":76561198212862423,"connected_time":903000000000,"state":"active","ping":35},{"user_id":316,"name":"Dreadnawght","steam_id":76561198000973506,"connected_time":1724000000000,"state":"active","ping":65},{"user_id":323,"name":"Captain HandicappedCock","steam_id":76561198109850402,"connected_time":921000000000,"state":"active","ping":71},{"user_id":334,"name":"risco1bolota","steam_id":76561198323074603,"connected_time":14000000000,"state":"active","ping":78},{"user_id":309,"name":"Mark 'The Beast' Labbett","steam_id":76561198118892116,"connected_time":1948000000000,"state":"active","ping":54},{"user_id":295,"name":"tamz","steam_id":76561198146873972,"connected_time":2161000000000,"state":"active","ping":23},{"user_id":229,"name":"Regan","steam_id":76561198100631086,"connected_time":4658000000000,"state":"active","ping":63},{"user_id":330,"name":"majora's boostio","steam_id":76561198392628642,"connected_time":211000000000,"state":"active","ping":35},{"user_id":253,"name":"=flashpoint=","steam_id":76561197976774456,"connected_time":3376000000000,"state":"active","ping":43},{"user_id":328,"name":"FairlyFatFungus","steam_id":76561199152828854,"connected_time":346000000000,"state":"active","ping":55},{"user_id":314,"name":"Umberto Bossi","steam_id":76561198136150267,"connected_time":1786000000000,"state":"active","ping":63},{"user_id":332,"name":"buying quickfixes","steam_id":76561198410955546,"connected_time":201000000000,"state":"active","ping":84},{"user_id":255,"name":"Stoneley","steam_id":76561199182443625,"connected_time":3354000000000,"state":"active","ping":59},{"user_id":321,"name":"hut hut","steam_id":76561198088426580,"connected_time":1579000000000,"state":"active","ping":73},{"user_id":318,"name":"the joy of recycling","steam_id":76561198415564349,"connected_time":1713000000000,"state":"active","ping":60},{"user_id":326,"name":"Gryoss","steam_id":76561197999837111,"connected_time":725000000000,"state":"active","ping":106},{"user_id":303,"name":"Room","steam_id":76561199174579733,"connected_time":2045000000000,"state":"active","ping":131},{"user_id":322,"name":"Orochi","steam_id":76561198265192382,"connected_time":1177000000000,"state":"active","ping":74},{"user_id":319,"name":"stankyleg","steam_id":76561199169616120,"connected_time":1697000000000,"state":"active","ping":50},{"user_id":291,"name":"Daga","steam_id":76561198055450219,"connected_time":2298000000000,"state":"active","ping":40}]},{"server_id":21,"name":"Uncletopia | London | 5 | All Maps","name_short":"lon-5","host":"lon-1.uk.uncletopia.com","port":27055,"enabled":true,"region":"eu","cc":"gb","latitude":51.509865,"longitude":-0.118092,"reserved":0,"last_update":"0001-01-01T00:00:00Z","name_a2s":"Uncletopia | London | 5 | All Maps","protocol":17,"map":"cp_mercenarypark","folder":"tf","game":"Team Fortress","app_id":440,"player_count":24,"max_players":24,"Bots":0,"server_type":"Dedicated","server_os":"Linux","password":true,"vac":true,"version":"7757534","steam_id":85568392924742829,"keywords":["cp","nocrits","nodmgspread","uncletopia"],"game_id":440,"stv_port":27056,"stv_name":"Uncletopia | London | 5 | All Maps | STV","players":[{"user_id":350,"name":"Kenny","steam_id":76561198107911141,"connected_time":1474000000000,"state":"active","ping":60},{"user_id":341,"name":"group chat","steam_id":76561198083615367,"connected_time":1663000000000,"state":"active","ping":36},{"user_id":342,"name":"Atom","steam_id":76561198042963204,"connected_time":1614000000000,"state":"active","ping":54},{"user_id":375,"name":"Eny","steam_id":76561198125030281,"connected_time":188000000000,"state":"active","ping":69},{"user_id":369,"name":"Fuvuk","steam_id":76561198044458593,"connected_time":491000000000,"state":"active","ping":103},{"user_id":338,"name":"BreadCrab","steam_id":76561198364062723,"connected_time":1921000000000,"state":"active","ping":58},{"user_id":343,"name":"Tom","steam_id":76561198008519979,"connected_time":1606000000000,"state":"active","ping":66},{"user_id":367,"name":"2011 Volvo C30 2.0 D4 RDesign","steam_id":76561199226908424,"connected_time":804000000000,"state":"active","ping":58},{"user_id":368,"name":"Citrus","steam_id":76561198090650837,"connected_time":801000000000,"state":"active","ping":55},{"user_id":230,"name":"Laxslow","steam_id":76561198065361846,"connected_time":9309000000000,"state":"active","ping":69},{"user_id":372,"name":"JujuBalu","steam_id":76561198207253071,"connected_time":315000000000,"state":"active","ping":41},{"user_id":376,"name":"græy","steam_id":76561198024987293,"connected_time":181000000000,"state":"active","ping":73},{"user_id":370,"name":"Skyfoogle","steam_id":76561198027177883,"connected_time":483000000000,"state":"active","ping":57},{"user_id":303,"name":"feed","steam_id":76561198311512285,"connected_time":4503000000000,"state":"active","ping":110},{"user_id":348,"name":"Oak","steam_id":76561198067315672,"connected_time":1546000000000,"state":"active","ping":62},{"user_id":312,"name":"Guy","steam_id":76561199032279809,"connected_time":4294000000000,"state":"active","ping":87},{"user_id":365,"name":"p;iss lightskin","steam_id":76561198210907543,"connected_time":1030000000000,"state":"active","ping":145},{"user_id":373,"name":"DJ_Pommes","steam_id":76561198100620102,"connected_time":221000000000,"state":"active","ping":58},{"user_id":377,"name":"zaleek69","steam_id":76561198058877595,"connected_time":107000000000,"state":"active","ping":79},{"user_id":339,"name":"Flint","steam_id":76561197995920776,"connected_time":1866000000000,"state":"active","ping":45},{"user_id":361,"name":"dskii","steam_id":76561198354810408,"connected_time":1152000000000,"state":"active","ping":39},{"user_id":371,"name":"BasLutnya","steam_id":76561198050575776,"connected_time":455000000000,"state":"active","ping":88},{"user_id":359,"name":"✹Neverendingnightmares#50✹","steam_id":76561198393844584,"connected_time":1216000000000,"state":"active","ping":173},{"user_id":378,"name":"jose maria gonzales","steam_id":76561198054244573,"connected_time":95000000000,"state":"active","ping":111}]},{"server_id":22,"name":"Uncletopia | London | 6 | All Maps","name_short":"lon-6","host":"lon-1.uk.uncletopia.com","port":27065,"enabled":true,"region":"eu","cc":"gb","latitude":51.509865,"longitude":-0.118092,"reserved":0,"last_update":"0001-01-01T00:00:00Z","name_a2s":"Uncletopia | London | 6 | All Maps","protocol":17,"map":"pl_barnblitz","folder":"tf","game":"Team Fortress","app_id":440,"player_count":24,"max_players":24,"Bots":0,"server_type":"Dedicated","server_os":"Linux","password":true,"vac":true,"version":"7757534","steam_id":85568392924742830,"keywords":["nocrits","nodmgspread","payload","uncletopia"],"game_id":440,"stv_port":27066,"stv_name":"Uncletopia | London | 6 | All Maps | STV","players":[{"user_id":375,"name":"Sandvich Enthusiast","steam_id":76561198241275578,"connected_time":3771000000000,"state":"active","ping":50},{"user_id":407,"name":"MrrPickle","steam_id":76561198122046514,"connected_time":1276000000000,"state":"active","ping":125},{"user_id":396,"name":"S0LDaTo","steam_id":76561198269413360,"connected_time":2359000000000,"state":"active","ping":65},{"user_id":408,"name":"average f2p","steam_id":76561199136308055,"connected_time":1242000000000,"state":"active","ping":54},{"user_id":384,"name":"Yaire","steam_id":76561198017343510,"connected_time":3108000000000,"state":"active","ping":58},{"user_id":415,"name":"TheAsianMate","steam_id":76561198116111669,"connected_time":1118000000000,"state":"active","ping":76},{"user_id":385,"name":"Johnny Cockroach","steam_id":76561198049648277,"connected_time":3090000000000,"state":"active","ping":106},{"user_id":410,"name":"All Muted, no hard feelings...","steam_id":76561198094862469,"connected_time":1207000000000,"state":"active","ping":94},{"user_id":399,"name":"Tri-","steam_id":76561198133524794,"connected_time":1921000000000,"state":"active","ping":44},{"user_id":395,"name":"ANKARA MESSI","steam_id":76561198083249161,"connected_time":2664000000000,"state":"active","ping":57},{"user_id":419,"name":"Whizzo","steam_id":76561198058762428,"connected_time":825000000000,"state":"active","ping":54},{"user_id":411,"name":"Pineapple Okanつ ◕_◕ ༽\ufffd\ufffd","steam_id":76561198069199449,"connected_time":1206000000000,"state":"active","ping":109},{"user_id":406,"name":"Random Bird","steam_id":76561198426657898,"connected_time":1333000000000,"state":"active","ping":153},{"user_id":412,"name":"Enforcer02","steam_id":76561197966045944,"connected_time":1198000000000,"state":"active","ping":63},{"user_id":389,"name":"eeeeee","steam_id":76561198017786875,"connected_time":3008000000000,"state":"active","ping":69},{"user_id":288,"name":"Hexagon","steam_id":76561198151205758,"connected_time":10515000000000,"state":"active","ping":60},{"user_id":390,"name":"Carrotcracker","steam_id":76561198034862396,"connected_time":2999000000000,"state":"active","ping":82},{"user_id":403,"name":"yush","steam_id":76561198121688934,"connected_time":1726000000000,"state":"active","ping":81},{"user_id":420,"name":"Záporák","steam_id":76561198207175503,"connected_time":317000000000,"state":"active","ping":61},{"user_id":413,"name":"soulja boy is the protagonist","steam_id":76561198010239925,"connected_time":1188000000000,"state":"active","ping":46},{"user_id":416,"name":"gRocc0","steam_id":76561198283840637,"connected_time":1118000000000,"state":"active","ping":109},{"user_id":421,"name":"Isaac_MonkeyBoy","steam_id":76561198129769634,"connected_time":302000000000,"state":"active","ping":65},{"user_id":354,"name":"Whoopi Goldberg","steam_id":76561199378865926,"connected_time":5915000000000,"state":"active","ping":82},{"user_id":405,"name":"Miss Bari","steam_id":76561198365286092,"connected_time":1432000000000,"state":"active","ping":40}]},{"server_id":40,"name":"Uncletopia | London | 7 | No Payload","name_short":"lon-7","host":"lon-1.uk.uncletopia.com","port":27075,"enabled":true,"region":"eu","cc":"gb","latitude":51.509865,"longitude":-0.118092,"reserved":0,"last_update":"0001-01-01T00:00:00Z","name_a2s":"Uncletopia | London | 7 | No Payload","protocol":17,"map":"koth_badlands","folder":"tf","game":"Team Fortress","app_id":440,"player_count":0,"max_players":24,"Bots":0,"server_type":"Dedicated","server_os":"Linux","password":true,"vac":true,"version":"7757534","steam_id":85568392924964314,"keywords":["cp","nocrits","nodmgspread","uncletopia"],"game_id":440,"stv_port":27076,"stv_name":"Uncletopia | London | 7 | No Payload | STV","players":null},{"server_id":41,"name":"Uncletopia | London | 8 | Community","name_short":"lon-8","host":"lon-1.uk.uncletopia.com","port":27085,"enabled":true,"region":"eu","cc":"gb","latitude":51.509865,"longitude":-0.118092,"reserved":0,"last_update":"0001-01-01T00:00:00Z","name_a2s":"Uncletopia | London | 8 | Community","protocol":17,"map":"workshop/cp_indulge.ugc528106646","folder":"tf","game":"Team Fortress","app_id":440,"player_count":0,"max_players":24,"Bots":0,"server_type":"Dedicated","server_os":"Linux","password":true,"vac":true,"version":"7757534","steam_id":85568392924964315,"keywords":["cp","nocrits","nodmgspread","uncletopia"],"game_id":440,"stv_port":27086,"stv_name":"Uncletopia | London | 8 | Community | STV","players":null},{"server_id":300,"name":"Uncletopia | Montréal | 1 | All Maps","name_short":"mtl-1","host":"mtl-1.ca.uncletopia.com","port":27015,"enabled":true,"region":"us-east","cc":"ca","latitude":45.50889,"longitude":-73.56167,"reserved":0,"last_update":"0001-01-01T00:00:00Z","name_a2s":"Uncletopia | Montréal | 1 | All Maps","protocol":17,"map":"pl_snowycoast","folder":"tf","game":"Team Fortress","app_id":440,"player_count":0,"max_players":24,"Bots":0,"server_type":"Dedicated","server_os":"Linux","password":true,"vac":true,"version":"7757534","steam_id":85568392924500087,"keywords":["nocrits","nodmgspread","payload","uncletopia"],"game_id":440,"stv_port":27016,"stv_name":"Uncletopia | Montréal | 1 | All Maps | STV","players":null},{"server_id":301,"name":"Uncletopia | Montréal | 2 | All Maps","name_short":"mtl-2","host":"mtl-1.ca.uncletopia.com","port":27025,"enabled":true,"region":"us-east","cc":"ca","latitude":45.50889,"longitude":-73.56167,"reserved":0,"last_update":"0001-01-01T00:00:00Z","name_a2s":"Uncletopia | Montréal | 2 | All Maps","protocol":17,"map":"pl_snowycoast","folder":"tf","game":"Team Fortress","app_id":440,"player_count":0,"max_players":24,"Bots":0,"server_type":"Dedicated","server_os":"Linux","password":true,"vac":true,"version":"7757534","steam_id":85568392924500088,"keywords":["nocrits","nodmgspread","payload","uncletopia"],"game_id":440,"stv_port":27026,"stv_name":"Uncletopia | Montréal | 2 | All Maps | STV","players":null},{"server_id":302,"name":"Uncletopia | Montréal | 3 | All Maps","name_short":"mtl-3","host":"mtl-1.ca.uncletopia.com","port":27035,"enabled":true,"region":"us-east","cc":"ca","latitude":45.50889,"longitude":-73.56167,"reserved":0,"last_update":"0001-01-01T00:00:00Z","name_a2s":"Uncletopia | Montréal | 3 | All Maps","protocol":17,"map":"pl_swiftwater_final1","folder":"tf","game":"Team Fortress","app_id":440,"player_count":0,"max_players":24,"Bots":0,"server_type":"Dedicated","server_os":"Linux","password":true,"vac":true,"version":"7757534","steam_id":85568392924500089,"keywords":["nocrits","nodmgspread","payload","uncletopia"],"game_id":440,"stv_port":27036,"stv_name":"Uncletopia | Montréal | 3 | All Maps | STV","players":null},{"server_id":303,"name":"Uncletopia | Montréal | 4 | No Payload","name_short":"mtl-4","host":"mtl-1.ca.uncletopia.com","port":27045,"enabled":true,"region":"us-east","cc":"ca","latitude":45.50889,"longitude":-73.56167,"reserved":0,"last_update":"0001-01-01T00:00:00Z","name_a2s":"Uncletopia | Montréal | 4 | No Payload","protocol":17,"map":"koth_brazil","folder":"tf","game":"Team Fortress","app_id":440,"player_count":0,"max_players":24,"Bots":0,"server_type":"Dedicated","server_os":"Linux","password":true,"vac":true,"version":"7757534","steam_id":85568392924500090,"keywords":["cp","nocrits","nodmgspread","uncletopia"],"game_id":440,"stv_port":27046,"stv_name":"Uncletopia | Montréal | 4 | No Payload | STV","players":null},{"server_id":13,"name":"Uncletopia | New York City | 1 | All Maps","name_short":"nyc-1","host":"nyc-1.us.uncletopia.com","port":27015,"enabled":true,"region":"us-east","cc":"us","latitude":40.73061,"longitude":-73.93524,"reserved":0,"last_update":"0001-01-01T00:00:00Z","name_a2s":"Uncletopia | New York City | 1 | All Maps","protocol":17,"map":"pl_pier","folder":"tf","game":"Team Fortress","app_id":440,"player_count":24,"max_players":24,"Bots":0,"server_type":"Dedicated","server_os":"Linux","password":true,"vac":true,"version":"7757534","steam_id":85568392924469993,"keywords":["nocrits","nodmgspread","payload","uncletopia"],"game_id":440,"stv_port":27016,"stv_name":"Uncletopia | New York City | 1 | All Maps | STV","players":[{"user_id":373,"name":"you like kissing boys don't you","steam_id":76561198953970191,"connected_time":2934000000000,"state":"active","ping":76},{"user_id":384,"name":"Tyrone","steam_id":76561198189429665,"connected_time":1816000000000,"state":"active","ping":81},{"user_id":394,"name":"Induceddata","steam_id":76561198868302455,"connected_time":873000000000,"state":"active","ping":55},{"user_id":392,"name":"Grundle Thunder","steam_id":76561197960790338,"connected_time":915000000000,"state":"active","ping":69},{"user_id":383,"name":"sauce","steam_id":76561198068430673,"connected_time":1862000000000,"state":"active","ping":69},{"user_id":395,"name":"fudo myoo","steam_id":76561198456258164,"connected_time":873000000000,"state":"active","ping":78},{"user_id":400,"name":"Nikofreaker","steam_id":76561198320604061,"connected_time":712000000000,"state":"active","ping":83},{"user_id":339,"name":"tom fool","steam_id":76561198311704368,"connected_time":5604000000000,"state":"active","ping":61},{"user_id":397,"name":"ITSDIVVY","steam_id":76561198879236561,"connected_time":819000000000,"state":"active","ping":76},{"user_id":401,"name":"Psycho Turkey","steam_id":76561198011571860,"connected_time":612000000000,"state":"active","ping":26},{"user_id":408,"name":"walidov","steam_id":76561198079965605,"connected_time":141000000000,"state":"active","ping":102},{"user_id":382,"name":"Aqua","steam_id":76561198136989701,"connected_time":1938000000000,"state":"active","ping":54},{"user_id":338,"name":"grind","steam_id":76561198801214349,"connected_time":5646000000000,"state":"active","ping":67},{"user_id":406,"name":"solid_bambino","steam_id":76561198408197311,"connected_time":162000000000,"state":"active","ping":105},{"user_id":368,"name":"MetaKrakalaka","steam_id":76561199095316646,"connected_time":3010000000000,"state":"active","ping":55},{"user_id":399,"name":"alber","steam_id":76561199021737235,"connected_time":792000000000,"state":"active","ping":64},{"user_id":402,"name":"silentpieceofbacon","steam_id":76561198869323351,"connected_time":480000000000,"state":"active","ping":85},{"user_id":405,"name":"RazE","steam_id":76561198074181336,"connected_time":213000000000,"state":"active","ping":53},{"user_id":344,"name":"Prinz Eugen","steam_id":76561198129154766,"connected_time":5523000000000,"state":"active","ping":129},{"user_id":390,"name":"Amelia","steam_id":76561198051011524,"connected_time":1545000000000,"state":"active","ping":75},{"user_id":407,"name":"Buh-Donk","steam_id":76561199113589462,"connected_time":160000000000,"state":"active","ping":71},{"user_id":398,"name":"sock haver","steam_id":76561198044443985,"connected_time":814000000000,"state":"active","ping":109},{"user_id":388,"name":"Mr. May","steam_id":76561198132112804,"connected_time":1741000000000,"state":"active","ping":86},{"user_id":403,"name":"Law","steam_id":76561198320282310,"connected_time":462000000000,"state":"active","ping":103}]},{"server_id":14,"name":"Uncletopia | New York City | 2 | All Maps","name_short":"nyc-2","host":"nyc-1.us.uncletopia.com","port":27025,"enabled":true,"region":"us-east","cc":"us","latitude":40.73061,"longitude":-73.93524,"reserved":0,"last_update":"0001-01-01T00:00:00Z","name_a2s":"Uncletopia | New York City | 2 | All Maps","protocol":17,"map":"pl_swiftwater_final1","folder":"tf","game":"Team Fortress","app_id":440,"player_count":17,"max_players":24,"Bots":0,"server_type":"Dedicated","server_os":"Linux","password":true,"vac":true,"version":"7757534","steam_id":85568392924469994,"keywords":["nocrits","nodmgspread","payload","uncletopia"],"game_id":440,"stv_port":27026,"stv_name":"Uncletopia | New York City | 2 | All Maps | STV","players":[{"user_id":244,"name":"-|FG|- Hamilkar Barca","steam_id":76561198091666474,"connected_time":1367000000000,"state":"spawning","ping":92},{"user_id":157,"name":"Chemo","steam_id":76561197961308370,"connected_time":6826000000000,"state":"spawning","ping":75},{"user_id":253,"name":"Nigel_S","steam_id":76561198037191990,"connected_time":89000000000,"state":"spawning","ping":140},{"user_id":236,"name":"Team Fortress 2","steam_id":76561198045746493,"connected_time":1801000000000,"state":"spawning","ping":180},{"user_id":205,"name":"Philip Screwdriver","steam_id":76561198073874193,"connected_time":3679000000000,"state":"spawning","ping":145},{"user_id":251,"name":"beethan","steam_id":76561198148199120,"connected_time":595000000000,"state":"spawning","ping":135},{"user_id":246,"name":"Papyrus","steam_id":76561198133990817,"connected_time":1158000000000,"state":"spawning","ping":81},{"user_id":252,"name":"mr.edderkopper","steam_id":76561198152614478,"connected_time":501000000000,"state":"spawning","ping":198},{"user_id":243,"name":"FAC","steam_id":76561198009818412,"connected_time":1408000000000,"state":"spawning","ping":174},{"user_id":242,"name":"Melan","steam_id":76561198054599968,"connected_time":1570000000000,"state":"spawning","ping":139},{"user_id":225,"name":"IdiotDogchild","steam_id":76561198036274872,"connected_time":2761000000000,"state":"spawning","ping":57},{"user_id":210,"name":"D9","steam_id":76561197999151357,"connected_time":3591000000000,"state":"spawning","ping":123},{"user_id":232,"name":"Ketasive","steam_id":76561198102350323,"connected_time":2167000000000,"state":"spawning","ping":102},{"user_id":239,"name":"☼ kevin \"berserker\" hall","steam_id":76561198074180953,"connected_time":1786000000000,"state":"spawning","ping":134},{"user_id":250,"name":"trobin120","steam_id":76561199122420273,"connected_time":1086000000000,"state":"spawning","ping":170},{"user_id":218,"name":"brk","steam_id":76561198079634017,"connected_time":3082000000000,"state":"spawning","ping":269},{"user_id":249,"name":"Bronze Age GRINDSET","steam_id":76561198859118263,"connected_time":1131000000000,"state":"spawning","ping":118}]},{"server_id":15,"name":"Uncletopia | New York City | 3 | Stopwatch Beta","name_short":"nyc-3","host":"nyc-1.us.uncletopia.com","port":27035,"enabled":true,"region":"us-east","cc":"us","latitude":40.73061,"longitude":-73.93524,"reserved":0,"last_update":"0001-01-01T00:00:00Z","name_a2s":"Uncletopia | New York City | 3 | Stopwatch Beta","protocol":17,"map":"pl_swiftwater_final1","folder":"tf","game":"Team Fortress","app_id":440,"player_count":0,"max_players":24,"Bots":0,"server_type":"Dedicated","server_os":"Linux","password":true,"vac":true,"version":"7757534","steam_id":85568392924742820,"keywords":["nocrits","nodmgspread","payload","uncletopia"],"game_id":440,"stv_port":27036,"stv_name":"Uncletopia | New York City | 3 | Stopwatch Beta | STV","players":null},{"server_id":16,"name":"Uncletopia | New York City | 4 | Community","name_short":"nyc-4","host":"nyc-1.us.uncletopia.com","port":27045,"enabled":true,"region":"us-east","cc":"us","latitude":40.73061,"longitude":-73.93524,"reserved":0,"last_update":"0001-01-01T00:00:00Z","name_a2s":"Uncletopia | New York City | 4 | Community","protocol":17,"map":"workshop/cp_kalinka_rc6a.ugc1272700588","folder":"tf","game":"Team Fortress","app_id":440,"player_count":0,"max_players":24,"Bots":0,"server_type":"Dedicated","server_os":"Linux","password":true,"vac":true,"version":"7757534","steam_id":85568392924742821,"keywords":["cp","nocrits","nodmgspread","uncletopia"],"game_id":440,"stv_port":27046,"stv_name":"Uncletopia | New York City | 4 | Community | STV","players":null},{"server_id":142,"name":"Uncletopia | São Paulo | 1 | All Maps","name_short":"sao-1","host":"sao-1.br.uncletopia.com","port":27015,"enabled":true,"region":"sa","cc":"br","latitude":-23.533773,"longitude":-46.62529,"reserved":0,"last_update":"0001-01-01T00:00:00Z","name_a2s":"Uncletopia | São Paulo | 1 | All Maps","protocol":17,"map":"koth_viaduct","folder":"tf","game":"Team Fortress","app_id":440,"player_count":0,"max_players":24,"Bots":0,"server_type":"Dedicated","server_os":"Linux","password":true,"vac":true,"version":"7757534","steam_id":85568392924469996,"keywords":["cp","nocrits","nodmgspread","uncletopia"],"game_id":440,"stv_port":27016,"stv_name":"Uncletopia | São Paulo | 1 | All Maps | STV","players":null},{"server_id":143,"name":"Uncletopia | São Paulo | 2 | All Maps","name_short":"sao-2","host":"sao-2.br.uncletopia.com","port":27015,"enabled":true,"region":"sa","cc":"br","latitude":-23.533773,"longitude":-46.62529,"reserved":0,"last_update":"0001-01-01T00:00:00Z","name_a2s":"Uncletopia | São Paulo | 2 | All Maps","protocol":17,"map":"pl_borneo","folder":"tf","game":"Team Fortress","app_id":440,"player_count":0,"max_players":24,"Bots":0,"server_type":"Dedicated","server_os":"Linux","password":true,"vac":true,"version":"7757534","steam_id":85568392924485349,"keywords":["nocrits","nodmgspread","payload","uncletopia"],"game_id":440,"stv_port":27016,"stv_name":"Uncletopia | São Paulo | 2 | All Maps | STV","players":null},{"server_id":7,"name":"Uncletopia | Seattle | 1 | All Maps","name_short":"sea-1","host":"sea-1.us.uncletopia.com","port":27015,"enabled":true,"region":"us-west","cc":"us","latitude":47.608013,"longitude":-122.33517,"reserved":0,"last_update":"0001-01-01T00:00:00Z","name_a2s":"Uncletopia | Seattle | 1 | All Maps","protocol":17,"map":"pl_borneo","folder":"tf","game":"Team Fortress","app_id":440,"player_count":24,"max_players":24,"Bots":0,"server_type":"Dedicated","server_os":"Linux","password":true,"vac":true,"version":"7757534","steam_id":85568392924469997,"keywords":["nocrits","nodmgspread","payload","uncletopia"],"game_id":440,"stv_port":27016,"stv_name":"Uncletopia | Seattle | 1 | All Maps | STV","players":[{"user_id":409,"name":"The Wise Guy","steam_id":76561198031080216,"connected_time":412000000000,"state":"active","ping":62},{"user_id":401,"name":"parrot1002924","steam_id":76561199443882275,"connected_time":1055000000000,"state":"active","ping":64},{"user_id":364,"name":"girl (evil)","steam_id":76561198010361897,"connected_time":3059000000000,"state":"active","ping":62},{"user_id":395,"name":"Murgatroyd","steam_id":76561198077350331,"connected_time":1395000000000,"state":"active","ping":81},{"user_id":350,"name":"No Sound","steam_id":76561198011675372,"connected_time":4156000000000,"state":"active","ping":58},{"user_id":338,"name":"charm quark","steam_id":76561198098770777,"connected_time":4730000000000,"state":"active","ping":49},{"user_id":405,"name":"NEBULA","steam_id":76561198086878595,"connected_time":693000000000,"state":"active","ping":73},{"user_id":386,"name":"Sloppy John (Extra Sauce)","steam_id":76561198359703432,"connected_time":1919000000000,"state":"active","ping":75},{"user_id":391,"name":"toodles","steam_id":76561198025463883,"connected_time":1645000000000,"state":"active","ping":58},{"user_id":270,"name":"Julien","steam_id":76561199389584938,"connected_time":8815000000000,"state":"active","ping":46},{"user_id":362,"name":"jacix3 [gay wolfgirl]{she/it}","steam_id":76561198205004165,"connected_time":3345000000000,"state":"active","ping":64},{"user_id":404,"name":"〣dust〣 -she/her-","steam_id":76561198045218909,"connected_time":1006000000000,"state":"active","ping":39},{"user_id":392,"name":"Scoron","steam_id":76561198062099305,"connected_time":1633000000000,"state":"active","ping":80},{"user_id":382,"name":"SHADOW (he/him)","steam_id":76561198207768148,"connected_time":2156000000000,"state":"active","ping":81},{"user_id":387,"name":"bronk","steam_id":76561198181109553,"connected_time":1883000000000,"state":"active","ping":73},{"user_id":407,"name":"Dr. Karl, the AUS Science Guy","steam_id":76561198031278747,"connected_time":553000000000,"state":"active","ping":45},{"user_id":410,"name":"LACTAID","steam_id":76561198276585202,"connected_time":346000000000,"state":"active","ping":84},{"user_id":406,"name":"Scrotum Stealer","steam_id":76561198362839738,"connected_time":657000000000,"state":"active","ping":75},{"user_id":373,"name":"THE NUT","steam_id":76561198067813626,"connected_time":2346000000000,"state":"active","ping":48},{"user_id":383,"name":"schizoid ohio","steam_id":76561198097637080,"connected_time":2137000000000,"state":"active","ping":129},{"user_id":408,"name":"shiadyne","steam_id":76561198271939793,"connected_time":507000000000,"state":"active","ping":46},{"user_id":394,"name":".james","steam_id":76561198869749611,"connected_time":1583000000000,"state":"active","ping":118},{"user_id":411,"name":"Matte :)","steam_id":76561198070631073,"connected_time":305000000000,"state":"active","ping":60},{"user_id":363,"name":"shane","steam_id":76561198060491451,"connected_time":3203000000000,"state":"active","ping":99}]},{"server_id":119,"name":"Uncletopia | Seattle | 2 | All Maps","name_short":"sea-2","host":"sea-1.us.uncletopia.com","port":27025,"enabled":true,"region":"us-west","cc":"us","latitude":47.608013,"longitude":-122.33517,"reserved":0,"last_update":"0001-01-01T00:00:00Z","name_a2s":"Uncletopia | Seattle | 2 | All Maps","protocol":17,"map":"cp_mercenarypark","folder":"tf","game":"Team Fortress","app_id":440,"player_count":24,"max_players":24,"Bots":0,"server_type":"Dedicated","server_os":"Linux","password":true,"vac":true,"version":"7757534","steam_id":85568392924469998,"keywords":["cp","nocrits","nodmgspread","uncletopia"],"game_id":440,"stv_port":27026,"stv_name":"Uncletopia | Seattle | 2 | All Maps | STV","players":[{"user_id":137,"name":"What are you doing?!","steam_id":76561198405248691,"connected_time":163000000000,"state":"active","ping":106},{"user_id":133,"name":"dP | I'm in a Wookie Suit","steam_id":76561198083307644,"connected_time":705000000000,"state":"active","ping":55},{"user_id":127,"name":"McLovin","steam_id":76561198114934503,"connected_time":962000000000,"state":"active","ping":55},{"user_id":128,"name":"vivi","steam_id":76561199027530775,"connected_time":913000000000,"state":"active","ping":92},{"user_id":112,"name":"Dill","steam_id":76561197995325198,"connected_time":1907000000000,"state":"active","ping":87},{"user_id":130,"name":"yup","steam_id":76561199190800520,"connected_time":800000000000,"state":"active","ping":43},{"user_id":110,"name":"tum","steam_id":76561198084712019,"connected_time":2075000000000,"state":"active","ping":84},{"user_id":77,"name":"Algibruh","steam_id":76561199221599415,"connected_time":5528000000000,"state":"active","ping":62},{"user_id":79,"name":"Goat","steam_id":76561198130683707,"connected_time":5104000000000,"state":"active","ping":74},{"user_id":138,"name":"Неоновые кишки","steam_id":76561198836757413,"connected_time":156000000000,"state":"active","ping":144},{"user_id":108,"name":"Decimus","steam_id":76561198341781527,"connected_time":2161000000000,"state":"active","ping":132},{"user_id":34,"name":"SlitherDoodle","steam_id":76561198000275473,"connected_time":7584000000000,"state":"active","ping":48},{"user_id":98,"name":"jello","steam_id":76561198149683030,"connected_time":3518000000000,"state":"active","ping":63},{"user_id":113,"name":"srmoore 103","steam_id":76561198300291415,"connected_time":1873000000000,"state":"active","ping":81},{"user_id":126,"name":"Huggle","steam_id":76561198141491662,"connected_time":998000000000,"state":"active","ping":125},{"user_id":132,"name":"STrong Bomber","steam_id":76561198805051139,"connected_time":729000000000,"state":"active","ping":48},{"user_id":136,"name":"Interrobang","steam_id":76561198385044529,"connected_time":316000000000,"state":"active","ping":128},{"user_id":41,"name":"mmmBoyo","steam_id":76561198821360261,"connected_time":7526000000000,"state":"active","ping":69},{"user_id":121,"name":"LazerCannon","steam_id":76561198256696159,"connected_time":1319000000000,"state":"active","ping":86},{"user_id":122,"name":"Maid 'n' China","steam_id":76561198423392976,"connected_time":1313000000000,"state":"active","ping":72},{"user_id":120,"name":"Flooder","steam_id":76561198043792818,"connected_time":1379000000000,"state":"active","ping":65},{"user_id":135,"name":"루비","steam_id":76561198027517361,"connected_time":623000000000,"state":"active","ping":105},{"user_id":123,"name":"I Twitch Lego Star Wars...","steam_id":76561198130280060,"connected_time":1307000000000,"state":"active","ping":125},{"user_id":51,"name":"Quon Grene for Vice Prez","steam_id":76561198127545817,"connected_time":7403000000000,"state":"active","ping":82}]},{"server_id":406,"name":"Uncletopia | Seattle | 3 | Stopwatch Beta","name_short":"sea-3","host":"sea-1.us.uncletopia.com","port":27035,"enabled":true,"region":"us-west","cc":"us","latitude":47.608013,"longitude":-122.33517,"reserved":0,"last_update":"0001-01-01T00:00:00Z","name_a2s":"Uncletopia | Seattle | 3 | Stopwatch Beta","protocol":17,"map":"pl_barnblitz","folder":"tf","game":"Team Fortress","app_id":440,"player_count":0,"max_players":24,"Bots":0,"server_type":"Dedicated","server_os":"Linux","password":true,"vac":true,"version":"7757534","steam_id":85568392924515217,"keywords":["nocrits","nodmgspread","payload","uncletopia"],"game_id":440,"stv_port":27036,"stv_name":"Uncletopia | Seattle | 3 | Stopwatch Beta | STV","players":null},{"server_id":17,"name":"Uncletopia | San Francisco | 1 | All Maps","name_short":"sfo-1","host":"sfo-1.us.uncletopia.com","port":27015,"enabled":true,"region":"us-west","cc":"us","latitude":37.77397,"longitude":-122.4313,"reserved":0,"last_update":"0001-01-01T00:00:00Z","name_a2s":"Uncletopia | San Francisco | 1 | All Maps","protocol":17,"map":"cp_mountainlab","folder":"tf","game":"Team Fortress","app_id":440,"player_count":23,"max_players":24,"Bots":0,"server_type":"Dedicated","server_os":"Linux","password":true,"vac":true,"version":"7757534","steam_id":85568392924469999,"keywords":["cp","nocrits","nodmgspread","uncletopia"],"game_id":440,"stv_port":27016,"stv_name":"Uncletopia | San Francisco | 1 | All Maps | STV","players":[{"user_id":284,"name":"All 24 Pokémon movies at once","steam_id":76561198164738311,"connected_time":88000000000,"state":"active","ping":113},{"user_id":285,"name":"Peepster","steam_id":76561198297854733,"connected_time":68000000000,"state":"active","ping":128},{"user_id":270,"name":"Sparrow","steam_id":76561199122118959,"connected_time":959000000000,"state":"active","ping":46},{"user_id":288,"name":"Walter","steam_id":76561198176428878,"connected_time":20000000000,"state":"active","ping":72},{"user_id":281,"name":"Orson Welles Gaming","steam_id":76561198115821923,"connected_time":721000000000,"state":"active","ping":67},{"user_id":267,"name":"Green_GarBear","steam_id":76561199468912415,"connected_time":1035000000000,"state":"active","ping":52},{"user_id":260,"name":"Course Brains","steam_id":76561198349105723,"connected_time":1258000000000,"state":"active","ping":65},{"user_id":282,"name":"Mysteryred12","steam_id":76561199206772814,"connected_time":693000000000,"state":"active","ping":66},{"user_id":289,"name":"SirBagettue","steam_id":76561199010270588,"connected_time":10000000000,"state":"spawning","ping":127},{"user_id":263,"name":"APOTATO","steam_id":76561198118199858,"connected_time":1221000000000,"state":"active","ping":167},{"user_id":264,"name":"GreenPepper47","steam_id":76561199016038752,"connected_time":1207000000000,"state":"active","ping":68},{"user_id":265,"name":"rucier197","steam_id":76561199005536159,"connected_time":1110000000000,"state":"active","ping":61},{"user_id":287,"name":"Lots0","steam_id":76561198043143145,"connected_time":66000000000,"state":"active","ping":102},{"user_id":271,"name":"LynnLantern","steam_id":76561198116326726,"connected_time":940000000000,"state":"active","ping":105},{"user_id":279,"name":"KAWHI BEEN THUGGIN","steam_id":76561198931663998,"connected_time":796000000000,"state":"active","ping":88},{"user_id":273,"name":"sol","steam_id":76561198046156539,"connected_time":820000000000,"state":"active","ping":124},{"user_id":274,"name":"Luna","steam_id":76561198068947421,"connected_time":814000000000,"state":"active","ping":132},{"user_id":275,"name":"FULCRUM faded than a ho","steam_id":76561198274959371,"connected_time":810000000000,"state":"active","ping":114},{"user_id":276,"name":"Frogzilla","steam_id":76561198077657538,"connected_time":808000000000,"state":"active","ping":83},{"user_id":277,"name":"Rocky","steam_id":76561198048158539,"connected_time":806000000000,"state":"active","ping":78},{"user_id":278,"name":"BionicApe","steam_id":76561198154637711,"connected_time":804000000000,"state":"active","ping":54},{"user_id":204,"name":"Alunatic14","steam_id":76561198309321593,"connected_time":3954000000000,"state":"active","ping":127},{"user_id":280,"name":"EatSomeBEES","steam_id":76561198047334307,"connected_time":763000000000,"state":"active","ping":71}]},{"server_id":18,"name":"Uncletopia | San Francisco | 2 | All Maps","name_short":"sfo-2","host":"sfo-1.us.uncletopia.com","port":27025,"enabled":true,"region":"us-west","cc":"us","latitude":37.77397,"longitude":-122.4313,"reserved":0,"last_update":"0001-01-01T00:00:00Z","name_a2s":"Uncletopia | San Francisco | 2 | All Maps","protocol":17,"map":"cp_mountainlab","folder":"tf","game":"Team Fortress","app_id":440,"player_count":0,"max_players":24,"Bots":0,"server_type":"Dedicated","server_os":"Linux","password":true,"vac":true,"version":"7757534","steam_id":85568392924470000,"keywords":["cp","nocrits","nodmgspread","uncletopia"],"game_id":440,"stv_port":27026,"stv_name":"Uncletopia | San Francisco | 2 | All Maps | STV","players":null},{"server_id":19,"name":"Uncletopia | San Francisco | 3 | Stopwatch Beta","name_short":"sfo-3","host":"sfo-1.us.uncletopia.com","port":27035,"enabled":true,"region":"us-west","cc":"us","latitude":37.77397,"longitude":-122.4313,"reserved":0,"last_update":"0001-01-01T00:00:00Z","name_a2s":"Uncletopia | San Francisco | 3 | Stopwatch Beta","protocol":17,"map":"pl_borneo","folder":"tf","game":"Team Fortress","app_id":440,"player_count":0,"max_players":24,"Bots":0,"server_type":"Dedicated","server_os":"Linux","password":true,"vac":true,"version":"7757534","steam_id":85568392924742824,"keywords":["nocrits","nodmgspread","payload","uncletopia"],"game_id":440,"stv_port":27036,"stv_name":"Uncletopia | San Francisco | 3 | Stopwatch Beta | STV","players":null},{"server_id":20,"name":"Uncletopia | San Francisco | 4 | Community","name_short":"sfo-4","host":"sfo-1.us.uncletopia.com","port":27045,"enabled":true,"region":"us-west","cc":"us","latitude":37.77397,"longitude":-122.4313,"reserved":0,"last_update":"0001-01-01T00:00:00Z","name_a2s":"Uncletopia | San Francisco | 4 | Community","protocol":17,"map":"workshop/koth_ramjam_rc1.ugc459778887","folder":"tf","game":"Team Fortress","app_id":440,"player_count":0,"max_players":24,"Bots":0,"server_type":"Dedicated","server_os":"Linux","password":true,"vac":true,"version":"7757534","steam_id":85568392924742826,"keywords":["cp","nocrits","nodmgspread","uncletopia"],"game_id":440,"stv_port":27046,"stv_name":"Uncletopia | San Francisco | 4 | Community | STV","players":null},{"server_id":141,"name":"Uncletopia | Sydney | 1 | All Maps","name_short":"syd-1","host":"syd-1.au.uncletopia.com","port":27015,"enabled":true,"region":"au","cc":"au","latitude":-33.865143,"longitude":151.2099,"reserved":0,"last_update":"0001-01-01T00:00:00Z","name_a2s":"Uncletopia | Sydney | 1 | All Maps","protocol":17,"map":"pl_swiftwater_final1","folder":"tf","game":"Team Fortress","app_id":440,"player_count":1,"max_players":24,"Bots":0,"server_type":"Dedicated","server_os":"Linux","password":true,"vac":true,"version":"7757534","steam_id":85568392924470001,"keywords":["nocrits","nodmgspread","payload","uncletopia"],"game_id":440,"stv_port":27016,"stv_name":"Uncletopia | Sydney | 1 | All Maps | STV","players":[{"user_id":3,"name":"the rot doesn't consume","steam_id":76561198866538028,"connected_time":740000000000,"state":"active","ping":90}]},{"server_id":123,"name":"Uncletopia | Sydney | 2 | All Maps","name_short":"syd-2","host":"syd-1.au.uncletopia.com","port":27025,"enabled":true,"region":"au","cc":"au","latitude":-33.865143,"longitude":151.2099,"reserved":0,"last_update":"0001-01-01T00:00:00Z","name_a2s":"Uncletopia | Sydney | 2 | All Maps","protocol":17,"map":"koth_viaduct","folder":"tf","game":"Team Fortress","app_id":440,"player_count":0,"max_players":24,"Bots":0,"server_type":"Dedicated","server_os":"Linux","password":true,"vac":true,"version":"7757534","steam_id":85568392924470002,"keywords":["cp","nocrits","nodmgspread","uncletopia"],"game_id":440,"stv_port":27026,"stv_name":"Uncletopia | Sydney | 2 | All Maps | STV","players":null},{"server_id":395,"name":"Uncletopia | Sydney | 3 | All Maps","name_short":"syd-3","host":"syd-1.au.uncletopia.com","port":27035,"enabled":true,"region":"au","cc":"au","latitude":-33.865143,"longitude":151.2099,"reserved":0,"last_update":"0001-01-01T00:00:00Z","name_a2s":"Uncletopia | Sydney | 3 | All Maps","protocol":17,"map":"pl_upward","folder":"tf","game":"Team Fortress","app_id":440,"player_count":0,"max_players":24,"Bots":0,"server_type":"Dedicated","server_os":"Linux","password":true,"vac":true,"version":"7757534","steam_id":85568392925194467,"keywords":["nocrits","nodmgspread","payload","uncletopia"],"game_id":440,"stv_port":27036,"stv_name":"Uncletopia | Sydney | 3 | All Maps | STV","players":null},{"server_id":396,"name":"Uncletopia | Sydney | 4 | All Maps","name_short":"syd-4","host":"syd-1.au.uncletopia.com","port":27045,"enabled":true,"region":"au","cc":"au","latitude":-33.865143,"longitude":151.2099,"reserved":0,"last_update":"0001-01-01T00:00:00Z","name_a2s":"Uncletopia | Sydney | 4 | All Maps","protocol":17,"map":"koth_lakeside_final","folder":"tf","game":"Team Fortress","app_id":440,"player_count":0,"max_players":24,"Bots":0,"server_type":"Dedicated","server_os":"Linux","password":true,"vac":true,"version":"7757534","steam_id":85568392925397958,"keywords":["cp","nocrits","nodmgspread","uncletopia"],"game_id":440,"stv_port":27046,"stv_name":"Uncletopia | Sydney | 4 | All Maps | STV","players":null},{"server_id":58,"name":"Uncletopia | Sydney | 5 | Stopwatch Beta","name_short":"syd-5","host":"syd-1.au.uncletopia.com","port":27055,"enabled":true,"region":"au","cc":"au","latitude":-33.865143,"longitude":151.2099,"reserved":0,"last_update":"0001-01-01T00:00:00Z","name_a2s":"Uncletopia | Sydney | 5 | Stopwatch Beta","protocol":17,"map":"koth_highpass","folder":"tf","game":"Team Fortress","app_id":440,"player_count":0,"max_players":24,"Bots":0,"server_type":"Dedicated","server_os":"Linux","password":true,"vac":true,"version":"7757534","steam_id":85568392925397959,"keywords":["cp","nocrits","nodmgspread","uncletopia"],"game_id":440,"stv_port":27056,"stv_name":"Uncletopia | Sydney | 5 | Stopwatch Beta | STV","players":null},{"server_id":59,"name":"Uncletopia | Sydney | 6 | Community","name_short":"syd-6","host":"syd-1.au.uncletopia.com","port":27065,"enabled":true,"region":"au","cc":"au","latitude":-33.865143,"longitude":151.2099,"reserved":0,"last_update":"0001-01-01T00:00:00Z","name_a2s":"Uncletopia | Sydney | 6 | Community","protocol":17,"map":"workshop/koth_synthetic_rc6a.ugc1549817316","folder":"tf","game":"Team Fortress","app_id":440,"player_count":0,"max_players":24,"Bots":0,"server_type":"Dedicated","server_os":"Linux","password":true,"vac":true,"version":"7757534","steam_id":85568392925397960,"keywords":["cp","nocrits","nodmgspread","uncletopia"],"game_id":440,"stv_port":27066,"stv_name":"Uncletopia | Sydney | 6 | Community | STV","players":null},{"server_id":49,"name":"Uncletopia | Warsaw | 1 | All Maps","name_short":"waw-1","host":"waw-1.pl.uncletopia.com","port":27015,"enabled":true,"region":"eu","cc":"pl","latitude":52.2297,"longitude":21.017532,"reserved":0,"last_update":"0001-01-01T00:00:00Z","name_a2s":"","protocol":0,"map":"","folder":"","game":"","app_id":0,"player_count":0,"max_players":0,"Bots":0,"server_type":"","server_os":"","password":false,"vac":false,"version":"","steam_id":0,"keywords":null,"game_id":0,"stv_port":0,"stv_name":"","players":null},{"server_id":50,"name":"Uncletopia | Warsaw | 2 | All Maps","name_short":"waw-2","host":"waw-1.pl.uncletopia.com","port":27025,"enabled":true,"region":"eu","cc":"pl","latitude":52.2297,"longitude":21.017532,"reserved":0,"last_update":"0001-01-01T00:00:00Z","name_a2s":"Uncletopia | Warsaw | 2 | All Maps","protocol":17,"map":"pl_barnblitz","folder":"tf","game":"Team Fortress","app_id":440,"player_count":0,"max_players":24,"Bots":0,"server_type":"Dedicated","server_os":"Linux","password":true,"vac":true,"version":"7757534","steam_id":85568392925397851,"keywords":["nocrits","nodmgspread","payload","uncletopia"],"game_id":440,"stv_port":27026,"stv_name":"Uncletopia | Warsaw | 2 | All Maps | STV","players":null},{"server_id":51,"name":"Uncletopia | Warsaw | 3 | All Maps","name_short":"waw-3","host":"waw-1.pl.uncletopia.com","port":27035,"enabled":true,"region":"eu","cc":"pl","latitude":52.2297,"longitude":21.017532,"reserved":0,"last_update":"0001-01-01T00:00:00Z","name_a2s":"Uncletopia | Warsaw | 3 | All Maps","protocol":17,"map":"pl_pier","folder":"tf","game":"Team Fortress","app_id":440,"player_count":0,"max_players":24,"Bots":0,"server_type":"Dedicated","server_os":"Linux","password":true,"vac":true,"version":"7757534","steam_id":85568392925397852,"keywords":["nocrits","nodmgspread","payload","uncletopia"],"game_id":440,"stv_port":27036,"stv_name":"Uncletopia | Warsaw | 3 | All Maps | STV","players":null},{"server_id":52,"name":"Uncletopia | Warsaw | 4 | All Maps","name_short":"waw-4","host":"waw-1.pl.uncletopia.com","port":27045,"enabled":true,"region":"eu","cc":"pl","latitude":52.2297,"longitude":21.017532,"reserved":0,"last_update":"0001-01-01T00:00:00Z","name_a2s":"Uncletopia | Warsaw | 4 | All Maps","protocol":17,"map":"koth_cascade","folder":"tf","game":"Team Fortress","app_id":440,"player_count":0,"max_players":24,"Bots":0,"server_type":"Dedicated","server_os":"Linux","password":true,"vac":true,"version":"7757534","steam_id":85568392925397853,"keywords":["cp","nocrits","nodmgspread","uncletopia"],"game_id":440,"stv_port":27046,"stv_name":"Uncletopia | Warsaw | 4 | All Maps | STV","players":null},{"server_id":53,"name":"Uncletopia | Warsaw | 5 | Stopwatch Beta","name_short":"waw-5","host":"waw-1.pl.uncletopia.com","port":27055,"enabled":true,"region":"eu","cc":"pl","latitude":52.2297,"longitude":21.017532,"reserved":0,"last_update":"0001-01-01T00:00:00Z","name_a2s":"Uncletopia | Warsaw | 5 | Stopwatch Beta","protocol":17,"map":"pl_barnblitz","folder":"tf","game":"Team Fortress","app_id":440,"player_count":0,"max_players":24,"Bots":0,"server_type":"Dedicated","server_os":"Linux","password":true,"vac":true,"version":"7757534","steam_id":85568392925397854,"keywords":["nocrits","nodmgspread","payload","uncletopia"],"game_id":440,"stv_port":27056,"stv_name":"Uncletopia | Warsaw | 5 | Stopwatch Beta | STV","players":null},{"server_id":54,"name":"Uncletopia | Warsaw | 6 | Community","name_short":"waw-6","host":"waw-1.pl.uncletopia.com","port":27065,"enabled":true,"region":"eu","cc":"pl","latitude":52.2297,"longitude":21.017532,"reserved":0,"last_update":"0001-01-01T00:00:00Z","name_a2s":"Uncletopia | Warsaw | 6 | Community","protocol":17,"map":"workshop/cp_bruhstbowl_b5.ugc2878604990","folder":"tf","game":"Team Fortress","app_id":440,"player_count":0,"max_players":24,"Bots":0,"server_type":"Dedicated","server_os":"Linux","password":true,"vac":true,"version":"7757534","steam_id":85568392925397856,"keywords":["cp","nocrits","nodmgspread","uncletopia"],"game_id":440,"stv_port":27066,"stv_name":"Uncletopia | Warsaw | 6 | Community | STV","players":null}]}