{"status":true,"message":"","result":[{"server_id":9,"name":"Uncletopia | Atlanta | 1 | All Maps","name_short":"atl-1","host":"atl-1.us.uncletopia.com","port":27015,"enabled":true,"region":"us-east","cc":"us","latitude":33.753746,"longitude":-84.38633,"reserved":0,"last_update":"0001-01-01T00:00:00Z","name_a2s":"Uncletopia | Atlanta | 1 | All Maps","protocol":17,"map":"pl_upward","folder":"tf","game":"Team Fortress","app_id":440,"player_count":24,"max_players":24,"Bots":0,"server_type":"Dedicated","server_os":"Linux","password":true,"vac":true,"version":"7961495","steam_id":85568392924469982,"keywords":["nocrits","nodmgspread","payload","uncletopia"],"game_id":440,"stv_port":27016,"stv_name":"Uncletopia | Atlanta | 1 | All Maps | STV","players":[{"user_id":515,"name":"DuckMann","steam_id":76561198197058638,"connected_time":723000000000,"state":"active","ping":49},{"user_id":498,"name":"Jin","steam_id":76561198119873148,"connected_time":1550000000000,"state":"active","ping":64},{"user_id":517,"name":"Shmoopy","steam_id":76561198030459152,"connected_time":410000000000,"state":"active","ping":60},{"user_id":483,"name":"ATL1 | Uganda (Steel enjoyer)","steam_id":76561199121276474,"connected_time":3304000000000,"state":"active","ping":75},{"user_id":484,"name":"Maestro","steam_id":76561198157325020,"connected_time":3303000000000,"state":"active","ping":60},{"user_id":505,"name":"iiamiizzyy","steam_id":76561198355030751,"connected_time":1300000000000,"state":"active","ping":63},{"user_id":485,"name":"Gugomo","steam_id":76561198121428316,"connected_time":3302000000000,"state":"active","ping":85},{"user_id":516,"name":"Waroslav","steam_id":76561198116604050,"connected_time":543000000000,"state":"active","ping":120},{"user_id":305,"name":"lynt","steam_id":76561198988333976,"connected_time":16376000000000,"state":"active","ping":44},{"user_id":520,"name":"Obelisk","steam_id":76561198049416866,"connected_time":381000000000,"state":"active","ping":59},{"user_id":495,"name":"Big Business","steam_id":76561198353366625,"connected_time":2287000000000,"state":"active","ping":85},{"user_id":458,"name":"Mathafagar | Guffly","steam_id":76561198265019897,"connected_time":5015000000000,"state":"active","ping":76},{"user_id":429,"name":"Flint","steam_id":76561198066547582,"connected_time":7076000000000,"state":"active","ping":101},{"user_id":476,"name":"mangokip","steam_id":76561198156471516,"connected_time":3832000000000,"state":"active","ping":56},{"user_id":523,"name":"KexruTv","steam_id":76561198374399876,"connected_time":156000000000,"state":"active","ping":53},{"user_id":509,"name":"Jared","steam_id":76561198027210228,"connected_time":1224000000000,"state":"active","ping":78},{"user_id":512,"name":"BIG HOG","steam_id":76561198079923652,"connected_time":1138000000000,"state":"active","ping":64},{"user_id":480,"name":"Major Woody","steam_id":76561198835541533,"connected_time":3321000000000,"state":"active","ping":94},{"user_id":522,"name":"Legit_Jaxer","steam_id":76561198172234053,"connected_time":355000000000,"state":"active","ping":110},{"user_id":521,"name":"oh the huge manatee!","steam_id":76561198008931651,"connected_time":380000000000,"state":"active","ping":73},{"user_id":524,"name":"Erchius (she/her)","steam_id":76561198256892300,"connected_time":21000000000,"state":"spawning","ping":80},{"user_id":508,"name":"lil hog","steam_id":76561199230929836,"connected_time":1253000000000,"state":"active","ping":86},{"user_id":500,"name":"Za abuser","steam_id":76561199507845717,"connected_time":1389000000000,"state":"active","ping":74},{"user_id":519,"name":"Saucy Boy","steam_id":76561198178332031,"connected_time":405000000000,"state":"active","ping":78}]},{"server_id":104,"name":"Uncletopia | Atlanta | 2 | All Maps","name_short":"atl-2","host":"atl-1.us.uncletopia.com","port":27025,"enabled":true,"region":"us-east","cc":"us","latitude":33.753746,"longitude":-84.38633,"reserved":0,"last_update":"0001-01-01T00:00:00Z","name_a2s":"Uncletopia | Atlanta | 2 | All Maps","protocol":17,"map":"koth_king","folder":"tf","game":"Team Fortress","app_id":440,"player_count":24,"max_players":24,"Bots":0,"server_type":"Dedicated","server_os":"Linux","password":true,"vac":true,"version":"7961495","steam_id":85568392924469983,"keywords":["cp","nocrits","nodmgspread","uncletopia"],"game_id":440,"stv_port":27026,"stv_name":"Uncletopia | Atlanta | 2 | All Maps | STV","players":[{"user_id":170,"name":"Rated_C","steam_id":76561199226478414,"connected_time":2923000000000,"state":"active","ping":98},{"user_id":205,"name":"the creature","steam_id":76561199015635037,"connected_time":263000000000,"state":"active","ping":53},{"user_id":201,"name":"Junk","steam_id":76561198024382753,"connected_time":396000000000,"state":"active","ping":60},{"user_id":207,"name":"REALLINUSJEWTIP.","steam_id":76561198056647983,"connected_time":255000000000,"state":"active","ping":76},{"user_id":143,"name":"Fishman_200","steam_id":76561198152455167,"connected_time":4980000000000,"state":"active","ping":61},{"user_id":211,"name":"Carpet enthusiast","steam_id":76561198024040142,"connected_time":140000000000,"state":"active","ping":60},{"user_id":173,"name":"*Boba Tea*","steam_id":76561199182562773,"connected_time":2627000000000,"state":"active","ping":103},{"user_id":202,"name":"thezranger","steam_id":76561198454086460,"connected_time":377000000000,"state":"active","ping":100},{"user_id":193,"name":"Functional Progaming","steam_id":76561198032310210,"connected_time":902000000000,"state":"active","ping":51},{"user_id":203,"name":"Kalimba Chozo","steam_id":76561198061847043,"connected_time":349000000000,"state":"active","ping":92},{"user_id":197,"name":"comicconcarne","steam_id":76561198005309469,"connected_time":559000000000,"state":"active","ping":48},{"user_id":187,"name":"LOVEDRAGON","steam_id":76561198089908485,"connected_time":1388000000000,"state":"active","ping":68},{"user_id":158,"name":"Dad","steam_id":76561198028617381,"connected_time":4188000000000,"state":"active","ping":57},{"user_id":209,"name":"punk cock","steam_id":76561198418182764,"connected_time":167000000000,"state":"active","ping":69},{"user_id":181,"name":"Dosux2","steam_id":76561198390916062,"connected_time":1705000000000,"state":"active","ping":130},{"user_id":208,"name":"paisano","steam_id":76561198065575472,"connected_time":243000000000,"state":"active","ping":66},{"user_id":196,"name":"castro","steam_id":76561198834358497,"connected_time":577000000000,"state":"active","ping":74},{"user_id":160,"name":"Momo","steam_id":76561198815067088,"connected_time":4153000000000,"state":"active","ping":43},{"user_id":210,"name":"Five","steam_id":76561198026640473,"connected_time":164000000000,"state":"active","ping":105},{"user_id":188,"name":"DoeNo","steam_id":76561198137745770,"connected_time":1385000000000,"state":"active","ping":73},{"user_id":163,"name":"CumPieQueen(800x1.21=968)","steam_id":76561198062284145,"connected_time":4050000000000,"state":"active","ping":67},{"user_id":190,"name":"Mint Jelly","steam_id":76561197991286751,"connected_time":1283000000000,"state":"active","ping":65},{"user_id":191,"name":"The Gremlin","steam_id":76561198419066993,"connected_time":1282000000000,"state":"active","ping":120}]},{"server_id":400,"name":"Uncletopia | Atlanta | 3 | Stopwatch","name_short":"atl-3","host":"atl-1.us.uncletopia.com","port":27035,"enabled":true,"region":"us-east","cc":"us","latitude":33.753746,"longitude":-84.38633,"reserved":0,"last_update":"0001-01-01T00:00:00Z","name_a2s":"Uncletopia | Atlanta | 3 | Stopwatch","protocol":17,"map":"workshop/cp_process_f12.ugc2302948105","folder":"tf","game":"Team Fortress","app_id":440,"player_count":24,"max_players":24,"Bots":0,"server_type":"Dedicated","server_os":"Linux","password":true,"vac":true,"version":"7961495","steam_id":85568392924515187,"keywords":["cp","nocrits","nodmgspread","uncletopia"],"game_id":440,"stv_port":27036,"stv_name":"Uncletopia | Atlanta | 3 | Stopwatch | STV","players":[{"user_id":607,"name":"♡Alyx♡","steam_id":76561198024303978,"connected_time":6384000000000,"state":"active","ping":59},{"user_id":708,"name":"☾","steam_id":76561198043684960,"connected_time":788000000000,"state":"active","ping":60},{"user_id":711,"name":"The Demoman from Team Fortress ","steam_id":76561199031241776,"connected_time":150000000000,"state":"active","ping":71},{"user_id":616,"name":"Vee (very cool)","steam_id":76561198330432889,"connected_time":6291000000000,"state":"active","ping":61},{"user_id":706,"name":"777","steam_id":76561198277163301,"connected_time":947000000000,"state":"active","ping":82},{"user_id":709,"name":"stall","steam_id":76561199152861652,"connected_time":314000000000,"state":"active","ping":56},{"user_id":702,"name":"[DFC] j_yuuki","steam_id":76561198864314450,"connected_time":1132000000000,"state":"active","ping":103},{"user_id":610,"name":"estrogen burger (healthy dose)","steam_id":76561198249206656,"connected_time":6337000000000,"state":"active","ping":82},{"user_id":611,"name":"stink","steam_id":76561198099318923,"connected_time":6326000000000,"state":"active","ping":77},{"user_id":612,"name":"Avo","steam_id":76561197993340494,"connected_time":6318000000000,"state":"active","ping":46},{"user_id":613,"name":"Dr.Zarann","steam_id":76561198163952958,"connected_time":6312000000000,"state":"active","ping":60},{"user_id":663,"name":"Decolour","steam_id":76561199045608372,"connected_time":3780000000000,"state":"active","ping":62},{"user_id":690,"name":"Box","steam_id":76561198826701192,"connected_time":1960000000000,"state":"active","ping":82},{"user_id":712,"name":"coolmothgames.com","steam_id":76561198143132686,"connected_time":121000000000,"state":"active","ping":91},{"user_id":713,"name":"Elephant Seal","steam_id":76561198065364829,"connected_time":62000000000,"state":"active","ping":75},{"user_id":714,"name":"1000 Ping","steam_id":76561198098330939,"connected_time":57000000000,"state":"active","ping":94},{"user_id":692,"name":"creeeeeee","steam_id":76561198392539722,"connected_time":1871000000000,"state":"active","ping":81},{"user_id":710,"name":"Comic Relief Fat Guy","steam_id":76561199031172409,"connected_time":286000000000,"state":"active","ping":79},{"user_id":694,"name":"Congcrab","steam_id":76561198078687685,"connected_time":1803000000000,"state":"active","ping":60},{"user_id":632,"name":"Albino Jellyfish","steam_id":76561198208561097,"connected_time":6034000000000,"state":"active","ping":59},{"user_id":672,"name":"she french, i'm a coke boy","steam_id":76561198120440587,"connected_time":3397000000000,"state":"active","ping":48},{"user_id":685,"name":"JargonScott","steam_id":76561197972793903,"connected_time":2264000000000,"state":"active","ping":69},{"user_id":715,"name":"Yayan","steam_id":76561199174728461,"connected_time":38000000000,"state":"spawning","ping":352},{"user_id":716,"name":"Synergy","steam_id":76561198098630198,"connected_time":14000000000,"state":"active","ping":120}]},{"server_id":401,"name":"Uncletopia | Atlanta | 4 | Community","name_short":"atl-4","host":"atl-1.us.uncletopia.com","port":27045,"enabled":true,"region":"us-east","cc":"us","latitude":33.753746,"longitude":-84.38633,"reserved":0,"last_update":"0001-01-01T00:00:00Z","name_a2s":"Uncletopia | Atlanta | 4 | Community","protocol":17,"map":"workshop/koth_slaughter_rc1.ugc1712845210","folder":"tf","game":"Team Fortress","app_id":440,"player_count":8,"max_players":24,"Bots":0,"server_type":"Dedicated","server_os":"Linux","password":true,"vac":true,"version":"7961495","steam_id":85568392924515188,"keywords":["cp","nocrits","nodmgspread","uncletopia"],"game_id":440,"stv_port":27046,"stv_name":"Uncletopia | Atlanta | 4 | Community | STV","players":[{"user_id":37,"name":"Vicroye","steam_id":76561198441635511,"connected_time":278000000000,"state":"active","ping":35},{"user_id":23,"name":"Mrxester","steam_id":76561198336705855,"connected_time":4380000000000,"state":"active","ping":75},{"user_id":32,"name":"KidSavage420","steam_id":76561198239325572,"connected_time":600000000000,"state":"active","ping":36},{"user_id":33,"name":"Thelonious Monk","steam_id":76561198233419004,"connected_time":589000000000,"state":"active","ping":39},{"user_id":34,"name":"kill_pine123","steam_id":76561198130994033,"connected_time":521000000000,"state":"active","ping":32},{"user_id":39,"name":"dweamy","steam_id":76561198119181880,"connected_time":228000000000,"state":"active","ping":77},{"user_id":36,"name":"Gordon Ramsay","steam_id":76561198299762980,"connected_time":445000000000,"state":"active","ping":46},{"user_id":38,"name":"Beebleborg","steam_id":76561199042112420,"connected_time":272000000000,"state":"active","ping":30}]},{"server_id":2,"name":"Uncletopia | Chicago | 1 | All Maps","name_short":"chi-1","host":"chi-1.us.uncletopia.com","port":27015,"enabled":true,"region":"us-central","cc":"us","latitude":41.881832,"longitude":-87.62318,"reserved":0,"last_update":"0001-01-01T00:00:00Z","name_a2s":"Uncletopia | Chicago | 1 | All Maps","protocol":17,"map":"ctf_2fort","folder":"tf","game":"Team Fortress","app_id":440,"player_count":24,"max_players":24,"Bots":0,"server_type":"Dedicated","server_os":"Linux","password":true,"vac":true,"version":"7961495","steam_id":85568392924469984,"keywords":["ctf","nocrits","nodmgspread","uncletopia"],"game_id":440,"stv_port":27016,"stv_name":"Uncletopia | Chicago | 1 | All Maps | STV","players":[{"user_id":831,"name":"Texas Red","steam_id":76561198832095246,"connected_time":792000000000,"state":"active","ping":66},{"user_id":821,"name":"Tibalt Nyahuma","steam_id":76561198034779431,"connected_time":2228000000000,"state":"active","ping":63},{"user_id":837,"name":"Eugene Thaddeus Hinkle V","steam_id":76561198821535846,"connected_time":493000000000,"state":"active","ping":59},{"user_id":777,"name":"TehOneZoot","steam_id":76561198121944243,"connected_time":7719000000000,"state":"active","ping":59},{"user_id":822,"name":"Mr. White Christmas","steam_id":76561198127942584,"connected_time":1800000000000,"state":"active","ping":55},{"user_id":797,"name":"Dubbs","steam_id":76561197960945604,"connected_time":5800000000000,"state":"active","ping":44},{"user_id":819,"name":"gps","steam_id":76561198067492304,"connected_time":2890000000000,"state":"active","ping":78},{"user_id":820,"name":"thecal","steam_id":76561198307893384,"connected_time":2374000000000,"state":"active","ping":59},{"user_id":816,"name":"♥Bunny♥Slut♥","steam_id":76561198206376851,"connected_time":3542000000000,"state":"active","ping":73},{"user_id":827,"name":"daffodil","steam_id":76561198049480053,"connected_time":1252000000000,"state":"active","ping":61},{"user_id":832,"name":"Thatoneguybunchanumbers","steam_id":76561198028039160,"connected_time":764000000000,"state":"active","ping":69},{"user_id":736,"name":"qory","steam_id":76561198152064890,"connected_time":11941000000000,"state":"active","ping":45},{"user_id":766,"name":"Rawhide Kobayashi","steam_id":76561198067051062,"connected_time":9514000000000,"state":"active","ping":44},{"user_id":781,"name":"Dr. Dick","steam_id":76561198138011922,"connected_time":7291000000000,"state":"active","ping":62},{"user_id":823,"name":"you will find no peace","steam_id":76561198056192098,"connected_time":1657000000000,"state":"active","ping":42},{"user_id":828,"name":"Isbog_official","steam_id":76561198261081658,"connected_time":1239000000000,"state":"active","ping":104},{"user_id":824,"name":"Snom","steam_id":76561198333827920,"connected_time":1573000000000,"state":"active","ping":97},{"user_id":773,"name":".JIFF","steam_id":76561198045181760,"connected_time":7734000000000,"state":"active","ping":61},{"user_id":833,"name":"Antwan","steam_id":76561198246200638,"connected_time":746000000000,"state":"active","ping":62},{"user_id":834,"name":"ArcticTone","steam_id":76561199163932146,"connected_time":739000000000,"state":"active","ping":67},{"user_id":774,"name":"Drooop","steam_id":76561198856700517,"connected_time":7734000000000,"state":"active","ping":62},{"user_id":812,"name":"Your Local Queer Librarian","steam_id":76561198013077080,"connected_time":3710000000000,"state":"active","ping":45},{"user_id":835,"name":"Malachi [NGC|ST]","steam_id":76561197995129935,"connected_time":728000000000,"state":"active","ping":63},{"user_id":841,"name":"JustaDude","steam_id":76561199151914748,"connected_time":149000000000,"state":"active","ping":85}]},{"server_id":106,"name":"Uncletopia | Chicago | 2 | All Maps","name_short":"chi-2","host":"chi-1.us.uncletopia.com","port":27025,"enabled":true,"region":"us-central","cc":"us","latitude":41.881832,"longitude":-87.62318,"reserved":0,"last_update":"0001-01-01T00:00:00Z","name_a2s":"Uncletopia | Chicago | 2 | All Maps","protocol":17,"map":"koth_harvest_final","folder":"tf","game":"Team Fortress","app_id":440,"player_count":23,"max_players":24,"Bots":0,"server_type":"Dedicated","server_os":"Linux","password":true,"vac":true,"version":"7961495","steam_id":85568392924469985,"keywords":["cp","nocrits","nodmgspread","uncletopia"],"game_id":440,"stv_port":27026,"stv_name":"Uncletopia | Chicago | 2 | All Maps | STV","players":[{"user_id":806,"name":"DiegoVal12","steam_id":76561198408509079,"connected_time":173000000000,"state":"active","ping":101},{"user_id":816,"name":"chilis baby back ribs","steam_id":76561198813516435,"connected_time":7000000000,"state":"spawning","ping":248},{"user_id":797,"name":"pineApple Zoo","steam_id":76561198013732450,"connected_time":1203000000000,"state":"active","ping":48},{"user_id":786,"name":"LEFTTRIGGER","steam_id":76561199494382342,"connected_time":1985000000000,"state":"active","ping":67},{"user_id":808,"name":"SneakySneak","steam_id":76561198064847921,"connected_time":123000000000,"state":"active","ping":48},{"user_id":813,"name":"ALEX[03RUS]","steam_id":76561198032979442,"connected_time":88000000000,"state":"active","ping":225},{"user_id":814,"name":"GreekGoat_Coffee","steam_id":76561198129331088,"connected_time":65000000000,"state":"active","ping":50},{"user_id":809,"name":"Toa of Time","steam_id":76561198086867556,"connected_time":121000000000,"state":"active","ping":77},{"user_id":810,"name":"󠀡󠀡","steam_id":76561198348035053,"connected_time":117000000000,"state":"active","ping":112},{"user_id":811,"name":"vv","steam_id":76561198134813102,"connected_time":114000000000,"state":"active","ping":55},{"user_id":804,"name":"ifuruna","steam_id":76561199506882366,"connected_time":321000000000,"state":"active","ping":133},{"user_id":779,"name":"Highly Nonexistent","steam_id":76561198323583939,"connected_time":2135000000000,"state":"active","ping":116},{"user_id":801,"name":"⸸ gaige ⛧","steam_id":76561198090576796,"connected_time":1124000000000,"state":"active","ping":48},{"user_id":788,"name":"DJ Pierce","steam_id":76561198394241466,"connected_time":1917000000000,"state":"active","ping":80},{"user_id":800,"name":"ZestyTrev","steam_id":76561198253391039,"connected_time":1155000000000,"state":"active","ping":68},{"user_id":795,"name":"jolo","steam_id":76561198042831480,"connected_time":1447000000000,"state":"active","ping":61},{"user_id":792,"name":"nezzy","steam_id":76561198127115509,"connected_time":1692000000000,"state":"active","ping":88},{"user_id":812,"name":"DusterDan35","steam_id":76561198309129093,"connected_time":111000000000,"state":"active","ping":140},{"user_id":815,"name":"Big Cat","steam_id":76561198115695203,"connected_time":64000000000,"state":"active","ping":45},{"user_id":803,"name":"chok","steam_id":76561198242016100,"connected_time":597000000000,"state":"active","ping":90},{"user_id":802,"name":"Zinc and Sodium!","steam_id":76561198094726098,"connected_time":970000000000,"state":"active","ping":63},{"user_id":755,"name":"ALonelyGhostE","steam_id":76561198184787290,"connected_time":3997000000000,"state":"active","ping":75},{"user_id":775,"name":"ωolƒßąiŧ","steam_id":76561197990356991,"connected_time":2508000000000,"state":"active","ping":57}]},{"server_id":402,"name":"Uncletopia | Chicago | 3 | All Maps","name_short":"chi-3","host":"chi-1.us.uncletopia.com","port":27035,"enabled":true,"region":"us-central","cc":"us","latitude":41.881832,"longitude":-87.62318,"reserved":0,"last_update":"0001-01-01T00:00:00Z","name_a2s":"Uncletopia | Chicago | 3 | All Maps","protocol":17,"map":"koth_suijin","folder":"tf","game":"Team Fortress","app_id":440,"player_count":23,"max_players":24,"Bots":0,"server_type":"Dedicated","server_os":"Linux","password":true,"vac":true,"version":"7961495","steam_id":85568392924515191,"keywords":["cp","nocrits","nodmgspread","uncletopia"],"game_id":440,"stv_port":27036,"stv_name":"Uncletopia | Chicago | 3 | All Maps | STV","players":[{"user_id":280,"name":"kho","steam_id":76561198195764728,"connected_time":2685000000000,"state":"active","ping":75},{"user_id":270,"name":"bomba","steam_id":76561198301585642,"connected_time":3462000000000,"state":"active","ping":57},{"user_id":300,"name":"dog","steam_id":76561198263873491,"connected_time":1239000000000,"state":"active","ping":44},{"user_id":298,"name":"Butter","steam_id":76561198064944451,"connected_time":1353000000000,"state":"active","ping":48},{"user_id":315,"name":"NinjaboySC","steam_id":76561198157305426,"connected_time":523000000000,"state":"active","ping":60},{"user_id":289,"name":"cholmes","steam_id":76561198076057648,"connected_time":2382000000000,"state":"active","ping":73},{"user_id":320,"name":"d00ie","steam_id":76561198151032242,"connected_time":354000000000,"state":"active","ping":63},{"user_id":295,"name":"BunnyBlitz","steam_id":76561198165881112,"connected_time":1500000000000,"state":"active","ping":75},{"user_id":325,"name":"Fatpoob","steam_id":76561198056730096,"connected_time":137000000000,"state":"active","ping":46},{"user_id":296,"name":"crazyabe111","steam_id":76561198407686352,"connected_time":1469000000000,"state":"active","ping":69},{"user_id":314,"name":"NinjagirlOH","steam_id":76561198964107245,"connected_time":718000000000,"state":"active","ping":73},{"user_id":301,"name":"Crustacean Daddy","steam_id":76561198993807061,"connected_time":1220000000000,"state":"active","ping":86},{"user_id":326,"name":"جرو","steam_id":76561198016562343,"connected_time":82000000000,"state":"active","ping":61},{"user_id":319,"name":"Soy King","steam_id":76561198263025614,"connected_time":488000000000,"state":"active","ping":98},{"user_id":290,"name":"Kracko","steam_id":76561198240580798,"connected_time":2371000000000,"state":"active","ping":60},{"user_id":302,"name":"Dokkibai","steam_id":76561198355935693,"connected_time":1208000000000,"state":"active","ping":45},{"user_id":323,"name":"xXx_Eg0_d3aTh_419_xXx (ironic)","steam_id":76561198077551754,"connected_time":245000000000,"state":"active","ping":67},{"user_id":306,"name":"Soren Tyto alba","steam_id":76561198139005796,"connected_time":1173000000000,"state":"active","ping":84},{"user_id":305,"name":"DarioChiller","steam_id":76561198158741215,"connected_time":1177000000000,"state":"active","ping":61},{"user_id":324,"name":"Altoids?","steam_id":76561197997323720,"connected_time":219000000000,"state":"active","ping":59},{"user_id":311,"name":"True Love Makin' \u003c3","steam_id":76561198131796104,"connected_time":1022000000000,"state":"active","ping":78},{"user_id":286,"name":"✪ Whales","steam_id":76561198064458078,"connected_time":2592000000000,"state":"active","ping":60},{"user_id":268,"name":"Mega_Man23","steam_id":76561198138341391,"connected_time":3945000000000,"state":"active","ping":63}]},{"server_id":403,"name":"Uncletopia | Chicago | 4 | All Maps","name_short":"chi-4","host":"chi-1.us.uncletopia.com","port":27045,"enabled":true,"region":"us-central","cc":"us","latitude":41.881832,"longitude":-87.62318,"reserved":0,"last_update":"0001-01-01T00:00:00Z","name_a2s":"Uncletopia | Chicago | 4 | All Maps","protocol":17,"map":"koth_highpass","folder":"tf","game":"Team Fortress","app_id":440,"player_count":19,"max_players":24,"Bots":0,"server_type":"Dedicated","server_os":"Linux","password":true,"vac":true,"version":"7961495","steam_id":85568392924515193,"keywords":["cp","nocrits","nodmgspread","uncletopia"],"game_id":440,"stv_port":27046,"stv_name":"Uncletopia | Chicago | 4 | All Maps | STV","players":[{"user_id":624,"name":"Gaming is for girls","steam_id":76561198401725755,"connected_time":31000000000,"state":"active","ping":38},{"user_id":597,"name":"Ghost Kaisar","steam_id":76561198103629357,"connected_time":3404000000000,"state":"active","ping":59},{"user_id":625,"name":"Yongle","steam_id":76561198068591156,"connected_time":22000000000,"state":"active","ping":49},{"user_id":615,"name":"Fred Durst's #1 Fan","steam_id":76561198282395338,"connected_time":927000000000,"state":"active","ping":80},{"user_id":571,"name":"Surfing Garchomp","steam_id":76561199107236884,"connected_time":5756000000000,"state":"active","ping":98},{"user_id":599,"name":"Eric Cartman","steam_id":76561198084693264,"connected_time":3338000000000,"state":"active","ping":57},{"user_id":550,"name":"zoey","steam_id":76561198084679526,"connected_time":7305000000000,"state":"active","ping":52},{"user_id":573,"name":"bnob?","steam_id":76561198965284387,"connected_time":5735000000000,"state":"active","ping":57},{"user_id":616,"name":"⛧ AlphaSatanOmega ⛧","steam_id":76561198035125511,"connected_time":909000000000,"state":"active","ping":46},{"user_id":622,"name":"Siz","steam_id":76561198072962154,"connected_time":81000000000,"state":"active","ping":59},{"user_id":620,"name":"i poop my pants","steam_id":76561199488347875,"connected_time":787000000000,"state":"active","ping":85},{"user_id":609,"name":"the flying spoon","steam_id":76561199039152146,"connected_time":1944000000000,"state":"active","ping":62},{"user_id":582,"name":"Dr Gregory House, MD","steam_id":76561198986281248,"connected_time":5113000000000,"state":"active","ping":74},{"user_id":618,"name":"Bond","steam_id":76561198089262776,"connected_time":859000000000,"state":"active","ping":68},{"user_id":619,"name":"Nortel Network Telephone T7316","steam_id":76561198399261089,"connected_time":846000000000,"state":"active","ping":88},{"user_id":600,"name":"Grimace D. Drippings","steam_id":76561198050849790,"connected_time":3317000000000,"state":"active","ping":98},{"user_id":594,"name":"Fuyutake","steam_id":76561199123206779,"connected_time":3772000000000,"state":"active","ping":63},{"user_id":623,"name":"Lil' Baby","steam_id":76561197999391252,"connected_time":79000000000,"state":"active","ping":90},{"user_id":589,"name":"harold","steam_id":76561199016285746,"connected_time":4700000000000,"state":"active","ping":85}]},{"server_id":36,"name":"Uncletopia | Chicago | 5 | All Maps","name_short":"chi-5","host":"chi-2.us.uncletopia.com","port":27015,"enabled":true,"region":"us-central","cc":"us","latitude":41.881832,"longitude":-87.62318,"reserved":0,"last_update":"0001-01-01T00:00:00Z","name_a2s":"Uncletopia | Chicago | 5 | All Maps","protocol":17,"map":"pl_upward","folder":"tf","game":"Team Fortress","app_id":440,"player_count":24,"max_players":24,"Bots":0,"server_type":"Dedicated","server_os":"Linux","password":true,"vac":true,"version":"7961495","steam_id":85568392924866362,"keywords":["nocrits","nodmgspread","payload","uncletopia"],"game_id":440,"stv_port":27016,"stv_name":"Uncletopia | Chicago | 5 | All Maps | STV","players":[{"user_id":239,"name":"TheColdChiliPepper","steam_id":76561199027155811,"connected_time":811000000000,"state":"active","ping":90},{"user_id":193,"name":"Even a Worm Will Turn","steam_id":76561198139506313,"connected_time":3150000000000,"state":"active","ping":64},{"user_id":241,"name":"BooceMaster","steam_id":76561198148520318,"connected_time":553000000000,"state":"active","ping":58},{"user_id":233,"name":"Pizza_is_Good","steam_id":76561199035982596,"connected_time":1122000000000,"state":"active","ping":75},{"user_id":208,"name":"RusticCarp42989","steam_id":76561198361151865,"connected_time":2402000000000,"state":"active","ping":112},{"user_id":230,"name":"Jey","steam_id":76561198110957641,"connected_time":1212000000000,"state":"active","ping":74},{"user_id":231,"name":"Amoxicilina","steam_id":76561198168486429,"connected_time":1207000000000,"state":"active","ping":106},{"user_id":224,"name":"Blehnder","steam_id":76561198172097526,"connected_time":1612000000000,"state":"active","ping":75},{"user_id":245,"name":"VampWolfDoll (She/Her)","steam_id":76561198102301491,"connected_time":203000000000,"state":"active","ping":58},{"user_id":236,"name":"The No Longer Mute","steam_id":76561198078359985,"connected_time":1084000000000,"state":"active","ping":58},{"user_id":211,"name":"SiltyStar85","steam_id":76561198309175923,"connected_time":2353000000000,"state":"active","ping":94},{"user_id":226,"name":"FELONIOUS MONK","steam_id":76561198201872929,"connected_time":1483000000000,"state":"active","ping":60},{"user_id":183,"name":"Le Meilleur","steam_id":76561198054581325,"connected_time":4194000000000,"state":"active","ping":49},{"user_id":240,"name":"Ephemeral-chan","steam_id":76561197996001672,"connected_time":791000000000,"state":"active","ping":90},{"user_id":181,"name":"bigchungusgaming(real)","steam_id":76561198273392037,"connected_time":4578000000000,"state":"active","ping":107},{"user_id":246,"name":"larguu","steam_id":76561197994336210,"connected_time":20000000000,"state":"active","ping":68},{"user_id":235,"name":"uegue","steam_id":76561198254639173,"connected_time":1119000000000,"state":"active","ping":135},{"user_id":126,"name":"Diesel","steam_id":76561198448815852,"connected_time":8520000000000,"state":"active","ping":81},{"user_id":227,"name":"Seskova","steam_id":76561198090207032,"connected_time":1447000000000,"state":"active","ping":105},{"user_id":159,"name":"doctor sex md","steam_id":76561198150678175,"connected_time":5524000000000,"state":"active","ping":108},{"user_id":199,"name":"clay","steam_id":76561198045894316,"connected_time":2903000000000,"state":"active","ping":82},{"user_id":220,"name":"Talented","steam_id":76561198800259660,"connected_time":1839000000000,"state":"active","ping":61},{"user_id":223,"name":"nested deep in the dirty dirty","steam_id":76561198142756572,"connected_time":1785000000000,"state":"active","ping":61},{"user_id":238,"name":"Wavern","steam_id":76561198191536489,"connected_time":877000000000,"state":"active","ping":109}]},{"server_id":37,"name":"Uncletopia | Chicago | 6 | All Maps","name_short":"chi-6","host":"chi-2.us.uncletopia.com","port":27025,"enabled":true,"region":"us-central","cc":"us","latitude":41.881832,"longitude":-87.62318,"reserved":0,"last_update":"0001-01-01T00:00:00Z","name_a2s":"Uncletopia | Chicago | 6 | All Maps","protocol":17,"map":"pl_barnblitz","folder":"tf","game":"Team Fortress","app_id":440,"player_count":21,"max_players":24,"Bots":0,"server_type":"Dedicated","server_os":"Linux","password":true,"vac":true,"version":"7961495","steam_id":85568392924866363,"keywords":["nocrits","nodmgspread","payload","uncletopia"],"game_id":440,"stv_port":27026,"stv_name":"Uncletopia | Chicago | 6 | All Maps | STV","players":[{"user_id":352,"name":"strawberry jam bagel","steam_id":76561198319442494,"connected_time":708000000000,"state":"active","ping":100},{"user_id":230,"name":"eipi","steam_id":76561199084492097,"connected_time":9706000000000,"state":"active","ping":59},{"user_id":315,"name":"brisky","steam_id":76561198869675719,"connected_time":3707000000000,"state":"active","ping":62},{"user_id":319,"name":"ICBMonkey","steam_id":76561198033351821,"connected_time":3629000000000,"state":"active","ping":70},{"user_id":339,"name":"The Muffin Man","steam_id":76561199088286427,"connected_time":1732000000000,"state":"active","ping":102},{"user_id":323,"name":"FumaPorros3000","steam_id":76561199100161024,"connected_time":3586000000000,"state":"active","ping":114},{"user_id":350,"name":"werecat","steam_id":76561198005091213,"connected_time":1015000000000,"state":"active","ping":61},{"user_id":348,"name":"MysteryTopHat","steam_id":76561199011317714,"connected_time":1031000000000,"state":"active","ping":84},{"user_id":332,"name":"Blue Banana","steam_id":76561198100077411,"connected_time":2268000000000,"state":"active","ping":105},{"user_id":303,"name":"lcy13vv","steam_id":76561197995997446,"connected_time":4906000000000,"state":"active","ping":59},{"user_id":341,"name":"Master Of Whales","steam_id":76561198349104889,"connected_time":1696000000000,"state":"active","ping":94},{"user_id":211,"name":"2cats_2curious","steam_id":76561198027143149,"connected_time":10860000000000,"state":"active","ping":46},{"user_id":305,"name":"starfungus","steam_id":76561198158312789,"connected_time":4875000000000,"state":"active","ping":72},{"user_id":317,"name":"GoldtoothFour","steam_id":76561198055529332,"connected_time":3670000000000,"state":"active","ping":51},{"user_id":342,"name":"THE MENACE","steam_id":76561198312055294,"connected_time":1696000000000,"state":"active","ping":69},{"user_id":335,"name":"Forge","steam_id":76561198042751067,"connected_time":2098000000000,"state":"active","ping":63},{"user_id":343,"name":"DA GOOFY MENACE ^_^ \u003c3","steam_id":76561198832230598,"connected_time":1690000000000,"state":"active","ping":69},{"user_id":325,"name":"DeMarc0","steam_id":76561198150900434,"connected_time":3570000000000,"state":"active","ping":71},{"user_id":344,"name":"munch","steam_id":76561198820480684,"connected_time":1630000000000,"state":"active","ping":55},{"user_id":334,"name":"Ace Chromatica","steam_id":76561198042211131,"connected_time":2159000000000,"state":"active","ping":71},{"user_id":347,"name":"Gary Budussy","steam_id":76561197969793969,"connected_time":1402000000000,"state":"active","ping":58}]},{"server_id":38,"name":"Uncletopia | Chicago | 7 | Stopwatch","name_short":"chi-7","host":"chi-2.us.uncletopia.com","port":27035,"enabled":true,"region":"us-central","cc":"us","latitude":41.881832,"longitude":-87.62318,"reserved":0,"last_update":"0001-01-01T00:00:00Z","name_a2s":"Uncletopia | Chicago | 7 | Stopwatch","protocol":17,"map":"workshop/pl_badwater_pro_v12.ugc2142942074","folder":"tf","game":"Team Fortress","app_id":440,"player_count":20,"max_players":24,"Bots":0,"server_type":"Dedicated","server_os":"Linux","password":true,"vac":true,"version":"7961495","steam_id":85568392924866364,"keywords":["nocrits","nodmgspread","payload","uncletopia"],"game_id":440,"stv_port":27036,"stv_name":"Uncletopia | Chicago | 7 | Stopwatch | STV","players":[{"user_id":209,"name":"Leonardo DiCaprio","steam_id":76561198121886765,"connected_time":189000000000,"state":"active","ping":52},{"user_id":191,"name":"Patches","steam_id":76561198399642271,"connected_time":866000000000,"state":"active","ping":59},{"user_id":188,"name":"Wallit","steam_id":76561198174355486,"connected_time":1376000000000,"state":"active","ping":101},{"user_id":208,"name":"Nickson1","steam_id":76561198175839309,"connected_time":328000000000,"state":"active","ping":69},{"user_id":100,"name":"y0","steam_id":76561198143894333,"connected_time":6630000000000,"state":"active","ping":58},{"user_id":211,"name":"hehe","steam_id":76561198125913580,"connected_time":107000000000,"state":"active","ping":61},{"user_id":194,"name":"I'm Stoned, Luigi","steam_id":76561198084552936,"connected_time":764000000000,"state":"active","ping":57},{"user_id":161,"name":"Patrick Bateman","steam_id":76561198048146017,"connected_time":4034000000000,"state":"active","ping":45},{"user_id":207,"name":"AlecTheNefarious","steam_id":76561198035291230,"connected_time":423000000000,"state":"active","ping":69},{"user_id":110,"name":"chunk","steam_id":76561198134775401,"connected_time":5945000000000,"state":"active","ping":112},{"user_id":196,"name":"sithreis","steam_id":76561198000564263,"connected_time":683000000000,"state":"active","ping":73},{"user_id":127,"name":"Rambly Dambly","steam_id":76561198844496567,"connected_time":5255000000000,"state":"active","ping":59},{"user_id":199,"name":"lanoc","steam_id":76561198055415367,"connected_time":619000000000,"state":"active","ping":60},{"user_id":201,"name":"java","steam_id":76561198030276792,"connected_time":595000000000,"state":"active","ping":60},{"user_id":213,"name":"bunceian","steam_id":76561198975662918,"connected_time":101000000000,"state":"active","ping":109},{"user_id":171,"name":"KnightWith_Mug","steam_id":76561198325350546,"connected_time":2818000000000,"state":"active","ping":67},{"user_id":172,"name":"SpeedrunnerNick#SaveTF2","steam_id":76561199251809758,"connected_time":2809000000000,"state":"active","ping":67},{"user_id":141,"name":"Lee?","steam_id":76561199060892634,"connected_time":4870000000000,"state":"active","ping":70},{"user_id":214,"name":"sheep","steam_id":76561198994761483,"connected_time":86000000000,"state":"active","ping":83},{"user_id":204,"name":"Redux","steam_id":76561199447074695,"connected_time":531000000000,"state":"active","ping":87}]},{"server_id":39,"name":"Uncletopia | Chicago | 8 | Community","name_short":"chi-8","host":"chi-2.us.uncletopia.com","port":27045,"enabled":true,"region":"us-central","cc":"us","latitude":41.881832,"longitude":-87.62318,"reserved":0,"last_update":"0001-01-01T00:00:00Z","name_a2s":"Uncletopia | Chicago | 8 | Community","protocol":17,"map":"workshop/koth_slaughter_rc1.ugc1712845210","folder":"tf","game":"Team Fortress","app_id":440,"player_count":0,"max_players":24,"Bots":0,"server_type":"Dedicated","server_os":"Linux","password":true,"vac":true,"version":"7961495","steam_id":85568392924866365,"keywords":["cp","nocrits","nodmgspread","uncletopia"],"game_id":440,"stv_port":27046,"stv_name":"Uncletopia | Chicago | 8 | Community | STV","players":null},{"server_id":8,"name":"Uncletopia | Dallas | 1 | All Maps","name_short":"dal-1","host":"dal-1.us.uncletopia.com","port":27015,"enabled":true,"region":"us-central","cc":"us","latitude":32.779167,"longitude":-96.80889,"reserved":0,"last_update":"0001-01-01T00:00:00Z","name_a2s":"Uncletopia | Dallas | 1 | All Maps","protocol":17,"map":"pl_pier","folder":"tf","game":"Team Fortress","app_id":440,"player_count":24,"max_players":24,"Bots":0,"server_type":"Dedicated","server_os":"Linux","password":true,"vac":true,"version":"7961495","steam_id":85568392924469986,"keywords":["nocrits","nodmgspread","payload","uncletopia"],"game_id":440,"stv_port":27016,"stv_name":"Uncletopia | Dallas | 1 | All Maps | STV","players":[{"user_id":737,"name":"Luna","steam_id":76561198023352750,"connected_time":4032000000000,"state":"active","ping":88},{"user_id":727,"name":"OwningTundra2","steam_id":76561198936893224,"connected_time":5212000000000,"state":"active","ping":49},{"user_id":722,"name":"PiolaCat","steam_id":76561199100535345,"connected_time":5650000000000,"state":"active","ping":85},{"user_id":765,"name":"SkoranShogun","steam_id":76561198091811218,"connected_time":1278000000000,"state":"active","ping":62},{"user_id":719,"name":"DlTTO","steam_id":76561199427026752,"connected_time":5763000000000,"state":"active","ping":92},{"user_id":744,"name":"kaimann_25","steam_id":76561198867926098,"connected_time":3747000000000,"state":"active","ping":74},{"user_id":692,"name":"allahsdroptop (Bag/Chaser)","steam_id":76561198133195238,"connected_time":7863000000000,"state":"active","ping":98},{"user_id":735,"name":"9/11 Airlines","steam_id":76561198096306325,"connected_time":4601000000000,"state":"active","ping":79},{"user_id":763,"name":"barker bill","steam_id":76561198018451994,"connected_time":1303000000000,"state":"active","ping":62},{"user_id":768,"name":"ridge","steam_id":76561198381568825,"connected_time":1011000000000,"state":"active","ping":84},{"user_id":769,"name":"PickleHater13","steam_id":76561198259380127,"connected_time":580000000000,"state":"active","ping":86},{"user_id":764,"name":"Bogey","steam_id":76561198096227944,"connected_time":1303000000000,"state":"active","ping":51},{"user_id":755,"name":"Mcfighter2","steam_id":76561198168073956,"connected_time":2982000000000,"state":"active","ping":79},{"user_id":747,"name":"Máquina de Fuego","steam_id":76561198119445407,"connected_time":3604000000000,"state":"active","ping":66},{"user_id":761,"name":"plink","steam_id":76561198057829889,"connected_time":2047000000000,"state":"active","ping":55},{"user_id":698,"name":"sunni","steam_id":76561198044095460,"connected_time":7619000000000,"state":"active","ping":44},{"user_id":757,"name":"Kantamoe","steam_id":76561198046661611,"connected_time":2410000000000,"state":"active","ping":88},{"user_id":752,"name":"Richard","steam_id":76561198044115685,"connected_time":3063000000000,"state":"active","ping":89},{"user_id":739,"name":"Imrgrim","steam_id":76561198135866481,"connected_time":4018000000000,"state":"active","ping":74},{"user_id":770,"name":"Hide","steam_id":76561198446157703,"connected_time":353000000000,"state":"active","ping":71},{"user_id":750,"name":"ryann","steam_id":76561198042996639,"connected_time":3076000000000,"state":"active","ping":81},{"user_id":767,"name":"Jovyel","steam_id":76561198118777065,"connected_time":1193000000000,"state":"active","ping":55},{"user_id":754,"name":"Stonelicker","steam_id":76561198359147130,"connected_time":3058000000000,"state":"active","ping":104},{"user_id":771,"name":"herb","steam_id":76561198185980055,"connected_time":349000000000,"state":"active","ping":79}]},{"server_id":108,"name":"Uncletopia | Dallas | 2 | All Maps","name_short":"dal-2","host":"dal-1.us.uncletopia.com","port":27025,"enabled":true,"region":"us-central","cc":"us","latitude":32.779167,"longitude":-96.80889,"reserved":0,"last_update":"0001-01-01T00:00:00Z","name_a2s":"Uncletopia | Dallas | 2 | All Maps","protocol":17,"map":"koth_lakeside_final","folder":"tf","game":"Team Fortress","app_id":440,"player_count":24,"max_players":24,"Bots":0,"server_type":"Dedicated","server_os":"Linux","password":true,"vac":true,"version":"7961495","steam_id":85568392924469988,"keywords":["cp","nocrits","nodmgspread","uncletopia"],"game_id":440,"stv_port":27026,"stv_name":"Uncletopia | Dallas | 2 | All Maps | STV","players":[{"user_id":420,"name":"The Bease Cheese","steam_id":76561198797015235,"connected_time":208000000000,"state":"active","ping":76},{"user_id":405,"name":"most.epic.brony.2002","steam_id":76561198075510786,"connected_time":755000000000,"state":"active","ping":60},{"user_id":421,"name":"Rat Smacker","steam_id":76561198043629646,"connected_time":113000000000,"state":"active","ping":50},{"user_id":419,"name":"Siopao","steam_id":76561198254089497,"connected_time":240000000000,"state":"active","ping":89},{"user_id":410,"name":"baunter","steam_id":76561198024311871,"connected_time":498000000000,"state":"active","ping":70},{"user_id":411,"name":"Average_Crusader","steam_id":76561198089087243,"connected_time":476000000000,"state":"active","ping":75},{"user_id":412,"name":"I.Solace","steam_id":76561198087534392,"connected_time":473000000000,"state":"active","ping":60},{"user_id":378,"name":"Nick","steam_id":76561198329096986,"connected_time":2558000000000,"state":"active","ping":76},{"user_id":413,"name":"seasoul","steam_id":76561198883302327,"connected_time":449000000000,"state":"active","ping":89},{"user_id":414,"name":"Tbon't","steam_id":76561198853993391,"connected_time":411000000000,"state":"active","ping":83},{"user_id":415,"name":"Scrux","steam_id":76561198129763115,"connected_time":401000000000,"state":"active","ping":74},{"user_id":389,"name":"Open Mailbox","steam_id":76561198051933580,"connected_time":1907000000000,"state":"active","ping":104},{"user_id":386,"name":"DelfinX","steam_id":76561197992847579,"connected_time":1989000000000,"state":"active","ping":67},{"user_id":397,"name":"Certified Hood Classic","steam_id":76561199086159354,"connected_time":1161000000000,"state":"active","ping":49},{"user_id":396,"name":"Sevfront","steam_id":76561198249207818,"connected_time":1459000000000,"state":"active","ping":83},{"user_id":416,"name":"Alva","steam_id":76561199376484708,"connected_time":400000000000,"state":"active","ping":94},{"user_id":417,"name":"crumbles","steam_id":76561198168707036,"connected_time":386000000000,"state":"active","ping":91},{"user_id":352,"name":"Glaceon","steam_id":76561198177715869,"connected_time":3953000000000,"state":"active","ping":62},{"user_id":407,"name":"SPYCHECK ME","steam_id":76561198980994364,"connected_time":698000000000,"state":"active","ping":101},{"user_id":418,"name":"ArnoldPaulmerFan87","steam_id":76561199089263972,"connected_time":360000000000,"state":"active","ping":78},{"user_id":372,"name":"Jacob Hornberger 2016","steam_id":76561198204549723,"connected_time":2813000000000,"state":"active","ping":77},{"user_id":393,"name":"???","steam_id":76561198200155343,"connected_time":1524000000000,"state":"active","ping":47},{"user_id":406,"name":"55 Gallon Barrel of Duke's Mayo","steam_id":76561198092483430,"connected_time":744000000000,"state":"active","ping":89},{"user_id":391,"name":"he's back","steam_id":76561198203173533,"connected_time":1892000000000,"state":"active","ping":176}]},{"server_id":404,"name":"Uncletopia | Dallas | 3 | All Maps","name_short":"dal-3","host":"dal-1.us.uncletopia.com","port":27035,"enabled":true,"region":"us-central","cc":"us","latitude":32.779167,"longitude":-96.80889,"reserved":0,"last_update":"0001-01-01T00:00:00Z","name_a2s":"Uncletopia | Dallas | 3 | All Maps","protocol":17,"map":"pl_goldrush","folder":"tf","game":"Team Fortress","app_id":440,"player_count":20,"max_players":24,"Bots":0,"server_type":"Dedicated","server_os":"Linux","password":true,"vac":true,"version":"7961495","steam_id":85568392924515219,"keywords":["nocrits","nodmgspread","payload","uncletopia"],"game_id":440,"stv_port":27036,"stv_name":"Uncletopia | Dallas | 3 | All Maps | STV","players":[{"user_id":232,"name":"Virg","steam_id":76561198397721937,"connected_time":3673000000000,"state":"active","ping":79},{"user_id":251,"name":"Bunni","steam_id":76561198065169997,"connected_time":1917000000000,"state":"active","ping":91},{"user_id":269,"name":"ugly","steam_id":76561198206177593,"connected_time":637000000000,"state":"active","ping":75},{"user_id":264,"name":"IAmTheShark223","steam_id":76561198060103787,"connected_time":1157000000000,"state":"active","ping":69},{"user_id":231,"name":"mkl","steam_id":76561197986401685,"connected_time":4014000000000,"state":"active","ping":49},{"user_id":263,"name":"Jimbo","steam_id":76561198136560547,"connected_time":1187000000000,"state":"active","ping":41},{"user_id":272,"name":"poop","steam_id":76561198297795681,"connected_time":259000000000,"state":"active","ping":51},{"user_id":241,"name":"TechnoBear2099","steam_id":76561198238863596,"connected_time":2900000000000,"state":"active","ping":55},{"user_id":254,"name":"totally not a pile of beans","steam_id":76561198119851931,"connected_time":1842000000000,"state":"active","ping":87},{"user_id":270,"name":"Cinnifox","steam_id":76561198068773971,"connected_time":627000000000,"state":"active","ping":65},{"user_id":260,"name":"Ace","steam_id":76561198878661482,"connected_time":1687000000000,"state":"active","ping":40},{"user_id":213,"name":"EvilPi99let","steam_id":76561197987243470,"connected_time":4963000000000,"state":"active","ping":79},{"user_id":249,"name":"Burny Sanders","steam_id":76561197961879048,"connected_time":2273000000000,"state":"active","ping":44},{"user_id":262,"name":"party hat [FGCP]","steam_id":76561198044268609,"connected_time":1564000000000,"state":"active","ping":78},{"user_id":266,"name":"zeplinnn","steam_id":76561198301300987,"connected_time":1064000000000,"state":"active","ping":68},{"user_id":271,"name":"C Sharp Minor","steam_id":76561199185191710,"connected_time":574000000000,"state":"active","ping":152},{"user_id":225,"name":"MMAD","steam_id":76561198026446420,"connected_time":4644000000000,"state":"active","ping":57},{"user_id":258,"name":"the man","steam_id":76561198389268114,"connected_time":1776000000000,"state":"active","ping":121},{"user_id":267,"name":"Judgement Kazuma","steam_id":76561199103077112,"connected_time":971000000000,"state":"active","ping":36},{"user_id":227,"name":"Chumpy","steam_id":76561198010169419,"connected_time":4626000000000,"state":"active","ping":83}]},{"server_id":405,"name":"Uncletopia | Dallas | 4 | Community","name_short":"dal-4","host":"dal-1.us.uncletopia.com","port":27045,"enabled":true,"region":"us-central","cc":"us","latitude":32.779167,"longitude":-96.80889,"reserved":0,"last_update":"0001-01-01T00:00:00Z","name_a2s":"Uncletopia | Dallas | 4 | Community","protocol":17,"map":"workshop/koth_synthetic_rc6a.ugc1549817316","folder":"tf","game":"Team Fortress","app_id":440,"player_count":0,"max_players":24,"Bots":0,"server_type":"Dedicated","server_os":"Linux","password":true,"vac":true,"version":"7961495","steam_id":85568392924515220,"keywords":["cp","nocrits","nodmgspread","uncletopia"],"game_id":440,"stv_port":27046,"stv_name":"Uncletopia | Dallas | 4 | Community | STV","players":null},{"server_id":5,"name":"Uncletopia | Frankfurt | 1 | All Maps","name_short":"frk-1","host":"frk-1.de.uncletopia.com","port":27015,"enabled":true,"region":"eu","cc":"de","latitude":50.110924,"longitude":8.682127,"reserved":0,"last_update":"0001-01-01T00:00:00Z","name_a2s":"Uncletopia | Frankfurt | 1 | All Maps","protocol":17,"map":"cp_badlands","folder":"tf","game":"Team Fortress","app_id":440,"player_count":0,"max_players":24,"Bots":0,"server_type":"Dedicated","server_os":"Linux","password":true,"vac":true,"version":"7961495","steam_id":85568392924469989,"keywords":["cp","nocrits","nodmgspread","uncletopia"],"game_id":440,"stv_port":27016,"stv_name":"Uncletopia | Frankfurt | 1 | All Maps | STV","players":null},{"server_id":110,"name":"Uncletopia | Frankfurt | 2 | All Maps","name_short":"frk-2","host":"frk-1.de.uncletopia.com","port":27025,"enabled":true,"region":"eu","cc":"de","latitude":50.110924,"longitude":8.682127,"reserved":0,"last_update":"0001-01-01T00:00:00Z","name_a2s":"Uncletopia | Frankfurt | 2 | All Maps","protocol":17,"map":"plr_hightower","folder":"tf","game":"Team Fortress","app_id":440,"player_count":0,"max_players":24,"Bots":0,"server_type":"Dedicated","server_os":"Linux","password":true,"vac":true,"version":"7961495","steam_id":85568392924469990,"keywords":["nocrits","nodmgspread","payload","uncletopia"],"game_id":440,"stv_port":27026,"stv_name":"Uncletopia | Frankfurt | 2 | All Maps | STV","players":null},{"server_id":308,"name":"Uncletopia | Frankfurt | 3 | All Maps","name_short":"frk-3","host":"frk-1.de.uncletopia.com","port":27035,"enabled":true,"region":"eu","cc":"de","latitude":50.110924,"longitude":8.682127,"reserved":0,"last_update":"0001-01-01T00:00:00Z","name_a2s":"Uncletopia | Frankfurt | 3 | All Maps","protocol":17,"map":"cp_metalworks","folder":"tf","game":"Team Fortress","app_id":440,"player_count":0,"max_players":24,"Bots":0,"server_type":"Dedicated","server_os":"Linux","password":true,"vac":true,"version":"7961495","steam_id":85568392924504274,"keywords":["cp","nocrits","nodmgspread","uncletopia"],"game_id":440,"stv_port":27036,"stv_name":"Uncletopia | Frankfurt | 3 | All Maps | STV","players":null},{"server_id":309,"name":"Uncletopia | Frankfurt | 4 | All Maps","name_short":"frk-4","host":"frk-1.de.uncletopia.com","port":27045,"enabled":true,"region":"eu","cc":"de","latitude":50.110924,"longitude":8.682127,"reserved":0,"last_update":"0001-01-01T00:00:00Z","name_a2s":"Uncletopia | Frankfurt | 4 | All Maps","protocol":17,"map":"cp_gorge","folder":"tf","game":"Team Fortress","app_id":440,"player_count":0,"max_players":24,"Bots":0,"server_type":"Dedicated","server_os":"Linux","password":true,"vac":true,"version":"7961495","steam_id":85568392924504275,"keywords":["cp","nocrits","nodmgspread","uncletopia"],"game_id":440,"stv_port":27046,"stv_name":"Uncletopia | Frankfurt | 4 | All Maps | STV","players":null},{"server_id":310,"name":"Uncletopia | Frankfurt | 5 | All Maps","name_short":"frk-5","host":"frk-1.de.uncletopia.com","port":27055,"enabled":true,"region":"eu","cc":"de","latitude":50.110924,"longitude":8.682127,"reserved":0,"last_update":"0001-01-01T00:00:00Z","name_a2s":"Uncletopia | Frankfurt | 5 | All Maps","protocol":17,"map":"cp_mountainlab","folder":"tf","game":"Team Fortress","app_id":440,"player_count":0,"max_players":24,"Bots":0,"server_type":"Dedicated","server_os":"Linux","password":true,"vac":true,"version":"7961495","steam_id":85568392924504277,"keywords":["cp","nocrits","nodmgspread","uncletopia"],"game_id":440,"stv_port":27056,"stv_name":"Uncletopia | Frankfurt | 5 | All Maps | STV","players":null},{"server_id":311,"name":"Uncletopia | Frankfurt | 6 | All Maps","name_short":"frk-6","host":"frk-1.de.uncletopia.com","port":27065,"enabled":true,"region":"eu","cc":"de","latitude":50.110924,"longitude":8.682127,"reserved":0,"last_update":"0001-01-01T00:00:00Z","name_a2s":"Uncletopia | Frankfurt | 6 | All Maps","protocol":17,"map":"cp_coldfront","folder":"tf","game":"Team Fortress","app_id":440,"player_count":0,"max_players":24,"Bots":0,"server_type":"Dedicated","server_os":"Linux","password":true,"vac":true,"version":"7961495","steam_id":85568392924504278,"keywords":["cp","nocrits","nodmgspread","uncletopia"],"game_id":440,"stv_port":27066,"stv_name":"Uncletopia | Frankfurt | 6 | All Maps | STV","players":null},{"server_id":23,"name":"Uncletopia | Frankfurt | 7 | Stopwatch","name_short":"frk-7","host":"frk-1.de.uncletopia.com","port":27075,"enabled":true,"region":"eu","cc":"de","latitude":50.110924,"longitude":8.682127,"reserved":0,"last_update":"0001-01-01T00:00:00Z","name_a2s":"Uncletopia | Frankfurt | 7 | Stopwatch","protocol":17,"map":"cp_sunshine","folder":"tf","game":"Team Fortress","app_id":440,"player_count":0,"max_players":24,"Bots":0,"server_type":"Dedicated","server_os":"Linux","password":true,"vac":true,"version":"7961495","steam_id":85568392924742827,"keywords":["cp","nocrits","nodmgspread","uncletopia"],"game_id":440,"stv_port":27076,"stv_name":"Uncletopia | Frankfurt | 7 | Stopwatch | STV","players":null},{"server_id":24,"name":"Uncletopia | Frankfurt | 8 | Community","name_short":"frk-8","host":"frk-1.de.uncletopia.com","port":27085,"enabled":true,"region":"eu","cc":"de","latitude":50.110924,"longitude":8.682127,"reserved":0,"last_update":"0001-01-01T00:00:00Z","name_a2s":"Uncletopia | Frankfurt | 8 | Community","protocol":17,"map":"workshop/pl_boundary_final1.ugc456799153","folder":"tf","game":"Team Fortress","app_id":440,"player_count":0,"max_players":24,"Bots":0,"server_type":"Dedicated","server_os":"Linux","password":true,"vac":true,"version":"7961495","steam_id":85568392924742828,"keywords":["nocrits","nodmgspread","payload","uncletopia"],"game_id":440,"stv_port":27086,"stv_name":"Uncletopia | Frankfurt | 8 | Community | STV","players":null},{"server_id":202,"name":"Uncletopia | Hong Kong | 1 | All Maps","name_short":"hgk-1","host":"hgk-1.hk.uncletopia.com","port":27015,"enabled":true,"region":"asia","cc":"hk","latitude":22.302711,"longitude":114.177216,"reserved":0,"last_update":"0001-01-01T00:00:00Z","name_a2s":"Uncletopia | Hong Kong | 1 | All Maps","protocol":17,"map":"koth_highpass","folder":"tf","game":"Team Fortress","app_id":440,"player_count":0,"max_players":24,"Bots":0,"server_type":"Dedicated","server_os":"Linux","password":true,"vac":true,"version":"7961495","steam_id":85568392924494504,"keywords":["cp","nocrits","nodmgspread","uncletopia"],"game_id":440,"stv_port":27016,"stv_name":"Uncletopia | Hong Kong | 1 | All Maps | STV","players":null},{"server_id":1,"name":"Uncletopia | Los Angeles | 1 | All Maps","name_short":"lax-1","host":"lax-1.us.uncletopia.com","port":27015,"enabled":true,"region":"us-west","cc":"us","latitude":33.94279,"longitude":-118.41004,"reserved":0,"last_update":"0001-01-01T00:00:00Z","name_a2s":"Uncletopia | Los Angeles | 1 | All Maps","protocol":17,"map":"pl_frontier_final","folder":"tf","game":"Team Fortress","app_id":440,"player_count":24,"max_players":24,"Bots":0,"server_type":"Dedicated","server_os":"Linux","password":true,"vac":true,"version":"7961495","steam_id":85568392924469991,"keywords":["nocrits","nodmgspread","payload","uncletopia"],"game_id":440,"stv_port":27016,"stv_name":"Uncletopia | Los Angeles | 1 | All Maps | STV","players":[{"user_id":152,"name":"Velgrauder","steam_id":76561198848526938,"connected_time":2060000000000,"state":"active","ping":73},{"user_id":137,"name":"jackass","steam_id":76561198209380493,"connected_time":2511000000000,"state":"active","ping":109},{"user_id":169,"name":"-The_Under_Miner-","steam_id":76561199195735972,"connected_time":499000000000,"state":"active","ping":52},{"user_id":72,"name":"Mystic man of potatoe","steam_id":76561198027267207,"connected_time":6209000000000,"state":"active","ping":54},{"user_id":177,"name":"zzzz","steam_id":76561198310495200,"connected_time":92000000000,"state":"active","ping":107},{"user_id":130,"name":"❤ Ashleyyy ❤","steam_id":76561198056428303,"connected_time":2856000000000,"state":"active","ping":45},{"user_id":174,"name":"VladdyDaddy","steam_id":76561198836759222,"connected_time":447000000000,"state":"active","ping":88},{"user_id":175,"name":"BigGoose","steam_id":76561198833281392,"connected_time":265000000000,"state":"active","ping":60},{"user_id":131,"name":"moe","steam_id":76561198929586245,"connected_time":2850000000000,"state":"active","ping":40},{"user_id":171,"name":"ack.awesome676","steam_id":76561199109415958,"connected_time":489000000000,"state":"active","ping":39},{"user_id":172,"name":"Busisness","steam_id":76561198118002086,"connected_time":480000000000,"state":"active","ping":151},{"user_id":163,"name":"will (vqinet)","steam_id":76561199055929199,"connected_time":618000000000,"state":"active","ping":69},{"user_id":159,"name":"Chef Molbo","steam_id":76561198089045454,"connected_time":624000000000,"state":"active","ping":138},{"user_id":141,"name":"schlemiel","steam_id":76561198133933158,"connected_time":2458000000000,"state":"active","ping":45},{"user_id":173,"name":"for the king","steam_id":76561197973488858,"connected_time":478000000000,"state":"active","ping":100},{"user_id":149,"name":"Kiril","steam_id":76561198051433762,"connected_time":2093000000000,"state":"active","ping":105},{"user_id":176,"name":"Frosted Lighted Ornament","steam_id":76561197971250619,"connected_time":222000000000,"state":"active","ping":44},{"user_id":143,"name":"laughs bigman","steam_id":76561198067714032,"connected_time":2451000000000,"state":"active","ping":45},{"user_id":108,"name":"Chicken™","steam_id":76561198971046223,"connected_time":4103000000000,"state":"active","ping":88},{"user_id":134,"name":"lordstinkdemon666","steam_id":76561198073914311,"connected_time":2735000000000,"state":"active","ping":45},{"user_id":145,"name":"Fami","steam_id":76561198193580105,"connected_time":2438000000000,"state":"active","ping":45},{"user_id":133,"name":"John Frontier","steam_id":76561198008455368,"connected_time":2829000000000,"state":"active","ping":93},{"user_id":158,"name":"The Grungler","steam_id":76561198126561438,"connected_time":1151000000000,"state":"active","ping":48},{"user_id":164,"name":"fm","steam_id":76561198044703428,"connected_time":616000000000,"state":"active","ping":60}]},{"server_id":112,"name":"Uncletopia | Los Angeles | 2 | All Maps","name_short":"lax-2","host":"lax-1.us.uncletopia.com","port":27025,"enabled":true,"region":"us-west","cc":"us","latitude":33.94279,"longitude":-118.41004,"reserved":0,"last_update":"0001-01-01T00:00:00Z","name_a2s":"Uncletopia | Los Angeles | 2 | All Maps","protocol":17,"map":"pl_swiftwater_final1","folder":"tf","game":"Team Fortress","app_id":440,"player_count":24,"max_players":24,"Bots":0,"server_type":"Dedicated","server_os":"Linux","password":true,"vac":true,"version":"7961495","steam_id":85568392924469992,"keywords":["nocrits","nodmgspread","payload","uncletopia"],"game_id":440,"stv_port":27026,"stv_name":"Uncletopia | Los Angeles | 2 | All Maps | STV","players":[{"user_id":39,"name":"Weege Gaming","steam_id":76561199486252055,"connected_time":3612000000000,"state":"active","ping":154},{"user_id":85,"name":"big ol' buford","steam_id":76561198290675957,"connected_time":1416000000000,"state":"active","ping":73},{"user_id":89,"name":"dom","steam_id":76561198066114874,"connected_time":1119000000000,"state":"active","ping":83},{"user_id":111,"name":"weed lesbian","steam_id":76561198042263805,"connected_time":355000000000,"state":"active","ping":84},{"user_id":20,"name":"Imnotnuggets","steam_id":76561198886670414,"connected_time":4038000000000,"state":"active","ping":58},{"user_id":69,"name":"arrozdeoz","steam_id":76561199079981482,"connected_time":2371000000000,"state":"active","ping":169},{"user_id":113,"name":"rf","steam_id":76561198195359229,"connected_time":30000000000,"state":"active","ping":75},{"user_id":63,"name":"t.tv/tomey","steam_id":76561198208594273,"connected_time":3013000000000,"state":"active","ping":87},{"user_id":83,"name":"lukamine","steam_id":76561198166827208,"connected_time":1766000000000,"state":"active","ping":67},{"user_id":98,"name":"Ray","steam_id":76561198048011618,"connected_time":784000000000,"state":"active","ping":55},{"user_id":107,"name":"Universe Man","steam_id":76561197997710655,"connected_time":570000000000,"state":"active","ping":107},{"user_id":35,"name":"milkers","steam_id":76561199074843594,"connected_time":3694000000000,"state":"active","ping":74},{"user_id":90,"name":"Future Tusk","steam_id":76561198199635217,"connected_time":1051000000000,"state":"active","ping":49},{"user_id":92,"name":"skittle ducks jr.","steam_id":76561198309823950,"connected_time":996000000000,"state":"active","ping":66},{"user_id":34,"name":"G. Howard Dee","steam_id":76561198058382812,"connected_time":3719000000000,"state":"active","ping":50},{"user_id":112,"name":"bocchi the fool","steam_id":76561198259650356,"connected_time":135000000000,"state":"active","ping":60},{"user_id":101,"name":"Weegee","steam_id":76561198140095755,"connected_time":723000000000,"state":"active","ping":55},{"user_id":57,"name":"Bolbi","steam_id":76561198051811597,"connected_time":3366000000000,"state":"active","ping":56},{"user_id":84,"name":"heck","steam_id":76561198315694520,"connected_time":1445000000000,"state":"active","ping":49},{"user_id":97,"name":"kuru kuru","steam_id":76561198149443710,"connected_time":802000000000,"state":"active","ping":46},{"user_id":52,"name":"vanillain","steam_id":76561198058617608,"connected_time":3449000000000,"state":"active","ping":57},{"user_id":93,"name":"Imitation Caucasian","steam_id":76561198320536166,"connected_time":996000000000,"state":"active","ping":59},{"user_id":65,"name":"Chromatic Bliss","steam_id":76561198252604816,"connected_time":2993000000000,"state":"active","ping":120},{"user_id":104,"name":"Igrium","steam_id":76561198119549811,"connected_time":671000000000,"state":"active","ping":59}]},{"server_id":324,"name":"Uncletopia | Los Angeles | 3 | All Maps","name_short":"lax-3","host":"lax-1.us.uncletopia.com","port":27035,"enabled":true,"region":"us-west","cc":"us","latitude":33.94279,"longitude":-118.41004,"reserved":0,"last_update":"0001-01-01T00:00:00Z","name_a2s":"Uncletopia | Los Angeles | 3 | All Maps","protocol":17,"map":"pl_hoodoo_final","folder":"tf","game":"Team Fortress","app_id":440,"player_count":0,"max_players":24,"Bots":0,"server_type":"Dedicated","server_os":"Linux","password":true,"vac":true,"version":"7961495","steam_id":85568392924510198,"keywords":["nocrits","nodmgspread","payload","uncletopia"],"game_id":440,"stv_port":27036,"stv_name":"Uncletopia | Los Angeles | 3 | All Maps | STV","players":null},{"server_id":25,"name":"Uncletopia | Los Angeles | 4 | Stopwatch","name_short":"lax-4","host":"lax-1.us.uncletopia.com","port":27045,"enabled":true,"region":"us-west","cc":"us","latitude":33.94279,"longitude":-118.41004,"reserved":0,"last_update":"0001-01-01T00:00:00Z","name_a2s":"Uncletopia | Los Angeles | 4 | Stopwatch","protocol":17,"map":"workshop/koth_clearcut_b15.ugc2107050255","folder":"tf","game":"Team Fortress","app_id":440,"player_count":0,"max_players":24,"Bots":0,"server_type":"Dedicated","server_os":"Linux","password":true,"vac":true,"version":"7961495","steam_id":85568392924510199,"keywords":["cp","nocrits","nodmgspread","uncletopia"],"game_id":440,"stv_port":27046,"stv_name":"Uncletopia | Los Angeles | 4 | Stopwatch | STV","players":null},{"server_id":11,"name":"Uncletopia | London | 1 | All Maps","name_short":"lon-1","host":"lon-1.uk.uncletopia.com","port":27015,"enabled":true,"region":"eu","cc":"gb","latitude":51.509865,"longitude":-0.118092,"reserved":0,"last_update":"0001-01-01T00:00:00Z","name_a2s":"Uncletopia | London | 1 | All Maps","protocol":17,"map":"koth_viaduct","folder":"tf","game":"Team Fortress","app_id":440,"player_count":0,"max_players":24,"Bots":0,"server_type":"Dedicated","server_os":"Linux","password":true,"vac":true,"version":"7961495","steam_id":85568392924367362,"keywords":["cp","nocrits","nodmgspread","uncletopia"],"game_id":440,"stv_port":27016,"stv_name":"Uncletopia | London | 1 | All Maps | STV","players":null},{"server_id":114,"name":"Uncletopia | London | 2 | All Maps","name_short":"lon-2","host":"lon-1.uk.uncletopia.com","port":27025,"enabled":true,"region":"eu","cc":"gb","latitude":51.509865,"longitude":-0.118092,"reserved":0,"last_update":"0001-01-01T00:00:00Z","name_a2s":"Uncletopia | London | 2 | All Maps","protocol":17,"map":"cp_mountainlab","folder":"tf","game":"Team Fortress","app_id":440,"player_count":0,"max_players":24,"Bots":0,"server_type":"Dedicated","server_os":"Linux","password":true,"vac":true,"version":"7961495","steam_id":85568392924470941,"keywords":["cp","nocrits","nodmgspread","uncletopia"],"game_id":440,"stv_port":27026,"stv_name":"Uncletopia | London | 2 | All Maps | STV","players":null},{"server_id":320,"name":"Uncletopia | London | 3 | All Maps","name_short":"lon-3","host":"lon-1.uk.uncletopia.com","port":27035,"enabled":true,"region":"eu","cc":"gb","latitude":51.509865,"longitude":-0.118092,"reserved":0,"last_update":"0001-01-01T00:00:00Z","name_a2s":"Uncletopia | London | 3 | All Maps","protocol":17,"map":"koth_lakeside_final","folder":"tf","game":"Team Fortress","app_id":440,"player_count":0,"max_players":24,"Bots":0,"server_type":"Dedicated","server_os":"Linux","password":true,"vac":true,"version":"7961495","steam_id":85568392924510192,"keywords":["cp","nocrits","nodmgspread","uncletopia"],"game_id":440,"stv_port":27036,"stv_name":"Uncletopia | London | 3 | All Maps | STV","players":null},{"server_id":321,"name":"Uncletopia | London | 4 | All Maps","name_short":"lon-4","host":"lon-1.uk.uncletopia.com","port":27045,"enabled":true,"region":"eu","cc":"gb","latitude":51.509865,"longitude":-0.118092,"reserved":0,"last_update":"0001-01-01T00:00:00Z","name_a2s":"Uncletopia | London | 4 | All Maps","protocol":17,"map":"koth_viaduct","folder":"tf","game":"Team Fortress","app_id":440,"player_count":0,"max_players":24,"Bots":0,"server_type":"Dedicated","server_os":"Linux","password":true,"vac":true,"version":"7961495","steam_id":85568392924510193,"keywords":["cp","nocrits","nodmgspread","uncletopia"],"game_id":440,"stv_port":27046,"stv_name":"Uncletopia | London | 4 | All Maps | STV","players":null},{"server_id":21,"name":"Uncletopia | London | 5 | All Maps","name_short":"lon-5","host":"lon-1.uk.uncletopia.com","port":27055,"enabled":true,"region":"eu","cc":"gb","latitude":51.509865,"longitude":-0.118092,"reserved":0,"last_update":"0001-01-01T00:00:00Z","name_a2s":"Uncletopia | London | 5 | All Maps","protocol":17,"map":"koth_lakeside_final","folder":"tf","game":"Team Fortress","app_id":440,"player_count":0,"max_players":24,"Bots":0,"server_type":"Dedicated","server_os":"Linux","password":true,"vac":true,"version":"7961495","steam_id":85568392924742829,"keywords":["cp","nocrits","nodmgspread","uncletopia"],"game_id":440,"stv_port":27056,"stv_name":"Uncletopia | London | 5 | All Maps | STV","players":null},{"server_id":22,"name":"Uncletopia | London | 6 | All Maps","name_short":"lon-6","host":"lon-1.uk.uncletopia.com","port":27065,"enabled":true,"region":"eu","cc":"gb","latitude":51.509865,"longitude":-0.118092,"reserved":0,"last_update":"0001-01-01T00:00:00Z","name_a2s":"Uncletopia | London | 6 | All Maps","protocol":17,"map":"pl_barnblitz","folder":"tf","game":"Team Fortress","app_id":440,"player_count":3,"max_players":24,"Bots":0,"server_type":"Dedicated","server_os":"Linux","password":true,"vac":true,"version":"7961495","steam_id":85568392924742830,"keywords":["nocrits","nodmgspread","payload","uncletopia"],"game_id":440,"stv_port":27066,"stv_name":"Uncletopia | London | 6 | All Maps | STV","players":[{"user_id":185,"name":"Fjellape","steam_id":76561198094819884,"connected_time":1138000000000,"state":"active","ping":75},{"user_id":186,"name":"Arkainiel Silver","steam_id":76561198188302519,"connected_time":900000000000,"state":"active","ping":56},{"user_id":187,"name":"Nyhde","steam_id":76561198012771416,"connected_time":754000000000,"state":"active","ping":99}]},{"server_id":40,"name":"Uncletopia | London | 7 | Stopwatch","name_short":"lon-7","host":"lon-1.uk.uncletopia.com","port":27075,"enabled":true,"region":"eu","cc":"gb","latitude":51.509865,"longitude":-0.118092,"reserved":0,"last_update":"0001-01-01T00:00:00Z","name_a2s":"Uncletopia | London | 7 | Stopwatch","protocol":17,"map":"workshop/koth_jamram_rc1a.ugc2964065613","folder":"tf","game":"Team Fortress","app_id":440,"player_count":0,"max_players":24,"Bots":0,"server_type":"Dedicated","server_os":"Linux","password":true,"vac":true,"version":"7961495","steam_id":85568392924964314,"keywords":["cp","nocrits","nodmgspread","uncletopia"],"game_id":440,"stv_port":27076,"stv_name":"Uncletopia | London | 7 | Stopwatch | STV","players":null},{"server_id":41,"name":"Uncletopia | London | 8 | Community","name_short":"lon-8","host":"lon-1.uk.uncletopia.com","port":27085,"enabled":true,"region":"eu","cc":"gb","latitude":51.509865,"longitude":-0.118092,"reserved":0,"last_update":"0001-01-01T00:00:00Z","name_a2s":"Uncletopia | London | 8 | Community","protocol":17,"map":"workshop/rd_asteroid_redux_b1.ugc2154902912","folder":"tf","game":"Team Fortress","app_id":440,"player_count":0,"max_players":24,"Bots":0,"server_type":"Dedicated","server_os":"Linux","password":true,"vac":true,"version":"7961495","steam_id":85568392924964315,"keywords":["beta","nocrits","nodmgspread","rd","uncletopia"],"game_id":440,"stv_port":27086,"stv_name":"Uncletopia | London | 8 | Community | STV","players":null},{"server_id":300,"name":"Uncletopia | Montréal | 1 | One Thousand Uncles","name_short":"mtl-1","host":"mtl-1.ca.uncletopia.com","port":27015,"enabled":true,"region":"us-east","cc":"ca","latitude":45.50889,"longitude":-73.56167,"reserved":0,"last_update":"0001-01-01T00:00:00Z","name_a2s":"Uncletopia | Montréal | 1 | One Thousand Uncles","protocol":17,"map":"pl_goldrush","folder":"tf","game":"Team Fortress","app_id":440,"player_count":0,"max_players":32,"Bots":0,"server_type":"Dedicated","server_os":"Linux","password":true,"vac":true,"version":"7961495","steam_id":85568392924500087,"keywords":["alltalk","danepve","increased_maxplayers","norespawntime","payload","uncletopia"],"game_id":440,"stv_port":0,"stv_name":"","players":null},{"server_id":301,"name":"Uncletopia | Montréal | 2 | One Thousand Uncles","name_short":"mtl-2","host":"mtl-1.ca.uncletopia.com","port":27025,"enabled":true,"region":"us-east","cc":"ca","latitude":45.50889,"longitude":-73.56167,"reserved":0,"last_update":"0001-01-01T00:00:00Z","name_a2s":"Uncletopia | Montréal | 2 | One Thousand Uncles","protocol":17,"map":"pl_badwater","folder":"tf","game":"Team Fortress","app_id":440,"player_count":29,"max_players":32,"Bots":16,"server_type":"Dedicated","server_os":"Linux","password":true,"vac":true,"version":"7961495","steam_id":85568392924500088,"keywords":["alltalk","bots","danepve","increased_maxplayers","norespawntime","payload","uncletopia"],"game_id":440,"stv_port":0,"stv_name":"","players":[{"user_id":326,"name":"Yep","steam_id":76561198041437251,"connected_time":2714000000000,"state":"active","ping":64},{"user_id":369,"name":"THIRDPIERCE","steam_id":76561198405366314,"connected_time":52000000000,"state":"active","ping":99},{"user_id":347,"name":"RacoonGamer","steam_id":76561198100907657,"connected_time":1635000000000,"state":"active","ping":47},{"user_id":297,"name":"Lots0","steam_id":76561198043143145,"connected_time":4627000000000,"state":"active","ping":88},{"user_id":346,"name":"momazos diegos","steam_id":76561199220257695,"connected_time":1840000000000,"state":"active","ping":146},{"user_id":364,"name":"Pie Eater 9000","steam_id":76561198003791564,"connected_time":1084000000000,"state":"active","ping":71},{"user_id":329,"name":"The Mug Man","steam_id":76561198283468122,"connected_time":2518000000000,"state":"active","ping":54},{"user_id":245,"name":"TheBrocklobster","steam_id":76561198039682984,"connected_time":9038000000000,"state":"active","ping":121},{"user_id":365,"name":"Demongamer","steam_id":76561199241915866,"connected_time":1065000000000,"state":"active","ping":60},{"user_id":309,"name":"Robert Nutbar","steam_id":76561198062334757,"connected_time":3418000000000,"state":"active","ping":68},{"user_id":366,"name":"rhsiegetank","steam_id":76561198359829118,"connected_time":895000000000,"state":"active","ping":113},{"user_id":370,"name":"Momo45867","steam_id":76561198190042470,"connected_time":48000000000,"state":"active","ping":46},{"user_id":288,"name":"MagikarpEX","steam_id":76561198166172279,"connected_time":5869000000000,"state":"active","ping":55}]},{"server_id":302,"name":"Uncletopia | Montréal | 3 | One Thousand Uncles","name_short":"mtl-3","host":"mtl-1.ca.uncletopia.com","port":27035,"enabled":true,"region":"us-east","cc":"ca","latitude":45.50889,"longitude":-73.56167,"reserved":0,"last_update":"0001-01-01T00:00:00Z","name_a2s":"Uncletopia | Montréal | 3 | One Thousand Uncles","protocol":17,"map":"pl_upward","folder":"tf","game":"Team Fortress","app_id":440,"player_count":0,"max_players":32,"Bots":0,"server_type":"Dedicated","server_os":"Linux","password":true,"vac":true,"version":"7961495","steam_id":85568392924500089,"keywords":["alltalk","danepve","increased_maxplayers","norespawntime","payload","uncletopia"],"game_id":440,"stv_port":0,"stv_name":"","players":null},{"server_id":13,"name":"Uncletopia | New York City | 1 | All Maps","name_short":"nyc-1","host":"nyc-1.us.uncletopia.com","port":27015,"enabled":true,"region":"us-east","cc":"us","latitude":40.73061,"longitude":-73.93524,"reserved":0,"last_update":"0001-01-01T00:00:00Z","name_a2s":"Uncletopia | New York City | 1 | All Maps","protocol":17,"map":"pl_borneo","folder":"tf","game":"Team Fortress","app_id":440,"player_count":24,"max_players":24,"Bots":0,"server_type":"Dedicated","server_os":"Linux","password":true,"vac":true,"version":"7961495","steam_id":85568392924469993,"keywords":["nocrits","nodmgspread","payload","uncletopia"],"game_id":440,"stv_port":27016,"stv_name":"Uncletopia | New York City | 1 | All Maps | STV","players":[{"user_id":87,"name":"Dynamic","steam_id":76561198204547960,"connected_time":16509000000000,"state":"active","ping":74},{"user_id":254,"name":"GARFIELD FAN 2009","steam_id":76561198801838706,"connected_time":2875000000000,"state":"active","ping":102},{"user_id":252,"name":"Uwu Micster","steam_id":76561198843890616,"connected_time":2894000000000,"state":"active","ping":64},{"user_id":279,"name":"Afroman(original)","steam_id":76561197995258648,"connected_time":219000000000,"state":"active","ping":80},{"user_id":253,"name":"Bobirulez","steam_id":76561198009125458,"connected_time":2889000000000,"state":"active","ping":135},{"user_id":272,"name":"glam","steam_id":76561198059570070,"connected_time":719000000000,"state":"active","ping":63},{"user_id":273,"name":"Passionate Map Researcher","steam_id":76561199490508357,"connected_time":693000000000,"state":"active","ping":73},{"user_id":261,"name":"Mufalito","steam_id":76561198951889482,"connected_time":1822000000000,"state":"active","ping":173},{"user_id":256,"name":"zpalmtree","steam_id":76561198134307620,"connected_time":2803000000000,"state":"active","ping":65},{"user_id":208,"name":"The strongest ⑨ ball","steam_id":76561198126760743,"connected_time":6812000000000,"state":"active","ping":92},{"user_id":274,"name":"deadpixel","steam_id":76561198150249843,"connected_time":680000000000,"state":"active","ping":74},{"user_id":267,"name":"Emotional Cowboy","steam_id":76561198041439581,"connected_time":901000000000,"state":"active","ping":58},{"user_id":276,"name":"Code_Null","steam_id":76561199403449035,"connected_time":426000000000,"state":"active","ping":48},{"user_id":271,"name":"scrotal recall","steam_id":76561198135945598,"connected_time":729000000000,"state":"active","ping":76},{"user_id":278,"name":"Grimprr","steam_id":76561198275816797,"connected_time":266000000000,"state":"active","ping":49},{"user_id":83,"name":"ndvr (femboy (REAL))","steam_id":76561199379200102,"connected_time":17241000000000,"state":"active","ping":44},{"user_id":280,"name":"THEY DONT KNOWWWWWW","steam_id":76561198062991744,"connected_time":187000000000,"state":"active","ping":54},{"user_id":227,"name":"Mr. Pink","steam_id":76561198065858172,"connected_time":6213000000000,"state":"active","ping":56},{"user_id":257,"name":"Donnie Blasto","steam_id":76561198043432005,"connected_time":2700000000000,"state":"active","ping":75},{"user_id":265,"name":"Kinda_Clownish","steam_id":76561198309111836,"connected_time":1584000000000,"state":"active","ping":93},{"user_id":203,"name":"Coffee Instant Type 2","steam_id":76561198307845869,"connected_time":8142000000000,"state":"active","ping":49},{"user_id":216,"name":"Yuzu","steam_id":76561198417913035,"connected_time":6771000000000,"state":"active","ping":59},{"user_id":191,"name":"Judge Judy and executioner","steam_id":76561198015235881,"connected_time":9075000000000,"state":"active","ping":44},{"user_id":233,"name":"space man","steam_id":76561198066333670,"connected_time":5047000000000,"state":"active","ping":60}]},{"server_id":14,"name":"Uncletopia | New York City | 2 | All Maps","name_short":"nyc-2","host":"nyc-1.us.uncletopia.com","port":27025,"enabled":true,"region":"us-east","cc":"us","latitude":40.73061,"longitude":-73.93524,"reserved":0,"last_update":"0001-01-01T00:00:00Z","name_a2s":"Uncletopia | New York City | 2 | All Maps","protocol":17,"map":"pl_frontier_final","folder":"tf","game":"Team Fortress","app_id":440,"player_count":22,"max_players":24,"Bots":0,"server_type":"Dedicated","server_os":"Linux","password":true,"vac":true,"version":"7961495","steam_id":85568392924469994,"keywords":["nocrits","nodmgspread","payload","uncletopia"],"game_id":440,"stv_port":27026,"stv_name":"Uncletopia | New York City | 2 | All Maps | STV","players":[{"user_id":267,"name":"Joan The Kisaragi Cat","steam_id":76561199370650064,"connected_time":2770000000000,"state":"active","ping":95},{"user_id":278,"name":"Dieu-Sama","steam_id":76561198002075862,"connected_time":2236000000000,"state":"active","ping":60},{"user_id":292,"name":"space creep","steam_id":76561198025668545,"connected_time":159000000000,"state":"active","ping":43},{"user_id":204,"name":"PurPle","steam_id":76561198050393396,"connected_time":6795000000000,"state":"active","ping":54},{"user_id":224,"name":"Telomerase","steam_id":76561198095792685,"connected_time":6015000000000,"state":"active","ping":53},{"user_id":293,"name":"Blade Racer","steam_id":76561198155896703,"connected_time":156000000000,"state":"active","ping":50},{"user_id":269,"name":"MAXIMUS","steam_id":76561198085809453,"connected_time":2655000000000,"state":"active","ping":71},{"user_id":289,"name":"nug","steam_id":76561198055396568,"connected_time":849000000000,"state":"active","ping":119},{"user_id":277,"name":"Madame Meow Meow","steam_id":76561198111399111,"connected_time":2314000000000,"state":"active","ping":47},{"user_id":276,"name":"RollingCow","steam_id":76561198067114237,"connected_time":2325000000000,"state":"active","ping":70},{"user_id":294,"name":"Lemon \u003c3","steam_id":76561198824345028,"connected_time":147000000000,"state":"active","ping":45},{"user_id":283,"name":"guyinatophat51","steam_id":76561198180230694,"connected_time":1548000000000,"state":"active","ping":71},{"user_id":270,"name":"Neato!","steam_id":76561198043548668,"connected_time":2644000000000,"state":"active","ping":87},{"user_id":296,"name":"Government Plates","steam_id":76561198140866252,"connected_time":82000000000,"state":"active","ping":54},{"user_id":208,"name":"Fish Fisherman","steam_id":76561198018656022,"connected_time":6635000000000,"state":"active","ping":47},{"user_id":280,"name":"OKLOLOM3","steam_id":76561199151881507,"connected_time":2192000000000,"state":"active","ping":31},{"user_id":297,"name":"Duncan Idaho","steam_id":76561197988963861,"connected_time":41000000000,"state":"active","ping":58},{"user_id":288,"name":"CheekSlammer","steam_id":76561199020104238,"connected_time":901000000000,"state":"active","ping":73},{"user_id":285,"name":"boboguguz","steam_id":76561198334924459,"connected_time":1543000000000,"state":"active","ping":119},{"user_id":248,"name":"eMcP","steam_id":76561198382509396,"connected_time":3510000000000,"state":"active","ping":134},{"user_id":262,"name":"Pixeled","steam_id":76561198088917077,"connected_time":3304000000000,"state":"active","ping":65},{"user_id":298,"name":"King Wizard","steam_id":76561198063038601,"connected_time":36000000000,"state":"active","ping":54}]},{"server_id":15,"name":"Uncletopia | New York City | 3 | Stopwatch","name_short":"nyc-3","host":"nyc-1.us.uncletopia.com","port":27035,"enabled":true,"region":"us-east","cc":"us","latitude":40.73061,"longitude":-73.93524,"reserved":0,"last_update":"0001-01-01T00:00:00Z","name_a2s":"Uncletopia | New York City | 3 | Stopwatch","protocol":17,"map":"workshop/koth_clearcut_b15.ugc2107050255","folder":"tf","game":"Team Fortress","app_id":440,"player_count":0,"max_players":24,"Bots":0,"server_type":"Dedicated","server_os":"Linux","password":true,"vac":true,"version":"7961495","steam_id":85568392924742820,"keywords":["cp","nocrits","nodmgspread","uncletopia"],"game_id":440,"stv_port":27036,"stv_name":"Uncletopia | New York City | 3 | Stopwatch | STV","players":null},{"server_id":16,"name":"Uncletopia | New York City | 4 | Community","name_short":"nyc-4","host":"nyc-1.us.uncletopia.com","port":27045,"enabled":true,"region":"us-east","cc":"us","latitude":40.73061,"longitude":-73.93524,"reserved":0,"last_update":"0001-01-01T00:00:00Z","name_a2s":"Uncletopia | New York City | 4 | Community","protocol":17,"map":"workshop/cp_indulge.ugc528106646","folder":"tf","game":"Team Fortress","app_id":440,"player_count":0,"max_players":24,"Bots":0,"server_type":"Dedicated","server_os":"Linux","password":true,"vac":true,"version":"7961495","steam_id":85568392924742821,"keywords":["cp","nocrits","nodmgspread","uncletopia"],"game_id":440,"stv_port":27046,"stv_name":"Uncletopia | New York City | 4 | Community | STV","players":null},{"server_id":142,"name":"Uncletopia | São Paulo | 1 | All Maps","name_short":"sao-1","host":"sao-1.br.uncletopia.com","port":27015,"enabled":true,"region":"sa","cc":"br","latitude":-23.533773,"longitude":-46.62529,"reserved":0,"last_update":"0001-01-01T00:00:00Z","name_a2s":"Uncletopia | São Paulo | 1 | All Maps","protocol":17,"map":"koth_highpass","folder":"tf","game":"Team Fortress","app_id":440,"player_count":0,"max_players":24,"Bots":0,"server_type":"Dedicated","server_os":"Linux","password":true,"vac":true,"version":"7961495","steam_id":85568392924469996,"keywords":["cp","nocrits","nodmgspread","uncletopia"],"game_id":440,"stv_port":27016,"stv_name":"Uncletopia | São Paulo | 1 | All Maps | STV","players":null},{"server_id":143,"name":"Uncletopia | São Paulo | 2 | Community","name_short":"sao-2","host":"sao-2.br.uncletopia.com","port":27015,"enabled":true,"region":"sa","cc":"br","latitude":-23.533773,"longitude":-46.62529,"reserved":0,"last_update":"0001-01-01T00:00:00Z","name_a2s":"Uncletopia | São Paulo | 2 | Community","protocol":17,"map":"workshop/cp_croissant_final.ugc458840209","folder":"tf","game":"Team Fortress","app_id":440,"player_count":0,"max_players":24,"Bots":0,"server_type":"Dedicated","server_os":"Linux","password":true,"vac":true,"version":"7961495","steam_id":85568392924485349,"keywords":["cp","nocrits","nodmgspread","uncletopia"],"game_id":440,"stv_port":27016,"stv_name":"Uncletopia | São Paulo | 2 | Community | STV","players":null},{"server_id":7,"name":"Uncletopia | Seattle | 1 | All Maps","name_short":"sea-1","host":"sea-1.us.uncletopia.com","port":27015,"enabled":true,"region":"us-west","cc":"us","latitude":47.608013,"longitude":-122.33517,"reserved":0,"last_update":"0001-01-01T00:00:00Z","name_a2s":"Uncletopia | Seattle | 1 | All Maps","protocol":17,"map":"cp_dustbowl","folder":"tf","game":"Team Fortress","app_id":440,"player_count":24,"max_players":24,"Bots":0,"server_type":"Dedicated","server_os":"Linux","password":true,"vac":true,"version":"7961495","steam_id":85568392924469997,"keywords":["cp","nocrits","nodmgspread","uncletopia"],"game_id":440,"stv_port":27016,"stv_name":"Uncletopia | Seattle | 1 | All Maps | STV","players":[{"user_id":467,"name":"GalaxyDoug32","steam_id":76561197997126305,"connected_time":7042000000000,"state":"active","ping":62},{"user_id":543,"name":"Aardappel","steam_id":76561198030894676,"connected_time":536000000000,"state":"active","ping":60},{"user_id":470,"name":"weebee","steam_id":76561198313610950,"connected_time":6671000000000,"state":"active","ping":53},{"user_id":528,"name":"Lane (She/Her)","steam_id":76561199048555878,"connected_time":1915000000000,"state":"active","ping":47},{"user_id":544,"name":"DUKE","steam_id":76561199058944087,"connected_time":520000000000,"state":"active","ping":54},{"user_id":508,"name":"Gregg Rulz ok","steam_id":76561199027131213,"connected_time":3845000000000,"state":"active","ping":46},{"user_id":518,"name":"Shrimps","steam_id":76561198983016709,"connected_time":3123000000000,"state":"active","ping":59},{"user_id":463,"name":"duddlee","steam_id":76561198030052564,"connected_time":8024000000000,"state":"active","ping":59},{"user_id":497,"name":"jayeskae","steam_id":76561198144220801,"connected_time":4775000000000,"state":"active","ping":50},{"user_id":516,"name":"tmm (theManMan)","steam_id":76561199488457138,"connected_time":3173000000000,"state":"active","ping":58},{"user_id":545,"name":"fried water","steam_id":76561198360311110,"connected_time":520000000000,"state":"active","ping":50},{"user_id":551,"name":"Scorpianswag","steam_id":76561198260651036,"connected_time":404000000000,"state":"active","ping":69},{"user_id":529,"name":"Skabbety","steam_id":76561198168044257,"connected_time":1877000000000,"state":"active","ping":40},{"user_id":546,"name":"Eraser cat","steam_id":76561199045570463,"connected_time":505000000000,"state":"active","ping":49},{"user_id":534,"name":"Mignyanne :3","steam_id":76561198048754056,"connected_time":1523000000000,"state":"active","ping":66},{"user_id":493,"name":"The Shaq Attack","steam_id":76561198075285534,"connected_time":5003000000000,"state":"active","ping":44},{"user_id":535,"name":"dust | it/she [no mic]","steam_id":76561198045218909,"connected_time":1512000000000,"state":"active","ping":43},{"user_id":527,"name":"Neutrax [Blasé]","steam_id":76561198058976717,"connected_time":2189000000000,"state":"active","ping":116},{"user_id":461,"name":"JacobOneHundredPercentWholeWhea","steam_id":76561198045992418,"connected_time":8081000000000,"state":"active","ping":61},{"user_id":553,"name":"NEBULA","steam_id":76561198086878595,"connected_time":310000000000,"state":"active","ping":74},{"user_id":552,"name":"Sasha The Foxgirl","steam_id":76561198018403555,"connected_time":352000000000,"state":"active","ping":45},{"user_id":537,"name":"thunderous prophet","steam_id":76561198131166135,"connected_time":1475000000000,"state":"active","ping":41},{"user_id":554,"name":"evil jesus 05","steam_id":76561198419315893,"connected_time":289000000000,"state":"active","ping":90},{"user_id":452,"name":"Choom","steam_id":76561197972654816,"connected_time":8291000000000,"state":"active","ping":47}]},{"server_id":119,"name":"Uncletopia | Seattle | 2 | All Maps","name_short":"sea-2","host":"sea-1.us.uncletopia.com","port":27025,"enabled":true,"region":"us-west","cc":"us","latitude":47.608013,"longitude":-122.33517,"reserved":0,"last_update":"0001-01-01T00:00:00Z","name_a2s":"Uncletopia | Seattle | 2 | All Maps","protocol":17,"map":"cp_gorge","folder":"tf","game":"Team Fortress","app_id":440,"player_count":23,"max_players":24,"Bots":0,"server_type":"Dedicated","server_os":"Linux","password":true,"vac":true,"version":"7961495","steam_id":85568392924469998,"keywords":["cp","nocrits","nodmgspread","uncletopia"],"game_id":440,"stv_port":27026,"stv_name":"Uncletopia | Seattle | 2 | All Maps | STV","players":[{"user_id":368,"name":"Zeelidox","steam_id":76561198110613375,"connected_time":4584000000000,"state":"active","ping":93},{"user_id":394,"name":"Epicman5543","steam_id":76561198391936721,"connected_time":2423000000000,"state":"active","ping":64},{"user_id":417,"name":"thesmilingman654","steam_id":76561199196497254,"connected_time":244000000000,"state":"active","ping":77},{"user_id":406,"name":"SQbuilder","steam_id":76561198076473375,"connected_time":1651000000000,"state":"active","ping":63},{"user_id":422,"name":"gatlinharrold","steam_id":76561199444424876,"connected_time":174000000000,"state":"active","ping":107},{"user_id":418,"name":"L-","steam_id":76561198046074220,"connected_time":223000000000,"state":"active","ping":75},{"user_id":412,"name":"Squigzy_","steam_id":76561198061696667,"connected_time":586000000000,"state":"active","ping":75},{"user_id":415,"name":"shingo_sux","steam_id":76561198998571073,"connected_time":406000000000,"state":"active","ping":64},{"user_id":363,"name":"The Devious DOOBIE Doer","steam_id":76561199263588898,"connected_time":4756000000000,"state":"active","ping":96},{"user_id":419,"name":"vacachimuela","steam_id":76561198297332421,"connected_time":195000000000,"state":"active","ping":57},{"user_id":380,"name":"Katie XXII","steam_id":76561198135534297,"connected_time":3207000000000,"state":"active","ping":51},{"user_id":400,"name":"mega","steam_id":76561198089520959,"connected_time":2286000000000,"state":"active","ping":119},{"user_id":423,"name":"Antzen","steam_id":76561198041343470,"connected_time":161000000000,"state":"active","ping":75},{"user_id":416,"name":"goofy goober","steam_id":76561199024079388,"connected_time":312000000000,"state":"active","ping":47},{"user_id":420,"name":"MrYadaization","steam_id":76561198050770818,"connected_time":193000000000,"state":"active","ping":55},{"user_id":424,"name":"strawberry","steam_id":76561198101926397,"connected_time":154000000000,"state":"active","ping":56},{"user_id":351,"name":"MiTiP","steam_id":76561198868699864,"connected_time":5443000000000,"state":"active","ping":116},{"user_id":388,"name":"killswitch","steam_id":76561198213385439,"connected_time":3083000000000,"state":"active","ping":71},{"user_id":425,"name":"R10queen","steam_id":76561198262363935,"connected_time":130000000000,"state":"active","ping":120},{"user_id":407,"name":"jdm","steam_id":76561199497603020,"connected_time":1529000000000,"state":"active","ping":76},{"user_id":366,"name":"DiscoTraveler","steam_id":76561199240168088,"connected_time":4693000000000,"state":"active","ping":128},{"user_id":292,"name":"The King of Piss World","steam_id":76561198082806956,"connected_time":10094000000000,"state":"active","ping":103},{"user_id":378,"name":"spes","steam_id":76561198081496581,"connected_time":3320000000000,"state":"active","ping":51}]},{"server_id":406,"name":"Uncletopia | Seattle | 3 | Stopwatch","name_short":"sea-3","host":"sea-1.us.uncletopia.com","port":27035,"enabled":true,"region":"us-west","cc":"us","latitude":47.608013,"longitude":-122.33517,"reserved":0,"last_update":"0001-01-01T00:00:00Z","name_a2s":"Uncletopia | Seattle | 3 | Stopwatch","protocol":17,"map":"workshop/koth_product_final.ugc454272353","folder":"tf","game":"Team Fortress","app_id":440,"player_count":3,"max_players":24,"Bots":0,"server_type":"Dedicated","server_os":"Linux","password":true,"vac":true,"version":"7961495","steam_id":85568392924515217,"keywords":["cp","nocrits","nodmgspread","uncletopia"],"game_id":440,"stv_port":27036,"stv_name":"Uncletopia | Seattle | 3 | Stopwatch | STV","players":[{"user_id":12,"name":"TylertheImperial","steam_id":76561199401195068,"connected_time":2187000000000,"state":"active","ping":76},{"user_id":13,"name":"Panderwaffle","steam_id":76561198924067794,"connected_time":2167000000000,"state":"active","ping":105},{"user_id":14,"name":"GoroMajimaIsHot","steam_id":76561198365713042,"connected_time":478000000000,"state":"active","ping":62}]},{"server_id":17,"name":"Uncletopia | San Francisco | 1 | All Maps","name_short":"sfo-1","host":"sfo-1.us.uncletopia.com","port":27015,"enabled":true,"region":"us-west","cc":"us","latitude":37.77397,"longitude":-122.4313,"reserved":0,"last_update":"0001-01-01T00:00:00Z","name_a2s":"Uncletopia | San Francisco | 1 | All Maps","protocol":17,"map":"koth_lakeside_final","folder":"tf","game":"Team Fortress","app_id":440,"player_count":0,"max_players":24,"Bots":0,"server_type":"Dedicated","server_os":"Linux","password":true,"vac":true,"version":"7961495","steam_id":85568392924469999,"keywords":["cp","nocrits","nodmgspread","uncletopia"],"game_id":440,"stv_port":27016,"stv_name":"Uncletopia | San Francisco | 1 | All Maps | STV","players":null},{"server_id":18,"name":"Uncletopia | San Francisco | 2 | All Maps","name_short":"sfo-2","host":"sfo-1.us.uncletopia.com","port":27025,"enabled":true,"region":"us-west","cc":"us","latitude":37.77397,"longitude":-122.4313,"reserved":0,"last_update":"0001-01-01T00:00:00Z","name_a2s":"Uncletopia | San Francisco | 2 | All Maps","protocol":17,"map":"pl_frontier_final","folder":"tf","game":"Team Fortress","app_id":440,"player_count":0,"max_players":24,"Bots":0,"server_type":"Dedicated","server_os":"Linux","password":true,"vac":true,"version":"7961495","steam_id":85568392924470000,"keywords":["nocrits","nodmgspread","payload","uncletopia"],"game_id":440,"stv_port":27026,"stv_name":"Uncletopia | San Francisco | 2 | All Maps | STV","players":null},{"server_id":19,"name":"Uncletopia | San Francisco | 3 | Stopwatch","name_short":"sfo-3","host":"sfo-1.us.uncletopia.com","port":27035,"enabled":true,"region":"us-west","cc":"us","latitude":37.77397,"longitude":-122.4313,"reserved":0,"last_update":"0001-01-01T00:00:00Z","name_a2s":"Uncletopia | San Francisco | 3 | Stopwatch","protocol":17,"map":"koth_highpass","folder":"tf","game":"Team Fortress","app_id":440,"player_count":0,"max_players":24,"Bots":0,"server_type":"Dedicated","server_os":"Linux","password":true,"vac":true,"version":"7961495","steam_id":85568392924742824,"keywords":["cp","nocrits","nodmgspread","uncletopia"],"game_id":440,"stv_port":27036,"stv_name":"Uncletopia | San Francisco | 3 | Stopwatch | STV","players":null},{"server_id":20,"name":"Uncletopia | San Francisco | 4 | Community","name_short":"sfo-4","host":"sfo-1.us.uncletopia.com","port":27045,"enabled":true,"region":"us-west","cc":"us","latitude":37.77397,"longitude":-122.4313,"reserved":0,"last_update":"0001-01-01T00:00:00Z","name_a2s":"Uncletopia | San Francisco | 4 | Community","protocol":17,"map":"workshop/koth_slaughter_rc1.ugc1712845210","folder":"tf","game":"Team Fortress","app_id":440,"player_count":0,"max_players":24,"Bots":0,"server_type":"Dedicated","server_os":"Linux","password":true,"vac":true,"version":"7961495","steam_id":85568392924742826,"keywords":["cp","nocrits","nodmgspread","uncletopia"],"game_id":440,"stv_port":27046,"stv_name":"Uncletopia | San Francisco | 4 | Community | STV","players":null},{"server_id":141,"name":"Uncletopia | Sydney | 1 | All Maps","name_short":"syd-1","host":"syd-1.au.uncletopia.com","port":27015,"enabled":true,"region":"au","cc":"au","latitude":-33.865143,"longitude":151.2099,"reserved":0,"last_update":"0001-01-01T00:00:00Z","name_a2s":"Uncletopia | Sydney | 1 | All Maps","protocol":17,"map":"koth_nucleus","folder":"tf","game":"Team Fortress","app_id":440,"player_count":0,"max_players":24,"Bots":0,"server_type":"Dedicated","server_os":"Linux","password":true,"vac":true,"version":"7961495","steam_id":85568392924470001,"keywords":["cp","nocrits","nodmgspread","uncletopia"],"game_id":440,"stv_port":27016,"stv_name":"Uncletopia | Sydney | 1 | All Maps | STV","players":null},{"server_id":123,"name":"Uncletopia | Sydney | 2 | All Maps","name_short":"syd-2","host":"syd-1.au.uncletopia.com","port":27025,"enabled":true,"region":"au","cc":"au","latitude":-33.865143,"longitude":151.2099,"reserved":0,"last_update":"0001-01-01T00:00:00Z","name_a2s":"Uncletopia | Sydney | 2 | All Maps","protocol":17,"map":"pl_frontier_final","folder":"tf","game":"Team Fortress","app_id":440,"player_count":0,"max_players":24,"Bots":0,"server_type":"Dedicated","server_os":"Linux","password":true,"vac":true,"version":"7961495","steam_id":85568392924470002,"keywords":["nocrits","nodmgspread","payload","uncletopia"],"game_id":440,"stv_port":27026,"stv_name":"Uncletopia | Sydney | 2 | All Maps | STV","players":null},{"server_id":395,"name":"Uncletopia | Sydney | 3 | All Maps","name_short":"syd-3","host":"syd-1.au.uncletopia.com","port":27035,"enabled":true,"region":"au","cc":"au","latitude":-33.865143,"longitude":151.2099,"reserved":0,"last_update":"0001-01-01T00:00:00Z","name_a2s":"Uncletopia | Sydney | 3 | All Maps","protocol":17,"map":"cp_metalworks","folder":"tf","game":"Team Fortress","app_id":440,"player_count":0,"max_players":24,"Bots":0,"server_type":"Dedicated","server_os":"Linux","password":true,"vac":true,"version":"7961495","steam_id":85568392925194467,"keywords":["cp","nocrits","nodmgspread","uncletopia"],"game_id":440,"stv_port":27036,"stv_name":"Uncletopia | Sydney | 3 | All Maps | STV","players":null},{"server_id":396,"name":"Uncletopia | Sydney | 4 | All Maps","name_short":"syd-4","host":"syd-1.au.uncletopia.com","port":27045,"enabled":true,"region":"au","cc":"au","latitude":-33.865143,"longitude":151.2099,"reserved":0,"last_update":"0001-01-01T00:00:00Z","name_a2s":"Uncletopia | Sydney | 4 | All Maps","protocol":17,"map":"koth_cascade","folder":"tf","game":"Team Fortress","app_id":440,"player_count":0,"max_players":24,"Bots":0,"server_type":"Dedicated","server_os":"Linux","password":true,"vac":true,"version":"7961495","steam_id":85568392925397958,"keywords":["cp","nocrits","nodmgspread","uncletopia"],"game_id":440,"stv_port":27046,"stv_name":"Uncletopia | Sydney | 4 | All Maps | STV","players":null},{"server_id":58,"name":"Uncletopia | Sydney | 5 | Stopwatch","name_short":"syd-5","host":"syd-1.au.uncletopia.com","port":27055,"enabled":true,"region":"au","cc":"au","latitude":-33.865143,"longitude":151.2099,"reserved":0,"last_update":"0001-01-01T00:00:00Z","name_a2s":"Uncletopia | Sydney | 5 | Stopwatch","protocol":17,"map":"workshop/koth_product_final.ugc454272353","folder":"tf","game":"Team Fortress","app_id":440,"player_count":0,"max_players":24,"Bots":0,"server_type":"Dedicated","server_os":"Linux","password":true,"vac":true,"version":"7961495","steam_id":85568392925397959,"keywords":["cp","nocrits","nodmgspread","uncletopia"],"game_id":440,"stv_port":27056,"stv_name":"Uncletopia | Sydney | 5 | Stopwatch | STV","players":null},{"server_id":59,"name":"Uncletopia | Sydney | 6 | Community","name_short":"syd-6","host":"syd-1.au.uncletopia.com","port":27065,"enabled":true,"region":"au","cc":"au","latitude":-33.865143,"longitude":151.2099,"reserved":0,"last_update":"0001-01-01T00:00:00Z","name_a2s":"Uncletopia | Sydney | 6 | Community","protocol":17,"map":"workshop/koth_trenchfoot_ab1.ugc731436616","folder":"tf","game":"Team Fortress","app_id":440,"player_count":0,"max_players":24,"Bots":0,"server_type":"Dedicated","server_os":"Linux","password":true,"vac":true,"version":"7961495","steam_id":85568392925397960,"keywords":["cp","nocrits","nodmgspread","uncletopia"],"game_id":440,"stv_port":27066,"stv_name":"Uncletopia | Sydney | 6 | Community | STV","players":null},{"server_id":49,"name":"Uncletopia | Warsaw | 1 | One Thousand Uncles","name_short":"waw-1","host":"waw-1.pl.uncletopia.com","port":27015,"enabled":true,"region":"eu","cc":"pl","latitude":52.2297,"longitude":21.017532,"reserved":0,"last_update":"0001-01-01T00:00:00Z","name_a2s":"Uncletopia | Warsaw | 1 | One Thousand Uncles","protocol":17,"map":"cp_dustbowl","folder":"tf","game":"Team Fortress","app_id":440,"player_count":0,"max_players":32,"Bots":0,"server_type":"Dedicated","server_os":"Linux","password":true,"vac":true,"version":"7961495","steam_id":85568392925397850,"keywords":["alltalk","cp","danepve","increased_maxplayers","norespawntime","uncletopia"],"game_id":440,"stv_port":0,"stv_name":"","players":null},{"server_id":50,"name":"Uncletopia | Warsaw | 2 | One Thousand Uncles","name_short":"waw-2","host":"waw-1.pl.uncletopia.com","port":27025,"enabled":true,"region":"eu","cc":"pl","latitude":52.2297,"longitude":21.017532,"reserved":0,"last_update":"0001-01-01T00:00:00Z","name_a2s":"Uncletopia | Warsaw | 2 | One Thousand Uncles","protocol":17,"map":"pl_chilly","folder":"tf","game":"Team Fortress","app_id":440,"player_count":0,"max_players":32,"Bots":0,"server_type":"Dedicated","server_os":"Linux","password":true,"vac":true,"version":"7961495","steam_id":85568392925397851,"keywords":["alltalk","danepve","increased_maxplayers","norespawntime","payload","uncletopia"],"game_id":440,"stv_port":0,"stv_name":"","players":null},{"server_id":51,"name":"Uncletopia | Warsaw | 3 | All Maps","name_short":"waw-3","host":"waw-1.pl.uncletopia.com","port":27035,"enabled":true,"region":"eu","cc":"pl","latitude":52.2297,"longitude":21.017532,"reserved":0,"last_update":"0001-01-01T00:00:00Z","name_a2s":"Uncletopia | Warsaw | 3 | All Maps","protocol":17,"map":"cp_process_final","folder":"tf","game":"Team Fortress","app_id":440,"player_count":0,"max_players":24,"Bots":0,"server_type":"Dedicated","server_os":"Linux","password":true,"vac":true,"version":"7961495","steam_id":85568392925397852,"keywords":["cp","nocrits","nodmgspread","uncletopia"],"game_id":440,"stv_port":27036,"stv_name":"Uncletopia | Warsaw | 3 | All Maps | STV","players":null},{"server_id":52,"name":"Uncletopia | Warsaw | 4 | All Maps","name_short":"waw-4","host":"waw-1.pl.uncletopia.com","port":27045,"enabled":true,"region":"eu","cc":"pl","latitude":52.2297,"longitude":21.017532,"reserved":0,"last_update":"0001-01-01T00:00:00Z","name_a2s":"Uncletopia | Warsaw | 4 | All Maps","protocol":17,"map":"koth_cascade","folder":"tf","game":"Team Fortress","app_id":440,"player_count":0,"max_players":24,"Bots":0,"server_type":"Dedicated","server_os":"Linux","password":true,"vac":true,"version":"7961495","steam_id":85568392925397853,"keywords":["cp","nocrits","nodmgspread","uncletopia"],"game_id":440,"stv_port":27046,"stv_name":"Uncletopia | Warsaw | 4 | All Maps | STV","players":null},{"server_id":53,"name":"Uncletopia | Warsaw | 5 | Stopwatch","name_short":"waw-5","host":"waw-1.pl.uncletopia.com","port":27055,"enabled":true,"region":"eu","cc":"pl","latitude":52.2297,"longitude":21.017532,"reserved":0,"last_update":"0001-01-01T00:00:00Z","name_a2s":"Uncletopia | Warsaw | 5 | Stopwatch","protocol":17,"map":"workshop/cp_reckoner_rc6.ugc674719999","folder":"tf","game":"Team Fortress","app_id":440,"player_count":0,"max_players":24,"Bots":0,"server_type":"Dedicated","server_os":"Linux","password":true,"vac":true,"version":"7961495","steam_id":85568392925397854,"keywords":["cp","nocrits","nodmgspread","uncletopia"],"game_id":440,"stv_port":27056,"stv_name":"Uncletopia | Warsaw | 5 | Stopwatch | STV","players":null},{"server_id":54,"name":"Uncletopia | Warsaw | 6 | Community","name_short":"waw-6","host":"waw-1.pl.uncletopia.com","port":27065,"enabled":true,"region":"eu","cc":"pl","latitude":52.2297,"longitude":21.017532,"reserved":0,"last_update":"0001-01-01T00:00:00Z","name_a2s":"Uncletopia | Warsaw | 6 | Community","protocol":17,"map":"workshop/pl_cactuscanyon_redux_final2.ugc2579644293","folder":"tf","game":"Team Fortress","app_id":440,"player_count":0,"max_players":24,"Bots":0,"server_type":"Dedicated","server_os":"Linux","password":true,"vac":true,"version":"7961495","steam_id":85568392925397856,"keywords":["nocrits","nodmgspread","payload","uncletopia"],"game_id":440,"stv_port":27066,"stv_name":"Uncletopia | Warsaw | 6 | Community | STV","players":null}]}