{"status":true,"message":"","result":[{"server_id":9,"name":"Uncletopia | Atlanta | 1 | All Maps","name_short":"atl-1","host":"atl-1.us.uncletopia.com","port":27015,"enabled":true,"region":"us-east","cc":"us","latitude":33.753746,"longitude":-84.38633,"reserved":0,"last_update":"0001-01-01T00:00:00Z","name_a2s":"Uncletopia | Atlanta | 1 | All Maps","protocol":17,"map":"pl_borneo","folder":"tf","game":"Team Fortress","app_id":440,"player_count":3,"max_players":24,"Bots":0,"server_type":"Dedicated","server_os":"Linux","password":true,"vac":true,"version":"7961495","steam_id":85568392924469982,"keywords":["nocrits","nodmgspread","payload","uncletopia"],"game_id":440,"stv_port":27016,"stv_name":"Uncletopia | Atlanta | 1 | All Maps | STV","players":[{"user_id":10,"name":"manburnot","steam_id":76561199078672605,"connected_time":729000000000,"state":"active","ping":45},{"user_id":11,"name":"BLOW UP NEW JERSEY","steam_id":76561198364439575,"connected_time":709000000000,"state":"active","ping":80},{"user_id":12,"name":"Ass Monke","steam_id":76561198453053910,"connected_time":520000000000,"state":"active","ping":77}]},{"server_id":104,"name":"Uncletopia | Atlanta | 2 | All Maps","name_short":"atl-2","host":"atl-1.us.uncletopia.com","port":27025,"enabled":true,"region":"us-east","cc":"us","latitude":33.753746,"longitude":-84.38633,"reserved":0,"last_update":"0001-01-01T00:00:00Z","name_a2s":"Uncletopia | Atlanta | 2 | All Maps","protocol":17,"map":"koth_cascade","folder":"tf","game":"Team Fortress","app_id":440,"player_count":0,"max_players":24,"Bots":0,"server_type":"Dedicated","server_os":"Linux","password":true,"vac":true,"version":"7961495","steam_id":85568392924469983,"keywords":["cp","nocrits","nodmgspread","uncletopia"],"game_id":440,"stv_port":27026,"stv_name":"Uncletopia | Atlanta | 2 | All Maps | STV","players":null},{"server_id":400,"name":"Uncletopia | Atlanta | 3 | Stopwatch","name_short":"atl-3","host":"atl-1.us.uncletopia.com","port":27035,"enabled":true,"region":"us-east","cc":"us","latitude":33.753746,"longitude":-84.38633,"reserved":0,"last_update":"0001-01-01T00:00:00Z","name_a2s":"Uncletopia | Atlanta | 3 | Stopwatch","protocol":17,"map":"workshop/cp_reckoner_rc6.ugc674719999","folder":"tf","game":"Team Fortress","app_id":440,"player_count":0,"max_players":24,"Bots":0,"server_type":"Dedicated","server_os":"Linux","password":true,"vac":true,"version":"7961495","steam_id":85568392924515187,"keywords":["cp","nocrits","nodmgspread","uncletopia"],"game_id":440,"stv_port":27036,"stv_name":"Uncletopia | Atlanta | 3 | Stopwatch | STV","players":null},{"server_id":401,"name":"Uncletopia | Atlanta | 4 | Community","name_short":"atl-4","host":"atl-1.us.uncletopia.com","port":27045,"enabled":true,"region":"us-east","cc":"us","latitude":33.753746,"longitude":-84.38633,"reserved":0,"last_update":"0001-01-01T00:00:00Z","name_a2s":"Uncletopia | Atlanta | 4 | Community","protocol":17,"map":"cp_sunshine","folder":"tf","game":"Team Fortress","app_id":440,"player_count":0,"max_players":24,"Bots":0,"server_type":"Dedicated","server_os":"Linux","password":true,"vac":true,"version":"7961495","steam_id":85568392924515188,"keywords":["cp","nocrits","nodmgspread","uncletopia"],"game_id":440,"stv_port":27046,"stv_name":"Uncletopia | Atlanta | 4 | Community | STV","players":null},{"server_id":2,"name":"Uncletopia | Chicago | 1 | All Maps","name_short":"chi-1","host":"chi-1.us.uncletopia.com","port":27015,"enabled":true,"region":"us-central","cc":"us","latitude":41.881832,"longitude":-87.62318,"reserved":0,"last_update":"0001-01-01T00:00:00Z","name_a2s":"Uncletopia | Chicago | 1 | All Maps","protocol":17,"map":"cp_dustbowl","folder":"tf","game":"Team Fortress","app_id":440,"player_count":24,"max_players":24,"Bots":0,"server_type":"Dedicated","server_os":"Linux","password":true,"vac":true,"version":"7961495","steam_id":85568392924469984,"keywords":["cp","nocrits","nodmgspread","uncletopia"],"game_id":440,"stv_port":27016,"stv_name":"Uncletopia | Chicago | 1 | All Maps | STV","players":[{"user_id":183,"name":"Fredrick","steam_id":76561197981419964,"connected_time":3275000000000,"state":"active","ping":66},{"user_id":140,"name":"MechaSixVII","steam_id":76561198014927379,"connected_time":7273000000000,"state":"active","ping":67},{"user_id":163,"name":"Heathcliff","steam_id":76561198044288534,"connected_time":5131000000000,"state":"active","ping":96},{"user_id":133,"name":"THORNFIELDGAMER","steam_id":76561199087167473,"connected_time":7579000000000,"state":"active","ping":85},{"user_id":201,"name":"Cheese4Everyone","steam_id":76561198022333985,"connected_time":1721000000000,"state":"active","ping":72},{"user_id":221,"name":"Milkmur","steam_id":76561198210043821,"connected_time":607000000000,"state":"active","ping":69},{"user_id":139,"name":"Lefty [Gentlemen of Leisure]","steam_id":76561197980825914,"connected_time":7356000000000,"state":"active","ping":90},{"user_id":220,"name":"Amari","steam_id":76561198272446730,"connected_time":648000000000,"state":"active","ping":57},{"user_id":179,"name":"Lucas","steam_id":76561198399704604,"connected_time":3850000000000,"state":"active","ping":109},{"user_id":198,"name":"Hobo Shanker","steam_id":76561198001785187,"connected_time":2304000000000,"state":"active","ping":93},{"user_id":153,"name":"GrapeFieldGamer","steam_id":76561199382834868,"connected_time":6350000000000,"state":"active","ping":70},{"user_id":210,"name":"Rivulet","steam_id":76561198897122890,"connected_time":1362000000000,"state":"active","ping":59},{"user_id":217,"name":"Sodsboy","steam_id":76561198030482006,"connected_time":1210000000000,"state":"active","ping":130},{"user_id":219,"name":"Banks","steam_id":76561198276505537,"connected_time":808000000000,"state":"active","ping":66},{"user_id":169,"name":"Bucket Hat Trick","steam_id":76561198381785132,"connected_time":4595000000000,"state":"active","ping":88},{"user_id":190,"name":"Chode Mode","steam_id":76561198353840477,"connected_time":2977000000000,"state":"active","ping":49},{"user_id":206,"name":"hi","steam_id":76561198809577048,"connected_time":1442000000000,"state":"active","ping":104},{"user_id":182,"name":"Coup de Grass","steam_id":76561198011643226,"connected_time":3520000000000,"state":"active","ping":75},{"user_id":172,"name":"epiczlolz","steam_id":76561198208369443,"connected_time":4541000000000,"state":"active","ping":59},{"user_id":213,"name":"[12V] Marv","steam_id":76561198158638384,"connected_time":1336000000000,"state":"active","ping":69},{"user_id":185,"name":"Siz","steam_id":76561198072962154,"connected_time":3261000000000,"state":"active","ping":64},{"user_id":216,"name":"Engideer","steam_id":76561198145733164,"connected_time":1266000000000,"state":"active","ping":74},{"user_id":131,"name":"DysfunctionJunction","steam_id":76561198051815183,"connected_time":7600000000000,"state":"active","ping":59}]},{"server_id":106,"name":"Uncletopia | Chicago | 2 | All Maps","name_short":"chi-2","host":"chi-1.us.uncletopia.com","port":27025,"enabled":true,"region":"us-central","cc":"us","latitude":41.881832,"longitude":-87.62318,"reserved":0,"last_update":"0001-01-01T00:00:00Z","name_a2s":"Uncletopia | Chicago | 2 | All Maps","protocol":17,"map":"cp_granary","folder":"tf","game":"Team Fortress","app_id":440,"player_count":23,"max_players":24,"Bots":0,"server_type":"Dedicated","server_os":"Linux","password":true,"vac":true,"version":"7961495","steam_id":85568392924469985,"keywords":["cp","nocrits","nodmgspread","uncletopia"],"game_id":440,"stv_port":27026,"stv_name":"Uncletopia | Chicago | 2 | All Maps | STV","players":[{"user_id":307,"name":"Oogie (OddMonster)","steam_id":76561198026802918,"connected_time":6205000000000,"state":"active","ping":91},{"user_id":374,"name":"Sir Loincloth","steam_id":76561198033073991,"connected_time":1824000000000,"state":"active","ping":67},{"user_id":293,"name":"custodian","steam_id":76561198058793778,"connected_time":7140000000000,"state":"active","ping":66},{"user_id":399,"name":"Freestyle Brapper #savehiphop","steam_id":76561198090074621,"connected_time":530000000000,"state":"active","ping":42},{"user_id":402,"name":"Wolfking450","steam_id":76561198399975373,"connected_time":435000000000,"state":"active","ping":73},{"user_id":338,"name":"TheMinusKai","steam_id":76561198296103811,"connected_time":4075000000000,"state":"active","ping":105},{"user_id":398,"name":"red orb","steam_id":76561199090224667,"connected_time":871000000000,"state":"active","ping":67},{"user_id":339,"name":"Anyar","steam_id":76561198160174097,"connected_time":4066000000000,"state":"active","ping":56},{"user_id":404,"name":"story","steam_id":76561199088496817,"connected_time":167000000000,"state":"active","ping":79},{"user_id":396,"name":"Jesse Bear","steam_id":76561198217075305,"connected_time":940000000000,"state":"active","ping":75},{"user_id":375,"name":"Oversharing Gaming","steam_id":76561198069735882,"connected_time":1760000000000,"state":"active","ping":79},{"user_id":397,"name":"shellaa","steam_id":76561198044124102,"connected_time":887000000000,"state":"active","ping":69},{"user_id":385,"name":"DerpyNate","steam_id":76561198100249037,"connected_time":1381000000000,"state":"active","ping":45},{"user_id":377,"name":"luxin","steam_id":76561198399383047,"connected_time":1723000000000,"state":"active","ping":69},{"user_id":378,"name":"CheeseCake488","steam_id":76561199407617942,"connected_time":1716000000000,"state":"active","ping":132},{"user_id":400,"name":"Coffee Instant Type 2","steam_id":76561198307845869,"connected_time":503000000000,"state":"active","ping":70},{"user_id":379,"name":"Russet-Burbank Potato","steam_id":76561198010147684,"connected_time":1710000000000,"state":"active","ping":157},{"user_id":319,"name":"frid","steam_id":76561198005806915,"connected_time":5167000000000,"state":"active","ping":60},{"user_id":401,"name":"starwarslover911","steam_id":76561198144673121,"connected_time":499000000000,"state":"active","ping":75},{"user_id":367,"name":"Ting","steam_id":76561198111669760,"connected_time":2176000000000,"state":"active","ping":55},{"user_id":382,"name":"Hazeyboi","steam_id":76561198130687838,"connected_time":1657000000000,"state":"active","ping":44},{"user_id":395,"name":"DiscoTraveler","steam_id":76561199240168088,"connected_time":955000000000,"state":"active","ping":77},{"user_id":345,"name":"Ahocchi","steam_id":76561198274742715,"connected_time":3956000000000,"state":"active","ping":47}]},{"server_id":402,"name":"Uncletopia | Chicago | 3 | All Maps","name_short":"chi-3","host":"chi-1.us.uncletopia.com","port":27035,"enabled":true,"region":"us-central","cc":"us","latitude":41.881832,"longitude":-87.62318,"reserved":0,"last_update":"0001-01-01T00:00:00Z","name_a2s":"Uncletopia | Chicago | 3 | All Maps","protocol":17,"map":"pl_borneo","folder":"tf","game":"Team Fortress","app_id":440,"player_count":24,"max_players":24,"Bots":0,"server_type":"Dedicated","server_os":"Linux","password":true,"vac":true,"version":"7961495","steam_id":85568392924515191,"keywords":["nocrits","nodmgspread","payload","uncletopia"],"game_id":440,"stv_port":27036,"stv_name":"Uncletopia | Chicago | 3 | All Maps | STV","players":[{"user_id":112,"name":"--_Cook_--","steam_id":76561198080855748,"connected_time":3191000000000,"state":"active","ping":47},{"user_id":181,"name":"dree","steam_id":76561198079178866,"connected_time":190000000000,"state":"active","ping":72},{"user_id":127,"name":"QwipQwop","steam_id":76561198019028725,"connected_time":2213000000000,"state":"active","ping":83},{"user_id":185,"name":"Scorpie Doodle","steam_id":76561198021845763,"connected_time":148000000000,"state":"active","ping":57},{"user_id":182,"name":"teaf","steam_id":76561198406252824,"connected_time":181000000000,"state":"active","ping":103},{"user_id":180,"name":"the12xu","steam_id":76561198197086561,"connected_time":242000000000,"state":"active","ping":78},{"user_id":174,"name":"chill","steam_id":76561198313364985,"connected_time":928000000000,"state":"active","ping":71},{"user_id":189,"name":"Candy Sparkles","steam_id":76561198126871264,"connected_time":122000000000,"state":"active","ping":82},{"user_id":51,"name":"dance monkey","steam_id":76561198188722751,"connected_time":6117000000000,"state":"active","ping":90},{"user_id":117,"name":"Andrestor","steam_id":76561198005934930,"connected_time":2596000000000,"state":"active","ping":141},{"user_id":114,"name":"Winter the Witchie","steam_id":76561198151971178,"connected_time":2737000000000,"state":"active","ping":55},{"user_id":183,"name":"RyInc","steam_id":76561198874261643,"connected_time":175000000000,"state":"active","ping":46},{"user_id":132,"name":"Hoet","steam_id":76561198322005258,"connected_time":2052000000000,"state":"active","ping":92},{"user_id":167,"name":"ivan","steam_id":76561198033001607,"connected_time":1263000000000,"state":"active","ping":90},{"user_id":184,"name":"Swifgz","steam_id":76561198162875756,"connected_time":159000000000,"state":"active","ping":69},{"user_id":175,"name":"The Horselords and Animal Gods","steam_id":76561197975094050,"connected_time":744000000000,"state":"active","ping":113},{"user_id":170,"name":"Birf","steam_id":76561198040860058,"connected_time":1251000000000,"state":"active","ping":90},{"user_id":186,"name":"Transgender Spider Priestess","steam_id":76561198111286397,"connected_time":147000000000,"state":"active","ping":107},{"user_id":168,"name":"creeeeeee","steam_id":76561198392539722,"connected_time":1262000000000,"state":"active","ping":80},{"user_id":187,"name":"Nylus","steam_id":76561198026623489,"connected_time":145000000000,"state":"active","ping":188},{"user_id":188,"name":"sadako","steam_id":76561198170642407,"connected_time":143000000000,"state":"active","ping":74},{"user_id":108,"name":"Koishi","steam_id":76561198054541054,"connected_time":3431000000000,"state":"active","ping":56},{"user_id":82,"name":"mkl","steam_id":76561197986401685,"connected_time":4939000000000,"state":"active","ping":80},{"user_id":126,"name":"freyja","steam_id":76561198249206656,"connected_time":2420000000000,"state":"active","ping":62}]},{"server_id":403,"name":"Uncletopia | Chicago | 4 | All Maps","name_short":"chi-4","host":"chi-1.us.uncletopia.com","port":27045,"enabled":true,"region":"us-central","cc":"us","latitude":41.881832,"longitude":-87.62318,"reserved":0,"last_update":"0001-01-01T00:00:00Z","name_a2s":"Uncletopia | Chicago | 4 | All Maps","protocol":17,"map":"koth_cascade","folder":"tf","game":"Team Fortress","app_id":440,"player_count":0,"max_players":24,"Bots":0,"server_type":"Dedicated","server_os":"Linux","password":true,"vac":true,"version":"7961495","steam_id":85568392924515193,"keywords":["cp","nocrits","nodmgspread","uncletopia"],"game_id":440,"stv_port":27046,"stv_name":"Uncletopia | Chicago | 4 | All Maps | STV","players":null},{"server_id":36,"name":"Uncletopia | Chicago | 5 | All Maps","name_short":"chi-5","host":"chi-2.us.uncletopia.com","port":27015,"enabled":true,"region":"us-central","cc":"us","latitude":41.881832,"longitude":-87.62318,"reserved":0,"last_update":"0001-01-01T00:00:00Z","name_a2s":"Uncletopia | Chicago | 5 | All Maps","protocol":17,"map":"pl_swiftwater_final1","folder":"tf","game":"Team Fortress","app_id":440,"player_count":24,"max_players":24,"Bots":0,"server_type":"Dedicated","server_os":"Linux","password":true,"vac":true,"version":"7961495","steam_id":85568392924866362,"keywords":["nocrits","nodmgspread","payload","uncletopia"],"game_id":440,"stv_port":27016,"stv_name":"Uncletopia | Chicago | 5 | All Maps | STV","players":[{"user_id":62,"name":"Mr.Pan","steam_id":76561198069030613,"connected_time":737000000000,"state":"active","ping":66},{"user_id":11,"name":"GROOVYROOM","steam_id":76561199153684166,"connected_time":3591000000000,"state":"active","ping":55},{"user_id":41,"name":"Kick Down Door 6:00AM TUCK‚òÉRO","steam_id":76561197976146738,"connected_time":1727000000000,"state":"active","ping":81},{"user_id":12,"name":"GENOSAD","steam_id":76561198285619586,"connected_time":3589000000000,"state":"active","ping":34},{"user_id":60,"name":"CyborgHexapus4","steam_id":76561198160335724,"connected_time":1126000000000,"state":"active","ping":132},{"user_id":27,"name":"| L O S T |","steam_id":76561198062620333,"connected_time":2338000000000,"state":"active","ping":71},{"user_id":37,"name":"U Sux","steam_id":76561198016095410,"connected_time":1945000000000,"state":"active","ping":65},{"user_id":59,"name":"Sanic","steam_id":76561198083124962,"connected_time":1395000000000,"state":"active","ping":71},{"user_id":61,"name":"22moo","steam_id":76561199075331630,"connected_time":1058000000000,"state":"active","ping":80},{"user_id":24,"name":"TheChoclateDogThatCould","steam_id":76561198142126470,"connected_time":2644000000000,"state":"active","ping":40},{"user_id":42,"name":"ttvfirepow10","steam_id":76561198111259720,"connected_time":1720000000000,"state":"active","ping":63},{"user_id":63,"name":"Resistance","steam_id":76561198146782074,"connected_time":475000000000,"state":"active","ping":57},{"user_id":52,"name":"QuartzGeek","steam_id":76561199011674698,"connected_time":1635000000000,"state":"active","ping":80},{"user_id":33,"name":"gooch_masta","steam_id":76561198151578423,"connected_time":2135000000000,"state":"active","ping":64},{"user_id":40,"name":"LordKirby","steam_id":76561198006938286,"connected_time":1898000000000,"state":"active","ping":127},{"user_id":35,"name":"jumpingjacks","steam_id":76561197964839440,"connected_time":2108000000000,"state":"active","ping":58},{"user_id":54,"name":"Chipmunk","steam_id":76561198013608736,"connected_time":1511000000000,"state":"active","ping":48},{"user_id":45,"name":"anonion","steam_id":76561198056477584,"connected_time":1716000000000,"state":"active","ping":89},{"user_id":46,"name":"'mungus","steam_id":76561198022358379,"connected_time":1683000000000,"state":"active","ping":73},{"user_id":64,"name":"Addy \u003c3","steam_id":76561198045819723,"connected_time":322000000000,"state":"active","ping":70},{"user_id":48,"name":"kac b4rney","steam_id":76561198166433332,"connected_time":1678000000000,"state":"active","ping":102},{"user_id":49,"name":"autisthicc","steam_id":76561198003918928,"connected_time":1675000000000,"state":"active","ping":138},{"user_id":57,"name":"Californian (Derogatory)","steam_id":76561198077272494,"connected_time":1440000000000,"state":"active","ping":52},{"user_id":65,"name":"Mug Moment Gaming","steam_id":76561198233098136,"connected_time":94000000000,"state":"active","ping":55}]},{"server_id":37,"name":"Uncletopia | Chicago | 6 | All Maps","name_short":"chi-6","host":"chi-2.us.uncletopia.com","port":27025,"enabled":true,"region":"us-central","cc":"us","latitude":41.881832,"longitude":-87.62318,"reserved":0,"last_update":"0001-01-01T00:00:00Z","name_a2s":"Uncletopia | Chicago | 6 | All Maps","protocol":17,"map":"cp_dustbowl","folder":"tf","game":"Team Fortress","app_id":440,"player_count":2,"max_players":24,"Bots":0,"server_type":"Dedicated","server_os":"Linux","password":true,"vac":true,"version":"7961495","steam_id":85568392924866363,"keywords":["cp","nocrits","nodmgspread","uncletopia"],"game_id":440,"stv_port":27026,"stv_name":"Uncletopia | Chicago | 6 | All Maps | STV","players":[{"user_id":8,"name":"Nobody121","steam_id":76561199227292137,"connected_time":54000000000,"state":"active","ping":117},{"user_id":9,"name":"socializedCryptid","steam_id":76561198991665007,"connected_time":48000000000,"state":"active","ping":52}]},{"server_id":38,"name":"Uncletopia | Chicago | 7 | Stopwatch","name_short":"chi-7","host":"chi-2.us.uncletopia.com","port":27035,"enabled":true,"region":"us-central","cc":"us","latitude":41.881832,"longitude":-87.62318,"reserved":0,"last_update":"0001-01-01T00:00:00Z","name_a2s":"Uncletopia | Chicago | 7 | Stopwatch","protocol":17,"map":"koth_highpass","folder":"tf","game":"Team Fortress","app_id":440,"player_count":0,"max_players":24,"Bots":0,"server_type":"Dedicated","server_os":"Linux","password":true,"vac":true,"version":"7961495","steam_id":85568392924866364,"keywords":["cp","nocrits","nodmgspread","uncletopia"],"game_id":440,"stv_port":27036,"stv_name":"Uncletopia | Chicago | 7 | Stopwatch | STV","players":null},{"server_id":39,"name":"Uncletopia | Chicago | 8 | Community","name_short":"chi-8","host":"chi-2.us.uncletopia.com","port":27045,"enabled":true,"region":"us-central","cc":"us","latitude":41.881832,"longitude":-87.62318,"reserved":0,"last_update":"0001-01-01T00:00:00Z","name_a2s":"Uncletopia | Chicago | 8 | Community","protocol":17,"map":"pl_pier","folder":"tf","game":"Team Fortress","app_id":440,"player_count":0,"max_players":24,"Bots":0,"server_type":"Dedicated","server_os":"Linux","password":true,"vac":true,"version":"7961495","steam_id":85568392924866365,"keywords":["nocrits","nodmgspread","payload","uncletopia"],"game_id":440,"stv_port":27046,"stv_name":"Uncletopia | Chicago | 8 | Community | STV","players":null},{"server_id":8,"name":"Uncletopia | Dallas | 1 | All Maps","name_short":"dal-1","host":"dal-1.us.uncletopia.com","port":27015,"enabled":true,"region":"us-central","cc":"us","latitude":32.779167,"longitude":-96.80889,"reserved":0,"last_update":"0001-01-01T00:00:00Z","name_a2s":"Uncletopia | Dallas | 1 | All Maps","protocol":17,"map":"pl_swiftwater_final1","folder":"tf","game":"Team Fortress","app_id":440,"player_count":6,"max_players":24,"Bots":0,"server_type":"Dedicated","server_os":"Linux","password":true,"vac":true,"version":"7961495","steam_id":85568392924469986,"keywords":["nocrits","nodmgspread","payload","uncletopia"],"game_id":440,"stv_port":27016,"stv_name":"Uncletopia | Dallas | 1 | All Maps | STV","players":[{"user_id":12,"name":"Bomb Squirtle‚Ñ¢","steam_id":76561197998931145,"connected_time":256000000000,"state":"active","ping":100},{"user_id":10,"name":"femboy =Ôºæ‚óè ‚ãè ‚óèÔºæ=","steam_id":76561199052450127,"connected_time":342000000000,"state":"active","ping":62},{"user_id":11,"name":"Helpful Hobo","steam_id":76561198250872082,"connected_time":288000000000,"state":"active","ping":141},{"user_id":13,"name":"strive","steam_id":76561199020439576,"connected_time":193000000000,"state":"active","ping":88},{"user_id":15,"name":"Rearranging furniture","steam_id":76561199054971009,"connected_time":161000000000,"state":"active","ping":46},{"user_id":17,"name":"Cliffigriff","steam_id":76561198121924499,"connected_time":44000000000,"state":"active","ping":44}]},{"server_id":108,"name":"Uncletopia | Dallas | 2 | All Maps","name_short":"dal-2","host":"dal-1.us.uncletopia.com","port":27025,"enabled":true,"region":"us-central","cc":"us","latitude":32.779167,"longitude":-96.80889,"reserved":0,"last_update":"0001-01-01T00:00:00Z","name_a2s":"Uncletopia | Dallas | 2 | All Maps","protocol":17,"map":"koth_lakeside_final","folder":"tf","game":"Team Fortress","app_id":440,"player_count":0,"max_players":24,"Bots":0,"server_type":"Dedicated","server_os":"Linux","password":true,"vac":true,"version":"7961495","steam_id":85568392924469988,"keywords":["cp","nocrits","nodmgspread","uncletopia"],"game_id":440,"stv_port":27026,"stv_name":"Uncletopia | Dallas | 2 | All Maps | STV","players":null},{"server_id":404,"name":"Uncletopia | Dallas | 3 | All Maps","name_short":"dal-3","host":"dal-1.us.uncletopia.com","port":27035,"enabled":true,"region":"us-central","cc":"us","latitude":32.779167,"longitude":-96.80889,"reserved":0,"last_update":"0001-01-01T00:00:00Z","name_a2s":"Uncletopia | Dallas | 3 | All Maps","protocol":17,"map":"pl_badwater","folder":"tf","game":"Team Fortress","app_id":440,"player_count":0,"max_players":24,"Bots":0,"server_type":"Dedicated","server_os":"Linux","password":true,"vac":true,"version":"7961495","steam_id":85568392924515219,"keywords":["nocrits","nodmgspread","payload","uncletopia"],"game_id":440,"stv_port":27036,"stv_name":"Uncletopia | Dallas | 3 | All Maps | STV","players":null},{"server_id":405,"name":"Uncletopia | Dallas | 4 | Community","name_short":"dal-4","host":"dal-1.us.uncletopia.com","port":27045,"enabled":true,"region":"us-central","cc":"us","latitude":32.779167,"longitude":-96.80889,"reserved":0,"last_update":"0001-01-01T00:00:00Z","name_a2s":"Uncletopia | Dallas | 4 | Community","protocol":17,"map":"workshop/rd_asteroid_redux_b1.ugc2154902912","folder":"tf","game":"Team Fortress","app_id":440,"player_count":0,"max_players":24,"Bots":0,"server_type":"Dedicated","server_os":"Linux","password":true,"vac":true,"version":"7961495","steam_id":85568392924515220,"keywords":["beta","nocrits","nodmgspread","rd","uncletopia"],"game_id":440,"stv_port":27046,"stv_name":"Uncletopia | Dallas | 4 | Community | STV","players":null},{"server_id":5,"name":"Uncletopia | Frankfurt | 1 | All Maps","name_short":"frk-1","host":"frk-1.de.uncletopia.com","port":27015,"enabled":true,"region":"eu","cc":"de","latitude":50.110924,"longitude":8.682127,"reserved":0,"last_update":"0001-01-01T00:00:00Z","name_a2s":"Uncletopia | Frankfurt | 1 | All Maps","protocol":17,"map":"pl_borneo","folder":"tf","game":"Team Fortress","app_id":440,"player_count":5,"max_players":24,"Bots":0,"server_type":"Dedicated","server_os":"Linux","password":true,"vac":true,"version":"7961495","steam_id":85568392924469989,"keywords":["nocrits","nodmgspread","payload","uncletopia"],"game_id":440,"stv_port":27016,"stv_name":"Uncletopia | Frankfurt | 1 | All Maps | STV","players":[{"user_id":661,"name":"daddy cheese","steam_id":76561199049128913,"connected_time":79000000000,"state":"active","ping":49},{"user_id":658,"name":"Reimu","steam_id":76561198101532240,"connected_time":268000000000,"state":"active","ping":72},{"user_id":646,"name":"NOT FU–°KING KOSHKA","steam_id":76561198178600745,"connected_time":840000000000,"state":"active","ping":659},{"user_id":638,"name":"Agurkesalatü•í","steam_id":76561198300501653,"connected_time":1857000000000,"state":"active","ping":44},{"user_id":641,"name":"Slap pik og strit h√•r","steam_id":76561198154913480,"connected_time":1730000000000,"state":"active","ping":58}]},{"server_id":110,"name":"Uncletopia | Frankfurt | 2 | All Maps","name_short":"frk-2","host":"frk-1.de.uncletopia.com","port":27025,"enabled":true,"region":"eu","cc":"de","latitude":50.110924,"longitude":8.682127,"reserved":0,"last_update":"0001-01-01T00:00:00Z","name_a2s":"Uncletopia | Frankfurt | 2 | All Maps","protocol":17,"map":"pl_upward","folder":"tf","game":"Team Fortress","app_id":440,"player_count":24,"max_players":24,"Bots":0,"server_type":"Dedicated","server_os":"Linux","password":true,"vac":true,"version":"7961495","steam_id":85568392924469990,"keywords":["nocrits","nodmgspread","payload","uncletopia"],"game_id":440,"stv_port":27026,"stv_name":"Uncletopia | Frankfurt | 2 | All Maps | STV","players":[{"user_id":439,"name":"Mr.Schnittlauch","steam_id":76561198295868113,"connected_time":2845000000000,"state":"active","ping":48},{"user_id":477,"name":"Maske","steam_id":76561198078100812,"connected_time":885000000000,"state":"active","ping":55},{"user_id":307,"name":"else1","steam_id":76561197996558319,"connected_time":10570000000000,"state":"active","ping":75},{"user_id":483,"name":"HorizonR2","steam_id":76561198034824778,"connected_time":42000000000,"state":"active","ping":57},{"user_id":453,"name":"Cosmetic brain","steam_id":76561198055936410,"connected_time":2121000000000,"state":"active","ping":77},{"user_id":465,"name":"svenska krigsmakten","steam_id":76561198023117553,"connected_time":1560000000000,"state":"active","ping":64},{"user_id":480,"name":"LEGEND FUMO.","steam_id":76561198061033903,"connected_time":162000000000,"state":"active","ping":45},{"user_id":469,"name":"Random","steam_id":76561199079951047,"connected_time":1261000000000,"state":"active","ping":88},{"user_id":481,"name":"PIMPrenelle","steam_id":76561198021366058,"connected_time":51000000000,"state":"active","ping":57},{"user_id":472,"name":"Random Romain","steam_id":76561198355825319,"connected_time":1154000000000,"state":"active","ping":77},{"user_id":377,"name":"A moon goose","steam_id":76561198064734905,"connected_time":6402000000000,"state":"active","ping":89},{"user_id":466,"name":"finbar","steam_id":76561198056812396,"connected_time":1469000000000,"state":"active","ping":79},{"user_id":473,"name":"Ru$uL :3","steam_id":76561199129423422,"connected_time":1145000000000,"state":"active","ping":92},{"user_id":458,"name":"glyph","steam_id":76561197980736364,"connected_time":1828000000000,"state":"active","ping":75},{"user_id":484,"name":"ihatewomen2008","steam_id":76561198383084774,"connected_time":41000000000,"state":"active","ping":74},{"user_id":467,"name":"–æ–±–µ–∑—å—è–Ω–∞","steam_id":76561198297812094,"connected_time":1325000000000,"state":"active","ping":99},{"user_id":476,"name":"Confused1221","steam_id":76561199061802741,"connected_time":919000000000,"state":"active","ping":72},{"user_id":346,"name":"myon","steam_id":76561197992528570,"connected_time":8505000000000,"state":"active","ping":89},{"user_id":460,"name":"$kelly","steam_id":76561198195270894,"connected_time":1723000000000,"state":"active","ping":60},{"user_id":446,"name":"SUPER ASSFUCK RPG on Itch.io","steam_id":76561199084272069,"connected_time":2536000000000,"state":"active","ping":68},{"user_id":462,"name":"MEDiUM","steam_id":76561198112328561,"connected_time":1692000000000,"state":"active","ping":69},{"user_id":478,"name":"L.Ron Hoyabembe","steam_id":76561198009887251,"connected_time":473000000000,"state":"active","ping":70},{"user_id":437,"name":"YARrICk.¬´+¬ª","steam_id":76561197990126485,"connected_time":2917000000000,"state":"active","ping":64},{"user_id":415,"name":"Jussukka","steam_id":76561198122894683,"connected_time":4265000000000,"state":"active","ping":99}]},{"server_id":308,"name":"Uncletopia | Frankfurt | 3 | All Maps","name_short":"frk-3","host":"frk-1.de.uncletopia.com","port":27035,"enabled":true,"region":"eu","cc":"de","latitude":50.110924,"longitude":8.682127,"reserved":0,"last_update":"0001-01-01T00:00:00Z","name_a2s":"Uncletopia | Frankfurt | 3 | All Maps","protocol":17,"map":"koth_highpass","folder":"tf","game":"Team Fortress","app_id":440,"player_count":24,"max_players":24,"Bots":0,"server_type":"Dedicated","server_os":"Linux","password":true,"vac":true,"version":"7961495","steam_id":85568392924504274,"keywords":["cp","nocrits","nodmgspread","uncletopia"],"game_id":440,"stv_port":27036,"stv_name":"Uncletopia | Frankfurt | 3 | All Maps | STV","players":[{"user_id":163,"name":"huose., md.","steam_id":76561198152138707,"connected_time":3033000000000,"state":"active","ping":45},{"user_id":136,"name":"Qwertuss","steam_id":76561198026305366,"connected_time":4480000000000,"state":"active","ping":55},{"user_id":214,"name":"manure merchant","steam_id":76561198010109316,"connected_time":192000000000,"state":"active","ping":55},{"user_id":215,"name":"Penguin in Poncho","steam_id":76561198307493773,"connected_time":177000000000,"state":"active","ping":61},{"user_id":176,"name":"Spanns","steam_id":76561197998349793,"connected_time":2247000000000,"state":"active","ping":71},{"user_id":208,"name":"femboy enthusiast","steam_id":76561198965650114,"connected_time":350000000000,"state":"active","ping":47},{"user_id":174,"name":"kaelan","steam_id":76561198001425310,"connected_time":2352000000000,"state":"active","ping":75},{"user_id":180,"name":"Brem","steam_id":76561198202349485,"connected_time":2079000000000,"state":"active","ping":71},{"user_id":177,"name":"binhuwu","steam_id":76561198079200985,"connected_time":2217000000000,"state":"active","ping":60},{"user_id":207,"name":"Nithle","steam_id":76561198025372740,"connected_time":367000000000,"state":"active","ping":46},{"user_id":178,"name":"Lartsa","steam_id":76561198275690230,"connected_time":2191000000000,"state":"active","ping":97},{"user_id":181,"name":"Finkaksu Devourer of Sour Candy","steam_id":76561198201389163,"connected_time":2055000000000,"state":"active","ping":72},{"user_id":86,"name":"fish","steam_id":76561198092096689,"connected_time":7329000000000,"state":"active","ping":46},{"user_id":209,"name":"xavier","steam_id":76561198076494034,"connected_time":329000000000,"state":"active","ping":56},{"user_id":210,"name":"Vershal Smershal","steam_id":76561198116223995,"connected_time":325000000000,"state":"active","ping":58},{"user_id":220,"name":"/hm/","steam_id":76561199213268288,"connected_time":61000000000,"state":"active","ping":60},{"user_id":171,"name":"doug pretzel","steam_id":76561198054162681,"connected_time":2552000000000,"state":"active","ping":108},{"user_id":211,"name":"Flight of the Blonde Giraffes","steam_id":76561198451585571,"connected_time":314000000000,"state":"active","ping":71},{"user_id":213,"name":"Volxium ore","steam_id":76561198872222015,"connected_time":231000000000,"state":"active","ping":69},{"user_id":188,"name":"ZID","steam_id":76561198214099068,"connected_time":1892000000000,"state":"active","ping":87},{"user_id":161,"name":"Jom F Kennedy","steam_id":76561198080379805,"connected_time":3178000000000,"state":"active","ping":59},{"user_id":217,"name":"Duktigafred","steam_id":76561199211222396,"connected_time":151000000000,"state":"spawning","ping":63},{"user_id":218,"name":"Pedro Sanchez baloncesto","steam_id":76561198134192269,"connected_time":145000000000,"state":"active","ping":84},{"user_id":219,"name":"Lopat","steam_id":76561198820264239,"connected_time":140000000000,"state":"active","ping":83}]},{"server_id":309,"name":"Uncletopia | Frankfurt | 4 | All Maps","name_short":"frk-4","host":"frk-1.de.uncletopia.com","port":27045,"enabled":true,"region":"eu","cc":"de","latitude":50.110924,"longitude":8.682127,"reserved":0,"last_update":"0001-01-01T00:00:00Z","name_a2s":"Uncletopia | Frankfurt | 4 | All Maps","protocol":17,"map":"pl_badwater","folder":"tf","game":"Team Fortress","app_id":440,"player_count":24,"max_players":24,"Bots":0,"server_type":"Dedicated","server_os":"Linux","password":true,"vac":true,"version":"7961495","steam_id":85568392924504275,"keywords":["nocrits","nodmgspread","payload","uncletopia"],"game_id":440,"stv_port":27046,"stv_name":"Uncletopia | Frankfurt | 4 | All Maps | STV","players":[{"user_id":247,"name":"Counter-Life","steam_id":76561197977875927,"connected_time":613000000000,"state":"active","ping":45},{"user_id":228,"name":"maymaymaster","steam_id":76561198180896059,"connected_time":2485000000000,"state":"active","ping":68},{"user_id":198,"name":"yush","steam_id":76561198121688934,"connected_time":4724000000000,"state":"active","ping":69},{"user_id":251,"name":"Mangophysics","steam_id":76561198328905546,"connected_time":505000000000,"state":"active","ping":117},{"user_id":178,"name":"cockroach","steam_id":76561198841841656,"connected_time":5924000000000,"state":"active","ping":69},{"user_id":225,"name":"wicked","steam_id":76561198164376035,"connected_time":2508000000000,"state":"active","ping":74},{"user_id":226,"name":"NEWTON","steam_id":76561198043344845,"connected_time":2505000000000,"state":"active","ping":69},{"user_id":252,"name":"Andrea","steam_id":76561199487380678,"connected_time":349000000000,"state":"active","ping":100},{"user_id":182,"name":"Erection Man","steam_id":76561198021714542,"connected_time":5563000000000,"state":"active","ping":60},{"user_id":243,"name":"Gamlader","steam_id":76561198306177608,"connected_time":983000000000,"state":"active","ping":86},{"user_id":215,"name":"steinar","steam_id":76561198441857153,"connected_time":3325000000000,"state":"active","ping":79},{"user_id":244,"name":"sloppy transgirl toppy","steam_id":76561198057092208,"connected_time":827000000000,"state":"active","ping":61},{"user_id":216,"name":"JustMayor","steam_id":76561198050515503,"connected_time":3322000000000,"state":"active","ping":56},{"user_id":249,"name":"ztrs6","steam_id":76561198314853803,"connected_time":584000000000,"state":"active","ping":87},{"user_id":223,"name":"Coby","steam_id":76561198060876389,"connected_time":2956000000000,"state":"active","ping":61},{"user_id":230,"name":"KLAMA  ‚ù§","steam_id":76561198351549661,"connected_time":2457000000000,"state":"active","ping":66},{"user_id":231,"name":"AftiksPL","steam_id":76561198875182686,"connected_time":2447000000000,"state":"active","ping":85},{"user_id":239,"name":"ZENISHIRA","steam_id":76561198148357250,"connected_time":1904000000000,"state":"active","ping":83},{"user_id":245,"name":"soup","steam_id":76561198386933065,"connected_time":826000000000,"state":"active","ping":65},{"user_id":250,"name":"BiteZaDusto","steam_id":76561199110636118,"connected_time":583000000000,"state":"active","ping":104},{"user_id":237,"name":"Raivop","steam_id":76561197980854307,"connected_time":2038000000000,"state":"active","ping":107},{"user_id":193,"name":"soder.","steam_id":76561199294336405,"connected_time":5327000000000,"state":"active","ping":71},{"user_id":167,"name":"Mister","steam_id":76561199049647854,"connected_time":6751000000000,"state":"active","ping":47},{"user_id":214,"name":"hermano de batalla","steam_id":76561198093073758,"connected_time":3369000000000,"state":"active","ping":64}]},{"server_id":310,"name":"Uncletopia | Frankfurt | 5 | All Maps","name_short":"frk-5","host":"frk-1.de.uncletopia.com","port":27055,"enabled":true,"region":"eu","cc":"de","latitude":50.110924,"longitude":8.682127,"reserved":0,"last_update":"0001-01-01T00:00:00Z","name_a2s":"Uncletopia | Frankfurt | 5 | All Maps","protocol":17,"map":"pl_upward","folder":"tf","game":"Team Fortress","app_id":440,"player_count":24,"max_players":24,"Bots":0,"server_type":"Dedicated","server_os":"Linux","password":true,"vac":true,"version":"7961495","steam_id":85568392924504277,"keywords":["nocrits","nodmgspread","payload","uncletopia"],"game_id":440,"stv_port":27056,"stv_name":"Uncletopia | Frankfurt | 5 | All Maps | STV","players":[{"user_id":451,"name":"MIGHTY PISS","steam_id":76561198226378616,"connected_time":1979000000000,"state":"active","ping":81},{"user_id":443,"name":"Hexagon","steam_id":76561198151205758,"connected_time":2830000000000,"state":"active","ping":44},{"user_id":483,"name":"Haku*","steam_id":76561198013292193,"connected_time":198000000000,"state":"active","ping":66},{"user_id":484,"name":"Ah shit, here we go again","steam_id":76561198382080975,"connected_time":100000000000,"state":"active","ping":58},{"user_id":468,"name":"Purple Soup :D","steam_id":76561198985100366,"connected_time":1509000000000,"state":"active","ping":96},{"user_id":434,"name":"Zirif","steam_id":76561198116200959,"connected_time":3606000000000,"state":"active","ping":61},{"user_id":475,"name":"Supercoxylac","steam_id":76561198376300138,"connected_time":842000000000,"state":"active","ping":76},{"user_id":448,"name":"Silvan","steam_id":76561198061213516,"connected_time":2369000000000,"state":"active","ping":45},{"user_id":457,"name":"Spookie Dokie Fart Do Do Haha","steam_id":76561199121523164,"connected_time":1825000000000,"state":"active","ping":68},{"user_id":383,"name":"Nick","steam_id":76561198036109469,"connected_time":6924000000000,"state":"active","ping":86},{"user_id":476,"name":"(‚âñ·¥ó‚âñ‚úø)","steam_id":76561198095560087,"connected_time":807000000000,"state":"active","ping":72},{"user_id":480,"name":"literallyjasonx","steam_id":76561198835895387,"connected_time":648000000000,"state":"active","ping":78},{"user_id":478,"name":"gaming (official)","steam_id":76561198106012909,"connected_time":756000000000,"state":"active","ping":66},{"user_id":458,"name":"Klown Beatbox","steam_id":76561198131125058,"connected_time":1802000000000,"state":"active","ping":59},{"user_id":459,"name":"say gex","steam_id":76561198265479349,"connected_time":1798000000000,"state":"active","ping":60},{"user_id":340,"name":"Mr. Mundy","steam_id":76561198132008918,"connected_time":10405000000000,"state":"active","ping":83},{"user_id":460,"name":"‚à¥ Ashplume","steam_id":76561198014715145,"connected_time":1757000000000,"state":"active","ping":61},{"user_id":473,"name":"Linkara runnin' real fast","steam_id":76561198162904792,"connected_time":1069000000000,"state":"active","ping":154},{"user_id":465,"name":"I I | #SaveTF2","steam_id":76561199101935057,"connected_time":1598000000000,"state":"active","ping":98},{"user_id":479,"name":"JaccNakk","steam_id":76561198397685615,"connected_time":741000000000,"state":"active","ping":136},{"user_id":469,"name":"Shellshock","steam_id":76561197985934338,"connected_time":1457000000000,"state":"active","ping":47},{"user_id":438,"name":"Rock..","steam_id":76561198004641963,"connected_time":3177000000000,"state":"active","ping":86},{"user_id":467,"name":"john fortress","steam_id":76561198013237629,"connected_time":1593000000000,"state":"active","ping":112},{"user_id":482,"name":"Demo #saveTF2","steam_id":76561198102850854,"connected_time":278000000000,"state":"active","ping":57}]},{"server_id":311,"name":"Uncletopia | Frankfurt | 6 | All Maps","name_short":"frk-6","host":"frk-1.de.uncletopia.com","port":27065,"enabled":true,"region":"eu","cc":"de","latitude":50.110924,"longitude":8.682127,"reserved":0,"last_update":"0001-01-01T00:00:00Z","name_a2s":"Uncletopia | Frankfurt | 6 | All Maps","protocol":17,"map":"pl_barnblitz","folder":"tf","game":"Team Fortress","app_id":440,"player_count":24,"max_players":24,"Bots":0,"server_type":"Dedicated","server_os":"Linux","password":true,"vac":true,"version":"7961495","steam_id":85568392924504278,"keywords":["nocrits","nodmgspread","payload","uncletopia"],"game_id":440,"stv_port":27066,"stv_name":"Uncletopia | Frankfurt | 6 | All Maps | STV","players":[{"user_id":419,"name":"my finals are this monday","steam_id":76561198282952165,"connected_time":601000000000,"state":"active","ping":75},{"user_id":420,"name":"MatarArg","steam_id":76561198280246498,"connected_time":530000000000,"state":"active","ping":101},{"user_id":425,"name":"Neko","steam_id":76561198075690128,"connected_time":428000000000,"state":"active","ping":51},{"user_id":426,"name":"BELADIT","steam_id":76561198011911501,"connected_time":329000000000,"state":"active","ping":70},{"user_id":421,"name":"Mewhenthe098","steam_id":76561199428017503,"connected_time":524000000000,"state":"active","ping":149},{"user_id":422,"name":"Largo","steam_id":76561198844368927,"connected_time":492000000000,"state":"active","ping":60},{"user_id":429,"name":"‚ò≠ French Lym","steam_id":76561198954876624,"connected_time":267000000000,"state":"active","ping":62},{"user_id":431,"name":"Tea","steam_id":76561198799243030,"connected_time":250000000000,"state":"active","ping":75},{"user_id":370,"name":"hisham","steam_id":76561198414437290,"connected_time":3411000000000,"state":"active","ping":109},{"user_id":362,"name":"YuraGreek","steam_id":76561198050182252,"connected_time":4339000000000,"state":"active","ping":75},{"user_id":409,"name":"Kotlet schabowy","steam_id":76561198048983509,"connected_time":1309000000000,"state":"active","ping":80},{"user_id":430,"name":"Chiquitos","steam_id":76561199233163031,"connected_time":266000000000,"state":"active","ping":61},{"user_id":424,"name":"–î–∂–µ–∫–µ—Ç","steam_id":76561198327897125,"connected_time":483000000000,"state":"active","ping":89},{"user_id":385,"name":"Umbro","steam_id":76561198087930438,"connected_time":2917000000000,"state":"active","ping":73},{"user_id":432,"name":"Zad","steam_id":76561198075139992,"connected_time":247000000000,"state":"active","ping":60},{"user_id":400,"name":"kokeshi mi ha peggato","steam_id":76561198340262024,"connected_time":1960000000000,"state":"active","ping":59},{"user_id":374,"name":"Real (Real)","steam_id":76561198323425034,"connected_time":3397000000000,"state":"active","ping":61},{"user_id":364,"name":"LivEssense","steam_id":76561198052476979,"connected_time":3506000000000,"state":"active","ping":76},{"user_id":411,"name":"TpurpleT","steam_id":76561198092503871,"connected_time":1274000000000,"state":"active","ping":64},{"user_id":414,"name":"luckyminer98","steam_id":76561198177095691,"connected_time":1058000000000,"state":"active","ping":63},{"user_id":433,"name":"Ampiong99","steam_id":76561199245197481,"connected_time":218000000000,"state":"active","ping":60},{"user_id":434,"name":"Escobar","steam_id":76561198089785078,"connected_time":171000000000,"state":"active","ping":93},{"user_id":386,"name":"etc","steam_id":76561197998394797,"connected_time":2811000000000,"state":"active","ping":52},{"user_id":435,"name":"just a cat","steam_id":76561198328023740,"connected_time":167000000000,"state":"active","ping":52}]},{"server_id":23,"name":"Uncletopia | Frankfurt | 7 | Stopwatch","name_short":"frk-7","host":"frk-1.de.uncletopia.com","port":27075,"enabled":true,"region":"eu","cc":"de","latitude":50.110924,"longitude":8.682127,"reserved":0,"last_update":"0001-01-01T00:00:00Z","name_a2s":"Uncletopia | Frankfurt | 7 | Stopwatch","protocol":17,"map":"workshop/pl_badwater_pro_v12.ugc2142942074","folder":"tf","game":"Team Fortress","app_id":440,"player_count":0,"max_players":24,"Bots":0,"server_type":"Dedicated","server_os":"Linux","password":true,"vac":true,"version":"7961495","steam_id":85568392924742827,"keywords":["nocrits","nodmgspread","payload","uncletopia"],"game_id":440,"stv_port":27076,"stv_name":"Uncletopia | Frankfurt | 7 | Stopwatch | STV","players":null},{"server_id":24,"name":"Uncletopia | Frankfurt | 8 | Community","name_short":"frk-8","host":"frk-1.de.uncletopia.com","port":27085,"enabled":true,"region":"eu","cc":"de","latitude":50.110924,"longitude":8.682127,"reserved":0,"last_update":"0001-01-01T00:00:00Z","name_a2s":"Uncletopia | Frankfurt | 8 | Community","protocol":17,"map":"workshop/cp_alloy_rc3.ugc592805587","folder":"tf","game":"Team Fortress","app_id":440,"player_count":0,"max_players":24,"Bots":0,"server_type":"Dedicated","server_os":"Linux","password":true,"vac":true,"version":"7961495","steam_id":85568392924742828,"keywords":["cp","nocrits","nodmgspread","uncletopia"],"game_id":440,"stv_port":27086,"stv_name":"Uncletopia | Frankfurt | 8 | Community | STV","players":null},{"server_id":202,"name":"Uncletopia | Hong Kong | 1 | All Maps","name_short":"hgk-1","host":"hgk-1.hk.uncletopia.com","port":27015,"enabled":true,"region":"asia","cc":"hk","latitude":22.302711,"longitude":114.177216,"reserved":0,"last_update":"0001-01-01T00:00:00Z","name_a2s":"Uncletopia | Hong Kong | 1 | All Maps","protocol":17,"map":"cp_mountainlab","folder":"tf","game":"Team Fortress","app_id":440,"player_count":0,"max_players":24,"Bots":0,"server_type":"Dedicated","server_os":"Linux","password":true,"vac":true,"version":"7961495","steam_id":85568392924494504,"keywords":["cp","nocrits","nodmgspread","uncletopia"],"game_id":440,"stv_port":27016,"stv_name":"Uncletopia | Hong Kong | 1 | All Maps | STV","players":null},{"server_id":1,"name":"Uncletopia | Los Angeles | 1 | All Maps","name_short":"lax-1","host":"lax-1.us.uncletopia.com","port":27015,"enabled":true,"region":"us-west","cc":"us","latitude":33.94279,"longitude":-118.41004,"reserved":0,"last_update":"0001-01-01T00:00:00Z","name_a2s":"Uncletopia | Los Angeles | 1 | All Maps","protocol":17,"map":"pl_pier","folder":"tf","game":"Team Fortress","app_id":440,"player_count":24,"max_players":24,"Bots":0,"server_type":"Dedicated","server_os":"Linux","password":true,"vac":true,"version":"7961495","steam_id":85568392924469991,"keywords":["nocrits","nodmgspread","payload","uncletopia"],"game_id":440,"stv_port":27016,"stv_name":"Uncletopia | Los Angeles | 1 | All Maps | STV","players":[{"user_id":81,"name":"[GUT] RiDiK¬Æ","steam_id":76561197969756446,"connected_time":720000000000,"state":"active","ping":99},{"user_id":64,"name":"TheDoctorIsIn","steam_id":76561198322058639,"connected_time":1864000000000,"state":"active","ping":93},{"user_id":67,"name":"Human Resources Manager","steam_id":76561198066386411,"connected_time":1360000000000,"state":"active","ping":105},{"user_id":19,"name":"Dreamzapp","steam_id":76561199084936632,"connected_time":4472000000000,"state":"active","ping":57},{"user_id":82,"name":"Insomniac","steam_id":76561199180653046,"connected_time":152000000000,"state":"active","ping":160},{"user_id":52,"name":"arkei-mgtg (I‚ô•ZONING)","steam_id":76561198013113138,"connected_time":2635000000000,"state":"active","ping":55},{"user_id":68,"name":"Moonflower ‚ú¶","steam_id":76561198191782483,"connected_time":1359000000000,"state":"active","ping":65},{"user_id":25,"name":"Babylon","steam_id":76561198048291984,"connected_time":3868000000000,"state":"active","ping":122},{"user_id":36,"name":"gretchling","steam_id":76561198046111695,"connected_time":3165000000000,"state":"active","ping":83},{"user_id":69,"name":"Pixelated Pussy","steam_id":76561198002511088,"connected_time":1356000000000,"state":"active","ping":53},{"user_id":59,"name":"noceof","steam_id":76561198043656816,"connected_time":2204000000000,"state":"active","ping":177},{"user_id":77,"name":"devamar","steam_id":76561198069115467,"connected_time":879000000000,"state":"active","ping":45},{"user_id":71,"name":"cristophergamez09","steam_id":76561199454665809,"connected_time":1337000000000,"state":"active","ping":100},{"user_id":83,"name":"MineOpal","steam_id":76561198044716407,"connected_time":135000000000,"state":"active","ping":45},{"user_id":40,"name":"ROGUE-PLANET","steam_id":76561198116023052,"connected_time":2886000000000,"state":"active","ping":77},{"user_id":84,"name":"MyMonkeyBaby","steam_id":76561198046896670,"connected_time":123000000000,"state":"active","ping":85},{"user_id":85,"name":"KlassicLoL","steam_id":76561198081815303,"connected_time":51000000000,"state":"active","ping":49},{"user_id":70,"name":"SCJawnsonalfredo","steam_id":76561198010460535,"connected_time":1347000000000,"state":"active","ping":67},{"user_id":66,"name":"Alkimia","steam_id":76561198385763137,"connected_time":1454000000000,"state":"active","ping":92},{"user_id":45,"name":"Lily","steam_id":76561198110050476,"connected_time":2846000000000,"state":"active","ping":69},{"user_id":78,"name":"bikerkid207","steam_id":76561198390782783,"connected_time":822000000000,"state":"active","ping":112},{"user_id":48,"name":"Fungi with a flamethrower","steam_id":76561198077306556,"connected_time":2794000000000,"state":"active","ping":129},{"user_id":80,"name":"CAPTAIN CAVEMAN","steam_id":76561198131526809,"connected_time":770000000000,"state":"active","ping":100},{"user_id":63,"name":"rat","steam_id":76561198130412963,"connected_time":2100000000000,"state":"active","ping":80}]},{"server_id":112,"name":"Uncletopia | Los Angeles | 2 | All Maps","name_short":"lax-2","host":"lax-1.us.uncletopia.com","port":27025,"enabled":true,"region":"us-west","cc":"us","latitude":33.94279,"longitude":-118.41004,"reserved":0,"last_update":"0001-01-01T00:00:00Z","name_a2s":"Uncletopia | Los Angeles | 2 | All Maps","protocol":17,"map":"cp_snakewater_final1","folder":"tf","game":"Team Fortress","app_id":440,"player_count":0,"max_players":24,"Bots":0,"server_type":"Dedicated","server_os":"Linux","password":true,"vac":true,"version":"7961495","steam_id":85568392924469992,"keywords":["cp","nocrits","nodmgspread","uncletopia"],"game_id":440,"stv_port":27026,"stv_name":"Uncletopia | Los Angeles | 2 | All Maps | STV","players":null},{"server_id":324,"name":"Uncletopia | Los Angeles | 3 | All Maps","name_short":"lax-3","host":"lax-1.us.uncletopia.com","port":27035,"enabled":true,"region":"us-west","cc":"us","latitude":33.94279,"longitude":-118.41004,"reserved":0,"last_update":"0001-01-01T00:00:00Z","name_a2s":"Uncletopia | Los Angeles | 3 | All Maps","protocol":17,"map":"pl_frontier_final","folder":"tf","game":"Team Fortress","app_id":440,"player_count":1,"max_players":24,"Bots":0,"server_type":"Dedicated","server_os":"Linux","password":true,"vac":true,"version":"7961495","steam_id":85568392924510198,"keywords":["nocrits","nodmgspread","payload","uncletopia"],"game_id":440,"stv_port":27036,"stv_name":"Uncletopia | Los Angeles | 3 | All Maps | STV","players":[{"user_id":4,"name":"Coreinperium","steam_id":76561199153722797,"connected_time":88000000000,"state":"active","ping":138}]},{"server_id":25,"name":"Uncletopia | Los Angeles | 4 | Stopwatch","name_short":"lax-4","host":"lax-1.us.uncletopia.com","port":27045,"enabled":true,"region":"us-west","cc":"us","latitude":33.94279,"longitude":-118.41004,"reserved":0,"last_update":"0001-01-01T00:00:00Z","name_a2s":"Uncletopia | Los Angeles | 4 | Stopwatch","protocol":17,"map":"pl_barnblitz","folder":"tf","game":"Team Fortress","app_id":440,"player_count":0,"max_players":24,"Bots":0,"server_type":"Dedicated","server_os":"Linux","password":true,"vac":true,"version":"7961495","steam_id":85568392924510199,"keywords":["nocrits","nodmgspread","payload","uncletopia"],"game_id":440,"stv_port":27046,"stv_name":"Uncletopia | Los Angeles | 4 | Stopwatch | STV","players":null},{"server_id":11,"name":"Uncletopia | London | 1 | All Maps","name_short":"lon-1","host":"lon-1.uk.uncletopia.com","port":27015,"enabled":true,"region":"eu","cc":"gb","latitude":51.509865,"longitude":-0.118092,"reserved":0,"last_update":"0001-01-01T00:00:00Z","name_a2s":"Uncletopia | London | 1 | All Maps","protocol":17,"map":"pl_borneo","folder":"tf","game":"Team Fortress","app_id":440,"player_count":24,"max_players":24,"Bots":0,"server_type":"Dedicated","server_os":"Linux","password":true,"vac":true,"version":"7961495","steam_id":85568392924367362,"keywords":["nocrits","nodmgspread","payload","uncletopia"],"game_id":440,"stv_port":27016,"stv_name":"Uncletopia | London | 1 | All Maps | STV","players":[{"user_id":541,"name":"Jergu","steam_id":76561198023457541,"connected_time":4773000000000,"state":"active","ping":86},{"user_id":567,"name":"Snake-chan","steam_id":76561199044755854,"connected_time":2547000000000,"state":"active","ping":86},{"user_id":583,"name":"deadkep","steam_id":76561198097463968,"connected_time":1195000000000,"state":"active","ping":60},{"user_id":577,"name":"Scobra","steam_id":76561198000734400,"connected_time":1978000000000,"state":"active","ping":115},{"user_id":496,"name":"Kahvi","steam_id":76561198723244199,"connected_time":6709000000000,"state":"active","ping":82},{"user_id":565,"name":"GoblinGaming","steam_id":76561198360395476,"connected_time":2856000000000,"state":"active","ping":43},{"user_id":586,"name":"Minus-Abinus","steam_id":76561199383437138,"connected_time":544000000000,"state":"active","ping":115},{"user_id":579,"name":"png.png","steam_id":76561198444446521,"connected_time":1799000000000,"state":"active","ping":102},{"user_id":549,"name":"unconditional love","steam_id":76561199026097466,"connected_time":4446000000000,"state":"active","ping":74},{"user_id":566,"name":"whimsy.","steam_id":76561198878171763,"connected_time":2856000000000,"state":"active","ping":52},{"user_id":578,"name":"Pvt. Pepper","steam_id":76561198851157897,"connected_time":1956000000000,"state":"active","ping":62},{"user_id":582,"name":"Nutty Dark^^","steam_id":76561198036241064,"connected_time":1724000000000,"state":"active","ping":71},{"user_id":550,"name":"shooer!","steam_id":76561198110531281,"connected_time":4021000000000,"state":"active","ping":66},{"user_id":571,"name":"‚ú™ Danny","steam_id":76561198104483241,"connected_time":2181000000000,"state":"active","ping":52},{"user_id":503,"name":"‚∏∏aura‚∏∏","steam_id":76561198066258544,"connected_time":6504000000000,"state":"active","ping":57},{"user_id":568,"name":"trite","steam_id":76561197983765323,"connected_time":2297000000000,"state":"active","ping":53},{"user_id":433,"name":"Fran","steam_id":76561199070516960,"connected_time":13335000000000,"state":"active","ping":71},{"user_id":570,"name":"A Shoelace","steam_id":76561198126726364,"connected_time":2279000000000,"state":"active","ping":60},{"user_id":584,"name":"Fatmagic Mukbang ASMR","steam_id":76561198063492110,"connected_time":1163000000000,"state":"active","ping":83},{"user_id":556,"name":".:TEAM:. Rusty‚Ñ¢","steam_id":76561198042400381,"connected_time":3711000000000,"state":"active","ping":56},{"user_id":575,"name":"Max Andrew","steam_id":76561198158955194,"connected_time":2023000000000,"state":"active","ping":60},{"user_id":589,"name":"–ó–∞–¥–Ω–µ–ø—Ä–æ—Ö–æ–¥–µ—Ü","steam_id":76561198059741978,"connected_time":404000000000,"state":"active","ping":88},{"user_id":581,"name":"SneaK","steam_id":76561198280344773,"connected_time":1780000000000,"state":"active","ping":95},{"user_id":510,"name":"Dr. Funkenstein","steam_id":76561197977816210,"connected_time":5545000000000,"state":"active","ping":61}]},{"server_id":114,"name":"Uncletopia | London | 2 | All Maps","name_short":"lon-2","host":"lon-1.uk.uncletopia.com","port":27025,"enabled":true,"region":"eu","cc":"gb","latitude":51.509865,"longitude":-0.118092,"reserved":0,"last_update":"0001-01-01T00:00:00Z","name_a2s":"Uncletopia | London | 2 | All Maps","protocol":17,"map":"cp_dustbowl","folder":"tf","game":"Team Fortress","app_id":440,"player_count":23,"max_players":24,"Bots":0,"server_type":"Dedicated","server_os":"Linux","password":true,"vac":true,"version":"7961495","steam_id":85568392924470941,"keywords":["cp","nocrits","nodmgspread","uncletopia"],"game_id":440,"stv_port":27026,"stv_name":"Uncletopia | London | 2 | All Maps | STV","players":[{"user_id":373,"name":"Sir Sammie","steam_id":76561198329808137,"connected_time":511000000000,"state":"active","ping":50},{"user_id":355,"name":"Gaius","steam_id":76561198188174963,"connected_time":1235000000000,"state":"active","ping":42},{"user_id":328,"name":"The Beverage","steam_id":76561198046967039,"connected_time":3832000000000,"state":"active","ping":83},{"user_id":363,"name":"A.D.H.|Artem","steam_id":76561198041801369,"connected_time":810000000000,"state":"active","ping":90},{"user_id":365,"name":"Unsalted Butter","steam_id":76561198053118190,"connected_time":648000000000,"state":"active","ping":54},{"user_id":366,"name":"Bobertthethird","steam_id":76561199153563722,"connected_time":635000000000,"state":"active","ping":62},{"user_id":375,"name":"Albon","steam_id":76561198060378881,"connected_time":452000000000,"state":"active","ping":63},{"user_id":367,"name":"I shit myself","steam_id":76561199174310124,"connected_time":621000000000,"state":"active","ping":137},{"user_id":372,"name":"thefrenchfry","steam_id":76561198088945198,"connected_time":513000000000,"state":"active","ping":130},{"user_id":374,"name":"Delta Flowers ‚ô°","steam_id":76561198434811706,"connected_time":477000000000,"state":"active","ping":50},{"user_id":354,"name":"stunner10","steam_id":76561198119230998,"connected_time":1276000000000,"state":"active","ping":83},{"user_id":377,"name":"Musse","steam_id":76561198054731076,"connected_time":398000000000,"state":"active","ping":70},{"user_id":388,"name":"aberatus","steam_id":76561197979455244,"connected_time":76000000000,"state":"active","ping":210},{"user_id":357,"name":"Tombobx","steam_id":76561198862443949,"connected_time":1151000000000,"state":"active","ping":63},{"user_id":384,"name":"Bonca","steam_id":76561198137503531,"connected_time":267000000000,"state":"active","ping":74},{"user_id":345,"name":"hbivnm","steam_id":76561197996468677,"connected_time":1895000000000,"state":"active","ping":70},{"user_id":380,"name":"wurlmon","steam_id":76561198113052745,"connected_time":346000000000,"state":"active","ping":68},{"user_id":381,"name":"IDFFA","steam_id":76561199012434188,"connected_time":345000000000,"state":"active","ping":96},{"user_id":382,"name":"Cezaru7252","steam_id":76561198815955374,"connected_time":343000000000,"state":"active","ping":100},{"user_id":385,"name":"MuchoBroke","steam_id":76561199389474207,"connected_time":253000000000,"state":"active","ping":42},{"user_id":386,"name":"screenshot2020-25-09","steam_id":76561198255275650,"connected_time":232000000000,"state":"active","ping":51},{"user_id":391,"name":"Ursanshou","steam_id":76561198232811524,"connected_time":22000000000,"state":"spawning","ping":45}]},{"server_id":320,"name":"Uncletopia | London | 3 | All Maps","name_short":"lon-3","host":"lon-1.uk.uncletopia.com","port":27035,"enabled":true,"region":"eu","cc":"gb","latitude":51.509865,"longitude":-0.118092,"reserved":0,"last_update":"0001-01-01T00:00:00Z","name_a2s":"Uncletopia | London | 3 | All Maps","protocol":17,"map":"pl_borneo","folder":"tf","game":"Team Fortress","app_id":440,"player_count":23,"max_players":24,"Bots":0,"server_type":"Dedicated","server_os":"Linux","password":true,"vac":true,"version":"7961495","steam_id":85568392924510192,"keywords":["nocrits","nodmgspread","payload","uncletopia"],"game_id":440,"stv_port":27036,"stv_name":"Uncletopia | London | 3 | All Maps | STV","players":[{"user_id":203,"name":"Margaret Thatcher","steam_id":76561198124463930,"connected_time":1563000000000,"state":"active","ping":44},{"user_id":228,"name":"an idiot","steam_id":76561198172542535,"connected_time":573000000000,"state":"active","ping":88},{"user_id":222,"name":"TheBeardedM1G","steam_id":76561198040208946,"connected_time":844000000000,"state":"active","ping":44},{"user_id":225,"name":"Birch","steam_id":76561197998712822,"connected_time":667000000000,"state":"active","ping":45},{"user_id":217,"name":"Sp@ckoF@tzo","steam_id":76561198055438173,"connected_time":1022000000000,"state":"active","ping":59},{"user_id":238,"name":"Stefanos","steam_id":76561198132237302,"connected_time":177000000000,"state":"active","ping":73},{"user_id":227,"name":"Sippie","steam_id":76561198130393388,"connected_time":585000000000,"state":"active","ping":68},{"user_id":204,"name":"Amiriki","steam_id":76561198005050734,"connected_time":1554000000000,"state":"active","ping":58},{"user_id":198,"name":"Tort","steam_id":76561198329646769,"connected_time":1673000000000,"state":"active","ping":54},{"user_id":205,"name":"‚ô•BlueGIRL64‚ô•","steam_id":76561198443876365,"connected_time":1550000000000,"state":"active","ping":80},{"user_id":206,"name":"Lemmy","steam_id":76561199038870751,"connected_time":1542000000000,"state":"active","ping":65},{"user_id":230,"name":"My name is jeff","steam_id":76561198140265083,"connected_time":507000000000,"state":"active","ping":98},{"user_id":166,"name":"Life goes on","steam_id":76561198103978102,"connected_time":3711000000000,"state":"active","ping":75},{"user_id":211,"name":"BardiBoi","steam_id":76561197985615971,"connected_time":1353000000000,"state":"active","ping":71},{"user_id":235,"name":"After8","steam_id":76561198090750865,"connected_time":316000000000,"state":"active","ping":69},{"user_id":231,"name":"lexa","steam_id":76561198153381971,"connected_time":496000000000,"state":"active","ping":86},{"user_id":232,"name":"nobodyy","steam_id":76561198027735766,"connected_time":478000000000,"state":"active","ping":70},{"user_id":233,"name":"Kamanie","steam_id":76561198135448255,"connected_time":446000000000,"state":"active","ping":74},{"user_id":236,"name":"Peat","steam_id":76561197992168067,"connected_time":312000000000,"state":"active","ping":69},{"user_id":237,"name":"Locke","steam_id":76561198339408300,"connected_time":299000000000,"state":"active","ping":59},{"user_id":191,"name":"Christmas Ham","steam_id":76561198119601623,"connected_time":2270000000000,"state":"active","ping":52},{"user_id":172,"name":"peeka","steam_id":76561198221122068,"connected_time":3085000000000,"state":"active","ping":50},{"user_id":210,"name":"groyper_8814_bligger","steam_id":76561198276691164,"connected_time":1501000000000,"state":"active","ping":65}]},{"server_id":321,"name":"Uncletopia | London | 4 | All Maps","name_short":"lon-4","host":"lon-1.uk.uncletopia.com","port":27045,"enabled":true,"region":"eu","cc":"gb","latitude":51.509865,"longitude":-0.118092,"reserved":0,"last_update":"0001-01-01T00:00:00Z","name_a2s":"Uncletopia | London | 4 | All Maps","protocol":17,"map":"pl_barnblitz","folder":"tf","game":"Team Fortress","app_id":440,"player_count":24,"max_players":24,"Bots":0,"server_type":"Dedicated","server_os":"Linux","password":true,"vac":true,"version":"7961495","steam_id":85568392924510193,"keywords":["nocrits","nodmgspread","payload","uncletopia"],"game_id":440,"stv_port":27046,"stv_name":"Uncletopia | London | 4 | All Maps | STV","players":[{"user_id":541,"name":"Doecheldorf","steam_id":76561198291628630,"connected_time":739000000000,"state":"active","ping":60},{"user_id":544,"name":"Average Engineer Enjoyer","steam_id":76561198298618127,"connected_time":628000000000,"state":"active","ping":73},{"user_id":527,"name":"krokodil addict","steam_id":76561198314853430,"connected_time":903000000000,"state":"active","ping":60},{"user_id":462,"name":"Pottery Knight","steam_id":76561198094455814,"connected_time":4482000000000,"state":"active","ping":78},{"user_id":546,"name":"cazador","steam_id":76561198123096922,"connected_time":444000000000,"state":"active","ping":102},{"user_id":530,"name":"Mr. Hunts","steam_id":76561197981910397,"connected_time":875000000000,"state":"active","ping":66},{"user_id":531,"name":"Bobo","steam_id":76561198052308399,"connected_time":853000000000,"state":"active","ping":69},{"user_id":542,"name":"Karahieb","steam_id":76561197972670214,"connected_time":718000000000,"state":"active","ping":69},{"user_id":521,"name":"Weegad Wobus","steam_id":76561199429562693,"connected_time":1123000000000,"state":"active","ping":96},{"user_id":535,"name":"VK2124 :D","steam_id":76561198111130688,"connected_time":817000000000,"state":"active","ping":59},{"user_id":519,"name":"MK-Ultra Violence","steam_id":76561198081328238,"connected_time":1447000000000,"state":"active","ping":74},{"user_id":547,"name":"UnaSimpleBatata","steam_id":76561199008490451,"connected_time":353000000000,"state":"active","ping":94},{"user_id":453,"name":"Yodas Brother","steam_id":76561197970375663,"connected_time":4686000000000,"state":"active","ping":80},{"user_id":523,"name":"Lessoz","steam_id":76561199211572036,"connected_time":1006000000000,"state":"active","ping":85},{"user_id":537,"name":"|Bobby|","steam_id":76561198154208319,"connected_time":801000000000,"state":"active","ping":69},{"user_id":525,"name":"SoaCrow","steam_id":76561198069420717,"connected_time":941000000000,"state":"active","ping":72},{"user_id":538,"name":"-RRAZALAS","steam_id":76561198043604364,"connected_time":780000000000,"state":"active","ping":74},{"user_id":539,"name":"ALEXSPUDMAN","steam_id":76561198804885423,"connected_time":767000000000,"state":"active","ping":77},{"user_id":548,"name":"NovaByte","steam_id":76561199024222387,"connected_time":331000000000,"state":"active","ping":57},{"user_id":407,"name":"AetheR","steam_id":76561198005418838,"connected_time":5720000000000,"state":"active","ping":83},{"user_id":414,"name":"denimchicken","steam_id":76561197989061982,"connected_time":5400000000000,"state":"active","ping":90},{"user_id":540,"name":"Carpetspill","steam_id":76561198240023406,"connected_time":763000000000,"state":"active","ping":165},{"user_id":511,"name":"baver","steam_id":76561198135293142,"connected_time":2171000000000,"state":"active","ping":64},{"user_id":543,"name":"Ml√°dkos","steam_id":76561198172372007,"connected_time":695000000000,"state":"active","ping":82}]},{"server_id":21,"name":"Uncletopia | London | 5 | All Maps","name_short":"lon-5","host":"lon-1.uk.uncletopia.com","port":27055,"enabled":true,"region":"eu","cc":"gb","latitude":51.509865,"longitude":-0.118092,"reserved":0,"last_update":"0001-01-01T00:00:00Z","name_a2s":"Uncletopia | London | 5 | All Maps","protocol":17,"map":"pl_badwater","folder":"tf","game":"Team Fortress","app_id":440,"player_count":23,"max_players":24,"Bots":0,"server_type":"Dedicated","server_os":"Linux","password":true,"vac":true,"version":"7961495","steam_id":85568392924742829,"keywords":["nocrits","nodmgspread","payload","uncletopia"],"game_id":440,"stv_port":27056,"stv_name":"Uncletopia | London | 5 | All Maps | STV","players":[{"user_id":301,"name":"BonnieDrag","steam_id":76561199149216429,"connected_time":518000000000,"state":"active","ping":79},{"user_id":274,"name":"Ixsus\u003c3","steam_id":76561198094756869,"connected_time":1477000000000,"state":"active","ping":66},{"user_id":268,"name":"Umby","steam_id":76561198166584580,"connected_time":1668000000000,"state":"active","ping":37},{"user_id":269,"name":"Gucci","steam_id":76561198047032755,"connected_time":1638000000000,"state":"active","ping":127},{"user_id":270,"name":"Slaksel","steam_id":76561197981041028,"connected_time":1599000000000,"state":"active","ping":95},{"user_id":302,"name":"Egor Pomidor","steam_id":76561199175688390,"connected_time":511000000000,"state":"active","ping":90},{"user_id":315,"name":"vi hava en usel regering","steam_id":76561198037978654,"connected_time":116000000000,"state":"active","ping":76},{"user_id":304,"name":"King Sans","steam_id":76561198294198517,"connected_time":486000000000,"state":"active","ping":111},{"user_id":277,"name":"cisgender clown","steam_id":76561199469909295,"connected_time":1388000000000,"state":"active","ping":69},{"user_id":298,"name":"Ismellpennies","steam_id":76561199128528323,"connected_time":839000000000,"state":"active","ping":53},{"user_id":279,"name":"Marker06","steam_id":76561198277310442,"connected_time":1373000000000,"state":"active","ping":62},{"user_id":280,"name":"clunk","steam_id":76561198836460767,"connected_time":1369000000000,"state":"active","ping":61},{"user_id":281,"name":"Jakk","steam_id":76561198041537908,"connected_time":1350000000000,"state":"active","ping":86},{"user_id":305,"name":"Pixelpete_","steam_id":76561198272574265,"connected_time":483000000000,"state":"active","ping":64},{"user_id":314,"name":"FliturbiousRex","steam_id":76561199217583334,"connected_time":224000000000,"state":"active","ping":149},{"user_id":285,"name":"Th√§as","steam_id":76561198264708239,"connected_time":1253000000000,"state":"active","ping":70},{"user_id":186,"name":"jacio","steam_id":76561199491964000,"connected_time":7959000000000,"state":"active","ping":51},{"user_id":308,"name":"cryptidTD","steam_id":76561199094314945,"connected_time":439000000000,"state":"active","ping":57},{"user_id":287,"name":"Vilmukas","steam_id":76561199106648396,"connected_time":1225000000000,"state":"active","ping":74},{"user_id":299,"name":"Pomson 6000","steam_id":76561198435297875,"connected_time":704000000000,"state":"active","ping":54},{"user_id":289,"name":"Prox","steam_id":76561198351490981,"connected_time":1186000000000,"state":"active","ping":44},{"user_id":309,"name":"Silver","steam_id":76561198175238807,"connected_time":438000000000,"state":"active","ping":50},{"user_id":300,"name":"0megaFactor","steam_id":76561198055529512,"connected_time":699000000000,"state":"active","ping":159}]},{"server_id":22,"name":"Uncletopia | London | 6 | All Maps","name_short":"lon-6","host":"lon-1.uk.uncletopia.com","port":27065,"enabled":true,"region":"eu","cc":"gb","latitude":51.509865,"longitude":-0.118092,"reserved":0,"last_update":"0001-01-01T00:00:00Z","name_a2s":"Uncletopia | London | 6 | All Maps","protocol":17,"map":"pl_frontier_final","folder":"tf","game":"Team Fortress","app_id":440,"player_count":24,"max_players":24,"Bots":0,"server_type":"Dedicated","server_os":"Linux","password":true,"vac":true,"version":"7961495","steam_id":85568392924742830,"keywords":["nocrits","nodmgspread","payload","uncletopia"],"game_id":440,"stv_port":27066,"stv_name":"Uncletopia | London | 6 | All Maps | STV","players":[{"user_id":780,"name":"BikerBilly47","steam_id":76561198104438656,"connected_time":689000000000,"state":"active","ping":68},{"user_id":710,"name":"Plep","steam_id":76561198840259819,"connected_time":6939000000000,"state":"active","ping":59},{"user_id":781,"name":"nordstream bomber","steam_id":76561199401283123,"connected_time":592000000000,"state":"active","ping":51},{"user_id":733,"name":"Haschgott 2.0","steam_id":76561198049820307,"connected_time":4384000000000,"state":"active","ping":66},{"user_id":773,"name":"Wenolainen","steam_id":76561198334592800,"connected_time":1636000000000,"state":"active","ping":89},{"user_id":735,"name":"Washburne","steam_id":76561198032810579,"connected_time":4286000000000,"state":"active","ping":51},{"user_id":775,"name":"jerkwaterberg","steam_id":76561198134165667,"connected_time":1351000000000,"state":"active","ping":49},{"user_id":689,"name":"RLCrazyCat3","steam_id":76561197983757878,"connected_time":7569000000000,"state":"active","ping":64},{"user_id":766,"name":"dartush","steam_id":76561198067506270,"connected_time":1810000000000,"state":"active","ping":84},{"user_id":767,"name":"QuantumFox","steam_id":76561198125912648,"connected_time":1810000000000,"state":"active","ping":61},{"user_id":784,"name":"..-. .- - / -. ..- -","steam_id":76561198138189069,"connected_time":41000000000,"state":"active","ping":52},{"user_id":738,"name":"Bouef","steam_id":76561198240814546,"connected_time":4171000000000,"state":"active","ping":55},{"user_id":754,"name":"Star Throne","steam_id":76561198132171027,"connected_time":3312000000000,"state":"active","ping":59},{"user_id":777,"name":"Zonddey","steam_id":76561198134885222,"connected_time":948000000000,"state":"active","ping":57},{"user_id":768,"name":"engineer drip","steam_id":76561198991032570,"connected_time":1800000000000,"state":"active","ping":91},{"user_id":769,"name":"siriusplay116","steam_id":76561199403847433,"connected_time":1762000000000,"state":"active","ping":55},{"user_id":770,"name":"crouching tiger heavy","steam_id":76561198121767390,"connected_time":1758000000000,"state":"active","ping":115},{"user_id":765,"name":"ED","steam_id":76561198441715445,"connected_time":2195000000000,"state":"active","ping":131},{"user_id":752,"name":"„ÇØ„Ç±„Ç§","steam_id":76561198215122444,"connected_time":3401000000000,"state":"active","ping":149},{"user_id":729,"name":"Jan Pawe≈Ç D≈Çugi","steam_id":76561198002849717,"connected_time":4999000000000,"state":"active","ping":85},{"user_id":771,"name":"monikka","steam_id":76561198297003397,"connected_time":1758000000000,"state":"active","ping":75},{"user_id":778,"name":"Fabric","steam_id":76561198118742661,"connected_time":913000000000,"state":"active","ping":86},{"user_id":782,"name":"ack","steam_id":76561198139796077,"connected_time":578000000000,"state":"active","ping":53},{"user_id":749,"name":"Cabanos","steam_id":76561198285337328,"connected_time":3519000000000,"state":"active","ping":75}]},{"server_id":40,"name":"Uncletopia | London | 7 | Stopwatch","name_short":"lon-7","host":"lon-1.uk.uncletopia.com","port":27075,"enabled":true,"region":"eu","cc":"gb","latitude":51.509865,"longitude":-0.118092,"reserved":0,"last_update":"0001-01-01T00:00:00Z","name_a2s":"Uncletopia | London | 7 | Stopwatch","protocol":17,"map":"koth_highpass","folder":"tf","game":"Team Fortress","app_id":440,"player_count":1,"max_players":24,"Bots":0,"server_type":"Dedicated","server_os":"Linux","password":true,"vac":true,"version":"7961495","steam_id":85568392924964314,"keywords":["cp","nocrits","nodmgspread","uncletopia"],"game_id":440,"stv_port":27076,"stv_name":"Uncletopia | London | 7 | Stopwatch | STV","players":[{"user_id":8,"name":"Gnome","steam_id":76561198263015219,"connected_time":488000000000,"state":"active","ping":60}]},{"server_id":41,"name":"Uncletopia | London | 8 | Community","name_short":"lon-8","host":"lon-1.uk.uncletopia.com","port":27085,"enabled":true,"region":"eu","cc":"gb","latitude":51.509865,"longitude":-0.118092,"reserved":0,"last_update":"0001-01-01T00:00:00Z","name_a2s":"Uncletopia | London | 8 | Community","protocol":17,"map":"workshop/koth_slaughter_rc1.ugc1712845210","folder":"tf","game":"Team Fortress","app_id":440,"player_count":0,"max_players":24,"Bots":0,"server_type":"Dedicated","server_os":"Linux","password":true,"vac":true,"version":"7961495","steam_id":85568392924964315,"keywords":["cp","nocrits","nodmgspread","uncletopia"],"game_id":440,"stv_port":27086,"stv_name":"Uncletopia | London | 8 | Community | STV","players":null},{"server_id":300,"name":"Uncletopia | Montr√©al | 1 | One Thousand Uncles","name_short":"mtl-1","host":"mtl-1.ca.uncletopia.com","port":27015,"enabled":true,"region":"us-east","cc":"ca","latitude":45.50889,"longitude":-73.56167,"reserved":0,"last_update":"0001-01-01T00:00:00Z","name_a2s":"","protocol":0,"map":"","folder":"","game":"","app_id":0,"player_count":5,"max_players":0,"Bots":0,"server_type":"","server_os":"","password":false,"vac":false,"version":"","steam_id":0,"keywords":null,"game_id":0,"stv_port":0,"stv_name":"","players":[{"user_id":88,"name":"nickname64","steam_id":76561199350406358,"connected_time":4389000000000,"state":"active","ping":96},{"user_id":105,"name":"DrMisteryous2","steam_id":76561198336307012,"connected_time":3966000000000,"state":"active","ping":168},{"user_id":109,"name":"shirifia","steam_id":76561199021919615,"connected_time":658000000000,"state":"active","ping":178},{"user_id":107,"name":"Orange","steam_id":76561198169914315,"connected_time":2607000000000,"state":"active","ping":108},{"user_id":108,"name":"Huey","steam_id":76561198972816386,"connected_time":1987000000000,"state":"active","ping":84}]},{"server_id":301,"name":"Uncletopia | Montr√©al | 2 | One Thousand Uncles","name_short":"mtl-2","host":"mtl-1.ca.uncletopia.com","port":27025,"enabled":true,"region":"us-east","cc":"ca","latitude":45.50889,"longitude":-73.56167,"reserved":0,"last_update":"0001-01-01T00:00:00Z","name_a2s":"","protocol":0,"map":"","folder":"","game":"","app_id":0,"player_count":2,"max_players":0,"Bots":0,"server_type":"","server_os":"","password":false,"vac":false,"version":"","steam_id":0,"keywords":null,"game_id":0,"stv_port":0,"stv_name":"","players":[{"user_id":39,"name":"Not_so_Mlg_boy_1217","steam_id":76561198406883484,"connected_time":1035000000000,"state":"active","ping":87},{"user_id":22,"name":"Territe","steam_id":76561199122213824,"connected_time":2326000000000,"state":"active","ping":54}]},{"server_id":302,"name":"Uncletopia | Montr√©al | 3 | One Thousand Uncles","name_short":"mtl-3","host":"mtl-1.ca.uncletopia.com","port":27035,"enabled":true,"region":"us-east","cc":"ca","latitude":45.50889,"longitude":-73.56167,"reserved":0,"last_update":"0001-01-01T00:00:00Z","name_a2s":"","protocol":0,"map":"","folder":"","game":"","app_id":0,"player_count":9,"max_players":0,"Bots":0,"server_type":"","server_os":"","password":false,"vac":false,"version":"","steam_id":0,"keywords":null,"game_id":0,"stv_port":0,"stv_name":"","players":[{"user_id":114,"name":"bundykeats","steam_id":76561199214099646,"connected_time":578000000000,"state":"active","ping":73},{"user_id":101,"name":"DoggyDogWhirl","steam_id":76561198042841344,"connected_time":3154000000000,"state":"active","ping":59},{"user_id":115,"name":"tf2 tourist","steam_id":76561198850438326,"connected_time":217000000000,"state":"active","ping":54},{"user_id":109,"name":"Cyberwhale","steam_id":76561198086305971,"connected_time":1267000000000,"state":"active","ping":87},{"user_id":98,"name":"Canuck","steam_id":76561197999152255,"connected_time":4491000000000,"state":"active","ping":107},{"user_id":111,"name":"CamWtheDestroyer","steam_id":76561198950777742,"connected_time":1049000000000,"state":"active","ping":152},{"user_id":112,"name":"delta73094","steam_id":76561199298039865,"connected_time":985000000000,"state":"active","ping":451},{"user_id":113,"name":"e0e0","steam_id":76561198293839750,"connected_time":883000000000,"state":"active","ping":54},{"user_id":108,"name":"‚ú†‚ú†killer174hun‚ú†‚ú†","steam_id":76561198210135897,"connected_time":1985000000000,"state":"active","ping":167}]},{"server_id":13,"name":"Uncletopia | New York City | 1 | All Maps","name_short":"nyc-1","host":"nyc-1.us.uncletopia.com","port":27015,"enabled":true,"region":"us-east","cc":"us","latitude":40.73061,"longitude":-73.93524,"reserved":0,"last_update":"0001-01-01T00:00:00Z","name_a2s":"Uncletopia | New York City | 1 | All Maps","protocol":17,"map":"koth_viaduct","folder":"tf","game":"Team Fortress","app_id":440,"player_count":24,"max_players":24,"Bots":0,"server_type":"Dedicated","server_os":"Linux","password":true,"vac":true,"version":"7961495","steam_id":85568392924469993,"keywords":["cp","nocrits","nodmgspread","uncletopia"],"game_id":440,"stv_port":27016,"stv_name":"Uncletopia | New York City | 1 | All Maps | STV","players":[{"user_id":285,"name":"DJ Chalice","steam_id":76561197974872458,"connected_time":963000000000,"state":"active","ping":65},{"user_id":247,"name":"Shemply","steam_id":76561198193658910,"connected_time":4522000000000,"state":"active","ping":90},{"user_id":298,"name":"garbuglio","steam_id":76561198012371111,"connected_time":82000000000,"state":"active","ping":60},{"user_id":283,"name":"Sergeant Joker LFT","steam_id":76561198854616604,"connected_time":1188000000000,"state":"active","ping":60},{"user_id":286,"name":"UnlivingSkunk","steam_id":76561198324517387,"connected_time":959000000000,"state":"active","ping":48},{"user_id":272,"name":"Awenova","steam_id":76561198322928940,"connected_time":2492000000000,"state":"active","ping":109},{"user_id":251,"name":"FIJI","steam_id":76561198126087725,"connected_time":4114000000000,"state":"active","ping":56},{"user_id":287,"name":":)","steam_id":76561198982415497,"connected_time":939000000000,"state":"active","ping":131},{"user_id":279,"name":"Big Milk","steam_id":76561198066904836,"connected_time":1841000000000,"state":"active","ping":77},{"user_id":288,"name":"P.U. Poopenhauser","steam_id":76561198012093679,"connected_time":876000000000,"state":"active","ping":84},{"user_id":214,"name":"Spiral Mountain","steam_id":76561198058683715,"connected_time":7817000000000,"state":"active","ping":71},{"user_id":293,"name":"M249 | Spectre","steam_id":76561198118334485,"connected_time":579000000000,"state":"active","ping":63},{"user_id":231,"name":"epsilene","steam_id":76561198027468624,"connected_time":5574000000000,"state":"active","ping":45},{"user_id":289,"name":"bobbymcbobington","steam_id":76561199089411172,"connected_time":824000000000,"state":"active","ping":124},{"user_id":255,"name":"Bubbly","steam_id":76561199014095959,"connected_time":3420000000000,"state":"active","ping":67},{"user_id":290,"name":"mountainkug","steam_id":76561199491802535,"connected_time":813000000000,"state":"active","ping":63},{"user_id":29,"name":"Minister of God","steam_id":76561198044278802,"connected_time":21394000000000,"state":"active","ping":53},{"user_id":292,"name":"Novu","steam_id":76561198886997024,"connected_time":666000000000,"state":"active","ping":75},{"user_id":284,"name":"joe","steam_id":76561198045781320,"connected_time":1142000000000,"state":"active","ping":50},{"user_id":280,"name":"wool","steam_id":76561198869689933,"connected_time":1548000000000,"state":"active","ping":54},{"user_id":282,"name":"Two-Teste Tommy","steam_id":76561198064308936,"connected_time":1261000000000,"state":"active","ping":60},{"user_id":297,"name":"TRANSGENDER ROBOTNIK","steam_id":76561198371941425,"connected_time":218000000000,"state":"active","ping":52},{"user_id":296,"name":"mountain goat","steam_id":76561198326628884,"connected_time":427000000000,"state":"active","ping":61},{"user_id":263,"name":"Chilledr","steam_id":76561198799250315,"connected_time":3177000000000,"state":"active","ping":69}]},{"server_id":14,"name":"Uncletopia | New York City | 2 | All Maps","name_short":"nyc-2","host":"nyc-1.us.uncletopia.com","port":27025,"enabled":true,"region":"us-east","cc":"us","latitude":40.73061,"longitude":-73.93524,"reserved":0,"last_update":"0001-01-01T00:00:00Z","name_a2s":"Uncletopia | New York City | 2 | All Maps","protocol":17,"map":"koth_harvest_final","folder":"tf","game":"Team Fortress","app_id":440,"player_count":1,"max_players":24,"Bots":0,"server_type":"Dedicated","server_os":"Linux","password":true,"vac":true,"version":"7961495","steam_id":85568392924469994,"keywords":["cp","nocrits","nodmgspread","uncletopia"],"game_id":440,"stv_port":27026,"stv_name":"Uncletopia | New York City | 2 | All Maps | STV","players":[{"user_id":92,"name":"Yeti","steam_id":76561198176049478,"connected_time":31000000000,"state":"active","ping":63}]},{"server_id":15,"name":"Uncletopia | New York City | 3 | Stopwatch","name_short":"nyc-3","host":"nyc-1.us.uncletopia.com","port":27035,"enabled":true,"region":"us-east","cc":"us","latitude":40.73061,"longitude":-73.93524,"reserved":0,"last_update":"0001-01-01T00:00:00Z","name_a2s":"Uncletopia | New York City | 3 | Stopwatch","protocol":17,"map":"workshop/koth_ashville_final.ugc2130459942","folder":"tf","game":"Team Fortress","app_id":440,"player_count":0,"max_players":24,"Bots":0,"server_type":"Dedicated","server_os":"Linux","password":true,"vac":true,"version":"7961495","steam_id":85568392924742820,"keywords":["cp","nocrits","nodmgspread","uncletopia"],"game_id":440,"stv_port":27036,"stv_name":"Uncletopia | New York City | 3 | Stopwatch | STV","players":null},{"server_id":16,"name":"Uncletopia | New York City | 4 | Community","name_short":"nyc-4","host":"nyc-1.us.uncletopia.com","port":27045,"enabled":true,"region":"us-east","cc":"us","latitude":40.73061,"longitude":-73.93524,"reserved":0,"last_update":"0001-01-01T00:00:00Z","name_a2s":"Uncletopia | New York City | 4 | Community","protocol":17,"map":"workshop/koth_kemptown_rc1.ugc767410655","folder":"tf","game":"Team Fortress","app_id":440,"player_count":0,"max_players":24,"Bots":0,"server_type":"Dedicated","server_os":"Linux","password":true,"vac":true,"version":"7961495","steam_id":85568392924742821,"keywords":["cp","nocrits","nodmgspread","uncletopia"],"game_id":440,"stv_port":27046,"stv_name":"Uncletopia | New York City | 4 | Community | STV","players":null},{"server_id":142,"name":"Uncletopia | S√£o Paulo | 1 | All Maps","name_short":"sao-1","host":"sao-1.br.uncletopia.com","port":27015,"enabled":true,"region":"sa","cc":"br","latitude":-23.533773,"longitude":-46.62529,"reserved":0,"last_update":"0001-01-01T00:00:00Z","name_a2s":"Uncletopia | S√£o Paulo | 1 | All Maps","protocol":17,"map":"pl_upward","folder":"tf","game":"Team Fortress","app_id":440,"player_count":0,"max_players":24,"Bots":0,"server_type":"Dedicated","server_os":"Linux","password":true,"vac":true,"version":"7961495","steam_id":85568392924469996,"keywords":["nocrits","nodmgspread","payload","uncletopia"],"game_id":440,"stv_port":27016,"stv_name":"Uncletopia | S√£o Paulo | 1 | All Maps | STV","players":null},{"server_id":143,"name":"Uncletopia | S√£o Paulo | 2 | Community","name_short":"sao-2","host":"sao-2.br.uncletopia.com","port":27015,"enabled":true,"region":"sa","cc":"br","latitude":-23.533773,"longitude":-46.62529,"reserved":0,"last_update":"0001-01-01T00:00:00Z","name_a2s":"Uncletopia | S√£o Paulo | 2 | Community","protocol":17,"map":"workshop/koth_trenchfoot_ab1.ugc731436616","folder":"tf","game":"Team Fortress","app_id":440,"player_count":0,"max_players":24,"Bots":0,"server_type":"Dedicated","server_os":"Linux","password":true,"vac":true,"version":"7961495","steam_id":85568392924485349,"keywords":["cp","nocrits","nodmgspread","uncletopia"],"game_id":440,"stv_port":27016,"stv_name":"Uncletopia | S√£o Paulo | 2 | Community | STV","players":null},{"server_id":7,"name":"Uncletopia | Seattle | 1 | All Maps","name_short":"sea-1","host":"sea-1.us.uncletopia.com","port":27015,"enabled":true,"region":"us-west","cc":"us","latitude":47.608013,"longitude":-122.33517,"reserved":0,"last_update":"0001-01-01T00:00:00Z","name_a2s":"Uncletopia | Seattle | 1 | All Maps","protocol":17,"map":"cp_coldfront","folder":"tf","game":"Team Fortress","app_id":440,"player_count":24,"max_players":24,"Bots":0,"server_type":"Dedicated","server_os":"Linux","password":true,"vac":true,"version":"7961495","steam_id":85568392924469997,"keywords":["cp","nocrits","nodmgspread","uncletopia"],"game_id":440,"stv_port":27016,"stv_name":"Uncletopia | Seattle | 1 | All Maps | STV","players":[{"user_id":280,"name":"RoraBeth","steam_id":76561197999432246,"connected_time":4823000000000,"state":"active","ping":30},{"user_id":337,"name":"protester","steam_id":76561198301080836,"connected_time":299000000000,"state":"active","ping":109},{"user_id":298,"name":"SanitysEdge","steam_id":76561198130732813,"connected_time":2693000000000,"state":"active","ping":71},{"user_id":331,"name":"Big Jon","steam_id":76561198402285099,"connected_time":510000000000,"state":"active","ping":61},{"user_id":318,"name":"Grilled Jizo","steam_id":76561199250875340,"connected_time":1545000000000,"state":"active","ping":61},{"user_id":288,"name":"EAT SPIT!","steam_id":76561198096836451,"connected_time":3942000000000,"state":"active","ping":61},{"user_id":274,"name":"Chauncey von Snuffles III","steam_id":76561198021784746,"connected_time":4996000000000,"state":"active","ping":112},{"user_id":340,"name":"Scorpianswag","steam_id":76561198260651036,"connected_time":114000000000,"state":"active","ping":60},{"user_id":289,"name":"Walter","steam_id":76561198084650694,"connected_time":3706000000000,"state":"active","ping":121},{"user_id":330,"name":"Dog","steam_id":76561198041841128,"connected_time":534000000000,"state":"active","ping":79},{"user_id":327,"name":"Emmy Kat","steam_id":76561198185115417,"connected_time":682000000000,"state":"active","ping":58},{"user_id":328,"name":"ShackerJack","steam_id":76561198118017448,"connected_time":656000000000,"state":"active","ping":58},{"user_id":296,"name":"Dimple","steam_id":76561198980324190,"connected_time":2730000000000,"state":"active","ping":50},{"user_id":338,"name":"resh!","steam_id":76561198066619792,"connected_time":219000000000,"state":"active","ping":77},{"user_id":336,"name":"Banana Spaceman","steam_id":76561198818165130,"connected_time":324000000000,"state":"active","ping":112},{"user_id":323,"name":"TheMagicMrWaffle","steam_id":76561198104357256,"connected_time":1263000000000,"state":"active","ping":67},{"user_id":320,"name":"the keebler","steam_id":76561199486326945,"connected_time":1515000000000,"state":"active","ping":121},{"user_id":314,"name":"Whimsy!","steam_id":76561197989578836,"connected_time":1871000000000,"state":"active","ping":60},{"user_id":297,"name":"its boiled","steam_id":76561198042600523,"connected_time":2729000000000,"state":"active","ping":103},{"user_id":332,"name":"BigBubble42","steam_id":76561198136286123,"connected_time":492000000000,"state":"active","ping":82},{"user_id":335,"name":"Gwuf","steam_id":76561198091503282,"connected_time":359000000000,"state":"active","ping":90},{"user_id":333,"name":"Paperclip","steam_id":76561198057076337,"connected_time":468000000000,"state":"active","ping":50},{"user_id":334,"name":"Nurew","steam_id":76561198052589498,"connected_time":385000000000,"state":"active","ping":62},{"user_id":325,"name":"Whyamidoingthisaaaa","steam_id":76561199168837342,"connected_time":1109000000000,"state":"active","ping":106}]},{"server_id":119,"name":"Uncletopia | Seattle | 2 | All Maps","name_short":"sea-2","host":"sea-1.us.uncletopia.com","port":27025,"enabled":true,"region":"us-west","cc":"us","latitude":47.608013,"longitude":-122.33517,"reserved":0,"last_update":"0001-01-01T00:00:00Z","name_a2s":"Uncletopia | Seattle | 2 | All Maps","protocol":17,"map":"koth_lakeside_final","folder":"tf","game":"Team Fortress","app_id":440,"player_count":0,"max_players":24,"Bots":0,"server_type":"Dedicated","server_os":"Linux","password":true,"vac":true,"version":"7961495","steam_id":85568392924469998,"keywords":["cp","nocrits","nodmgspread","uncletopia"],"game_id":440,"stv_port":27026,"stv_name":"Uncletopia | Seattle | 2 | All Maps | STV","players":null},{"server_id":406,"name":"Uncletopia | Seattle | 3 | Stopwatch","name_short":"sea-3","host":"sea-1.us.uncletopia.com","port":27035,"enabled":true,"region":"us-west","cc":"us","latitude":47.608013,"longitude":-122.33517,"reserved":0,"last_update":"0001-01-01T00:00:00Z","name_a2s":"Uncletopia | Seattle | 3 | Stopwatch","protocol":17,"map":"workshop/pl_badwater_pro_v12.ugc2142942074","folder":"tf","game":"Team Fortress","app_id":440,"player_count":0,"max_players":24,"Bots":0,"server_type":"Dedicated","server_os":"Linux","password":true,"vac":true,"version":"7961495","steam_id":85568392924515217,"keywords":["nocrits","nodmgspread","payload","uncletopia"],"game_id":440,"stv_port":27036,"stv_name":"Uncletopia | Seattle | 3 | Stopwatch | STV","players":null},{"server_id":17,"name":"Uncletopia | San Francisco | 1 | All Maps","name_short":"sfo-1","host":"sfo-1.us.uncletopia.com","port":27015,"enabled":true,"region":"us-west","cc":"us","latitude":37.77397,"longitude":-122.4313,"reserved":0,"last_update":"0001-01-01T00:00:00Z","name_a2s":"Uncletopia | San Francisco | 1 | All Maps","protocol":17,"map":"koth_cascade","folder":"tf","game":"Team Fortress","app_id":440,"player_count":0,"max_players":24,"Bots":0,"server_type":"Dedicated","server_os":"Linux","password":true,"vac":true,"version":"7961495","steam_id":85568392924469999,"keywords":["cp","nocrits","nodmgspread","uncletopia"],"game_id":440,"stv_port":27016,"stv_name":"Uncletopia | San Francisco | 1 | All Maps | STV","players":null},{"server_id":18,"name":"Uncletopia | San Francisco | 2 | All Maps","name_short":"sfo-2","host":"sfo-1.us.uncletopia.com","port":27025,"enabled":true,"region":"us-west","cc":"us","latitude":37.77397,"longitude":-122.4313,"reserved":0,"last_update":"0001-01-01T00:00:00Z","name_a2s":"Uncletopia | San Francisco | 2 | All Maps","protocol":17,"map":"pl_frontier_final","folder":"tf","game":"Team Fortress","app_id":440,"player_count":0,"max_players":24,"Bots":0,"server_type":"Dedicated","server_os":"Linux","password":true,"vac":true,"version":"7961495","steam_id":85568392924470000,"keywords":["nocrits","nodmgspread","payload","uncletopia"],"game_id":440,"stv_port":27026,"stv_name":"Uncletopia | San Francisco | 2 | All Maps | STV","players":null},{"server_id":19,"name":"Uncletopia | San Francisco | 3 | Stopwatch","name_short":"sfo-3","host":"sfo-1.us.uncletopia.com","port":27035,"enabled":true,"region":"us-west","cc":"us","latitude":37.77397,"longitude":-122.4313,"reserved":0,"last_update":"0001-01-01T00:00:00Z","name_a2s":"Uncletopia | San Francisco | 3 | Stopwatch","protocol":17,"map":"workshop/cp_process_f12.ugc2302948105","folder":"tf","game":"Team Fortress","app_id":440,"player_count":0,"max_players":24,"Bots":0,"server_type":"Dedicated","server_os":"Linux","password":true,"vac":true,"version":"7961495","steam_id":85568392924742824,"keywords":["nocrits","nodmgspread","payload","uncletopia"],"game_id":440,"stv_port":27036,"stv_name":"Uncletopia | San Francisco | 3 | Stopwatch | STV","players":null},{"server_id":20,"name":"Uncletopia | San Francisco | 4 | Community","name_short":"sfo-4","host":"sfo-1.us.uncletopia.com","port":27045,"enabled":true,"region":"us-west","cc":"us","latitude":37.77397,"longitude":-122.4313,"reserved":0,"last_update":"0001-01-01T00:00:00Z","name_a2s":"Uncletopia | San Francisco | 4 | Community","protocol":17,"map":"workshop/pl_badwater_pro_v12.ugc2142942074","folder":"tf","game":"Team Fortress","app_id":440,"player_count":0,"max_players":24,"Bots":0,"server_type":"Dedicated","server_os":"Linux","password":true,"vac":true,"version":"7961495","steam_id":85568392924742826,"keywords":["nocrits","nodmgspread","payload","uncletopia"],"game_id":440,"stv_port":27046,"stv_name":"Uncletopia | San Francisco | 4 | Community | STV","players":null},{"server_id":141,"name":"Uncletopia | Sydney | 1 | All Maps","name_short":"syd-1","host":"syd-1.au.uncletopia.com","port":27015,"enabled":true,"region":"au","cc":"au","latitude":-33.865143,"longitude":151.2099,"reserved":0,"last_update":"0001-01-01T00:00:00Z","name_a2s":"Uncletopia | Sydney | 1 | All Maps","protocol":17,"map":"koth_highpass","folder":"tf","game":"Team Fortress","app_id":440,"player_count":0,"max_players":24,"Bots":0,"server_type":"Dedicated","server_os":"Linux","password":true,"vac":true,"version":"7961495","steam_id":85568392924470001,"keywords":["cp","nocrits","nodmgspread","uncletopia"],"game_id":440,"stv_port":27016,"stv_name":"Uncletopia | Sydney | 1 | All Maps | STV","players":null},{"server_id":123,"name":"Uncletopia | Sydney | 2 | All Maps","name_short":"syd-2","host":"syd-1.au.uncletopia.com","port":27025,"enabled":true,"region":"au","cc":"au","latitude":-33.865143,"longitude":151.2099,"reserved":0,"last_update":"0001-01-01T00:00:00Z","name_a2s":"Uncletopia | Sydney | 2 | All Maps","protocol":17,"map":"koth_highpass","folder":"tf","game":"Team Fortress","app_id":440,"player_count":0,"max_players":24,"Bots":0,"server_type":"Dedicated","server_os":"Linux","password":true,"vac":true,"version":"7961495","steam_id":85568392924470002,"keywords":["cp","nocrits","nodmgspread","uncletopia"],"game_id":440,"stv_port":27026,"stv_name":"Uncletopia | Sydney | 2 | All Maps | STV","players":null},{"server_id":395,"name":"Uncletopia | Sydney | 3 | All Maps","name_short":"syd-3","host":"syd-1.au.uncletopia.com","port":27035,"enabled":true,"region":"au","cc":"au","latitude":-33.865143,"longitude":151.2099,"reserved":0,"last_update":"0001-01-01T00:00:00Z","name_a2s":"Uncletopia | Sydney | 3 | All Maps","protocol":17,"map":"pl_badwater","folder":"tf","game":"Team Fortress","app_id":440,"player_count":0,"max_players":24,"Bots":0,"server_type":"Dedicated","server_os":"Linux","password":true,"vac":true,"version":"7961495","steam_id":85568392925194467,"keywords":["nocrits","nodmgspread","payload","uncletopia"],"game_id":440,"stv_port":27036,"stv_name":"Uncletopia | Sydney | 3 | All Maps | STV","players":null},{"server_id":396,"name":"Uncletopia | Sydney | 4 | All Maps","name_short":"syd-4","host":"syd-1.au.uncletopia.com","port":27045,"enabled":true,"region":"au","cc":"au","latitude":-33.865143,"longitude":151.2099,"reserved":0,"last_update":"0001-01-01T00:00:00Z","name_a2s":"Uncletopia | Sydney | 4 | All Maps","protocol":17,"map":"cp_dustbowl","folder":"tf","game":"Team Fortress","app_id":440,"player_count":0,"max_players":24,"Bots":0,"server_type":"Dedicated","server_os":"Linux","password":true,"vac":true,"version":"7961495","steam_id":85568392925397958,"keywords":["cp","nocrits","nodmgspread","uncletopia"],"game_id":440,"stv_port":27046,"stv_name":"Uncletopia | Sydney | 4 | All Maps | STV","players":null},{"server_id":58,"name":"Uncletopia | Sydney | 5 | Stopwatch","name_short":"syd-5","host":"syd-1.au.uncletopia.com","port":27055,"enabled":true,"region":"au","cc":"au","latitude":-33.865143,"longitude":151.2099,"reserved":0,"last_update":"0001-01-01T00:00:00Z","name_a2s":"Uncletopia | Sydney | 5 | Stopwatch","protocol":17,"map":"pl_frontier_final","folder":"tf","game":"Team Fortress","app_id":440,"player_count":0,"max_players":24,"Bots":0,"server_type":"Dedicated","server_os":"Linux","password":true,"vac":true,"version":"7961495","steam_id":85568392925397959,"keywords":["nocrits","nodmgspread","payload","uncletopia"],"game_id":440,"stv_port":27056,"stv_name":"Uncletopia | Sydney | 5 | Stopwatch | STV","players":null},{"server_id":59,"name":"Uncletopia | Sydney | 6 | Community","name_short":"syd-6","host":"syd-1.au.uncletopia.com","port":27065,"enabled":true,"region":"au","cc":"au","latitude":-33.865143,"longitude":151.2099,"reserved":0,"last_update":"0001-01-01T00:00:00Z","name_a2s":"Uncletopia | Sydney | 6 | Community","protocol":17,"map":"workshop/cp_bruhstbowl_b6.ugc2878604990","folder":"tf","game":"Team Fortress","app_id":440,"player_count":0,"max_players":24,"Bots":0,"server_type":"Dedicated","server_os":"Linux","password":true,"vac":true,"version":"7961495","steam_id":85568392925397960,"keywords":["cp","nocrits","nodmgspread","uncletopia"],"game_id":440,"stv_port":27066,"stv_name":"Uncletopia | Sydney | 6 | Community | STV","players":null},{"server_id":49,"name":"Uncletopia | Warsaw | 1 | One Thousand Uncles","name_short":"waw-1","host":"waw-1.pl.uncletopia.com","port":27015,"enabled":true,"region":"eu","cc":"pl","latitude":52.2297,"longitude":21.017532,"reserved":0,"last_update":"0001-01-01T00:00:00Z","name_a2s":"Uncletopia | Warsaw | 1 | One Thousand Uncles","protocol":17,"map":"pl_thundermountain","folder":"tf","game":"Team Fortress","app_id":440,"player_count":29,"max_players":32,"Bots":16,"server_type":"Dedicated","server_os":"Linux","password":true,"vac":true,"version":"7961495","steam_id":85568392925397850,"keywords":["alltalk","bots","danepve","increased_maxplayers","nocrits","norespawntime","payload","uncletopia"],"game_id":440,"stv_port":0,"stv_name":"","players":[{"user_id":443,"name":"vurtun","steam_id":76561198857395274,"connected_time":840000000000,"state":"active","ping":53},{"user_id":452,"name":"Jazzman","steam_id":76561198060638643,"connected_time":17000000000,"state":"spawning","ping":92},{"user_id":404,"name":"ruffeeh","steam_id":76561197995517185,"connected_time":2705000000000,"state":"active","ping":63},{"user_id":449,"name":"Frying Pan gaming","steam_id":76561199230315253,"connected_time":307000000000,"state":"active","ping":38},{"user_id":321,"name":"Riky95","steam_id":76561198095289436,"connected_time":7758000000000,"state":"active","ping":61},{"user_id":373,"name":"hmm yes","steam_id":76561198170322809,"connected_time":3838000000000,"state":"active","ping":69},{"user_id":451,"name":"kakash","steam_id":76561199420637314,"connected_time":33000000000,"state":"active","ping":75},{"user_id":439,"name":"Skull_Dragger","steam_id":76561199031694186,"connected_time":1395000000000,"state":"active","ping":87},{"user_id":416,"name":"Max Power","steam_id":76561198019269089,"connected_time":1933000000000,"state":"active","ping":66},{"user_id":375,"name":"ùíØùìáùìäùìàùìÅùí∂ùìã228","steam_id":76561199229195988,"connected_time":3778000000000,"state":"active","ping":103},{"user_id":396,"name":"Djingis Khan","steam_id":76561197967864460,"connected_time":3395000000000,"state":"active","ping":59},{"user_id":438,"name":"kay97323","steam_id":76561199171155460,"connected_time":1456000000000,"state":"active","ping":86},{"user_id":398,"name":"Trustworthy_Fish","steam_id":76561198838934696,"connected_time":3240000000000,"state":"active","ping":59}]},{"server_id":50,"name":"Uncletopia | Warsaw | 2 | One Thousand Uncles","name_short":"waw-2","host":"waw-1.pl.uncletopia.com","port":27025,"enabled":true,"region":"eu","cc":"pl","latitude":52.2297,"longitude":21.017532,"reserved":0,"last_update":"0001-01-01T00:00:00Z","name_a2s":"Uncletopia | Warsaw | 2 | One Thousand Uncles","protocol":17,"map":"pl_swiftwater_final1","folder":"tf","game":"Team Fortress","app_id":440,"player_count":0,"max_players":32,"Bots":0,"server_type":"Dedicated","server_os":"Linux","password":true,"vac":true,"version":"7961495","steam_id":85568392925397851,"keywords":["alltalk","danepve","increased_maxplayers","nocrits","norespawntime","payload","uncletopia"],"game_id":440,"stv_port":0,"stv_name":"","players":null},{"server_id":51,"name":"Uncletopia | Warsaw | 3 | All Maps","name_short":"waw-3","host":"waw-1.pl.uncletopia.com","port":27035,"enabled":true,"region":"eu","cc":"pl","latitude":52.2297,"longitude":21.017532,"reserved":0,"last_update":"0001-01-01T00:00:00Z","name_a2s":"Uncletopia | Warsaw | 3 | All Maps","protocol":17,"map":"pl_frontier_final","folder":"tf","game":"Team Fortress","app_id":440,"player_count":22,"max_players":24,"Bots":0,"server_type":"Dedicated","server_os":"Linux","password":true,"vac":true,"version":"7961495","steam_id":85568392925397852,"keywords":["nocrits","nodmgspread","payload","uncletopia"],"game_id":440,"stv_port":27036,"stv_name":"Uncletopia | Warsaw | 3 | All Maps | STV","players":[{"user_id":21,"name":"Piesel","steam_id":76561198985453063,"connected_time":3135000000000,"state":"active","ping":49},{"user_id":19,"name":"Jesse Dinkman","steam_id":76561198262996078,"connected_time":3553000000000,"state":"active","ping":107},{"user_id":20,"name":"Hostile neighborhood femboy","steam_id":76561198799133372,"connected_time":3517000000000,"state":"active","ping":102},{"user_id":58,"name":"Admiral Ackbar","steam_id":76561198131881705,"connected_time":53000000000,"state":"active","ping":89},{"user_id":23,"name":"Yuzu","steam_id":76561198121694613,"connected_time":2970000000000,"state":"active","ping":63},{"user_id":59,"name":"leo","steam_id":76561198090848620,"connected_time":53000000000,"state":"active","ping":79},{"user_id":25,"name":"smosh gaming","steam_id":76561198821743257,"connected_time":2611000000000,"state":"active","ping":95},{"user_id":26,"name":"Jemixz","steam_id":76561198075766516,"connected_time":2574000000000,"state":"active","ping":60},{"user_id":27,"name":"mexswall","steam_id":76561198075748245,"connected_time":2556000000000,"state":"active","ping":69},{"user_id":28,"name":"Gameing","steam_id":76561198199687607,"connected_time":2416000000000,"state":"active","ping":68},{"user_id":33,"name":"JVLIVS","steam_id":76561198366167099,"connected_time":2178000000000,"state":"active","ping":69},{"user_id":32,"name":"M2rtRa","steam_id":76561198111036466,"connected_time":2200000000000,"state":"active","ping":87},{"user_id":34,"name":"Dr.CandyCane","steam_id":76561199238207915,"connected_time":2173000000000,"state":"active","ping":90},{"user_id":62,"name":"pihen","steam_id":76561198089598943,"connected_time":14000000000,"state":"active","ping":62},{"user_id":63,"name":"Vins van Space","steam_id":76561198073054440,"connected_time":14000000000,"state":"active","ping":76},{"user_id":52,"name":"Owl","steam_id":76561198108128837,"connected_time":1229000000000,"state":"active","ping":65},{"user_id":53,"name":"AlanWillson","steam_id":76561198043975413,"connected_time":1063000000000,"state":"active","ping":67},{"user_id":55,"name":"Vince","steam_id":76561199103000131,"connected_time":678000000000,"state":"active","ping":67},{"user_id":45,"name":"Kenny Savage","steam_id":76561199049383900,"connected_time":1500000000000,"state":"active","ping":90},{"user_id":46,"name":"Ooze","steam_id":76561198039642637,"connected_time":1497000000000,"state":"active","ping":94},{"user_id":57,"name":"Ond≈ôej ‚úå","steam_id":76561198115905637,"connected_time":271000000000,"state":"active","ping":50},{"user_id":49,"name":"rets_","steam_id":76561198061551392,"connected_time":1422000000000,"state":"active","ping":64}]},{"server_id":52,"name":"Uncletopia | Warsaw | 4 | All Maps","name_short":"waw-4","host":"waw-1.pl.uncletopia.com","port":27045,"enabled":true,"region":"eu","cc":"pl","latitude":52.2297,"longitude":21.017532,"reserved":0,"last_update":"0001-01-01T00:00:00Z","name_a2s":"Uncletopia | Warsaw | 4 | All Maps","protocol":17,"map":"pl_swiftwater_final1","folder":"tf","game":"Team Fortress","app_id":440,"player_count":0,"max_players":24,"Bots":0,"server_type":"Dedicated","server_os":"Linux","password":true,"vac":true,"version":"7961495","steam_id":85568392925397853,"keywords":["nocrits","nodmgspread","payload","uncletopia"],"game_id":440,"stv_port":27046,"stv_name":"Uncletopia | Warsaw | 4 | All Maps | STV","players":null},{"server_id":53,"name":"Uncletopia | Warsaw | 5 | Stopwatch","name_short":"waw-5","host":"waw-1.pl.uncletopia.com","port":27055,"enabled":true,"region":"eu","cc":"pl","latitude":52.2297,"longitude":21.017532,"reserved":0,"last_update":"0001-01-01T00:00:00Z","name_a2s":"Uncletopia | Warsaw | 5 | Stopwatch","protocol":17,"map":"workshop/pl_vigil_rc10.ugc1266210012","folder":"tf","game":"Team Fortress","app_id":440,"player_count":0,"max_players":24,"Bots":0,"server_type":"Dedicated","server_os":"Linux","password":true,"vac":true,"version":"7961495","steam_id":85568392925397854,"keywords":["nocrits","nodmgspread","payload","uncletopia"],"game_id":440,"stv_port":27056,"stv_name":"Uncletopia | Warsaw | 5 | Stopwatch | STV","players":null},{"server_id":54,"name":"Uncletopia | Warsaw | 6 | Community","name_short":"waw-6","host":"waw-1.pl.uncletopia.com","port":27065,"enabled":true,"region":"eu","cc":"pl","latitude":52.2297,"longitude":21.017532,"reserved":0,"last_update":"0001-01-01T00:00:00Z","name_a2s":"Uncletopia | Warsaw | 6 | Community","protocol":17,"map":"workshop/koth_ramjam_rc1.ugc459778887","folder":"tf","game":"Team Fortress","app_id":440,"player_count":0,"max_players":24,"Bots":0,"server_type":"Dedicated","server_os":"Linux","password":true,"vac":true,"version":"7961495","steam_id":85568392925397856,"keywords":["cp","nocrits","nodmgspread","uncletopia"],"game_id":440,"stv_port":27066,"stv_name":"Uncletopia | Warsaw | 6 | Community | STV","players":null}]}