{"status":true,"message":"","result":[{"server_id":9,"name":"Uncletopia | Atlanta | 1 | All Maps","name_short":"atl-1","host":"atl-1.us.uncletopia.com","port":27015,"enabled":true,"region":"us-east","cc":"us","latitude":33.753746,"longitude":-84.38633,"reserved":0,"last_update":"0001-01-01T00:00:00Z","name_a2s":"Uncletopia | Atlanta | 1 | All Maps","protocol":17,"map":"koth_cascade","folder":"tf","game":"Team Fortress","app_id":440,"player_count":25,"max_players":24,"Bots":0,"server_type":"Dedicated","server_os":"Linux","password":true,"vac":true,"version":"7757534","steam_id":85568392924469982,"keywords":["cp","nocrits","nodmgspread","uncletopia"],"game_id":440,"stv_port":27016,"stv_name":"Uncletopia | Atlanta | 1 | All Maps | STV","players":[{"user_id":10,"name":"NBA Youngboy","steam_id":76561199118797200,"connected_time":1467000000000,"state":"active","ping":62},{"user_id":11,"name":"William Wallace","steam_id":76561199343316814,"connected_time":1406000000000,"state":"active","ping":56},{"user_id":46,"name":"Horse","steam_id":76561198004583631,"connected_time":361000000000,"state":"active","ping":93},{"user_id":13,"name":"happy camper","steam_id":76561198209813328,"connected_time":1123000000000,"state":"active","ping":59},{"user_id":14,"name":"bob","steam_id":76561198261060542,"connected_time":1113000000000,"state":"active","ping":74},{"user_id":38,"name":"100thfail","steam_id":76561198247749308,"connected_time":782000000000,"state":"active","ping":68},{"user_id":16,"name":"dylanbackspace","steam_id":76561198820174633,"connected_time":1091000000000,"state":"active","ping":59},{"user_id":17,"name":"ChozoChorizo","steam_id":76561198272609196,"connected_time":1082000000000,"state":"active","ping":56},{"user_id":41,"name":"Phanto-","steam_id":76561199110557595,"connected_time":732000000000,"state":"active","ping":43},{"user_id":20,"name":"TomosconesYT","steam_id":76561198813586588,"connected_time":1047000000000,"state":"active","ping":115},{"user_id":21,"name":"Sturt","steam_id":76561198418100672,"connected_time":1023000000000,"state":"active","ping":75},{"user_id":45,"name":"|AG| Level","steam_id":76561198063633592,"connected_time":444000000000,"state":"active","ping":83},{"user_id":42,"name":"T Jit","steam_id":76561197993371179,"connected_time":631000000000,"state":"active","ping":45},{"user_id":25,"name":"Luke","steam_id":76561198072441047,"connected_time":989000000000,"state":"active","ping":122},{"user_id":26,"name":"help","steam_id":76561199056338917,"connected_time":980000000000,"state":"active","ping":96},{"user_id":27,"name":"Wilfrey","steam_id":76561198050449386,"connected_time":978000000000,"state":"active","ping":86},{"user_id":37,"name":"VividDragon","steam_id":76561198050659285,"connected_time":801000000000,"state":"active","ping":51},{"user_id":30,"name":"YOU","steam_id":76561198391551932,"connected_time":924000000000,"state":"active","ping":95},{"user_id":31,"name":"ZZZ","steam_id":76561198121939147,"connected_time":905000000000,"state":"active","ping":115},{"user_id":33,"name":"RAAZ","steam_id":76561198827854453,"connected_time":848000000000,"state":"active","ping":103},{"user_id":43,"name":"AterPan","steam_id":76561199084128806,"connected_time":631000000000,"state":"active","ping":86},{"user_id":35,"name":"Missing Minus","steam_id":76561198120822928,"connected_time":824000000000,"state":"active","ping":44},{"user_id":36,"name":"beans","steam_id":76561199082781884,"connected_time":820000000000,"state":"active","ping":64},{"user_id":44,"name":"Ignatius J. Reilly","steam_id":76561198066958868,"connected_time":469000000000,"state":"active","ping":87},{"user_id":47,"name":"FROTTING WORLD CHAMPION","steam_id":76561198249206656,"connected_time":262000000000,"state":"active","ping":86}]},{"server_id":104,"name":"Uncletopia | Atlanta | 2 | All Maps","name_short":"atl-2","host":"atl-1.us.uncletopia.com","port":27025,"enabled":true,"region":"us-east","cc":"us","latitude":33.753746,"longitude":-84.38633,"reserved":0,"last_update":"0001-01-01T00:00:00Z","name_a2s":"Uncletopia | Atlanta | 2 | All Maps","protocol":17,"map":"cp_dustbowl","folder":"tf","game":"Team Fortress","app_id":440,"player_count":0,"max_players":24,"Bots":0,"server_type":"Dedicated","server_os":"Linux","password":true,"vac":true,"version":"7757534","steam_id":85568392924469983,"keywords":["cp","nocrits","nodmgspread","uncletopia"],"game_id":440,"stv_port":27026,"stv_name":"Uncletopia | Atlanta | 2 | All Maps | STV","players":null},{"server_id":400,"name":"Uncletopia | Atlanta | 3 | Community","name_short":"atl-3","host":"atl-1.us.uncletopia.com","port":27035,"enabled":true,"region":"us-east","cc":"us","latitude":33.753746,"longitude":-84.38633,"reserved":0,"last_update":"0001-01-01T00:00:00Z","name_a2s":"Uncletopia | Atlanta | 3 | Community","protocol":17,"map":"workshop/cp_caldera_rc2.ugc2834196889","folder":"tf","game":"Team Fortress","app_id":440,"player_count":0,"max_players":24,"Bots":0,"server_type":"Dedicated","server_os":"Linux","password":true,"vac":true,"version":"7757534","steam_id":85568392924515187,"keywords":["cp","nocrits","nodmgspread","uncletopia"],"game_id":440,"stv_port":27036,"stv_name":"Uncletopia | Atlanta | 3 | Community | STV","players":null},{"server_id":401,"name":"Uncletopia | Atlanta | 4 | No Payload","name_short":"atl-4","host":"atl-1.us.uncletopia.com","port":27045,"enabled":true,"region":"us-east","cc":"us","latitude":33.753746,"longitude":-84.38633,"reserved":0,"last_update":"0001-01-01T00:00:00Z","name_a2s":"","protocol":0,"map":"","folder":"","game":"","app_id":0,"player_count":0,"max_players":0,"Bots":0,"server_type":"","server_os":"","password":false,"vac":false,"version":"","steam_id":0,"keywords":null,"game_id":0,"stv_port":0,"stv_name":"","players":null},{"server_id":2,"name":"Uncletopia | Chicago | 1 | All Maps","name_short":"chi-1","host":"chi-1.us.uncletopia.com","port":27015,"enabled":true,"region":"us-central","cc":"us","latitude":41.881832,"longitude":-87.62318,"reserved":0,"last_update":"0001-01-01T00:00:00Z","name_a2s":"Uncletopia | Chicago | 1 | All Maps","protocol":17,"map":"pl_borneo","folder":"tf","game":"Team Fortress","app_id":440,"player_count":24,"max_players":24,"Bots":0,"server_type":"Dedicated","server_os":"Linux","password":true,"vac":true,"version":"7757534","steam_id":85568392924469984,"keywords":["nocrits","nodmgspread","payload","uncletopia"],"game_id":440,"stv_port":27016,"stv_name":"Uncletopia | Chicago | 1 | All Maps | STV","players":[{"user_id":12,"name":"catface","steam_id":76561198096347625,"connected_time":8668000000000,"state":"active","ping":75},{"user_id":100,"name":"Edder","steam_id":76561198011088393,"connected_time":2021000000000,"state":"active","ping":84},{"user_id":119,"name":"ROGUE-PLANET","steam_id":76561198116023052,"connected_time":248000000000,"state":"active","ping":62},{"user_id":17,"name":"Elena Manetta","steam_id":76561197998344054,"connected_time":8563000000000,"state":"active","ping":60},{"user_id":48,"name":"FROYO cin","steam_id":76561198139802458,"connected_time":6112000000000,"state":"active","ping":60},{"user_id":105,"name":"larguu","steam_id":76561197994336210,"connected_time":1732000000000,"state":"active","ping":57},{"user_id":20,"name":"Minty","steam_id":76561198191887141,"connected_time":8536000000000,"state":"active","ping":67},{"user_id":118,"name":"gorebastard","steam_id":76561198295113883,"connected_time":471000000000,"state":"active","ping":108},{"user_id":116,"name":"blakejack226","steam_id":76561199128917566,"connected_time":723000000000,"state":"active","ping":79},{"user_id":117,"name":"THEDINKY","steam_id":76561198190077399,"connected_time":708000000000,"state":"active","ping":62},{"user_id":79,"name":"noided","steam_id":76561198353924837,"connected_time":3428000000000,"state":"active","ping":87},{"user_id":54,"name":"kitsu ♥","steam_id":76561198091741658,"connected_time":5061000000000,"state":"active","ping":74},{"user_id":80,"name":"indi","steam_id":76561198045917538,"connected_time":3305000000000,"state":"active","ping":46},{"user_id":94,"name":"Mia","steam_id":76561198258214505,"connected_time":2624000000000,"state":"active","ping":96},{"user_id":95,"name":"Filthy Acts at Reasonable Price","steam_id":76561198354615890,"connected_time":2586000000000,"state":"active","ping":58},{"user_id":111,"name":"coodge","steam_id":76561198139080439,"connected_time":1628000000000,"state":"active","ping":80},{"user_id":68,"name":"faze.raul2016@yahoo.com","steam_id":76561198057076267,"connected_time":3923000000000,"state":"active","ping":76},{"user_id":113,"name":"slurp","steam_id":76561198323497535,"connected_time":1462000000000,"state":"active","ping":76},{"user_id":89,"name":"MankTKO","steam_id":76561198189421005,"connected_time":2933000000000,"state":"active","ping":60},{"user_id":64,"name":"LightningBlitz47","steam_id":76561198310971283,"connected_time":3961000000000,"state":"active","ping":106},{"user_id":99,"name":"xTSxbob T.S.H.A","steam_id":76561198130440530,"connected_time":2171000000000,"state":"active","ping":85},{"user_id":90,"name":"Parker","steam_id":76561198046044893,"connected_time":2926000000000,"state":"active","ping":58},{"user_id":115,"name":"Ġ1 ♦ Synth","steam_id":76561198058660228,"connected_time":1004000000000,"state":"active","ping":58},{"user_id":110,"name":"spider_murphy","steam_id":76561198079057101,"connected_time":1680000000000,"state":"active","ping":75}]},{"server_id":106,"name":"Uncletopia | Chicago | 2 | All Maps","name_short":"chi-2","host":"chi-1.us.uncletopia.com","port":27025,"enabled":true,"region":"us-central","cc":"us","latitude":41.881832,"longitude":-87.62318,"reserved":0,"last_update":"0001-01-01T00:00:00Z","name_a2s":"Uncletopia | Chicago | 2 | All Maps","protocol":17,"map":"pl_pier","folder":"tf","game":"Team Fortress","app_id":440,"player_count":24,"max_players":24,"Bots":0,"server_type":"Dedicated","server_os":"Linux","password":true,"vac":true,"version":"7757534","steam_id":85568392924469985,"keywords":["nocrits","nodmgspread","payload","uncletopia"],"game_id":440,"stv_port":27026,"stv_name":"Uncletopia | Chicago | 2 | All Maps | STV","players":[{"user_id":167,"name":"A Puppy","steam_id":76561198828184456,"connected_time":2662000000000,"state":"active","ping":64},{"user_id":174,"name":"thecal","steam_id":76561198307893384,"connected_time":2398000000000,"state":"active","ping":51},{"user_id":169,"name":"iChickenHer0","steam_id":76561198277761233,"connected_time":2631000000000,"state":"active","ping":75},{"user_id":151,"name":"Witch!","steam_id":76561198062763756,"connected_time":4129000000000,"state":"active","ping":45},{"user_id":202,"name":"ShredMaan","steam_id":76561198429982138,"connected_time":300000000000,"state":"active","ping":111},{"user_id":170,"name":"GooniOoni","steam_id":76561198102154561,"connected_time":2581000000000,"state":"active","ping":43},{"user_id":194,"name":"Papahemmy","steam_id":76561198155470810,"connected_time":759000000000,"state":"active","ping":62},{"user_id":195,"name":"The Silkyest of Boys","steam_id":76561198320921269,"connected_time":645000000000,"state":"active","ping":87},{"user_id":192,"name":"WalletADHD","steam_id":76561198081067377,"connected_time":851000000000,"state":"active","ping":60},{"user_id":191,"name":"ipodnova-Aura","steam_id":76561198272353485,"connected_time":1104000000000,"state":"active","ping":68},{"user_id":175,"name":"bappo","steam_id":76561199294792123,"connected_time":2325000000000,"state":"active","ping":51},{"user_id":196,"name":"SlitherDoodle","steam_id":76561198000275473,"connected_time":638000000000,"state":"active","ping":61},{"user_id":160,"name":"mrselfdestruct13","steam_id":76561197992054553,"connected_time":3400000000000,"state":"active","ping":76},{"user_id":203,"name":"Womp","steam_id":76561198245103000,"connected_time":223000000000,"state":"active","ping":72},{"user_id":204,"name":"bingus","steam_id":76561198283992686,"connected_time":205000000000,"state":"active","ping":72},{"user_id":181,"name":"Fatass","steam_id":76561199209403512,"connected_time":2013000000000,"state":"active","ping":45},{"user_id":187,"name":"Minion Bob","steam_id":76561198023938170,"connected_time":1400000000000,"state":"active","ping":109},{"user_id":197,"name":"A Shiny Meat Bicycle","steam_id":76561198358757709,"connected_time":615000000000,"state":"active","ping":104},{"user_id":198,"name":"Stoa","steam_id":76561198332519926,"connected_time":607000000000,"state":"active","ping":90},{"user_id":162,"name":"The Paladin","steam_id":76561199110579692,"connected_time":3358000000000,"state":"active","ping":90},{"user_id":190,"name":"Good Vibes","steam_id":76561197985206513,"connected_time":1135000000000,"state":"active","ping":70},{"user_id":199,"name":"ElbowDeep22","steam_id":76561198801209389,"connected_time":596000000000,"state":"active","ping":70},{"user_id":200,"name":"Charlie the Chode Chopper","steam_id":76561198078811218,"connected_time":584000000000,"state":"active","ping":148},{"user_id":201,"name":"I, Goku LOVE weed","steam_id":76561198256886614,"connected_time":557000000000,"state":"active","ping":117}]},{"server_id":402,"name":"Uncletopia | Chicago | 3 | All Maps","name_short":"chi-3","host":"chi-1.us.uncletopia.com","port":27035,"enabled":true,"region":"us-central","cc":"us","latitude":41.881832,"longitude":-87.62318,"reserved":0,"last_update":"0001-01-01T00:00:00Z","name_a2s":"Uncletopia | Chicago | 3 | All Maps","protocol":17,"map":"pl_borneo","folder":"tf","game":"Team Fortress","app_id":440,"player_count":24,"max_players":24,"Bots":0,"server_type":"Dedicated","server_os":"Linux","password":true,"vac":true,"version":"7757534","steam_id":85568392924515191,"keywords":["nocrits","nodmgspread","payload","uncletopia"],"game_id":440,"stv_port":27036,"stv_name":"Uncletopia | Chicago | 3 | All Maps | STV","players":[{"user_id":74,"name":"BirBinGo","steam_id":76561198356529600,"connected_time":715000000000,"state":"active","ping":190},{"user_id":84,"name":"Letters","steam_id":76561198035508148,"connected_time":41000000000,"state":"active","ping":91},{"user_id":68,"name":"The ghostly Piss MN","steam_id":76561198209197020,"connected_time":1149000000000,"state":"active","ping":68},{"user_id":65,"name":"wakeupbdot","steam_id":76561198160786631,"connected_time":1341000000000,"state":"active","ping":103},{"user_id":55,"name":"Glory","steam_id":76561198013975080,"connected_time":2637000000000,"state":"active","ping":75},{"user_id":14,"name":"Doorhinge","steam_id":76561198872501684,"connected_time":5262000000000,"state":"active","ping":114},{"user_id":66,"name":"MGE LORD","steam_id":76561199267535506,"connected_time":1283000000000,"state":"active","ping":72},{"user_id":49,"name":"Capitalist","steam_id":76561198054534866,"connected_time":2810000000000,"state":"active","ping":97},{"user_id":82,"name":"jT","steam_id":76561198053353148,"connected_time":222000000000,"state":"active","ping":58},{"user_id":78,"name":"faxxy","steam_id":76561198079621240,"connected_time":692000000000,"state":"active","ping":83},{"user_id":69,"name":"i hate car seat headrest","steam_id":76561198055186751,"connected_time":1114000000000,"state":"active","ping":71},{"user_id":71,"name":"Redzur","steam_id":76561199384588086,"connected_time":754000000000,"state":"active","ping":57},{"user_id":63,"name":"Cyramic","steam_id":76561198017136083,"connected_time":1712000000000,"state":"active","ping":75},{"user_id":67,"name":"i fell in luv w dah bandz","steam_id":76561198042600523,"connected_time":1206000000000,"state":"active","ping":62},{"user_id":83,"name":"god doesnt here me","steam_id":76561198125328737,"connected_time":150000000000,"state":"active","ping":75},{"user_id":85,"name":"maS","steam_id":76561198033846407,"connected_time":37000000000,"state":"active","ping":50},{"user_id":79,"name":"captain red","steam_id":76561198191587983,"connected_time":670000000000,"state":"active","ping":79},{"user_id":61,"name":"butt clown","steam_id":76561198000898642,"connected_time":2018000000000,"state":"active","ping":55},{"user_id":80,"name":"yo","steam_id":76561198158206236,"connected_time":357000000000,"state":"active","ping":114},{"user_id":76,"name":"Sage","steam_id":76561198143101697,"connected_time":712000000000,"state":"active","ping":103},{"user_id":77,"name":"threethree","steam_id":76561198177354155,"connected_time":711000000000,"state":"active","ping":70},{"user_id":32,"name":"ShadowStorm","steam_id":76561199065526840,"connected_time":4719000000000,"state":"active","ping":75},{"user_id":48,"name":"upside down cat","steam_id":76561198028288349,"connected_time":3217000000000,"state":"active","ping":86},{"user_id":34,"name":"Krazetrain:76","steam_id":76561198284628604,"connected_time":4698000000000,"state":"active","ping":75}]},{"server_id":403,"name":"Uncletopia | Chicago | 4 | All Maps","name_short":"chi-4","host":"chi-1.us.uncletopia.com","port":27045,"enabled":true,"region":"us-central","cc":"us","latitude":41.881832,"longitude":-87.62318,"reserved":0,"last_update":"0001-01-01T00:00:00Z","name_a2s":"Uncletopia | Chicago | 4 | All Maps","protocol":17,"map":"koth_lakeside_final","folder":"tf","game":"Team Fortress","app_id":440,"player_count":2,"max_players":24,"Bots":0,"server_type":"Dedicated","server_os":"Linux","password":true,"vac":true,"version":"7757534","steam_id":85568392924515193,"keywords":["cp","nocrits","nodmgspread","uncletopia"],"game_id":440,"stv_port":27046,"stv_name":"Uncletopia | Chicago | 4 | All Maps | STV","players":[{"user_id":5,"name":"pr4242","steam_id":76561199383650165,"connected_time":65000000000,"state":"active","ping":188},{"user_id":6,"name":"mksezer","steam_id":76561199049726708,"connected_time":45000000000,"state":"active","ping":184}]},{"server_id":36,"name":"Uncletopia | Chicago | 5 | All Maps","name_short":"chi-5","host":"chi-2.us.uncletopia.com","port":27015,"enabled":true,"region":"us-central","cc":"us","latitude":41.881832,"longitude":-87.62318,"reserved":0,"last_update":"0001-01-01T00:00:00Z","name_a2s":"Uncletopia | Chicago | 5 | All Maps","protocol":17,"map":"koth_cascade","folder":"tf","game":"Team Fortress","app_id":440,"player_count":0,"max_players":24,"Bots":0,"server_type":"Dedicated","server_os":"Linux","password":true,"vac":true,"version":"7757534","steam_id":85568392924866362,"keywords":["cp","nocrits","nodmgspread","uncletopia"],"game_id":440,"stv_port":27016,"stv_name":"Uncletopia | Chicago | 5 | All Maps | STV","players":null},{"server_id":37,"name":"Uncletopia | Chicago | 6 | All Maps","name_short":"chi-6","host":"chi-2.us.uncletopia.com","port":27025,"enabled":true,"region":"us-central","cc":"us","latitude":41.881832,"longitude":-87.62318,"reserved":0,"last_update":"0001-01-01T00:00:00Z","name_a2s":"Uncletopia | Chicago | 6 | All Maps","protocol":17,"map":"koth_viaduct","folder":"tf","game":"Team Fortress","app_id":440,"player_count":0,"max_players":24,"Bots":0,"server_type":"Dedicated","server_os":"Linux","password":true,"vac":true,"version":"7757534","steam_id":85568392924866363,"keywords":["cp","nocrits","nodmgspread","uncletopia"],"game_id":440,"stv_port":27026,"stv_name":"Uncletopia | Chicago | 6 | All Maps | STV","players":null},{"server_id":38,"name":"Uncletopia | Chicago | 7 | Stopwatch Beta","name_short":"chi-7","host":"chi-2.us.uncletopia.com","port":27035,"enabled":true,"region":"us-central","cc":"us","latitude":41.881832,"longitude":-87.62318,"reserved":0,"last_update":"0001-01-01T00:00:00Z","name_a2s":"Uncletopia | Chicago | 7 | Stopwatch Beta","protocol":17,"map":"pl_barnblitz","folder":"tf","game":"Team Fortress","app_id":440,"player_count":0,"max_players":24,"Bots":0,"server_type":"Dedicated","server_os":"Linux","password":true,"vac":true,"version":"7757534","steam_id":85568392924866364,"keywords":["nocrits","nodmgspread","payload","uncletopia"],"game_id":440,"stv_port":27036,"stv_name":"Uncletopia | Chicago | 7 | Stopwatch Beta | STV","players":null},{"server_id":39,"name":"Uncletopia | Chicago | 8 | Community","name_short":"chi-8","host":"chi-2.us.uncletopia.com","port":27045,"enabled":true,"region":"us-central","cc":"us","latitude":41.881832,"longitude":-87.62318,"reserved":0,"last_update":"0001-01-01T00:00:00Z","name_a2s":"Uncletopia | Chicago | 8 | Community","protocol":17,"map":"koth_cascade","folder":"tf","game":"Team Fortress","app_id":440,"player_count":0,"max_players":24,"Bots":0,"server_type":"Dedicated","server_os":"Linux","password":true,"vac":true,"version":"7757534","steam_id":85568392924866365,"keywords":["cp","nocrits","nodmgspread","uncletopia"],"game_id":440,"stv_port":27046,"stv_name":"Uncletopia | Chicago | 8 | Community | STV","players":null},{"server_id":8,"name":"Uncletopia | Dallas | 1 | All Maps","name_short":"dal-1","host":"dal-1.us.uncletopia.com","port":27015,"enabled":true,"region":"us-central","cc":"us","latitude":32.779167,"longitude":-96.80889,"reserved":0,"last_update":"0001-01-01T00:00:00Z","name_a2s":"Uncletopia | Dallas | 1 | All Maps","protocol":17,"map":"pl_badwater","folder":"tf","game":"Team Fortress","app_id":440,"player_count":25,"max_players":24,"Bots":0,"server_type":"Dedicated","server_os":"Linux","password":true,"vac":true,"version":"7757534","steam_id":85568392924469986,"keywords":["nocrits","nodmgspread","payload","uncletopia"],"game_id":440,"stv_port":27016,"stv_name":"Uncletopia | Dallas | 1 | All Maps | STV","players":[{"user_id":29,"name":"peacekeeper","steam_id":76561199260462952,"connected_time":1652000000000,"state":"active","ping":202},{"user_id":62,"name":"I SKIN INFANT BABIES!!!!!!","steam_id":76561198025115575,"connected_time":282000000000,"state":"active","ping":85},{"user_id":9,"name":"ICE CUBE","steam_id":76561198851912896,"connected_time":2599000000000,"state":"active","ping":74},{"user_id":27,"name":"Spoingle","steam_id":76561198080556773,"connected_time":1766000000000,"state":"active","ping":82},{"user_id":48,"name":"scout lip kisser","steam_id":76561198118961458,"connected_time":1263000000000,"state":"active","ping":90},{"user_id":54,"name":"AyoMingus","steam_id":76561198324639028,"connected_time":648000000000,"state":"active","ping":94},{"user_id":58,"name":"FEARLESS HERO","steam_id":76561198362195862,"connected_time":510000000000,"state":"active","ping":94},{"user_id":41,"name":"legendthepizzaman16","steam_id":76561199243004309,"connected_time":1452000000000,"state":"active","ping":99},{"user_id":39,"name":"shalankawanak","steam_id":76561198987719376,"connected_time":1507000000000,"state":"active","ping":88},{"user_id":16,"name":"Dante","steam_id":76561198798234838,"connected_time":2027000000000,"state":"active","ping":125},{"user_id":17,"name":"Onyiun","steam_id":76561199124107338,"connected_time":2025000000000,"state":"active","ping":67},{"user_id":18,"name":"Garlic","steam_id":76561198207529047,"connected_time":2020000000000,"state":"active","ping":61},{"user_id":19,"name":"ChaserFogFi","steam_id":76561199119836596,"connected_time":1971000000000,"state":"active","ping":162},{"user_id":60,"name":"Cheeeeeeeen","steam_id":76561198986388085,"connected_time":450000000000,"state":"active","ping":108},{"user_id":63,"name":"ruad","steam_id":76561198168885725,"connected_time":17000000000,"state":"spawning","ping":135},{"user_id":22,"name":"Fishstall","steam_id":76561198038126034,"connected_time":1943000000000,"state":"active","ping":71},{"user_id":53,"name":"Coup de Grass","steam_id":76561198011643226,"connected_time":1006000000000,"state":"active","ping":98},{"user_id":51,"name":"pangxiong147","steam_id":76561199333740508,"connected_time":1068000000000,"state":"active","ping":95},{"user_id":40,"name":"Drewey","steam_id":76561199258609863,"connected_time":1484000000000,"state":"active","ping":81},{"user_id":61,"name":"TheDieeg","steam_id":76561199443116996,"connected_time":317000000000,"state":"active","ping":74},{"user_id":49,"name":"The Funny","steam_id":76561198850877423,"connected_time":1260000000000,"state":"active","ping":66},{"user_id":45,"name":"josh","steam_id":76561198077902438,"connected_time":1375000000000,"state":"active","ping":74},{"user_id":46,"name":"-FC- malju","steam_id":76561199050174626,"connected_time":1367000000000,"state":"active","ping":80},{"user_id":47,"name":"TwoBit","steam_id":76561198062437559,"connected_time":1293000000000,"state":"active","ping":100},{"user_id":64,"name":"Tlaloc","steam_id":76561198375215983,"connected_time":16000000000,"state":"spawning","ping":119}]},{"server_id":108,"name":"Uncletopia | Dallas | 2 | All Maps","name_short":"dal-2","host":"dal-1.us.uncletopia.com","port":27025,"enabled":true,"region":"us-central","cc":"us","latitude":32.779167,"longitude":-96.80889,"reserved":0,"last_update":"0001-01-01T00:00:00Z","name_a2s":"Uncletopia | Dallas | 2 | All Maps","protocol":17,"map":"cp_process_final","folder":"tf","game":"Team Fortress","app_id":440,"player_count":0,"max_players":24,"Bots":0,"server_type":"Dedicated","server_os":"Linux","password":true,"vac":true,"version":"7757534","steam_id":85568392924469988,"keywords":["cp","nocrits","nodmgspread","uncletopia"],"game_id":440,"stv_port":27026,"stv_name":"Uncletopia | Dallas | 2 | All Maps | STV","players":null},{"server_id":5,"name":"Uncletopia | Frankfurt | 1 | All Maps","name_short":"frk-1","host":"frk-1.de.uncletopia.com","port":27015,"enabled":true,"region":"eu","cc":"de","latitude":50.110924,"longitude":8.682127,"reserved":0,"last_update":"0001-01-01T00:00:00Z","name_a2s":"Uncletopia | Frankfurt | 1 | All Maps","protocol":17,"map":"pl_pier","folder":"tf","game":"Team Fortress","app_id":440,"player_count":24,"max_players":24,"Bots":0,"server_type":"Dedicated","server_os":"Linux","password":true,"vac":true,"version":"7757534","steam_id":85568392924469989,"keywords":["nocrits","nodmgspread","payload","uncletopia"],"game_id":440,"stv_port":27016,"stv_name":"Uncletopia | Frankfurt | 1 | All Maps | STV","players":[{"user_id":286,"name":"LiønHeart","steam_id":76561198081370704,"connected_time":3440000000000,"state":"active","ping":47},{"user_id":257,"name":"After8","steam_id":76561198090750865,"connected_time":5106000000000,"state":"active","ping":65},{"user_id":289,"name":"Soerlssoelssöen","steam_id":76561197993060585,"connected_time":3109000000000,"state":"active","ping":70},{"user_id":282,"name":"piastrelle del bagno toporagno","steam_id":76561198048250715,"connected_time":3796000000000,"state":"active","ping":45},{"user_id":285,"name":"Soyboy","steam_id":76561198053885716,"connected_time":3447000000000,"state":"active","ping":74},{"user_id":310,"name":"Tre3","steam_id":76561198054795379,"connected_time":1060000000000,"state":"active","ping":60},{"user_id":259,"name":"BAGASSER","steam_id":76561198051283300,"connected_time":4811000000000,"state":"active","ping":60},{"user_id":324,"name":"justgvbe","steam_id":76561199193230375,"connected_time":178000000000,"state":"active","ping":49},{"user_id":320,"name":"MR.CRAB","steam_id":76561198329833659,"connected_time":373000000000,"state":"active","ping":75},{"user_id":312,"name":"Mr. Mundy","steam_id":76561198132008918,"connected_time":837000000000,"state":"active","ping":76},{"user_id":288,"name":"cinny","steam_id":76561198832112629,"connected_time":3342000000000,"state":"active","ping":70},{"user_id":290,"name":"hisham","steam_id":76561198414437290,"connected_time":3101000000000,"state":"active","ping":112},{"user_id":322,"name":"Burger King Dante","steam_id":76561198390314734,"connected_time":311000000000,"state":"active","ping":60},{"user_id":305,"name":"Mean Green Peen","steam_id":76561198228455736,"connected_time":2150000000000,"state":"active","ping":73},{"user_id":142,"name":"AleXandriX","steam_id":76561198035203950,"connected_time":11686000000000,"state":"active","ping":66},{"user_id":325,"name":"Artha","steam_id":76561198198453253,"connected_time":177000000000,"state":"active","ping":77},{"user_id":314,"name":"stonebum","steam_id":76561198057004606,"connected_time":799000000000,"state":"active","ping":55},{"user_id":326,"name":"'Poli","steam_id":76561198058710244,"connected_time":174000000000,"state":"active","ping":87},{"user_id":323,"name":"vsakijmaksim","steam_id":76561199478364223,"connected_time":191000000000,"state":"active","ping":115},{"user_id":293,"name":"JAZZ COMMANDO","steam_id":76561198031766068,"connected_time":2746000000000,"state":"active","ping":55},{"user_id":315,"name":"Thors","steam_id":76561197968739075,"connected_time":776000000000,"state":"active","ping":45},{"user_id":311,"name":"Carl Gustav Jung","steam_id":76561198284558039,"connected_time":884000000000,"state":"active","ping":97},{"user_id":327,"name":"AbsurdGallium","steam_id":76561198291120469,"connected_time":101000000000,"state":"active","ping":53},{"user_id":265,"name":"ZANNABLUKE","steam_id":76561198013534336,"connected_time":4351000000000,"state":"active","ping":53}]},{"server_id":110,"name":"Uncletopia | Frankfurt | 2 | All Maps","name_short":"frk-2","host":"frk-1.de.uncletopia.com","port":27025,"enabled":true,"region":"eu","cc":"de","latitude":50.110924,"longitude":8.682127,"reserved":0,"last_update":"0001-01-01T00:00:00Z","name_a2s":"Uncletopia | Frankfurt | 2 | All Maps","protocol":17,"map":"koth_harvest_final","folder":"tf","game":"Team Fortress","app_id":440,"player_count":24,"max_players":24,"Bots":0,"server_type":"Dedicated","server_os":"Linux","password":true,"vac":true,"version":"7757534","steam_id":85568392924469990,"keywords":["cp","nocrits","nodmgspread","uncletopia"],"game_id":440,"stv_port":27026,"stv_name":"Uncletopia | Frankfurt | 2 | All Maps | STV","players":[{"user_id":253,"name":"robie","steam_id":76561198914744938,"connected_time":416000000000,"state":"active","ping":93},{"user_id":227,"name":"Vollys","steam_id":76561198018077773,"connected_time":1179000000000,"state":"active","ping":60},{"user_id":255,"name":"Gene Takovic","steam_id":76561198202990635,"connected_time":379000000000,"state":"active","ping":53},{"user_id":258,"name":"Tank","steam_id":76561199059174576,"connected_time":336000000000,"state":"active","ping":165},{"user_id":257,"name":"Mr. Mietsch","steam_id":76561198077516818,"connected_time":356000000000,"state":"active","ping":47},{"user_id":206,"name":"fector","steam_id":76561199204249586,"connected_time":2105000000000,"state":"active","ping":125},{"user_id":225,"name":"milktea","steam_id":76561198080168182,"connected_time":1305000000000,"state":"active","ping":73},{"user_id":218,"name":"Practice","steam_id":76561198104765420,"connected_time":1572000000000,"state":"active","ping":53},{"user_id":166,"name":"Ясос Убибу","steam_id":76561198291861707,"connected_time":4294000000000,"state":"active","ping":130},{"user_id":237,"name":"mp1mp2mp3","steam_id":76561198088967665,"connected_time":810000000000,"state":"active","ping":89},{"user_id":235,"name":"Lupine Primogen","steam_id":76561198028921204,"connected_time":836000000000,"state":"active","ping":88},{"user_id":240,"name":"Phantom","steam_id":76561198263578961,"connected_time":694000000000,"state":"active","ping":78},{"user_id":250,"name":"♡Some Generic Femboy♡","steam_id":76561199202438796,"connected_time":549000000000,"state":"active","ping":56},{"user_id":262,"name":"Lord","steam_id":76561198241305816,"connected_time":315000000000,"state":"active","ping":164},{"user_id":190,"name":"Zm4j","steam_id":76561198259465946,"connected_time":2985000000000,"state":"active","ping":72},{"user_id":264,"name":"Elkabat","steam_id":76561198150017277,"connected_time":67000000000,"state":"active","ping":59},{"user_id":260,"name":"Mr.killer","steam_id":76561198290584189,"connected_time":328000000000,"state":"active","ping":92},{"user_id":244,"name":"Flying skyhigh","steam_id":76561198372971096,"connected_time":674000000000,"state":"active","ping":75},{"user_id":220,"name":"röv","steam_id":76561198170330563,"connected_time":1489000000000,"state":"active","ping":103},{"user_id":254,"name":"Luppi van Puppi","steam_id":76561198055986745,"connected_time":400000000000,"state":"active","ping":62},{"user_id":261,"name":"Mr.Schnittlauch","steam_id":76561198295868113,"connected_time":327000000000,"state":"active","ping":57},{"user_id":263,"name":"Burpman","steam_id":76561198022897937,"connected_time":227000000000,"state":"active","ping":61},{"user_id":160,"name":"john fortress","steam_id":76561198013237629,"connected_time":4680000000000,"state":"active","ping":106},{"user_id":248,"name":"2D","steam_id":76561199113659141,"connected_time":635000000000,"state":"active","ping":125}]},{"server_id":308,"name":"Uncletopia | Frankfurt | 3 | All Maps","name_short":"frk-3","host":"frk-1.de.uncletopia.com","port":27035,"enabled":true,"region":"eu","cc":"de","latitude":50.110924,"longitude":8.682127,"reserved":0,"last_update":"0001-01-01T00:00:00Z","name_a2s":"Uncletopia | Frankfurt | 3 | All Maps","protocol":17,"map":"koth_cascade","folder":"tf","game":"Team Fortress","app_id":440,"player_count":0,"max_players":24,"Bots":0,"server_type":"Dedicated","server_os":"Linux","password":true,"vac":true,"version":"7757534","steam_id":85568392924504274,"keywords":["cp","nocrits","nodmgspread","uncletopia"],"game_id":440,"stv_port":27036,"stv_name":"Uncletopia | Frankfurt | 3 | All Maps | STV","players":null},{"server_id":309,"name":"Uncletopia | Frankfurt | 4 | All Maps","name_short":"frk-4","host":"frk-1.de.uncletopia.com","port":27045,"enabled":true,"region":"eu","cc":"de","latitude":50.110924,"longitude":8.682127,"reserved":0,"last_update":"0001-01-01T00:00:00Z","name_a2s":"Uncletopia | Frankfurt | 4 | All Maps","protocol":17,"map":"pl_pier","folder":"tf","game":"Team Fortress","app_id":440,"player_count":24,"max_players":24,"Bots":0,"server_type":"Dedicated","server_os":"Linux","password":true,"vac":true,"version":"7757534","steam_id":85568392924504275,"keywords":["nocrits","nodmgspread","payload","uncletopia"],"game_id":440,"stv_port":27046,"stv_name":"Uncletopia | Frankfurt | 4 | All Maps | STV","players":[{"user_id":286,"name":"December 2034","steam_id":76561198011749653,"connected_time":429000000000,"state":"active","ping":74},{"user_id":295,"name":"Soap","steam_id":76561198325800211,"connected_time":102000000000,"state":"active","ping":70},{"user_id":290,"name":"Tywhip","steam_id":76561199207545191,"connected_time":286000000000,"state":"active","ping":58},{"user_id":272,"name":"Lyell","steam_id":76561198350329389,"connected_time":1299000000000,"state":"active","ping":75},{"user_id":280,"name":"Mr.4kb","steam_id":76561198027916127,"connected_time":621000000000,"state":"active","ping":57},{"user_id":281,"name":"Wonder of U","steam_id":76561198099433856,"connected_time":605000000000,"state":"active","ping":75},{"user_id":275,"name":"HeloOo_per The Communist","steam_id":76561199099995357,"connected_time":955000000000,"state":"active","ping":79},{"user_id":283,"name":"heyjohn14","steam_id":76561198840831773,"connected_time":591000000000,"state":"active","ping":76},{"user_id":291,"name":"kornetov.vitalya","steam_id":76561199286034833,"connected_time":285000000000,"state":"active","ping":100},{"user_id":285,"name":"Koleisus","steam_id":76561198045374646,"connected_time":506000000000,"state":"active","ping":67},{"user_id":288,"name":"THVG","steam_id":76561199156685368,"connected_time":365000000000,"state":"active","ping":60},{"user_id":292,"name":"Doriian","steam_id":76561198071438810,"connected_time":206000000000,"state":"active","ping":83},{"user_id":264,"name":"Deacon Dracul","steam_id":76561198046880663,"connected_time":1951000000000,"state":"active","ping":92},{"user_id":257,"name":"HarMala","steam_id":76561198055298143,"connected_time":2363000000000,"state":"active","ping":88},{"user_id":293,"name":"1ggy","steam_id":76561199051285912,"connected_time":176000000000,"state":"active","ping":75},{"user_id":255,"name":"frosty","steam_id":76561198094560834,"connected_time":2884000000000,"state":"active","ping":61},{"user_id":274,"name":":)","steam_id":76561198039964082,"connected_time":1210000000000,"state":"active","ping":51},{"user_id":278,"name":"boofing prozac","steam_id":76561198851157897,"connected_time":675000000000,"state":"active","ping":75},{"user_id":277,"name":"Borat","steam_id":76561198122226417,"connected_time":711000000000,"state":"active","ping":54},{"user_id":297,"name":"Josh","steam_id":76561198274546904,"connected_time":10000000000,"state":"active","ping":199},{"user_id":289,"name":"cyn1cal","steam_id":76561198144165274,"connected_time":360000000000,"state":"active","ping":114},{"user_id":266,"name":"murderwow","steam_id":76561198024566944,"connected_time":1883000000000,"state":"active","ping":104},{"user_id":268,"name":"Jyghc","steam_id":76561198405980575,"connected_time":1679000000000,"state":"active","ping":63},{"user_id":296,"name":"Tropapop","steam_id":76561198066725500,"connected_time":68000000000,"state":"active","ping":61}]},{"server_id":310,"name":"Uncletopia | Frankfurt | 5 | All Maps","name_short":"frk-5","host":"frk-1.de.uncletopia.com","port":27055,"enabled":true,"region":"eu","cc":"de","latitude":50.110924,"longitude":8.682127,"reserved":0,"last_update":"0001-01-01T00:00:00Z","name_a2s":"Uncletopia | Frankfurt | 5 | All Maps","protocol":17,"map":"koth_lakeside_final","folder":"tf","game":"Team Fortress","app_id":440,"player_count":4,"max_players":24,"Bots":0,"server_type":"Dedicated","server_os":"Linux","password":true,"vac":true,"version":"7757534","steam_id":85568392924504277,"keywords":["cp","nocrits","nodmgspread","uncletopia"],"game_id":440,"stv_port":27056,"stv_name":"Uncletopia | Frankfurt | 5 | All Maps | STV","players":[{"user_id":17,"name":"Sp00pk","steam_id":76561199033450481,"connected_time":788000000000,"state":"active","ping":138},{"user_id":18,"name":"Mrlich","steam_id":76561199478551800,"connected_time":781000000000,"state":"active","ping":71},{"user_id":20,"name":"Star.","steam_id":76561198046893038,"connected_time":219000000000,"state":"active","ping":60},{"user_id":21,"name":"󠁳⁧⁧ snowii","steam_id":76561198836246326,"connected_time":70000000000,"state":"active","ping":103}]},{"server_id":311,"name":"Uncletopia | Frankfurt | 6 | All Maps","name_short":"frk-6","host":"frk-1.de.uncletopia.com","port":27065,"enabled":true,"region":"eu","cc":"de","latitude":50.110924,"longitude":8.682127,"reserved":0,"last_update":"0001-01-01T00:00:00Z","name_a2s":"Uncletopia | Frankfurt | 6 | All Maps","protocol":17,"map":"pl_swiftwater_final1","folder":"tf","game":"Team Fortress","app_id":440,"player_count":0,"max_players":24,"Bots":0,"server_type":"Dedicated","server_os":"Linux","password":true,"vac":true,"version":"7757534","steam_id":85568392924504278,"keywords":["nocrits","nodmgspread","payload","uncletopia"],"game_id":440,"stv_port":27066,"stv_name":"Uncletopia | Frankfurt | 6 | All Maps | STV","players":null},{"server_id":23,"name":"Uncletopia | Frankfurt | 7 | Stopwatch Beta","name_short":"frk-7","host":"frk-1.de.uncletopia.com","port":27075,"enabled":true,"region":"eu","cc":"de","latitude":50.110924,"longitude":8.682127,"reserved":0,"last_update":"0001-01-01T00:00:00Z","name_a2s":"Uncletopia | Frankfurt | 7 | Stopwatch Beta","protocol":17,"map":"pl_upward","folder":"tf","game":"Team Fortress","app_id":440,"player_count":0,"max_players":24,"Bots":0,"server_type":"Dedicated","server_os":"Linux","password":true,"vac":true,"version":"7757534","steam_id":85568392924742827,"keywords":["nocrits","nodmgspread","payload","uncletopia"],"game_id":440,"stv_port":27076,"stv_name":"Uncletopia | Frankfurt | 7 | Stopwatch Beta | STV","players":null},{"server_id":24,"name":"Uncletopia | Frankfurt | 8 | Community","name_short":"frk-8","host":"frk-1.de.uncletopia.com","port":27085,"enabled":true,"region":"eu","cc":"de","latitude":50.110924,"longitude":8.682127,"reserved":0,"last_update":"0001-01-01T00:00:00Z","name_a2s":"Uncletopia | Frankfurt | 8 | Community","protocol":17,"map":"workshop/koth_ashville_final.ugc2130459942","folder":"tf","game":"Team Fortress","app_id":440,"player_count":0,"max_players":24,"Bots":0,"server_type":"Dedicated","server_os":"Linux","password":true,"vac":true,"version":"7757534","steam_id":85568392924742828,"keywords":["cp","nocrits","nodmgspread","uncletopia"],"game_id":440,"stv_port":27086,"stv_name":"Uncletopia | Frankfurt | 8 | Community | STV","players":null},{"server_id":202,"name":"Uncletopia | Hong Kong | 1 | All Maps","name_short":"hgk-1","host":"hgk-1.hk.uncletopia.com","port":27015,"enabled":true,"region":"asia","cc":"hk","latitude":22.302711,"longitude":114.177216,"reserved":0,"last_update":"0001-01-01T00:00:00Z","name_a2s":"Uncletopia | Hong Kong | 1 | All Maps","protocol":17,"map":"koth_lakeside_final","folder":"tf","game":"Team Fortress","app_id":440,"player_count":5,"max_players":24,"Bots":0,"server_type":"Dedicated","server_os":"Linux","password":true,"vac":true,"version":"7757534","steam_id":85568392924494504,"keywords":["cp","nocrits","nodmgspread","uncletopia"],"game_id":440,"stv_port":27016,"stv_name":"Uncletopia | Hong Kong | 1 | All Maps | STV","players":[{"user_id":340,"name":"Water Buffalo","steam_id":76561198200672038,"connected_time":406000000000,"state":"active","ping":82},{"user_id":341,"name":"Mobslayer","steam_id":76561199068636639,"connected_time":53000000000,"state":"active","ping":147},{"user_id":331,"name":"Kazeyama Toru","steam_id":76561199222419339,"connected_time":2843000000000,"state":"active","ping":73},{"user_id":342,"name":"konnie031","steam_id":76561198815939590,"connected_time":11000000000,"state":"spawning","ping":64},{"user_id":324,"name":"IDontLaunder","steam_id":76561199103223706,"connected_time":3910000000000,"state":"active","ping":175}]},{"server_id":1,"name":"Uncletopia | Los Angeles | 1 | All Maps","name_short":"lax-1","host":"lax-1.us.uncletopia.com","port":27015,"enabled":true,"region":"us-west","cc":"us","latitude":33.94279,"longitude":-118.41004,"reserved":0,"last_update":"0001-01-01T00:00:00Z","name_a2s":"Uncletopia | Los Angeles | 1 | All Maps","protocol":17,"map":"koth_lakeside_final","folder":"tf","game":"Team Fortress","app_id":440,"player_count":0,"max_players":24,"Bots":0,"server_type":"Dedicated","server_os":"Linux","password":true,"vac":true,"version":"7757534","steam_id":85568392924469991,"keywords":["cp","nocrits","nodmgspread","uncletopia"],"game_id":440,"stv_port":27016,"stv_name":"Uncletopia | Los Angeles | 1 | All Maps | STV","players":null},{"server_id":112,"name":"Uncletopia | Los Angeles | 2 | All Maps","name_short":"lax-2","host":"lax-1.us.uncletopia.com","port":27025,"enabled":true,"region":"us-west","cc":"us","latitude":33.94279,"longitude":-118.41004,"reserved":0,"last_update":"0001-01-01T00:00:00Z","name_a2s":"Uncletopia | Los Angeles | 2 | All Maps","protocol":17,"map":"cp_altitude","folder":"tf","game":"Team Fortress","app_id":440,"player_count":0,"max_players":24,"Bots":0,"server_type":"Dedicated","server_os":"Linux","password":true,"vac":true,"version":"7757534","steam_id":85568392924469992,"keywords":["cp","nocrits","nodmgspread","uncletopia"],"game_id":440,"stv_port":27026,"stv_name":"Uncletopia | Los Angeles | 2 | All Maps | STV","players":null},{"server_id":324,"name":"Uncletopia | Los Angeles | 3 | All Maps","name_short":"lax-3","host":"lax-1.us.uncletopia.com","port":27035,"enabled":true,"region":"us-west","cc":"us","latitude":33.94279,"longitude":-118.41004,"reserved":0,"last_update":"0001-01-01T00:00:00Z","name_a2s":"Uncletopia | Los Angeles | 3 | All Maps","protocol":17,"map":"cp_snakewater_final1","folder":"tf","game":"Team Fortress","app_id":440,"player_count":0,"max_players":24,"Bots":0,"server_type":"Dedicated","server_os":"Linux","password":true,"vac":true,"version":"7757534","steam_id":85568392924510198,"keywords":["cp","nocrits","nodmgspread","uncletopia"],"game_id":440,"stv_port":27036,"stv_name":"Uncletopia | Los Angeles | 3 | All Maps | STV","players":null},{"server_id":25,"name":"Uncletopia | Los Angeles | 4 | Stopwatch Beta","name_short":"lax-4","host":"lax-1.us.uncletopia.com","port":27045,"enabled":true,"region":"us-west","cc":"us","latitude":33.94279,"longitude":-118.41004,"reserved":0,"last_update":"0001-01-01T00:00:00Z","name_a2s":"Uncletopia | Los Angeles | 4 | Stopwatch Beta","protocol":17,"map":"pl_swiftwater_final1","folder":"tf","game":"Team Fortress","app_id":440,"player_count":0,"max_players":24,"Bots":0,"server_type":"Dedicated","server_os":"Linux","password":true,"vac":true,"version":"7757534","steam_id":85568392924510199,"keywords":["nocrits","nodmgspread","payload","uncletopia"],"game_id":440,"stv_port":27046,"stv_name":"Uncletopia | Los Angeles | 4 | Stopwatch Beta | STV","players":null},{"server_id":11,"name":"Uncletopia | London | 1 | All Maps","name_short":"lon-1","host":"lon-1.uk.uncletopia.com","port":27015,"enabled":true,"region":"eu","cc":"gb","latitude":51.509865,"longitude":-0.118092,"reserved":0,"last_update":"0001-01-01T00:00:00Z","name_a2s":"Uncletopia | London | 1 | All Maps","protocol":17,"map":"pl_badwater","folder":"tf","game":"Team Fortress","app_id":440,"player_count":24,"max_players":24,"Bots":0,"server_type":"Dedicated","server_os":"Linux","password":true,"vac":true,"version":"7757534","steam_id":85568392924367362,"keywords":["nocrits","nodmgspread","payload","uncletopia"],"game_id":440,"stv_port":27016,"stv_name":"Uncletopia | London | 1 | All Maps | STV","players":[{"user_id":501,"name":"Flinjo","steam_id":76561198060462640,"connected_time":560000000000,"state":"active","ping":30},{"user_id":508,"name":"kojitori","steam_id":76561198838072150,"connected_time":184000000000,"state":"active","ping":45},{"user_id":474,"name":"Dimitri_612","steam_id":76561199223984137,"connected_time":1897000000000,"state":"active","ping":55},{"user_id":497,"name":"Denzonian","steam_id":76561198445738614,"connected_time":667000000000,"state":"active","ping":62},{"user_id":446,"name":"unconditional love","steam_id":76561199026097466,"connected_time":3897000000000,"state":"active","ping":73},{"user_id":489,"name":"Ramzus","steam_id":76561198012385070,"connected_time":1099000000000,"state":"active","ping":98},{"user_id":498,"name":"PashaVerti","steam_id":76561199013963024,"connected_time":663000000000,"state":"active","ping":85},{"user_id":492,"name":"Sirzen","steam_id":76561198170155434,"connected_time":977000000000,"state":"active","ping":48},{"user_id":502,"name":"adm1ral_plunge","steam_id":76561198035342559,"connected_time":470000000000,"state":"active","ping":48},{"user_id":510,"name":"♥ aura ♥","steam_id":76561198066258544,"connected_time":90000000000,"state":"active","ping":61},{"user_id":457,"name":"waffle toaster","steam_id":76561198799089628,"connected_time":2805000000000,"state":"active","ping":45},{"user_id":458,"name":"slightly drunk","steam_id":76561199184873889,"connected_time":2783000000000,"state":"active","ping":70},{"user_id":500,"name":"lettuce at 58p","steam_id":76561199401283123,"connected_time":629000000000,"state":"active","ping":49},{"user_id":452,"name":"agony","steam_id":76561199192434258,"connected_time":3279000000000,"state":"active","ping":93},{"user_id":380,"name":"gediot#2","steam_id":76561199229899155,"connected_time":6324000000000,"state":"active","ping":40},{"user_id":494,"name":"Citrus","steam_id":76561199196678777,"connected_time":902000000000,"state":"active","ping":68},{"user_id":475,"name":"epic party rat","steam_id":76561199100632053,"connected_time":1829000000000,"state":"active","ping":58},{"user_id":499,"name":"R0mulone","steam_id":76561198352513792,"connected_time":662000000000,"state":"active","ping":61},{"user_id":503,"name":"AsuX","steam_id":76561197990333289,"connected_time":469000000000,"state":"active","ping":60},{"user_id":480,"name":"Even Rüüd","steam_id":76561197981144291,"connected_time":1748000000000,"state":"active","ping":61},{"user_id":463,"name":"torn","steam_id":76561198223003236,"connected_time":2652000000000,"state":"active","ping":32},{"user_id":487,"name":"HE LET THE BIRD OUT OF THE CAGE","steam_id":76561198798803845,"connected_time":1220000000000,"state":"active","ping":45},{"user_id":506,"name":"Jinx my beloved","steam_id":76561198819986745,"connected_time":336000000000,"state":"active","ping":145}]},{"server_id":114,"name":"Uncletopia | London | 2 | All Maps","name_short":"lon-2","host":"lon-1.uk.uncletopia.com","port":27025,"enabled":true,"region":"eu","cc":"gb","latitude":51.509865,"longitude":-0.118092,"reserved":0,"last_update":"0001-01-01T00:00:00Z","name_a2s":"Uncletopia | London | 2 | All Maps","protocol":17,"map":"koth_viaduct","folder":"tf","game":"Team Fortress","app_id":440,"player_count":2,"max_players":24,"Bots":0,"server_type":"Dedicated","server_os":"Linux","password":true,"vac":true,"version":"7757534","steam_id":85568392924470941,"keywords":["cp","nocrits","nodmgspread","uncletopia"],"game_id":440,"stv_port":27026,"stv_name":"Uncletopia | London | 2 | All Maps | STV","players":[{"user_id":14,"name":"David Random","steam_id":76561198144497918,"connected_time":1123000000000,"state":"active","ping":60},{"user_id":19,"name":"sethlington14","steam_id":76561199438357690,"connected_time":132000000000,"state":"active","ping":56}]},{"server_id":320,"name":"Uncletopia | London | 3 | All Maps","name_short":"lon-3","host":"lon-1.uk.uncletopia.com","port":27035,"enabled":true,"region":"eu","cc":"gb","latitude":51.509865,"longitude":-0.118092,"reserved":0,"last_update":"0001-01-01T00:00:00Z","name_a2s":"Uncletopia | London | 3 | All Maps","protocol":17,"map":"pl_frontier_final","folder":"tf","game":"Team Fortress","app_id":440,"player_count":24,"max_players":24,"Bots":0,"server_type":"Dedicated","server_os":"Linux","password":true,"vac":true,"version":"7757534","steam_id":85568392924510192,"keywords":["nocrits","nodmgspread","payload","uncletopia"],"game_id":440,"stv_port":27036,"stv_name":"Uncletopia | London | 3 | All Maps | STV","players":[{"user_id":198,"name":"bomberman #savetf2","steam_id":76561199066513442,"connected_time":223000000000,"state":"active","ping":74},{"user_id":195,"name":"Sebastian","steam_id":76561198055950455,"connected_time":368000000000,"state":"active","ping":87},{"user_id":164,"name":"Mental","steam_id":76561198057117092,"connected_time":2173000000000,"state":"active","ping":60},{"user_id":199,"name":"Nope.avi","steam_id":76561198396687651,"connected_time":167000000000,"state":"active","ping":92},{"user_id":147,"name":"Pito","steam_id":76561198013765801,"connected_time":2665000000000,"state":"active","ping":59},{"user_id":172,"name":"Garoiop","steam_id":76561198082326459,"connected_time":1515000000000,"state":"active","ping":44},{"user_id":173,"name":"FJADL","steam_id":76561198237008214,"connected_time":1430000000000,"state":"active","ping":63},{"user_id":192,"name":"sova x Mira","steam_id":76561199040246790,"connected_time":675000000000,"state":"active","ping":55},{"user_id":207,"name":"bAdmon","steam_id":76561197961785793,"connected_time":47000000000,"state":"active","ping":50},{"user_id":117,"name":"Houlles","steam_id":76561198095277383,"connected_time":4209000000000,"state":"active","ping":45},{"user_id":188,"name":"hank","steam_id":76561198160202087,"connected_time":1004000000000,"state":"active","ping":60},{"user_id":156,"name":"Kanye VEST","steam_id":76561198294476402,"connected_time":2322000000000,"state":"active","ping":79},{"user_id":177,"name":"born to hiii:3 forced to yo","steam_id":76561198097712283,"connected_time":1343000000000,"state":"active","ping":76},{"user_id":202,"name":"Civil Melon","steam_id":76561198988309618,"connected_time":143000000000,"state":"active","ping":84},{"user_id":206,"name":"KingVoker","steam_id":76561198039602539,"connected_time":66000000000,"state":"active","ping":75},{"user_id":194,"name":"Joe","steam_id":76561198061717026,"connected_time":587000000000,"state":"active","ping":45},{"user_id":163,"name":"BoBunny McGlitter","steam_id":76561198057403817,"connected_time":2197000000000,"state":"active","ping":62},{"user_id":209,"name":"ROAMERS??","steam_id":76561198214063660,"connected_time":26000000000,"state":"active","ping":96},{"user_id":144,"name":"slowdown heavy","steam_id":76561198025916703,"connected_time":2893000000000,"state":"active","ping":67},{"user_id":193,"name":"chssdk","steam_id":76561198262231733,"connected_time":669000000000,"state":"active","ping":75},{"user_id":181,"name":"Danin Civilnetworks.net","steam_id":76561198197542067,"connected_time":1258000000000,"state":"active","ping":91},{"user_id":168,"name":"ayadam","steam_id":76561198161515769,"connected_time":2049000000000,"state":"active","ping":111},{"user_id":201,"name":"!Trying to have fun!","steam_id":76561198151370212,"connected_time":160000000000,"state":"active","ping":72},{"user_id":120,"name":"LSKi","steam_id":76561198215470228,"connected_time":4053000000000,"state":"active","ping":56}]},{"server_id":321,"name":"Uncletopia | London | 4 | All Maps","name_short":"lon-4","host":"lon-1.uk.uncletopia.com","port":27045,"enabled":true,"region":"eu","cc":"gb","latitude":51.509865,"longitude":-0.118092,"reserved":0,"last_update":"0001-01-01T00:00:00Z","name_a2s":"Uncletopia | London | 4 | All Maps","protocol":17,"map":"pl_pier","folder":"tf","game":"Team Fortress","app_id":440,"player_count":24,"max_players":24,"Bots":0,"server_type":"Dedicated","server_os":"Linux","password":true,"vac":true,"version":"7757534","steam_id":85568392924510193,"keywords":["nocrits","nodmgspread","payload","uncletopia"],"game_id":440,"stv_port":27046,"stv_name":"Uncletopia | London | 4 | All Maps | STV","players":[{"user_id":312,"name":"rz-/Atomic Punch","steam_id":76561199195508541,"connected_time":145000000000,"state":"active","ping":72},{"user_id":294,"name":"Battle Engineer","steam_id":76561198866730509,"connected_time":818000000000,"state":"active","ping":99},{"user_id":315,"name":"Dolcelatte","steam_id":76561198038501770,"connected_time":114000000000,"state":"active","ping":60},{"user_id":284,"name":"twitch.tv/vision515","steam_id":76561198065293729,"connected_time":1340000000000,"state":"active","ping":162},{"user_id":299,"name":"Turencko.Danila","steam_id":76561199381190549,"connected_time":594000000000,"state":"active","ping":101},{"user_id":286,"name":"Uncle Terry","steam_id":76561198396415736,"connected_time":1221000000000,"state":"active","ping":52},{"user_id":295,"name":"nvmHastee","steam_id":76561199371458295,"connected_time":815000000000,"state":"active","ping":85},{"user_id":260,"name":"Jim-Maki","steam_id":76561198174113315,"connected_time":2535000000000,"state":"active","ping":110},{"user_id":310,"name":"Anonymous47007","steam_id":76561199005211417,"connected_time":166000000000,"state":"active","ping":77},{"user_id":289,"name":"ImBread","steam_id":76561198347426531,"connected_time":1171000000000,"state":"active","ping":61},{"user_id":296,"name":"Pogi820","steam_id":76561198320573568,"connected_time":776000000000,"state":"active","ping":100},{"user_id":251,"name":"wide appreciator","steam_id":76561198083286511,"connected_time":3019000000000,"state":"active","ping":41},{"user_id":238,"name":"Bonuxer","steam_id":76561198093098132,"connected_time":3731000000000,"state":"active","ping":73},{"user_id":283,"name":"Acanda","steam_id":76561198123246537,"connected_time":1351000000000,"state":"active","ping":53},{"user_id":321,"name":"no1-","steam_id":76561198067524060,"connected_time":37000000000,"state":"active","ping":75},{"user_id":301,"name":"kipod616","steam_id":76561198431183777,"connected_time":471000000000,"state":"active","ping":92},{"user_id":265,"name":"xXIceShocked88Xx","steam_id":76561199239298320,"connected_time":2197000000000,"state":"active","ping":88},{"user_id":304,"name":"Majima Gaming HD","steam_id":76561198365750503,"connected_time":432000000000,"state":"active","ping":42},{"user_id":313,"name":"maakgis","steam_id":76561198851703804,"connected_time":139000000000,"state":"active","ping":137},{"user_id":307,"name":"too funky ᗜˬᗜ","steam_id":76561199120399776,"connected_time":331000000000,"state":"active","ping":163},{"user_id":268,"name":"Vitule","steam_id":76561198344265906,"connected_time":2112000000000,"state":"active","ping":83},{"user_id":314,"name":"I AM THE ONE WHO BUILDS","steam_id":76561199438413886,"connected_time":131000000000,"state":"spawning","ping":189},{"user_id":308,"name":"gamergamer","steam_id":76561199027223177,"connected_time":319000000000,"state":"active","ping":164},{"user_id":317,"name":"hud_saytext_time 0","steam_id":76561198010327228,"connected_time":85000000000,"state":"active","ping":78}]},{"server_id":21,"name":"Uncletopia | London | 5 | All Maps","name_short":"lon-5","host":"lon-1.uk.uncletopia.com","port":27055,"enabled":true,"region":"eu","cc":"gb","latitude":51.509865,"longitude":-0.118092,"reserved":0,"last_update":"0001-01-01T00:00:00Z","name_a2s":"Uncletopia | London | 5 | All Maps","protocol":17,"map":"pl_borneo","folder":"tf","game":"Team Fortress","app_id":440,"player_count":0,"max_players":24,"Bots":0,"server_type":"Dedicated","server_os":"Linux","password":true,"vac":true,"version":"7757534","steam_id":85568392924742829,"keywords":["nocrits","nodmgspread","payload","uncletopia"],"game_id":440,"stv_port":27056,"stv_name":"Uncletopia | London | 5 | All Maps | STV","players":null},{"server_id":22,"name":"Uncletopia | London | 6 | All Maps","name_short":"lon-6","host":"lon-1.uk.uncletopia.com","port":27065,"enabled":true,"region":"eu","cc":"gb","latitude":51.509865,"longitude":-0.118092,"reserved":0,"last_update":"0001-01-01T00:00:00Z","name_a2s":"Uncletopia | London | 6 | All Maps","protocol":17,"map":"pl_borneo","folder":"tf","game":"Team Fortress","app_id":440,"player_count":23,"max_players":24,"Bots":0,"server_type":"Dedicated","server_os":"Linux","password":true,"vac":true,"version":"7757534","steam_id":85568392924742830,"keywords":["nocrits","nodmgspread","payload","uncletopia"],"game_id":440,"stv_port":27066,"stv_name":"Uncletopia | London | 6 | All Maps | STV","players":[{"user_id":78,"name":"Shork","steam_id":76561198130195469,"connected_time":2139000000000,"state":"active","ping":86},{"user_id":105,"name":"Piney💙","steam_id":76561198050910939,"connected_time":255000000000,"state":"active","ping":45},{"user_id":98,"name":"OlympicChamp_12 | Trade.tf","steam_id":76561198830574526,"connected_time":568000000000,"state":"active","ping":180},{"user_id":104,"name":"Droy","steam_id":76561198065854668,"connected_time":262000000000,"state":"active","ping":44},{"user_id":17,"name":"Anoobis","steam_id":76561199419533757,"connected_time":4476000000000,"state":"active","ping":71},{"user_id":93,"name":"Trueno","steam_id":76561198994420430,"connected_time":810000000000,"state":"active","ping":71},{"user_id":20,"name":"fawn","steam_id":76561198440195402,"connected_time":4404000000000,"state":"active","ping":57},{"user_id":103,"name":"GetExp","steam_id":76561198410131881,"connected_time":303000000000,"state":"active","ping":65},{"user_id":22,"name":"emma","steam_id":76561198031498341,"connected_time":4365000000000,"state":"active","ping":81},{"user_id":73,"name":"glyph","steam_id":76561197980736364,"connected_time":2441000000000,"state":"active","ping":132},{"user_id":25,"name":"Xtreme™","steam_id":76561198050144913,"connected_time":4236000000000,"state":"active","ping":69},{"user_id":106,"name":"Ruke 1","steam_id":76561198409908008,"connected_time":249000000000,"state":"active","ping":64},{"user_id":107,"name":"JamesPepega","steam_id":76561198019156154,"connected_time":240000000000,"state":"active","ping":77},{"user_id":29,"name":"EmileeAria413","steam_id":76561198078306458,"connected_time":4113000000000,"state":"active","ping":162},{"user_id":89,"name":"Shynii","steam_id":76561198194682105,"connected_time":932000000000,"state":"active","ping":60},{"user_id":86,"name":"Mr.Twinkls","steam_id":76561197980803560,"connected_time":1730000000000,"state":"active","ping":90},{"user_id":38,"name":"vadim_kotler","steam_id":76561199016634369,"connected_time":3887000000000,"state":"active","ping":116},{"user_id":99,"name":"tummaluppo taivaltaja","steam_id":76561198093458326,"connected_time":555000000000,"state":"active","ping":73},{"user_id":100,"name":"you know who else ...","steam_id":76561199081569816,"connected_time":544000000000,"state":"active","ping":54},{"user_id":109,"name":"System","steam_id":76561199442503973,"connected_time":47000000000,"state":"active","ping":60},{"user_id":91,"name":"noobdog","steam_id":76561198036486671,"connected_time":881000000000,"state":"active","ping":64},{"user_id":88,"name":"Kodutah","steam_id":76561198203405574,"connected_time":1447000000000,"state":"active","ping":90},{"user_id":102,"name":"Galex","steam_id":76561198045637579,"connected_time":460000000000,"state":"active","ping":60}]},{"server_id":40,"name":"Uncletopia | London | 7 | No Payload","name_short":"lon-7","host":"lon-1.uk.uncletopia.com","port":27075,"enabled":true,"region":"eu","cc":"gb","latitude":51.509865,"longitude":-0.118092,"reserved":0,"last_update":"0001-01-01T00:00:00Z","name_a2s":"Uncletopia | London | 7 | No Payload","protocol":17,"map":"cp_snakewater_final1","folder":"tf","game":"Team Fortress","app_id":440,"player_count":23,"max_players":24,"Bots":0,"server_type":"Dedicated","server_os":"Linux","password":true,"vac":true,"version":"7757534","steam_id":85568392924964314,"keywords":["cp","nocrits","nodmgspread","uncletopia"],"game_id":440,"stv_port":27076,"stv_name":"Uncletopia | London | 7 | No Payload | STV","players":[{"user_id":408,"name":"dj gyrotta zao","steam_id":76561198043601838,"connected_time":171000000000,"state":"active","ping":61},{"user_id":376,"name":"Cagnus Marlsen","steam_id":76561198077859721,"connected_time":2187000000000,"state":"active","ping":60},{"user_id":403,"name":"Yrjö Koskinen Yrjö-Koskinen","steam_id":76561198368181145,"connected_time":763000000000,"state":"active","ping":90},{"user_id":277,"name":"Der Herr Doktor","steam_id":76561198119476089,"connected_time":7627000000000,"state":"active","ping":66},{"user_id":379,"name":"zek","steam_id":76561198862763731,"connected_time":1968000000000,"state":"active","ping":64},{"user_id":399,"name":"✪Kritz","steam_id":76561198110226775,"connected_time":1058000000000,"state":"active","ping":64},{"user_id":367,"name":"JohnTraveltime","steam_id":76561199244281754,"connected_time":2482000000000,"state":"active","ping":77},{"user_id":350,"name":"Egor Pomidor","steam_id":76561199175688390,"connected_time":3671000000000,"state":"active","ping":89},{"user_id":381,"name":"Kirvis","steam_id":76561198027831643,"connected_time":1916000000000,"state":"active","ping":101},{"user_id":346,"name":"mark","steam_id":76561198309246388,"connected_time":4072000000000,"state":"active","ping":59},{"user_id":402,"name":"brehs","steam_id":76561198150653454,"connected_time":787000000000,"state":"active","ping":49},{"user_id":409,"name":"Dark ^^","steam_id":76561198036241064,"connected_time":153000000000,"state":"active","ping":79},{"user_id":412,"name":"Mr. Heavy LFT Premiership","steam_id":76561198080912087,"connected_time":87000000000,"state":"active","ping":67},{"user_id":393,"name":"antivirus.exe","steam_id":76561198152067633,"connected_time":1595000000000,"state":"active","ping":157},{"user_id":406,"name":"KILER7","steam_id":76561198106049954,"connected_time":479000000000,"state":"active","ping":76},{"user_id":344,"name":"PizzaPete123","steam_id":76561198089478290,"connected_time":4223000000000,"state":"active","ping":45},{"user_id":326,"name":"ev1lboyo","steam_id":76561199199499453,"connected_time":5075000000000,"state":"active","ping":79},{"user_id":338,"name":"Fat Pigeon","steam_id":76561198817940142,"connected_time":4798000000000,"state":"active","ping":45},{"user_id":372,"name":"Денис Базука","steam_id":76561198835849082,"connected_time":2379000000000,"state":"active","ping":125},{"user_id":404,"name":"nudjura","steam_id":76561198281986139,"connected_time":670000000000,"state":"active","ping":37},{"user_id":411,"name":"Frank N Furter","steam_id":76561198130270161,"connected_time":130000000000,"state":"active","ping":57},{"user_id":384,"name":"Kestrel","steam_id":76561198144033005,"connected_time":1784000000000,"state":"active","ping":52},{"user_id":385,"name":"Rad","steam_id":76561198001101843,"connected_time":1775000000000,"state":"active","ping":64}]},{"server_id":41,"name":"Uncletopia | London | 8 | Community","name_short":"lon-8","host":"lon-1.uk.uncletopia.com","port":27085,"enabled":true,"region":"eu","cc":"gb","latitude":51.509865,"longitude":-0.118092,"reserved":0,"last_update":"0001-01-01T00:00:00Z","name_a2s":"Uncletopia | London | 8 | Community","protocol":17,"map":"workshop/pl_highwood_b13.ugc1769496557","folder":"tf","game":"Team Fortress","app_id":440,"player_count":0,"max_players":24,"Bots":0,"server_type":"Dedicated","server_os":"Linux","password":true,"vac":true,"version":"7757534","steam_id":85568392924964315,"keywords":["nocrits","nodmgspread","payload","uncletopia"],"game_id":440,"stv_port":27086,"stv_name":"Uncletopia | London | 8 | Community | STV","players":null},{"server_id":300,"name":"Uncletopia | Montréal | 1 | All Maps","name_short":"mtl-1","host":"mtl-1.ca.uncletopia.com","port":27015,"enabled":true,"region":"us-east","cc":"ca","latitude":45.50889,"longitude":-73.56167,"reserved":0,"last_update":"0001-01-01T00:00:00Z","name_a2s":"Uncletopia | Montréal | 1 | All Maps","protocol":17,"map":"pl_upward","folder":"tf","game":"Team Fortress","app_id":440,"player_count":0,"max_players":24,"Bots":0,"server_type":"Dedicated","server_os":"Linux","password":true,"vac":true,"version":"7757534","steam_id":85568392924500087,"keywords":["nocrits","nodmgspread","payload","uncletopia"],"game_id":440,"stv_port":27016,"stv_name":"Uncletopia | Montréal | 1 | All Maps | STV","players":null},{"server_id":301,"name":"Uncletopia | Montréal | 2 | All Maps","name_short":"mtl-2","host":"mtl-1.ca.uncletopia.com","port":27025,"enabled":true,"region":"us-east","cc":"ca","latitude":45.50889,"longitude":-73.56167,"reserved":0,"last_update":"0001-01-01T00:00:00Z","name_a2s":"Uncletopia | Montréal | 2 | All Maps","protocol":17,"map":"pl_snowycoast","folder":"tf","game":"Team Fortress","app_id":440,"player_count":0,"max_players":24,"Bots":0,"server_type":"Dedicated","server_os":"Linux","password":true,"vac":true,"version":"7757534","steam_id":85568392924500088,"keywords":["nocrits","nodmgspread","payload","uncletopia"],"game_id":440,"stv_port":27026,"stv_name":"Uncletopia | Montréal | 2 | All Maps | STV","players":null},{"server_id":302,"name":"Uncletopia | Montréal | 3 | All Maps","name_short":"mtl-3","host":"mtl-1.ca.uncletopia.com","port":27035,"enabled":true,"region":"us-east","cc":"ca","latitude":45.50889,"longitude":-73.56167,"reserved":0,"last_update":"0001-01-01T00:00:00Z","name_a2s":"Uncletopia | Montréal | 3 | All Maps","protocol":17,"map":"cp_snakewater_final1","folder":"tf","game":"Team Fortress","app_id":440,"player_count":0,"max_players":24,"Bots":0,"server_type":"Dedicated","server_os":"Linux","password":true,"vac":true,"version":"7757534","steam_id":85568392924500089,"keywords":["cp","nocrits","nodmgspread","uncletopia"],"game_id":440,"stv_port":27036,"stv_name":"Uncletopia | Montréal | 3 | All Maps | STV","players":null},{"server_id":303,"name":"Uncletopia | Montréal | 4 | No Payload","name_short":"mtl-4","host":"mtl-1.ca.uncletopia.com","port":27045,"enabled":true,"region":"us-east","cc":"ca","latitude":45.50889,"longitude":-73.56167,"reserved":0,"last_update":"0001-01-01T00:00:00Z","name_a2s":"Uncletopia | Montréal | 4 | No Payload","protocol":17,"map":"pl_pier","folder":"tf","game":"Team Fortress","app_id":440,"player_count":1,"max_players":24,"Bots":0,"server_type":"Dedicated","server_os":"Linux","password":true,"vac":true,"version":"7757534","steam_id":85568392924500090,"keywords":["nocrits","nodmgspread","payload","uncletopia"],"game_id":440,"stv_port":27046,"stv_name":"Uncletopia | Montréal | 4 | No Payload | STV","players":[{"user_id":3,"name":"kingsofautumn","steam_id":76561199056290516,"connected_time":1260000000000,"state":"active","ping":56}]},{"server_id":13,"name":"Uncletopia | New York City | 1 | All Maps","name_short":"nyc-1","host":"nyc-1.us.uncletopia.com","port":27015,"enabled":true,"region":"us-east","cc":"us","latitude":40.73061,"longitude":-73.93524,"reserved":0,"last_update":"0001-01-01T00:00:00Z","name_a2s":"Uncletopia | New York City | 1 | All Maps","protocol":17,"map":"pl_borneo","folder":"tf","game":"Team Fortress","app_id":440,"player_count":24,"max_players":24,"Bots":0,"server_type":"Dedicated","server_os":"Linux","password":true,"vac":true,"version":"7757534","steam_id":85568392924469993,"keywords":["nocrits","nodmgspread","payload","uncletopia"],"game_id":440,"stv_port":27016,"stv_name":"Uncletopia | New York City | 1 | All Maps | STV","players":[{"user_id":186,"name":"[BBW] Justario","steam_id":76561198016095410,"connected_time":1820000000000,"state":"active","ping":45},{"user_id":190,"name":"Kritzburgh","steam_id":76561198149466938,"connected_time":1651000000000,"state":"active","ping":53},{"user_id":183,"name":"Stickmansteve","steam_id":76561198448902647,"connected_time":1909000000000,"state":"active","ping":63},{"user_id":162,"name":"majorbobfunction","steam_id":76561198042464632,"connected_time":3054000000000,"state":"active","ping":74},{"user_id":217,"name":"Snotty!","steam_id":76561199086731683,"connected_time":89000000000,"state":"active","ping":52},{"user_id":205,"name":"Doody","steam_id":76561198284068886,"connected_time":568000000000,"state":"active","ping":83},{"user_id":216,"name":"Resistance","steam_id":76561198146782074,"connected_time":116000000000,"state":"active","ping":60},{"user_id":207,"name":"i am fatphobic(i LOVE gains)","steam_id":76561198241082898,"connected_time":532000000000,"state":"active","ping":88},{"user_id":174,"name":"Animal Slices","steam_id":76561198137545511,"connected_time":2666000000000,"state":"active","ping":74},{"user_id":197,"name":"Ellis D","steam_id":76561198113254149,"connected_time":1455000000000,"state":"active","ping":72},{"user_id":177,"name":"Jim Bob Cooter","steam_id":76561198174428289,"connected_time":2291000000000,"state":"active","ping":92},{"user_id":206,"name":"Ayvean","steam_id":76561198255146147,"connected_time":559000000000,"state":"active","ping":75},{"user_id":138,"name":"WibbyOne","steam_id":76561198052843846,"connected_time":4334000000000,"state":"active","ping":27},{"user_id":178,"name":"tom hot dog","steam_id":76561198044696803,"connected_time":2283000000000,"state":"active","ping":56},{"user_id":208,"name":"frizzle fried","steam_id":76561198062991744,"connected_time":518000000000,"state":"active","ping":50},{"user_id":179,"name":"Noob","steam_id":76561198157087098,"connected_time":2278000000000,"state":"active","ping":64},{"user_id":172,"name":"The Mid Gatsby","steam_id":76561198069497574,"connected_time":2753000000000,"state":"active","ping":32},{"user_id":218,"name":"bogus","steam_id":76561198377555279,"connected_time":32000000000,"state":"active","ping":84},{"user_id":210,"name":"aiden","steam_id":76561198170381402,"connected_time":498000000000,"state":"active","ping":45},{"user_id":211,"name":"Soundwave Gaming","steam_id":76561199013299586,"connected_time":475000000000,"state":"active","ping":59},{"user_id":214,"name":"WarriorFire97","steam_id":76561198276930551,"connected_time":175000000000,"state":"active","ping":124},{"user_id":203,"name":"Oh no","steam_id":76561198123441203,"connected_time":744000000000,"state":"active","ping":70},{"user_id":188,"name":"CG65","steam_id":76561199440141596,"connected_time":1727000000000,"state":"active","ping":74},{"user_id":213,"name":"Demoman With One Joke","steam_id":76561197993467034,"connected_time":458000000000,"state":"active","ping":66}]},{"server_id":14,"name":"Uncletopia | New York City | 2 | All Maps","name_short":"nyc-2","host":"nyc-1.us.uncletopia.com","port":27025,"enabled":true,"region":"us-east","cc":"us","latitude":40.73061,"longitude":-73.93524,"reserved":0,"last_update":"0001-01-01T00:00:00Z","name_a2s":"Uncletopia | New York City | 2 | All Maps","protocol":17,"map":"cp_dustbowl","folder":"tf","game":"Team Fortress","app_id":440,"player_count":19,"max_players":24,"Bots":0,"server_type":"Dedicated","server_os":"Linux","password":true,"vac":true,"version":"7757534","steam_id":85568392924469994,"keywords":["cp","nocrits","nodmgspread","uncletopia"],"game_id":440,"stv_port":27026,"stv_name":"Uncletopia | New York City | 2 | All Maps | STV","players":[{"user_id":152,"name":"Wakadactyl","steam_id":76561198143217984,"connected_time":85000000000,"state":"active","ping":74},{"user_id":151,"name":"Scatter","steam_id":76561198258085271,"connected_time":142000000000,"state":"active","ping":139},{"user_id":120,"name":"Slazzer","steam_id":76561198404351844,"connected_time":2430000000000,"state":"active","ping":60},{"user_id":140,"name":"Billosky Time Lord","steam_id":76561199159626560,"connected_time":1783000000000,"state":"active","ping":150},{"user_id":153,"name":"Blud walked 0 miles 😭😭\ufffd\ufffd\ufffd","steam_id":76561199285074344,"connected_time":69000000000,"state":"active","ping":71},{"user_id":111,"name":"Plague Doctor Moose","steam_id":76561199027129554,"connected_time":2888000000000,"state":"active","ping":58},{"user_id":22,"name":"FS Jorda (She/Her)","steam_id":76561198071421459,"connected_time":8414000000000,"state":"active","ping":31},{"user_id":154,"name":"Nova","steam_id":76561198201444213,"connected_time":65000000000,"state":"active","ping":70},{"user_id":156,"name":"fish 2","steam_id":76561199208652572,"connected_time":17000000000,"state":"active","ping":74},{"user_id":114,"name":"Punished 'Venom' Snake","steam_id":76561198817933714,"connected_time":2757000000000,"state":"active","ping":106},{"user_id":157,"name":"lavender","steam_id":76561199069518286,"connected_time":0,"state":"spawning","ping":28},{"user_id":149,"name":"Daddy Topps","steam_id":76561198203594332,"connected_time":575000000000,"state":"active","ping":105},{"user_id":75,"name":"Ice cream man","steam_id":76561198051519116,"connected_time":4380000000000,"state":"active","ping":43},{"user_id":127,"name":"SuperFresh","steam_id":76561198200723198,"connected_time":2204000000000,"state":"active","ping":55},{"user_id":98,"name":"Dr. Enforcicle (real)","steam_id":76561198964471859,"connected_time":3204000000000,"state":"active","ping":67},{"user_id":129,"name":"MasterAmongRust","steam_id":76561198010160233,"connected_time":2184000000000,"state":"active","ping":91},{"user_id":130,"name":"STEVE","steam_id":76561198063475894,"connected_time":2176000000000,"state":"active","ping":71},{"user_id":150,"name":"murderous deer","steam_id":76561198350832152,"connected_time":200000000000,"state":"active","ping":45},{"user_id":145,"name":"Loashes","steam_id":76561198119608299,"connected_time":918000000000,"state":"active","ping":105}]},{"server_id":15,"name":"Uncletopia | New York City | 3 | Stopwatch Beta","name_short":"nyc-3","host":"nyc-1.us.uncletopia.com","port":27035,"enabled":true,"region":"us-east","cc":"us","latitude":40.73061,"longitude":-73.93524,"reserved":0,"last_update":"0001-01-01T00:00:00Z","name_a2s":"Uncletopia | New York City | 3 | Stopwatch Beta","protocol":17,"map":"pl_upward","folder":"tf","game":"Team Fortress","app_id":440,"player_count":0,"max_players":24,"Bots":0,"server_type":"Dedicated","server_os":"Linux","password":true,"vac":true,"version":"7757534","steam_id":85568392924742820,"keywords":["nocrits","nodmgspread","payload","uncletopia"],"game_id":440,"stv_port":27036,"stv_name":"Uncletopia | New York City | 3 | Stopwatch Beta | STV","players":null},{"server_id":16,"name":"Uncletopia | New York City | 4 | Community","name_short":"nyc-4","host":"nyc-1.us.uncletopia.com","port":27045,"enabled":true,"region":"us-east","cc":"us","latitude":40.73061,"longitude":-73.93524,"reserved":0,"last_update":"0001-01-01T00:00:00Z","name_a2s":"Uncletopia | New York City | 4 | Community","protocol":17,"map":"pl_swiftwater_final1","folder":"tf","game":"Team Fortress","app_id":440,"player_count":0,"max_players":24,"Bots":0,"server_type":"Dedicated","server_os":"Linux","password":true,"vac":true,"version":"7757534","steam_id":85568392924742821,"keywords":["nocrits","nodmgspread","payload","uncletopia"],"game_id":440,"stv_port":27046,"stv_name":"Uncletopia | New York City | 4 | Community | STV","players":null},{"server_id":142,"name":"Uncletopia | São Paulo | 1 | All Maps","name_short":"sao-1","host":"sao-1.br.uncletopia.com","port":27015,"enabled":true,"region":"sa","cc":"br","latitude":-23.533773,"longitude":-46.62529,"reserved":0,"last_update":"0001-01-01T00:00:00Z","name_a2s":"Uncletopia | São Paulo | 1 | All Maps","protocol":17,"map":"cp_sunshine","folder":"tf","game":"Team Fortress","app_id":440,"player_count":0,"max_players":24,"Bots":0,"server_type":"Dedicated","server_os":"Linux","password":true,"vac":true,"version":"7757534","steam_id":85568392924469996,"keywords":["cp","nocrits","nodmgspread","uncletopia"],"game_id":440,"stv_port":27016,"stv_name":"Uncletopia | São Paulo | 1 | All Maps | STV","players":null},{"server_id":143,"name":"Uncletopia | São Paulo | 2 | All Maps","name_short":"sao-2","host":"sao-2.br.uncletopia.com","port":27015,"enabled":true,"region":"sa","cc":"br","latitude":-23.533773,"longitude":-46.62529,"reserved":0,"last_update":"0001-01-01T00:00:00Z","name_a2s":"Uncletopia | São Paulo | 2 | All Maps","protocol":17,"map":"cp_mountainlab","folder":"tf","game":"Team Fortress","app_id":440,"player_count":1,"max_players":24,"Bots":0,"server_type":"Dedicated","server_os":"Linux","password":true,"vac":true,"version":"7757534","steam_id":85568392924485349,"keywords":["cp","nocrits","nodmgspread","uncletopia"],"game_id":440,"stv_port":27016,"stv_name":"Uncletopia | São Paulo | 2 | All Maps | STV","players":[{"user_id":9,"name":"Shadow8XD","steam_id":76561198067134183,"connected_time":274000000000,"state":"active","ping":60}]},{"server_id":7,"name":"Uncletopia | Seattle | 1 | All Maps","name_short":"sea-1","host":"sea-1.us.uncletopia.com","port":27015,"enabled":true,"region":"us-west","cc":"us","latitude":47.608013,"longitude":-122.33517,"reserved":0,"last_update":"0001-01-01T00:00:00Z","name_a2s":"Uncletopia | Seattle | 1 | All Maps","protocol":17,"map":"pl_swiftwater_final1","folder":"tf","game":"Team Fortress","app_id":440,"player_count":24,"max_players":24,"Bots":0,"server_type":"Dedicated","server_os":"Linux","password":true,"vac":true,"version":"7757534","steam_id":85568392924469997,"keywords":["nocrits","nodmgspread","payload","uncletopia"],"game_id":440,"stv_port":27016,"stv_name":"Uncletopia | Seattle | 1 | All Maps | STV","players":[{"user_id":155,"name":"CollDragon","steam_id":76561198067534450,"connected_time":3007000000000,"state":"active","ping":129},{"user_id":168,"name":"Lario","steam_id":76561198084657839,"connected_time":2017000000000,"state":"active","ping":106},{"user_id":181,"name":"mingo","steam_id":76561198308290211,"connected_time":834000000000,"state":"active","ping":92},{"user_id":129,"name":"Rat_king","steam_id":76561199465689129,"connected_time":5401000000000,"state":"active","ping":101},{"user_id":180,"name":"ʀ.ʚɞ.","steam_id":76561198029580420,"connected_time":1310000000000,"state":"active","ping":168},{"user_id":111,"name":"BurntBacon","steam_id":76561198409008960,"connected_time":6094000000000,"state":"active","ping":88},{"user_id":153,"name":"HiFivr","steam_id":76561198285190162,"connected_time":3186000000000,"state":"active","ping":66},{"user_id":163,"name":"KingKata","steam_id":76561198289610011,"connected_time":2478000000000,"state":"active","ping":65},{"user_id":159,"name":"Chicken","steam_id":76561198300214050,"connected_time":2969000000000,"state":"active","ping":47},{"user_id":183,"name":"Saint Laurent Don","steam_id":76561198116820706,"connected_time":456000000000,"state":"active","ping":71},{"user_id":124,"name":"SadFapping","steam_id":76561198076651049,"connected_time":5563000000000,"state":"active","ping":58},{"user_id":167,"name":"Wallace","steam_id":76561198178305667,"connected_time":2050000000000,"state":"active","ping":49},{"user_id":176,"name":"Coyote","steam_id":76561198428625600,"connected_time":1461000000000,"state":"active","ping":75},{"user_id":179,"name":"Mr Mcguffin","steam_id":76561199059310006,"connected_time":1386000000000,"state":"active","ping":62},{"user_id":151,"name":"Tungsten","steam_id":76561198312854342,"connected_time":3521000000000,"state":"active","ping":66},{"user_id":131,"name":"DiscoTraveler","steam_id":76561199240168088,"connected_time":5356000000000,"state":"active","ping":117},{"user_id":108,"name":"Keamy","steam_id":76561199471434875,"connected_time":6443000000000,"state":"active","ping":42},{"user_id":178,"name":"Snoogs","steam_id":76561198444880931,"connected_time":1430000000000,"state":"active","ping":131},{"user_id":171,"name":"lol","steam_id":76561198026491738,"connected_time":1576000000000,"state":"active","ping":76},{"user_id":184,"name":"Rat (real)","steam_id":76561198302366619,"connected_time":334000000000,"state":"active","ping":74},{"user_id":130,"name":"⚢","steam_id":76561199117637890,"connected_time":5389000000000,"state":"active","ping":104},{"user_id":150,"name":"Hassium","steam_id":76561198162541373,"connected_time":3772000000000,"state":"active","ping":60},{"user_id":182,"name":"GENUINE ANGER","steam_id":76561198829069588,"connected_time":686000000000,"state":"active","ping":82},{"user_id":172,"name":"HaphazardHazel","steam_id":76561198316812693,"connected_time":1574000000000,"state":"active","ping":140}]},{"server_id":119,"name":"Uncletopia | Seattle | 2 | All Maps","name_short":"sea-2","host":"sea-1.us.uncletopia.com","port":27025,"enabled":true,"region":"us-west","cc":"us","latitude":47.608013,"longitude":-122.33517,"reserved":0,"last_update":"0001-01-01T00:00:00Z","name_a2s":"Uncletopia | Seattle | 2 | All Maps","protocol":17,"map":"koth_lakeside_final","folder":"tf","game":"Team Fortress","app_id":440,"player_count":0,"max_players":24,"Bots":0,"server_type":"Dedicated","server_os":"Linux","password":true,"vac":true,"version":"7757534","steam_id":85568392924469998,"keywords":["cp","nocrits","nodmgspread","uncletopia"],"game_id":440,"stv_port":27026,"stv_name":"Uncletopia | Seattle | 2 | All Maps | STV","players":null},{"server_id":406,"name":"Uncletopia | Seattle | 3 | Stopwatch Beta","name_short":"sea-3","host":"sea-1.us.uncletopia.com","port":27035,"enabled":true,"region":"us-west","cc":"us","latitude":47.608013,"longitude":-122.33517,"reserved":0,"last_update":"0001-01-01T00:00:00Z","name_a2s":"Uncletopia | Seattle | 3 | Stopwatch Beta","protocol":17,"map":"workshop/cp_reckoner_rc6.ugc674719999","folder":"tf","game":"Team Fortress","app_id":440,"player_count":0,"max_players":24,"Bots":0,"server_type":"Dedicated","server_os":"Linux","password":true,"vac":true,"version":"7757534","steam_id":85568392924515217,"keywords":["cp","nocrits","nodmgspread","uncletopia"],"game_id":440,"stv_port":27036,"stv_name":"Uncletopia | Seattle | 3 | Stopwatch Beta | STV","players":null},{"server_id":17,"name":"Uncletopia | San Francisco | 1 | All Maps","name_short":"sfo-1","host":"sfo-1.us.uncletopia.com","port":27015,"enabled":true,"region":"us-west","cc":"us","latitude":37.77397,"longitude":-122.4313,"reserved":0,"last_update":"0001-01-01T00:00:00Z","name_a2s":"Uncletopia | San Francisco | 1 | All Maps","protocol":17,"map":"pl_pier","folder":"tf","game":"Team Fortress","app_id":440,"player_count":23,"max_players":24,"Bots":0,"server_type":"Dedicated","server_os":"Linux","password":true,"vac":true,"version":"7757534","steam_id":85568392924469999,"keywords":["nocrits","nodmgspread","payload","uncletopia"],"game_id":440,"stv_port":27016,"stv_name":"Uncletopia | San Francisco | 1 | All Maps | STV","players":[{"user_id":200,"name":"HellaCopter","steam_id":76561198062313698,"connected_time":634000000000,"state":"active","ping":67},{"user_id":182,"name":"Huntsman Sniper","steam_id":76561198204055701,"connected_time":1458000000000,"state":"active","ping":55},{"user_id":209,"name":"a","steam_id":76561198131245396,"connected_time":304000000000,"state":"active","ping":112},{"user_id":159,"name":"SeaBass","steam_id":76561197982949108,"connected_time":2725000000000,"state":"active","ping":104},{"user_id":205,"name":"DualiTea","steam_id":76561198081733870,"connected_time":396000000000,"state":"active","ping":101},{"user_id":171,"name":"Enforcer Enthusiast","steam_id":76561199124102271,"connected_time":1997000000000,"state":"active","ping":80},{"user_id":191,"name":"mrthugpug1732","steam_id":76561198881200768,"connected_time":984000000000,"state":"active","ping":80},{"user_id":199,"name":"raf","steam_id":76561197999439695,"connected_time":642000000000,"state":"active","ping":60},{"user_id":194,"name":"Superman123389","steam_id":76561198267472539,"connected_time":844000000000,"state":"active","ping":95},{"user_id":181,"name":"silver_lama","steam_id":76561198101132894,"connected_time":1526000000000,"state":"active","ping":126},{"user_id":208,"name":"tf3aflyingmouse","steam_id":76561198058134934,"connected_time":343000000000,"state":"active","ping":73},{"user_id":193,"name":"Frank (#ripJimmyCarter)","steam_id":76561198126681511,"connected_time":914000000000,"state":"active","ping":59},{"user_id":196,"name":"potatofox98","steam_id":76561198083721201,"connected_time":828000000000,"state":"active","ping":75},{"user_id":177,"name":"Lactose ๑ﭥ","steam_id":76561198208256987,"connected_time":1640000000000,"state":"active","ping":43},{"user_id":198,"name":"coldhogs","steam_id":76561198120349982,"connected_time":649000000000,"state":"active","ping":112},{"user_id":206,"name":"Buswolley","steam_id":76561197995205571,"connected_time":387000000000,"state":"active","ping":51},{"user_id":197,"name":"Radio","steam_id":76561198194821053,"connected_time":706000000000,"state":"active","ping":69},{"user_id":189,"name":"Kid named download","steam_id":76561199192074448,"connected_time":1015000000000,"state":"active","ping":130},{"user_id":184,"name":"BazMiltonFelix","steam_id":76561199233683848,"connected_time":1217000000000,"state":"active","ping":67},{"user_id":207,"name":"Gooey","steam_id":76561198080128621,"connected_time":378000000000,"state":"active","ping":105},{"user_id":202,"name":"2JZ_","steam_id":76561198064027289,"connected_time":551000000000,"state":"active","ping":105},{"user_id":187,"name":"gmagnum","steam_id":76561199034260371,"connected_time":1066000000000,"state":"active","ping":58},{"user_id":169,"name":"sagekiss","steam_id":76561198038831240,"connected_time":2141000000000,"state":"active","ping":80}]},{"server_id":18,"name":"Uncletopia | San Francisco | 2 | All Maps","name_short":"sfo-2","host":"sfo-1.us.uncletopia.com","port":27025,"enabled":true,"region":"us-west","cc":"us","latitude":37.77397,"longitude":-122.4313,"reserved":0,"last_update":"0001-01-01T00:00:00Z","name_a2s":"Uncletopia | San Francisco | 2 | All Maps","protocol":17,"map":"koth_highpass","folder":"tf","game":"Team Fortress","app_id":440,"player_count":0,"max_players":24,"Bots":0,"server_type":"Dedicated","server_os":"Linux","password":true,"vac":true,"version":"7757534","steam_id":85568392924470000,"keywords":["cp","nocrits","nodmgspread","uncletopia"],"game_id":440,"stv_port":27026,"stv_name":"Uncletopia | San Francisco | 2 | All Maps | STV","players":null},{"server_id":19,"name":"Uncletopia | San Francisco | 3 | Stopwatch Beta","name_short":"sfo-3","host":"sfo-1.us.uncletopia.com","port":27035,"enabled":true,"region":"us-west","cc":"us","latitude":37.77397,"longitude":-122.4313,"reserved":0,"last_update":"0001-01-01T00:00:00Z","name_a2s":"Uncletopia | San Francisco | 3 | Stopwatch Beta","protocol":17,"map":"workshop/pl_badwater_pro_v12.ugc2142942074","folder":"tf","game":"Team Fortress","app_id":440,"player_count":0,"max_players":24,"Bots":0,"server_type":"Dedicated","server_os":"Linux","password":true,"vac":true,"version":"7757534","steam_id":85568392924742824,"keywords":["nocrits","nodmgspread","payload","uncletopia"],"game_id":440,"stv_port":27036,"stv_name":"Uncletopia | San Francisco | 3 | Stopwatch Beta | STV","players":null},{"server_id":20,"name":"Uncletopia | San Francisco | 4 | Community","name_short":"sfo-4","host":"sfo-1.us.uncletopia.com","port":27045,"enabled":true,"region":"us-west","cc":"us","latitude":37.77397,"longitude":-122.4313,"reserved":0,"last_update":"0001-01-01T00:00:00Z","name_a2s":"Uncletopia | San Francisco | 4 | Community","protocol":17,"map":"workshop/pl_fifthcurve_rc1.ugc648227046","folder":"tf","game":"Team Fortress","app_id":440,"player_count":0,"max_players":24,"Bots":0,"server_type":"Dedicated","server_os":"Linux","password":true,"vac":true,"version":"7757534","steam_id":85568392924742826,"keywords":["nocrits","nodmgspread","payload","uncletopia"],"game_id":440,"stv_port":27046,"stv_name":"Uncletopia | San Francisco | 4 | Community | STV","players":null},{"server_id":141,"name":"Uncletopia | Sydney | 1 | All Maps","name_short":"syd-1","host":"syd-1.au.uncletopia.com","port":27015,"enabled":true,"region":"au","cc":"au","latitude":-33.865143,"longitude":151.2099,"reserved":0,"last_update":"0001-01-01T00:00:00Z","name_a2s":"Uncletopia | Sydney | 1 | All Maps","protocol":17,"map":"pl_upward","folder":"tf","game":"Team Fortress","app_id":440,"player_count":0,"max_players":24,"Bots":0,"server_type":"Dedicated","server_os":"Linux","password":true,"vac":true,"version":"7757534","steam_id":85568392924470001,"keywords":["nocrits","nodmgspread","payload","uncletopia"],"game_id":440,"stv_port":27016,"stv_name":"Uncletopia | Sydney | 1 | All Maps | STV","players":null},{"server_id":123,"name":"Uncletopia | Sydney | 2 | All Maps","name_short":"syd-2","host":"syd-1.au.uncletopia.com","port":27025,"enabled":true,"region":"au","cc":"au","latitude":-33.865143,"longitude":151.2099,"reserved":0,"last_update":"0001-01-01T00:00:00Z","name_a2s":"Uncletopia | Sydney | 2 | All Maps","protocol":17,"map":"koth_viaduct","folder":"tf","game":"Team Fortress","app_id":440,"player_count":0,"max_players":24,"Bots":0,"server_type":"Dedicated","server_os":"Linux","password":true,"vac":true,"version":"7757534","steam_id":85568392924470002,"keywords":["cp","nocrits","nodmgspread","uncletopia"],"game_id":440,"stv_port":27026,"stv_name":"Uncletopia | Sydney | 2 | All Maps | STV","players":null},{"server_id":395,"name":"Uncletopia | Sydney | 3 | All Maps","name_short":"syd-3","host":"syd-1.au.uncletopia.com","port":27035,"enabled":true,"region":"au","cc":"au","latitude":-33.865143,"longitude":151.2099,"reserved":0,"last_update":"0001-01-01T00:00:00Z","name_a2s":"Uncletopia | Sydney | 3 | All Maps","protocol":17,"map":"cp_snakewater_final1","folder":"tf","game":"Team Fortress","app_id":440,"player_count":0,"max_players":24,"Bots":0,"server_type":"Dedicated","server_os":"Linux","password":true,"vac":true,"version":"7757534","steam_id":85568392925194467,"keywords":["cp","nocrits","nodmgspread","uncletopia"],"game_id":440,"stv_port":27036,"stv_name":"Uncletopia | Sydney | 3 | All Maps | STV","players":null},{"server_id":396,"name":"Uncletopia | Sydney | 4 | All Maps","name_short":"syd-4","host":"syd-1.au.uncletopia.com","port":27045,"enabled":true,"region":"au","cc":"au","latitude":-33.865143,"longitude":151.2099,"reserved":0,"last_update":"0001-01-01T00:00:00Z","name_a2s":"Uncletopia | Sydney | 4 | All Maps","protocol":17,"map":"koth_highpass","folder":"tf","game":"Team Fortress","app_id":440,"player_count":0,"max_players":24,"Bots":0,"server_type":"Dedicated","server_os":"Linux","password":true,"vac":true,"version":"7757534","steam_id":85568392925397958,"keywords":["cp","nocrits","nodmgspread","uncletopia"],"game_id":440,"stv_port":27046,"stv_name":"Uncletopia | Sydney | 4 | All Maps | STV","players":null},{"server_id":58,"name":"Uncletopia | Sydney | 5 | Stopwatch Beta","name_short":"syd-5","host":"syd-1.au.uncletopia.com","port":27055,"enabled":true,"region":"au","cc":"au","latitude":-33.865143,"longitude":151.2099,"reserved":0,"last_update":"0001-01-01T00:00:00Z","name_a2s":"Uncletopia | Sydney | 5 | Stopwatch Beta","protocol":17,"map":"workshop/pl_vigil_rc9.ugc1266210012","folder":"tf","game":"Team Fortress","app_id":440,"player_count":0,"max_players":24,"Bots":0,"server_type":"Dedicated","server_os":"Linux","password":true,"vac":true,"version":"7757534","steam_id":85568392925397959,"keywords":["nocrits","nodmgspread","payload","uncletopia"],"game_id":440,"stv_port":27056,"stv_name":"Uncletopia | Sydney | 5 | Stopwatch Beta | STV","players":null},{"server_id":59,"name":"Uncletopia | Sydney | 6 | Community","name_short":"syd-6","host":"syd-1.au.uncletopia.com","port":27065,"enabled":true,"region":"au","cc":"au","latitude":-33.865143,"longitude":151.2099,"reserved":0,"last_update":"0001-01-01T00:00:00Z","name_a2s":"Uncletopia | Sydney | 6 | Community","protocol":17,"map":"cp_snakewater_final1","folder":"tf","game":"Team Fortress","app_id":440,"player_count":0,"max_players":24,"Bots":0,"server_type":"Dedicated","server_os":"Linux","password":true,"vac":true,"version":"7757534","steam_id":85568392925397960,"keywords":["cp","nocrits","nodmgspread","uncletopia"],"game_id":440,"stv_port":27066,"stv_name":"Uncletopia | Sydney | 6 | Community | STV","players":null},{"server_id":49,"name":"Uncletopia | Warsaw | 1 | All Maps","name_short":"waw-1","host":"waw-1.pl.uncletopia.com","port":27015,"enabled":true,"region":"eu","cc":"pl","latitude":52.2297,"longitude":21.017532,"reserved":0,"last_update":"0001-01-01T00:00:00Z","name_a2s":"","protocol":0,"map":"","folder":"","game":"","app_id":0,"player_count":0,"max_players":0,"Bots":0,"server_type":"","server_os":"","password":false,"vac":false,"version":"","steam_id":0,"keywords":null,"game_id":0,"stv_port":0,"stv_name":"","players":null},{"server_id":50,"name":"Uncletopia | Warsaw | 2 | All Maps","name_short":"waw-2","host":"waw-1.pl.uncletopia.com","port":27025,"enabled":true,"region":"eu","cc":"pl","latitude":52.2297,"longitude":21.017532,"reserved":0,"last_update":"0001-01-01T00:00:00Z","name_a2s":"Uncletopia | Warsaw | 2 | All Maps","protocol":17,"map":"koth_highpass","folder":"tf","game":"Team Fortress","app_id":440,"player_count":0,"max_players":24,"Bots":0,"server_type":"Dedicated","server_os":"Linux","password":true,"vac":true,"version":"7757534","steam_id":85568392925397851,"keywords":["cp","nocrits","nodmgspread","uncletopia"],"game_id":440,"stv_port":27026,"stv_name":"Uncletopia | Warsaw | 2 | All Maps | STV","players":null},{"server_id":51,"name":"Uncletopia | Warsaw | 3 | All Maps","name_short":"waw-3","host":"waw-1.pl.uncletopia.com","port":27035,"enabled":true,"region":"eu","cc":"pl","latitude":52.2297,"longitude":21.017532,"reserved":0,"last_update":"0001-01-01T00:00:00Z","name_a2s":"Uncletopia | Warsaw | 3 | All Maps","protocol":17,"map":"pl_upward","folder":"tf","game":"Team Fortress","app_id":440,"player_count":0,"max_players":24,"Bots":0,"server_type":"Dedicated","server_os":"Linux","password":true,"vac":true,"version":"7757534","steam_id":85568392925397852,"keywords":["nocrits","nodmgspread","payload","uncletopia"],"game_id":440,"stv_port":27036,"stv_name":"Uncletopia | Warsaw | 3 | All Maps | STV","players":null},{"server_id":52,"name":"Uncletopia | Warsaw | 4 | All Maps","name_short":"waw-4","host":"waw-1.pl.uncletopia.com","port":27045,"enabled":true,"region":"eu","cc":"pl","latitude":52.2297,"longitude":21.017532,"reserved":0,"last_update":"0001-01-01T00:00:00Z","name_a2s":"Uncletopia | Warsaw | 4 | All Maps","protocol":17,"map":"koth_lakeside_final","folder":"tf","game":"Team Fortress","app_id":440,"player_count":0,"max_players":24,"Bots":0,"server_type":"Dedicated","server_os":"Linux","password":true,"vac":true,"version":"7757534","steam_id":85568392925397853,"keywords":["cp","nocrits","nodmgspread","uncletopia"],"game_id":440,"stv_port":27046,"stv_name":"Uncletopia | Warsaw | 4 | All Maps | STV","players":null},{"server_id":53,"name":"Uncletopia | Warsaw | 5 | Stopwatch Beta","name_short":"waw-5","host":"waw-1.pl.uncletopia.com","port":27055,"enabled":true,"region":"eu","cc":"pl","latitude":52.2297,"longitude":21.017532,"reserved":0,"last_update":"0001-01-01T00:00:00Z","name_a2s":"Uncletopia | Warsaw | 5 | Stopwatch Beta","protocol":17,"map":"pl_borneo","folder":"tf","game":"Team Fortress","app_id":440,"player_count":0,"max_players":24,"Bots":0,"server_type":"Dedicated","server_os":"Linux","password":true,"vac":true,"version":"7757534","steam_id":85568392925397854,"keywords":["nocrits","nodmgspread","payload","uncletopia"],"game_id":440,"stv_port":27056,"stv_name":"Uncletopia | Warsaw | 5 | Stopwatch Beta | STV","players":null},{"server_id":54,"name":"Uncletopia | Warsaw | 6 | Community","name_short":"waw-6","host":"waw-1.pl.uncletopia.com","port":27065,"enabled":true,"region":"eu","cc":"pl","latitude":52.2297,"longitude":21.017532,"reserved":0,"last_update":"0001-01-01T00:00:00Z","name_a2s":"Uncletopia | Warsaw | 6 | Community","protocol":17,"map":"koth_lakeside_final","folder":"tf","game":"Team Fortress","app_id":440,"player_count":0,"max_players":24,"Bots":0,"server_type":"Dedicated","server_os":"Linux","password":true,"vac":true,"version":"7757534","steam_id":85568392925397856,"keywords":["cp","nocrits","nodmgspread","uncletopia"],"game_id":440,"stv_port":27066,"stv_name":"Uncletopia | Warsaw | 6 | Community | STV","players":null}]}