{"status":true,"message":"","result":[{"server_id":9,"name":"Uncletopia | Atlanta | 1 | All Maps","name_short":"atl-1","host":"atl-1.us.uncletopia.com","port":27015,"enabled":true,"region":"us-east","cc":"us","latitude":33.753746,"longitude":-84.38633,"reserved":0,"last_update":"0001-01-01T00:00:00Z","name_a2s":"Uncletopia | Atlanta | 1 | All Maps","protocol":17,"map":"koth_viaduct","folder":"tf","game":"Team Fortress","app_id":440,"player_count":8,"max_players":24,"Bots":0,"server_type":"Dedicated","server_os":"Linux","password":true,"vac":true,"version":"7882260","steam_id":85568392924469982,"keywords":["cp","nocrits","nodmgspread","uncletopia"],"game_id":440,"stv_port":27016,"stv_name":"Uncletopia | Atlanta | 1 | All Maps | STV","players":[{"user_id":6,"name":"Big Man","steam_id":76561198353366625,"connected_time":1027000000000,"state":"active","ping":70},{"user_id":7,"name":"SlumberGum","steam_id":76561198962792920,"connected_time":1007000000000,"state":"active","ping":88},{"user_id":8,"name":"Star-Spangled Squirter","steam_id":76561199018831573,"connected_time":882000000000,"state":"active","ping":83},{"user_id":9,"name":"Boop","steam_id":76561198376703875,"connected_time":820000000000,"state":"active","ping":68},{"user_id":10,"name":"\u003c3 gay for women \u003c3","steam_id":76561198089978036,"connected_time":374000000000,"state":"active","ping":64},{"user_id":11,"name":"nalezinik","steam_id":76561198030026119,"connected_time":243000000000,"state":"active","ping":74},{"user_id":13,"name":"Drewey","steam_id":76561199258609863,"connected_time":194000000000,"state":"active","ping":74},{"user_id":14,"name":"GameMaster","steam_id":76561198925109176,"connected_time":65000000000,"state":"active","ping":62}]},{"server_id":104,"name":"Uncletopia | Atlanta | 2 | All Maps","name_short":"atl-2","host":"atl-1.us.uncletopia.com","port":27025,"enabled":true,"region":"us-east","cc":"us","latitude":33.753746,"longitude":-84.38633,"reserved":0,"last_update":"0001-01-01T00:00:00Z","name_a2s":"Uncletopia | Atlanta | 2 | All Maps","protocol":17,"map":"cp_process_final","folder":"tf","game":"Team Fortress","app_id":440,"player_count":23,"max_players":24,"Bots":0,"server_type":"Dedicated","server_os":"Linux","password":true,"vac":true,"version":"7882260","steam_id":85568392924469983,"keywords":["cp","nocrits","nodmgspread","uncletopia"],"game_id":440,"stv_port":27026,"stv_name":"Uncletopia | Atlanta | 2 | All Maps | STV","players":[{"user_id":230,"name":"Kid named download","steam_id":76561199192074448,"connected_time":375000000000,"state":"active","ping":95},{"user_id":154,"name":"SHADY SWEATER SALESMAN","steam_id":76561198014616865,"connected_time":8290000000000,"state":"active","ping":78},{"user_id":190,"name":"Moonman327","steam_id":76561197992616059,"connected_time":4449000000000,"state":"active","ping":52},{"user_id":231,"name":"A Shiny Meat Bicycle","steam_id":76561198358757709,"connected_time":372000000000,"state":"active","ping":71},{"user_id":206,"name":"Snozz Core","steam_id":76561198064520262,"connected_time":2945000000000,"state":"active","ping":77},{"user_id":237,"name":"Mega","steam_id":76561198015987010,"connected_time":131000000000,"state":"active","ping":85},{"user_id":240,"name":"JuJuVox","steam_id":76561198052371247,"connected_time":36000000000,"state":"spawning","ping":52},{"user_id":224,"name":"braindead","steam_id":76561198263631055,"connected_time":1408000000000,"state":"active","ping":45},{"user_id":214,"name":"Princess Peach","steam_id":76561198260272240,"connected_time":2275000000000,"state":"active","ping":135},{"user_id":203,"name":"Glory","steam_id":76561198013975080,"connected_time":3107000000000,"state":"active","ping":104},{"user_id":141,"name":"BuncusBeffer","steam_id":76561198285936616,"connected_time":9387000000000,"state":"active","ping":114},{"user_id":194,"name":"Nekotine ·óúÀ¨·óú","steam_id":76561198375885194,"connected_time":4283000000000,"state":"active","ping":101},{"user_id":239,"name":"Bombat","steam_id":76561198083096946,"connected_time":93000000000,"state":"active","ping":100},{"user_id":210,"name":"amaz","steam_id":76561198386233160,"connected_time":2899000000000,"state":"active","ping":87},{"user_id":233,"name":"Batman in one piece","steam_id":76561199129969202,"connected_time":300000000000,"state":"active","ping":63},{"user_id":222,"name":"Sauce Boss","steam_id":76561198000156997,"connected_time":1567000000000,"state":"active","ping":64},{"user_id":229,"name":"trobin120","steam_id":76561199122420273,"connected_time":407000000000,"state":"active","ping":59},{"user_id":221,"name":"Mightykami","steam_id":76561198064233918,"connected_time":1710000000000,"state":"active","ping":54},{"user_id":198,"name":"mother coconuts","steam_id":76561198124679073,"connected_time":4000000000000,"state":"active","ping":70},{"user_id":169,"name":"Somsnosa","steam_id":76561198366299848,"connected_time":6454000000000,"state":"active","ping":60},{"user_id":234,"name":"markie \"WYLDE\" wylde","steam_id":76561198156303505,"connected_time":277000000000,"state":"active","ping":62},{"user_id":227,"name":"WarMace","steam_id":76561198395937853,"connected_time":1048000000000,"state":"active","ping":111}]},{"server_id":400,"name":"Uncletopia | Atlanta | 3 | Community","name_short":"atl-3","host":"atl-1.us.uncletopia.com","port":27035,"enabled":true,"region":"us-east","cc":"us","latitude":33.753746,"longitude":-84.38633,"reserved":0,"last_update":"0001-01-01T00:00:00Z","name_a2s":"Uncletopia | Atlanta | 3 | Community","protocol":17,"map":"cp_sunshine","folder":"tf","game":"Team Fortress","app_id":440,"player_count":0,"max_players":24,"Bots":0,"server_type":"Dedicated","server_os":"Linux","password":true,"vac":true,"version":"7882260","steam_id":85568392924515187,"keywords":["cp","nocrits","nodmgspread","uncletopia"],"game_id":440,"stv_port":27036,"stv_name":"Uncletopia | Atlanta | 3 | Community | STV","players":null},{"server_id":401,"name":"Uncletopia | Atlanta | 4 | No Payload","name_short":"atl-4","host":"atl-1.us.uncletopia.com","port":27045,"enabled":true,"region":"us-east","cc":"us","latitude":33.753746,"longitude":-84.38633,"reserved":0,"last_update":"0001-01-01T00:00:00Z","name_a2s":"","protocol":0,"map":"","folder":"","game":"","app_id":0,"player_count":0,"max_players":0,"Bots":0,"server_type":"","server_os":"","password":false,"vac":false,"version":"","steam_id":0,"keywords":null,"game_id":0,"stv_port":0,"stv_name":"","players":null},{"server_id":2,"name":"Uncletopia | Chicago | 1 | All Maps","name_short":"chi-1","host":"chi-1.us.uncletopia.com","port":27015,"enabled":true,"region":"us-central","cc":"us","latitude":41.881832,"longitude":-87.62318,"reserved":0,"last_update":"0001-01-01T00:00:00Z","name_a2s":"Uncletopia | Chicago | 1 | All Maps","protocol":17,"map":"cp_powerhouse","folder":"tf","game":"Team Fortress","app_id":440,"player_count":24,"max_players":24,"Bots":0,"server_type":"Dedicated","server_os":"Linux","password":true,"vac":true,"version":"7882260","steam_id":85568392924469984,"keywords":["cp","nocrits","nodmgspread","uncletopia"],"game_id":440,"stv_port":27016,"stv_name":"Uncletopia | Chicago | 1 | All Maps | STV","players":[{"user_id":111,"name":"Caz","steam_id":76561198055149945,"connected_time":205000000000,"state":"active","ping":52},{"user_id":60,"name":"hud_saytext_time 0","steam_id":76561198010327228,"connected_time":3245000000000,"state":"active","ping":159},{"user_id":84,"name":"dicksnip","steam_id":76561198356515396,"connected_time":2133000000000,"state":"active","ping":72},{"user_id":99,"name":"[TSG] Turner's Chocolate Milk","steam_id":76561198058963288,"connected_time":755000000000,"state":"active","ping":63},{"user_id":94,"name":"wavlog0124","steam_id":76561199079614516,"connected_time":973000000000,"state":"active","ping":50},{"user_id":93,"name":"lost in spaaaaace","steam_id":76561199085974120,"connected_time":1328000000000,"state":"active","ping":67},{"user_id":96,"name":"The Potato Romancer","steam_id":76561198204197648,"connected_time":912000000000,"state":"active","ping":91},{"user_id":112,"name":"Skoad","steam_id":76561198104650528,"connected_time":129000000000,"state":"active","ping":116},{"user_id":113,"name":"magickxanadu","steam_id":76561199117360103,"connected_time":94000000000,"state":"active","ping":98},{"user_id":110,"name":"Scorpie Doodle","steam_id":76561198021845763,"connected_time":327000000000,"state":"active","ping":56},{"user_id":54,"name":"PyroEagle","steam_id":76561198296434231,"connected_time":4073000000000,"state":"active","ping":62},{"user_id":66,"name":"majorbobfunction","steam_id":76561198042464632,"connected_time":3090000000000,"state":"active","ping":66},{"user_id":85,"name":"Influrrno","steam_id":76561198398893302,"connected_time":2125000000000,"state":"active","ping":72},{"user_id":91,"name":"Gnarly Shark Bite","steam_id":76561198004058342,"connected_time":1618000000000,"state":"active","ping":72},{"user_id":98,"name":"unlucky killer","steam_id":76561199039152146,"connected_time":778000000000,"state":"active","ping":72},{"user_id":116,"name":"LuckY","steam_id":76561198170658739,"connected_time":24000000000,"state":"active","ping":71},{"user_id":100,"name":"M","steam_id":76561198255827013,"connected_time":743000000000,"state":"active","ping":120},{"user_id":74,"name":"fancyfreak","steam_id":76561198326466375,"connected_time":2687000000000,"state":"active","ping":100},{"user_id":109,"name":"Smoker Lung","steam_id":76561198077167395,"connected_time":335000000000,"state":"active","ping":46},{"user_id":102,"name":"kermitcreeper(ZAZA)","steam_id":76561199222829972,"connected_time":690000000000,"state":"active","ping":56},{"user_id":115,"name":"cling","steam_id":76561198061283208,"connected_time":40000000000,"state":"active","ping":45},{"user_id":104,"name":"Cofi","steam_id":76561199026721822,"connected_time":606000000000,"state":"active","ping":108},{"user_id":105,"name":"shit bro","steam_id":76561199178885266,"connected_time":582000000000,"state":"active","ping":56},{"user_id":106,"name":"Crocodile(real)","steam_id":76561199190685448,"connected_time":557000000000,"state":"active","ping":47}]},{"server_id":106,"name":"Uncletopia | Chicago | 2 | All Maps","name_short":"chi-2","host":"chi-1.us.uncletopia.com","port":27025,"enabled":true,"region":"us-central","cc":"us","latitude":41.881832,"longitude":-87.62318,"reserved":0,"last_update":"0001-01-01T00:00:00Z","name_a2s":"Uncletopia | Chicago | 2 | All Maps","protocol":17,"map":"pl_frontier_final","folder":"tf","game":"Team Fortress","app_id":440,"player_count":0,"max_players":24,"Bots":0,"server_type":"Dedicated","server_os":"Linux","password":true,"vac":true,"version":"7882260","steam_id":85568392924469985,"keywords":["nocrits","nodmgspread","payload","uncletopia"],"game_id":440,"stv_port":27026,"stv_name":"Uncletopia | Chicago | 2 | All Maps | STV","players":null},{"server_id":402,"name":"Uncletopia | Chicago | 3 | All Maps","name_short":"chi-3","host":"chi-1.us.uncletopia.com","port":27035,"enabled":true,"region":"us-central","cc":"us","latitude":41.881832,"longitude":-87.62318,"reserved":0,"last_update":"0001-01-01T00:00:00Z","name_a2s":"Uncletopia | Chicago | 3 | All Maps","protocol":17,"map":"pl_snowycoast","folder":"tf","game":"Team Fortress","app_id":440,"player_count":0,"max_players":24,"Bots":0,"server_type":"Dedicated","server_os":"Linux","password":true,"vac":true,"version":"7882260","steam_id":85568392924515191,"keywords":["nocrits","nodmgspread","payload","uncletopia"],"game_id":440,"stv_port":27036,"stv_name":"Uncletopia | Chicago | 3 | All Maps | STV","players":null},{"server_id":403,"name":"Uncletopia | Chicago | 4 | All Maps","name_short":"chi-4","host":"chi-1.us.uncletopia.com","port":27045,"enabled":true,"region":"us-central","cc":"us","latitude":41.881832,"longitude":-87.62318,"reserved":0,"last_update":"0001-01-01T00:00:00Z","name_a2s":"Uncletopia | Chicago | 4 | All Maps","protocol":17,"map":"koth_cascade","folder":"tf","game":"Team Fortress","app_id":440,"player_count":0,"max_players":24,"Bots":0,"server_type":"Dedicated","server_os":"Linux","password":true,"vac":true,"version":"7882260","steam_id":85568392924515193,"keywords":["cp","nocrits","nodmgspread","uncletopia"],"game_id":440,"stv_port":27046,"stv_name":"Uncletopia | Chicago | 4 | All Maps | STV","players":null},{"server_id":36,"name":"Uncletopia | Chicago | 5 | All Maps","name_short":"chi-5","host":"chi-2.us.uncletopia.com","port":27015,"enabled":true,"region":"us-central","cc":"us","latitude":41.881832,"longitude":-87.62318,"reserved":0,"last_update":"0001-01-01T00:00:00Z","name_a2s":"Uncletopia | Chicago | 5 | All Maps","protocol":17,"map":"pl_snowycoast","folder":"tf","game":"Team Fortress","app_id":440,"player_count":0,"max_players":24,"Bots":0,"server_type":"Dedicated","server_os":"Linux","password":true,"vac":true,"version":"7882260","steam_id":85568392924866362,"keywords":["nocrits","nodmgspread","payload","uncletopia"],"game_id":440,"stv_port":27016,"stv_name":"Uncletopia | Chicago | 5 | All Maps | STV","players":null},{"server_id":37,"name":"Uncletopia | Chicago | 6 | All Maps","name_short":"chi-6","host":"chi-2.us.uncletopia.com","port":27025,"enabled":true,"region":"us-central","cc":"us","latitude":41.881832,"longitude":-87.62318,"reserved":0,"last_update":"0001-01-01T00:00:00Z","name_a2s":"Uncletopia | Chicago | 6 | All Maps","protocol":17,"map":"koth_cascade","folder":"tf","game":"Team Fortress","app_id":440,"player_count":0,"max_players":24,"Bots":0,"server_type":"Dedicated","server_os":"Linux","password":true,"vac":true,"version":"7882260","steam_id":85568392924866363,"keywords":["cp","nocrits","nodmgspread","uncletopia"],"game_id":440,"stv_port":27026,"stv_name":"Uncletopia | Chicago | 6 | All Maps | STV","players":null},{"server_id":38,"name":"Uncletopia | Chicago | 7 | Stopwatch Beta","name_short":"chi-7","host":"chi-2.us.uncletopia.com","port":27035,"enabled":true,"region":"us-central","cc":"us","latitude":41.881832,"longitude":-87.62318,"reserved":0,"last_update":"0001-01-01T00:00:00Z","name_a2s":"Uncletopia | Chicago | 7 | Stopwatch Beta","protocol":17,"map":"pl_borneo","folder":"tf","game":"Team Fortress","app_id":440,"player_count":0,"max_players":24,"Bots":0,"server_type":"Dedicated","server_os":"Linux","password":true,"vac":true,"version":"7882260","steam_id":85568392924866364,"keywords":["nocrits","nodmgspread","payload","uncletopia"],"game_id":440,"stv_port":27036,"stv_name":"Uncletopia | Chicago | 7 | Stopwatch Beta | STV","players":null},{"server_id":39,"name":"Uncletopia | Chicago | 8 | Community","name_short":"chi-8","host":"chi-2.us.uncletopia.com","port":27045,"enabled":true,"region":"us-central","cc":"us","latitude":41.881832,"longitude":-87.62318,"reserved":0,"last_update":"0001-01-01T00:00:00Z","name_a2s":"Uncletopia | Chicago | 8 | Community","protocol":17,"map":"cp_snakewater_final1","folder":"tf","game":"Team Fortress","app_id":440,"player_count":0,"max_players":24,"Bots":0,"server_type":"Dedicated","server_os":"Linux","password":true,"vac":true,"version":"7882260","steam_id":85568392924866365,"keywords":["cp","nocrits","nodmgspread","uncletopia"],"game_id":440,"stv_port":27046,"stv_name":"Uncletopia | Chicago | 8 | Community | STV","players":null},{"server_id":8,"name":"Uncletopia | Dallas | 1 | All Maps","name_short":"dal-1","host":"dal-1.us.uncletopia.com","port":27015,"enabled":true,"region":"us-central","cc":"us","latitude":32.779167,"longitude":-96.80889,"reserved":0,"last_update":"0001-01-01T00:00:00Z","name_a2s":"Uncletopia | Dallas | 1 | All Maps","protocol":17,"map":"pl_pier","folder":"tf","game":"Team Fortress","app_id":440,"player_count":0,"max_players":24,"Bots":0,"server_type":"Dedicated","server_os":"Linux","password":true,"vac":true,"version":"7882260","steam_id":85568392924469986,"keywords":["nocrits","nodmgspread","payload","uncletopia"],"game_id":440,"stv_port":27016,"stv_name":"Uncletopia | Dallas | 1 | All Maps | STV","players":null},{"server_id":108,"name":"Uncletopia | Dallas | 2 | All Maps","name_short":"dal-2","host":"dal-1.us.uncletopia.com","port":27025,"enabled":true,"region":"us-central","cc":"us","latitude":32.779167,"longitude":-96.80889,"reserved":0,"last_update":"0001-01-01T00:00:00Z","name_a2s":"Uncletopia | Dallas | 2 | All Maps","protocol":17,"map":"pl_frontier_final","folder":"tf","game":"Team Fortress","app_id":440,"player_count":0,"max_players":24,"Bots":0,"server_type":"Dedicated","server_os":"Linux","password":true,"vac":true,"version":"7882260","steam_id":85568392924469988,"keywords":["nocrits","nodmgspread","payload","uncletopia"],"game_id":440,"stv_port":27026,"stv_name":"Uncletopia | Dallas | 2 | All Maps | STV","players":null},{"server_id":5,"name":"Uncletopia | Frankfurt | 1 | All Maps","name_short":"frk-1","host":"frk-1.de.uncletopia.com","port":27015,"enabled":true,"region":"eu","cc":"de","latitude":50.110924,"longitude":8.682127,"reserved":0,"last_update":"0001-01-01T00:00:00Z","name_a2s":"Uncletopia | Frankfurt | 1 | All Maps","protocol":17,"map":"pl_snowycoast","folder":"tf","game":"Team Fortress","app_id":440,"player_count":24,"max_players":24,"Bots":0,"server_type":"Dedicated","server_os":"Linux","password":true,"vac":true,"version":"7882260","steam_id":85568392924469989,"keywords":["nocrits","nodmgspread","payload","uncletopia"],"game_id":440,"stv_port":27016,"stv_name":"Uncletopia | Frankfurt | 1 | All Maps | STV","players":[{"user_id":166,"name":"k√§velij√§","steam_id":76561198141787740,"connected_time":1798000000000,"state":"active","ping":81},{"user_id":154,"name":"on1on (fried)","steam_id":76561197995304137,"connected_time":2769000000000,"state":"active","ping":68},{"user_id":172,"name":"XPullaHiiri","steam_id":76561198031652375,"connected_time":804000000000,"state":"active","ping":90},{"user_id":115,"name":"[O\u0026O]YaboiDucki","steam_id":76561198195976589,"connected_time":4576000000000,"state":"active","ping":71},{"user_id":92,"name":"Rahu 'Siebren' Godless","steam_id":76561198276259175,"connected_time":7038000000000,"state":"active","ping":96},{"user_id":177,"name":"and that's on Gek","steam_id":76561198104896547,"connected_time":180000000000,"state":"active","ping":76},{"user_id":161,"name":"beeb","steam_id":76561198211644077,"connected_time":1949000000000,"state":"active","ping":75},{"user_id":164,"name":"Kildon","steam_id":76561198134661558,"connected_time":1887000000000,"state":"active","ping":84},{"user_id":160,"name":"Psycho","steam_id":76561198084918608,"connected_time":1975000000000,"state":"active","ping":55},{"user_id":162,"name":"dafydd","steam_id":76561198052200325,"connected_time":1945000000000,"state":"active","ping":78},{"user_id":125,"name":"Vratis","steam_id":76561198062957725,"connected_time":4194000000000,"state":"active","ping":87},{"user_id":171,"name":"Tobb_Harvard","steam_id":76561199222100485,"connected_time":904000000000,"state":"active","ping":83},{"user_id":174,"name":"Saint","steam_id":76561198003296382,"connected_time":418000000000,"state":"active","ping":63},{"user_id":157,"name":"aavikkorotta","steam_id":76561199429407130,"connected_time":2373000000000,"state":"active","ping":100},{"user_id":175,"name":"r06u3","steam_id":76561198254099253,"connected_time":407000000000,"state":"active","ping":162},{"user_id":130,"name":"Germanium_Ge","steam_id":76561198130561775,"connected_time":4126000000000,"state":"active","ping":63},{"user_id":131,"name":"rzecc","steam_id":76561198087953012,"connected_time":4074000000000,"state":"active","ping":73},{"user_id":132,"name":"B@yka","steam_id":76561198986736592,"connected_time":4046000000000,"state":"active","ping":74},{"user_id":155,"name":"LOBZIK","steam_id":76561198114830120,"connected_time":2753000000000,"state":"active","ping":77},{"user_id":163,"name":"Estyle","steam_id":76561198157804700,"connected_time":1937000000000,"state":"active","ping":80},{"user_id":144,"name":"Toaster1337","steam_id":76561198103706881,"connected_time":3503000000000,"state":"active","ping":65},{"user_id":165,"name":"noodlehairronaldoprime","steam_id":76561199471954402,"connected_time":1855000000000,"state":"active","ping":64},{"user_id":149,"name":"Sex Man TF2","steam_id":76561198798657045,"connected_time":3373000000000,"state":"active","ping":61},{"user_id":169,"name":"ÍßÅ‡πñ‰π°√êe¬∑SexyLion‰π°ÍßÇ","steam_id":76561198123539320,"connected_time":1377000000000,"state":"active","ping":93}]},{"server_id":110,"name":"Uncletopia | Frankfurt | 2 | All Maps","name_short":"frk-2","host":"frk-1.de.uncletopia.com","port":27025,"enabled":true,"region":"eu","cc":"de","latitude":50.110924,"longitude":8.682127,"reserved":0,"last_update":"0001-01-01T00:00:00Z","name_a2s":"Uncletopia | Frankfurt | 2 | All Maps","protocol":17,"map":"pl_borneo","folder":"tf","game":"Team Fortress","app_id":440,"player_count":24,"max_players":24,"Bots":0,"server_type":"Dedicated","server_os":"Linux","password":true,"vac":true,"version":"7882260","steam_id":85568392924469990,"keywords":["nocrits","nodmgspread","payload","uncletopia"],"game_id":440,"stv_port":27026,"stv_name":"Uncletopia | Frankfurt | 2 | All Maps | STV","players":[{"user_id":272,"name":"thussu","steam_id":76561198890409949,"connected_time":4915000000000,"state":"active","ping":103},{"user_id":328,"name":"swueuws","steam_id":76561198020716743,"connected_time":475000000000,"state":"active","ping":54},{"user_id":279,"name":"mixxxa_french","steam_id":76561198085098243,"connected_time":4664000000000,"state":"active","ping":102},{"user_id":303,"name":"Cuthbert","steam_id":76561198204649481,"connected_time":2784000000000,"state":"active","ping":101},{"user_id":331,"name":"Leibeigener","steam_id":76561199275478305,"connected_time":262000000000,"state":"active","ping":50},{"user_id":316,"name":"The One (and only)","steam_id":76561198827193499,"connected_time":1071000000000,"state":"active","ping":65},{"user_id":318,"name":"hbi*venomcrosshairs","steam_id":76561197996468677,"connected_time":904000000000,"state":"active","ping":59},{"user_id":327,"name":"Houf*venomcrosshairs","steam_id":76561198448050535,"connected_time":524000000000,"state":"active","ping":53},{"user_id":307,"name":"Slifer the Sky Dragon","steam_id":76561198062255803,"connected_time":2428000000000,"state":"active","ping":60},{"user_id":320,"name":"Nod officer","steam_id":76561199086927196,"connected_time":869000000000,"state":"active","ping":51},{"user_id":257,"name":"AleXandriX","steam_id":76561198035203950,"connected_time":6055000000000,"state":"active","ping":55},{"user_id":304,"name":"SantiTzePug","steam_id":76561199049615996,"connected_time":2770000000000,"state":"active","ping":75},{"user_id":310,"name":"ijustsmokeandcry","steam_id":76561198044189114,"connected_time":1834000000000,"state":"active","ping":58},{"user_id":280,"name":"OwOreo // fckputin","steam_id":76561197995314793,"connected_time":4459000000000,"state":"active","ping":63},{"user_id":306,"name":"Captain Crunch","steam_id":76561198004728744,"connected_time":2651000000000,"state":"active","ping":50},{"user_id":313,"name":"generic alias","steam_id":76561198271607226,"connected_time":1644000000000,"state":"active","ping":82},{"user_id":298,"name":"Peanut","steam_id":76561198018865486,"connected_time":3118000000000,"state":"active","ping":72},{"user_id":317,"name":"Dog ?","steam_id":76561198347020945,"connected_time":1064000000000,"state":"active","ping":86},{"user_id":321,"name":"üå≠ HugeE","steam_id":76561198245495152,"connected_time":860000000000,"state":"active","ping":65},{"user_id":322,"name":"primordial soup enjoyer","steam_id":76561199163260578,"connected_time":860000000000,"state":"active","ping":62},{"user_id":330,"name":"Purplenoogie","steam_id":76561198081872160,"connected_time":300000000000,"state":"active","ping":56},{"user_id":305,"name":"HelwiiHill","steam_id":76561198066730552,"connected_time":2765000000000,"state":"active","ping":90},{"user_id":325,"name":"chief keef*venomxhairs","steam_id":76561198083063005,"connected_time":721000000000,"state":"active","ping":57},{"user_id":284,"name":"Lord of Beans","steam_id":76561198283379801,"connected_time":4175000000000,"state":"active","ping":111}]},{"server_id":308,"name":"Uncletopia | Frankfurt | 3 | All Maps","name_short":"frk-3","host":"frk-1.de.uncletopia.com","port":27035,"enabled":true,"region":"eu","cc":"de","latitude":50.110924,"longitude":8.682127,"reserved":0,"last_update":"0001-01-01T00:00:00Z","name_a2s":"Uncletopia | Frankfurt | 3 | All Maps","protocol":17,"map":"cp_dustbowl","folder":"tf","game":"Team Fortress","app_id":440,"player_count":24,"max_players":24,"Bots":0,"server_type":"Dedicated","server_os":"Linux","password":true,"vac":true,"version":"7882260","steam_id":85568392924504274,"keywords":["cp","nocrits","nodmgspread","uncletopia"],"game_id":440,"stv_port":27036,"stv_name":"Uncletopia | Frankfurt | 3 | All Maps | STV","players":[{"user_id":710,"name":"WHUSSKEY","steam_id":76561198137827441,"connected_time":470000000000,"state":"active","ping":59},{"user_id":715,"name":"Marky","steam_id":76561199474556920,"connected_time":284000000000,"state":"active","ping":120},{"user_id":687,"name":"Helon","steam_id":76561198050761682,"connected_time":1190000000000,"state":"active","ping":59},{"user_id":644,"name":"YOUNG Mozart","steam_id":76561198262549397,"connected_time":3345000000000,"state":"active","ping":53},{"user_id":686,"name":"Skuld","steam_id":76561198064734905,"connected_time":1203000000000,"state":"active","ping":90},{"user_id":688,"name":"koko","steam_id":76561198953867666,"connected_time":1168000000000,"state":"active","ping":59},{"user_id":679,"name":"Kocham Wode z Filtra","steam_id":76561198016042113,"connected_time":1430000000000,"state":"active","ping":82},{"user_id":696,"name":"widerekxinthewine","steam_id":76561198880365359,"connected_time":778000000000,"state":"active","ping":145},{"user_id":714,"name":"Skatnaset","steam_id":76561198298457353,"connected_time":378000000000,"state":"active","ping":85},{"user_id":718,"name":"Vaptor","steam_id":76561198799323148,"connected_time":264000000000,"state":"active","ping":64},{"user_id":720,"name":"Engi-Nearing","steam_id":76561199221172552,"connected_time":205000000000,"state":"active","ping":54},{"user_id":724,"name":"Pokershark","steam_id":76561198080086744,"connected_time":64000000000,"state":"active","ping":82},{"user_id":692,"name":"Verculum","steam_id":76561198894912634,"connected_time":938000000000,"state":"active","ping":121},{"user_id":681,"name":"Banana Dispenser","steam_id":76561198446549451,"connected_time":1333000000000,"state":"active","ping":163},{"user_id":701,"name":"SerialKILLA!","steam_id":76561198804885060,"connected_time":663000000000,"state":"active","ping":55},{"user_id":705,"name":"John Fortress","steam_id":76561197984661199,"connected_time":641000000000,"state":"active","ping":68},{"user_id":709,"name":"SNS BATIN–ê–®","steam_id":76561198053914183,"connected_time":542000000000,"state":"active","ping":67},{"user_id":685,"name":"dabri88","steam_id":76561198103645497,"connected_time":1227000000000,"state":"active","ping":161},{"user_id":722,"name":"meatsoupcube","steam_id":76561198276802249,"connected_time":177000000000,"state":"active","ping":103},{"user_id":682,"name":"Izzie","steam_id":76561198090287325,"connected_time":1332000000000,"state":"active","ping":70},{"user_id":707,"name":"Keittokapteeni","steam_id":76561198271579939,"connected_time":609000000000,"state":"active","ping":90},{"user_id":723,"name":"Gabys","steam_id":76561198282892553,"connected_time":176000000000,"state":"active","ping":75},{"user_id":442,"name":"LasagneMan","steam_id":76561198971904377,"connected_time":15312000000000,"state":"active","ping":69},{"user_id":713,"name":"Jazzy_Ginga","steam_id":76561198968566589,"connected_time":396000000000,"state":"active","ping":70}]},{"server_id":309,"name":"Uncletopia | Frankfurt | 4 | All Maps","name_short":"frk-4","host":"frk-1.de.uncletopia.com","port":27045,"enabled":true,"region":"eu","cc":"de","latitude":50.110924,"longitude":8.682127,"reserved":0,"last_update":"0001-01-01T00:00:00Z","name_a2s":"Uncletopia | Frankfurt | 4 | All Maps","protocol":17,"map":"cp_snakewater_final1","folder":"tf","game":"Team Fortress","app_id":440,"player_count":0,"max_players":24,"Bots":0,"server_type":"Dedicated","server_os":"Linux","password":true,"vac":true,"version":"7882260","steam_id":85568392924504275,"keywords":["cp","nocrits","nodmgspread","uncletopia"],"game_id":440,"stv_port":27046,"stv_name":"Uncletopia | Frankfurt | 4 | All Maps | STV","players":null},{"server_id":310,"name":"Uncletopia | Frankfurt | 5 | All Maps","name_short":"frk-5","host":"frk-1.de.uncletopia.com","port":27055,"enabled":true,"region":"eu","cc":"de","latitude":50.110924,"longitude":8.682127,"reserved":0,"last_update":"0001-01-01T00:00:00Z","name_a2s":"Uncletopia | Frankfurt | 5 | All Maps","protocol":17,"map":"cp_dustbowl","folder":"tf","game":"Team Fortress","app_id":440,"player_count":0,"max_players":24,"Bots":0,"server_type":"Dedicated","server_os":"Linux","password":true,"vac":true,"version":"7882260","steam_id":85568392924504277,"keywords":["cp","nocrits","nodmgspread","uncletopia"],"game_id":440,"stv_port":27056,"stv_name":"Uncletopia | Frankfurt | 5 | All Maps | STV","players":null},{"server_id":311,"name":"Uncletopia | Frankfurt | 6 | All Maps","name_short":"frk-6","host":"frk-1.de.uncletopia.com","port":27065,"enabled":true,"region":"eu","cc":"de","latitude":50.110924,"longitude":8.682127,"reserved":0,"last_update":"0001-01-01T00:00:00Z","name_a2s":"Uncletopia | Frankfurt | 6 | All Maps","protocol":17,"map":"cp_sunshine","folder":"tf","game":"Team Fortress","app_id":440,"player_count":0,"max_players":24,"Bots":0,"server_type":"Dedicated","server_os":"Linux","password":true,"vac":true,"version":"7882260","steam_id":85568392924504278,"keywords":["cp","nocrits","nodmgspread","uncletopia"],"game_id":440,"stv_port":27066,"stv_name":"Uncletopia | Frankfurt | 6 | All Maps | STV","players":null},{"server_id":23,"name":"Uncletopia | Frankfurt | 7 | Stopwatch Beta","name_short":"frk-7","host":"frk-1.de.uncletopia.com","port":27075,"enabled":true,"region":"eu","cc":"de","latitude":50.110924,"longitude":8.682127,"reserved":0,"last_update":"0001-01-01T00:00:00Z","name_a2s":"Uncletopia | Frankfurt | 7 | Stopwatch Beta","protocol":17,"map":"cp_dustbowl","folder":"tf","game":"Team Fortress","app_id":440,"player_count":0,"max_players":24,"Bots":0,"server_type":"Dedicated","server_os":"Linux","password":true,"vac":true,"version":"7882260","steam_id":85568392924742827,"keywords":["cp","nocrits","nodmgspread","uncletopia"],"game_id":440,"stv_port":27076,"stv_name":"Uncletopia | Frankfurt | 7 | Stopwatch Beta | STV","players":null},{"server_id":24,"name":"Uncletopia | Frankfurt | 8 | Community","name_short":"frk-8","host":"frk-1.de.uncletopia.com","port":27085,"enabled":true,"region":"eu","cc":"de","latitude":50.110924,"longitude":8.682127,"reserved":0,"last_update":"0001-01-01T00:00:00Z","name_a2s":"Uncletopia | Frankfurt | 8 | Community","protocol":17,"map":"koth_cascade","folder":"tf","game":"Team Fortress","app_id":440,"player_count":0,"max_players":24,"Bots":0,"server_type":"Dedicated","server_os":"Linux","password":true,"vac":true,"version":"7882260","steam_id":85568392924742828,"keywords":["cp","nocrits","nodmgspread","uncletopia"],"game_id":440,"stv_port":27086,"stv_name":"Uncletopia | Frankfurt | 8 | Community | STV","players":null},{"server_id":202,"name":"Uncletopia | Hong Kong | 1 | All Maps","name_short":"hgk-1","host":"hgk-1.hk.uncletopia.com","port":27015,"enabled":true,"region":"asia","cc":"hk","latitude":22.302711,"longitude":114.177216,"reserved":0,"last_update":"0001-01-01T00:00:00Z","name_a2s":"Uncletopia | Hong Kong | 1 | All Maps","protocol":17,"map":"pl_snowycoast","folder":"tf","game":"Team Fortress","app_id":440,"player_count":15,"max_players":24,"Bots":0,"server_type":"Dedicated","server_os":"Linux","password":true,"vac":true,"version":"7882260","steam_id":85568392924494504,"keywords":["nocrits","nodmgspread","payload","uncletopia"],"game_id":440,"stv_port":27016,"stv_name":"Uncletopia | Hong Kong | 1 | All Maps | STV","players":[{"user_id":499,"name":"Skyler White yo","steam_id":76561198895193247,"connected_time":171000000000,"state":"active","ping":104},{"user_id":493,"name":"Toyota supra mk4","steam_id":76561199198221353,"connected_time":689000000000,"state":"active","ping":61},{"user_id":497,"name":"palerider","steam_id":76561198083234925,"connected_time":395000000000,"state":"active","ping":85},{"user_id":485,"name":"Toothpaste!","steam_id":76561198020408421,"connected_time":2073000000000,"state":"active","ping":84},{"user_id":229,"name":"Vortex Medico","steam_id":76561198833527091,"connected_time":10731000000000,"state":"active","ping":92},{"user_id":473,"name":"ÊØç„ÅÆËÇâÂõ£Â≠ê@hao123.com","steam_id":76561198069561896,"connected_time":3046000000000,"state":"active","ping":33},{"user_id":478,"name":"KimvyKinsley","steam_id":76561198859745304,"connected_time":2758000000000,"state":"active","ping":81},{"user_id":363,"name":"Sophia the librarian werewolf","steam_id":76561199131651798,"connected_time":6831000000000,"state":"active","ping":73},{"user_id":152,"name":"WhereAmai","steam_id":76561199122491157,"connected_time":13567000000000,"state":"active","ping":77},{"user_id":480,"name":"NOPE","steam_id":76561199244543572,"connected_time":2575000000000,"state":"active","ping":58},{"user_id":482,"name":"SpamAndOreo‚Ñ¢","steam_id":76561198349233701,"connected_time":2484000000000,"state":"active","ping":82},{"user_id":483,"name":"ducksaremean","steam_id":76561199093126935,"connected_time":2478000000000,"state":"active","ping":83},{"user_id":467,"name":"Cement Eater Gaming","steam_id":76561199205915518,"connected_time":3350000000000,"state":"active","ping":93},{"user_id":337,"name":"P","steam_id":76561198304514505,"connected_time":7760000000000,"state":"active","ping":75},{"user_id":434,"name":"Othopeus","steam_id":76561198283534382,"connected_time":4461000000000,"state":"active","ping":93}]},{"server_id":1,"name":"Uncletopia | Los Angeles | 1 | All Maps","name_short":"lax-1","host":"lax-1.us.uncletopia.com","port":27015,"enabled":true,"region":"us-west","cc":"us","latitude":33.94279,"longitude":-118.41004,"reserved":0,"last_update":"0001-01-01T00:00:00Z","name_a2s":"Uncletopia | Los Angeles | 1 | All Maps","protocol":17,"map":"pl_pier","folder":"tf","game":"Team Fortress","app_id":440,"player_count":0,"max_players":24,"Bots":0,"server_type":"Dedicated","server_os":"Linux","password":true,"vac":true,"version":"7882260","steam_id":85568392924469991,"keywords":["nocrits","nodmgspread","payload","uncletopia"],"game_id":440,"stv_port":27016,"stv_name":"Uncletopia | Los Angeles | 1 | All Maps | STV","players":null},{"server_id":112,"name":"Uncletopia | Los Angeles | 2 | All Maps","name_short":"lax-2","host":"lax-1.us.uncletopia.com","port":27025,"enabled":true,"region":"us-west","cc":"us","latitude":33.94279,"longitude":-118.41004,"reserved":0,"last_update":"0001-01-01T00:00:00Z","name_a2s":"Uncletopia | Los Angeles | 2 | All Maps","protocol":17,"map":"pl_barnblitz","folder":"tf","game":"Team Fortress","app_id":440,"player_count":8,"max_players":24,"Bots":0,"server_type":"Dedicated","server_os":"Linux","password":true,"vac":true,"version":"7882260","steam_id":85568392924469992,"keywords":["nocrits","nodmgspread","payload","uncletopia"],"game_id":440,"stv_port":27026,"stv_name":"Uncletopia | Los Angeles | 2 | All Maps | STV","players":[{"user_id":96,"name":"TheRealAaron (PR)","steam_id":76561199227674545,"connected_time":522000000000,"state":"active","ping":54},{"user_id":90,"name":"Lord Theodore XIII","steam_id":76561198085842797,"connected_time":1160000000000,"state":"active","ping":75},{"user_id":94,"name":"moah380","steam_id":76561198090644581,"connected_time":689000000000,"state":"active","ping":70},{"user_id":81,"name":"FragmantizedLemon","steam_id":76561198313580674,"connected_time":1845000000000,"state":"active","ping":204},{"user_id":95,"name":"Enderlord99","steam_id":76561198158152954,"connected_time":659000000000,"state":"active","ping":73},{"user_id":98,"name":"[SDVG] Clear Shenanigans","steam_id":76561198053702025,"connected_time":225000000000,"state":"active","ping":52},{"user_id":88,"name":"Kuyumiester","steam_id":76561198126835302,"connected_time":1355000000000,"state":"active","ping":75},{"user_id":65,"name":"Critical","steam_id":76561198123744966,"connected_time":3499000000000,"state":"active","ping":113}]},{"server_id":324,"name":"Uncletopia | Los Angeles | 3 | All Maps","name_short":"lax-3","host":"lax-1.us.uncletopia.com","port":27035,"enabled":true,"region":"us-west","cc":"us","latitude":33.94279,"longitude":-118.41004,"reserved":0,"last_update":"0001-01-01T00:00:00Z","name_a2s":"Uncletopia | Los Angeles | 3 | All Maps","protocol":17,"map":"cp_altitude","folder":"tf","game":"Team Fortress","app_id":440,"player_count":24,"max_players":24,"Bots":0,"server_type":"Dedicated","server_os":"Linux","password":true,"vac":true,"version":"7882260","steam_id":85568392924510198,"keywords":["cp","nocrits","nodmgspread","uncletopia"],"game_id":440,"stv_port":27036,"stv_name":"Uncletopia | Los Angeles | 3 | All Maps | STV","players":[{"user_id":72,"name":"cacaspy","steam_id":76561198140946476,"connected_time":1994000000000,"state":"active","ping":128},{"user_id":83,"name":"owl","steam_id":76561198105374054,"connected_time":848000000000,"state":"active","ping":61},{"user_id":84,"name":"Fried_","steam_id":76561199197708897,"connected_time":770000000000,"state":"active","ping":96},{"user_id":9,"name":"ribbonborn","steam_id":76561198001195423,"connected_time":7131000000000,"state":"active","ping":87},{"user_id":76,"name":"jayeskae","steam_id":76561198144220801,"connected_time":1816000000000,"state":"active","ping":71},{"user_id":39,"name":"mrrp mrrp meow mrrp meow","steam_id":76561198346746454,"connected_time":3770000000000,"state":"active","ping":87},{"user_id":54,"name":"BlazedBunny","steam_id":76561198243610560,"connected_time":3218000000000,"state":"active","ping":90},{"user_id":93,"name":"Rustyorion","steam_id":76561198439186347,"connected_time":314000000000,"state":"active","ping":77},{"user_id":78,"name":"Harrison","steam_id":76561198931423191,"connected_time":1506000000000,"state":"active","ping":124},{"user_id":70,"name":"PeesTi2","steam_id":76561199016865192,"connected_time":2089000000000,"state":"active","ping":49},{"user_id":86,"name":"Kaprinae","steam_id":76561199260109617,"connected_time":635000000000,"state":"active","ping":92},{"user_id":71,"name":"Prof. Eggnog","steam_id":76561198193389166,"connected_time":2082000000000,"state":"active","ping":128},{"user_id":92,"name":"Bortlyb","steam_id":76561199434967899,"connected_time":324000000000,"state":"active","ping":124},{"user_id":57,"name":"Sovereign","steam_id":76561198223959572,"connected_time":3118000000000,"state":"active","ping":89},{"user_id":58,"name":"Sadistic Dentist","steam_id":76561198103189993,"connected_time":3109000000000,"state":"active","ping":66},{"user_id":79,"name":"FI LO","steam_id":76561198976530881,"connected_time":1493000000000,"state":"active","ping":29},{"user_id":42,"name":"The Great Eagle Scourge of 1822","steam_id":76561198325086209,"connected_time":3662000000000,"state":"active","ping":60},{"user_id":87,"name":"EpicGamer48484","steam_id":76561199230935031,"connected_time":628000000000,"state":"active","ping":75},{"user_id":64,"name":"Gaskranx","steam_id":76561198020269547,"connected_time":2499000000000,"state":"active","ping":113},{"user_id":61,"name":"altpuppy","steam_id":76561198325643231,"connected_time":2826000000000,"state":"active","ping":45},{"user_id":88,"name":"Honeybunch","steam_id":76561198014850580,"connected_time":614000000000,"state":"active","ping":71},{"user_id":49,"name":"Reverie","steam_id":76561198987005784,"connected_time":3451000000000,"state":"active","ping":115},{"user_id":74,"name":"Orbinki","steam_id":76561198978589618,"connected_time":1981000000000,"state":"active","ping":58},{"user_id":90,"name":"DiscoTraveler","steam_id":76561199240168088,"connected_time":498000000000,"state":"active","ping":97}]},{"server_id":25,"name":"Uncletopia | Los Angeles | 4 | Stopwatch Beta","name_short":"lax-4","host":"lax-1.us.uncletopia.com","port":27045,"enabled":true,"region":"us-west","cc":"us","latitude":33.94279,"longitude":-118.41004,"reserved":0,"last_update":"0001-01-01T00:00:00Z","name_a2s":"Uncletopia | Los Angeles | 4 | Stopwatch Beta","protocol":17,"map":"cp_snakewater_final1","folder":"tf","game":"Team Fortress","app_id":440,"player_count":0,"max_players":24,"Bots":0,"server_type":"Dedicated","server_os":"Linux","password":true,"vac":true,"version":"7882260","steam_id":85568392924510199,"keywords":["cp","nocrits","nodmgspread","uncletopia"],"game_id":440,"stv_port":27046,"stv_name":"Uncletopia | Los Angeles | 4 | Stopwatch Beta | STV","players":null},{"server_id":11,"name":"Uncletopia | London | 1 | All Maps","name_short":"lon-1","host":"lon-1.uk.uncletopia.com","port":27015,"enabled":true,"region":"eu","cc":"gb","latitude":51.509865,"longitude":-0.118092,"reserved":0,"last_update":"0001-01-01T00:00:00Z","name_a2s":"Uncletopia | London | 1 | All Maps","protocol":17,"map":"cp_process_final","folder":"tf","game":"Team Fortress","app_id":440,"player_count":24,"max_players":24,"Bots":0,"server_type":"Dedicated","server_os":"Linux","password":true,"vac":true,"version":"7882260","steam_id":85568392924367362,"keywords":["cp","nocrits","nodmgspread","uncletopia"],"game_id":440,"stv_port":27016,"stv_name":"Uncletopia | London | 1 | All Maps | STV","players":[{"user_id":446,"name":"Agartha's child soldier","steam_id":76561198076881381,"connected_time":1514000000000,"state":"active","ping":70},{"user_id":441,"name":"Honest Tom's Discount Beef","steam_id":76561198029971392,"connected_time":2509000000000,"state":"active","ping":71},{"user_id":432,"name":"Jinx my beloved","steam_id":76561198819986745,"connected_time":3136000000000,"state":"active","ping":91},{"user_id":427,"name":"and i'm javert!","steam_id":76561198117033273,"connected_time":3362000000000,"state":"active","ping":57},{"user_id":458,"name":"IEatFishLegs","steam_id":76561199079933178,"connected_time":811000000000,"state":"active","ping":55},{"user_id":402,"name":"bliss","steam_id":76561198067459427,"connected_time":4963000000000,"state":"active","ping":60},{"user_id":447,"name":"MT Foxtrot","steam_id":76561198058003989,"connected_time":1514000000000,"state":"active","ping":60},{"user_id":460,"name":"NuGs","steam_id":76561198305550934,"connected_time":485000000000,"state":"active","ping":47},{"user_id":444,"name":"LarsInABox","steam_id":76561198028329262,"connected_time":1958000000000,"state":"active","ping":73},{"user_id":387,"name":"MEDiUM","steam_id":76561198112328561,"connected_time":5794000000000,"state":"active","ping":86},{"user_id":443,"name":"RazorsEdge","steam_id":76561198006549279,"connected_time":2450000000000,"state":"active","ping":57},{"user_id":463,"name":"Rosenmontag","steam_id":76561198079477964,"connected_time":216000000000,"state":"active","ping":52},{"user_id":411,"name":"KnugenIV","steam_id":76561198127091993,"connected_time":4447000000000,"state":"active","ping":61},{"user_id":461,"name":"Drunk russian with pyromania","steam_id":76561198195527328,"connected_time":482000000000,"state":"active","ping":47},{"user_id":449,"name":"twitch.tv/vision515","steam_id":76561198065293729,"connected_time":1401000000000,"state":"active","ping":162},{"user_id":456,"name":"Alexandre","steam_id":76561198121784446,"connected_time":847000000000,"state":"active","ping":42},{"user_id":455,"name":"vadr","steam_id":76561198334528186,"connected_time":1137000000000,"state":"active","ping":45},{"user_id":453,"name":"‚ô• aura ‚ô•","steam_id":76561198066258544,"connected_time":1235000000000,"state":"active","ping":68},{"user_id":459,"name":"mike erhmentraut","steam_id":76561199025378498,"connected_time":639000000000,"state":"active","ping":44},{"user_id":462,"name":"Jara.","steam_id":76561197992207165,"connected_time":421000000000,"state":"active","ping":100},{"user_id":409,"name":"snorrbrod","steam_id":76561198142389396,"connected_time":4672000000000,"state":"active","ping":81},{"user_id":332,"name":"‚ú™ qua ‚ú™","steam_id":76561198066408333,"connected_time":9405000000000,"state":"active","ping":76},{"user_id":414,"name":"SHINADA","steam_id":76561199274904964,"connected_time":4040000000000,"state":"active","ping":167}]},{"server_id":114,"name":"Uncletopia | London | 2 | All Maps","name_short":"lon-2","host":"lon-1.uk.uncletopia.com","port":27025,"enabled":true,"region":"eu","cc":"gb","latitude":51.509865,"longitude":-0.118092,"reserved":0,"last_update":"0001-01-01T00:00:00Z","name_a2s":"Uncletopia | London | 2 | All Maps","protocol":17,"map":"pl_badwater","folder":"tf","game":"Team Fortress","app_id":440,"player_count":0,"max_players":24,"Bots":0,"server_type":"Dedicated","server_os":"Linux","password":true,"vac":true,"version":"7882260","steam_id":85568392924470941,"keywords":["nocrits","nodmgspread","payload","uncletopia"],"game_id":440,"stv_port":27026,"stv_name":"Uncletopia | London | 2 | All Maps | STV","players":null},{"server_id":320,"name":"Uncletopia | London | 3 | All Maps","name_short":"lon-3","host":"lon-1.uk.uncletopia.com","port":27035,"enabled":true,"region":"eu","cc":"gb","latitude":51.509865,"longitude":-0.118092,"reserved":0,"last_update":"0001-01-01T00:00:00Z","name_a2s":"Uncletopia | London | 3 | All Maps","protocol":17,"map":"koth_highpass","folder":"tf","game":"Team Fortress","app_id":440,"player_count":0,"max_players":24,"Bots":0,"server_type":"Dedicated","server_os":"Linux","password":true,"vac":true,"version":"7882260","steam_id":85568392924510192,"keywords":["cp","nocrits","nodmgspread","uncletopia"],"game_id":440,"stv_port":27036,"stv_name":"Uncletopia | London | 3 | All Maps | STV","players":null},{"server_id":321,"name":"Uncletopia | London | 4 | All Maps","name_short":"lon-4","host":"lon-1.uk.uncletopia.com","port":27045,"enabled":true,"region":"eu","cc":"gb","latitude":51.509865,"longitude":-0.118092,"reserved":0,"last_update":"0001-01-01T00:00:00Z","name_a2s":"Uncletopia | London | 4 | All Maps","protocol":17,"map":"pl_upward","folder":"tf","game":"Team Fortress","app_id":440,"player_count":21,"max_players":24,"Bots":0,"server_type":"Dedicated","server_os":"Linux","password":true,"vac":true,"version":"7882260","steam_id":85568392924510193,"keywords":["nocrits","nodmgspread","payload","uncletopia"],"game_id":440,"stv_port":27046,"stv_name":"Uncletopia | London | 4 | All Maps | STV","players":[{"user_id":288,"name":"Bambi","steam_id":76561198166972711,"connected_time":4292000000000,"state":"active","ping":45},{"user_id":331,"name":"Shovelhalfrusty","steam_id":76561198346447513,"connected_time":1843000000000,"state":"active","ping":63},{"user_id":359,"name":"Eleren","steam_id":76561198123361225,"connected_time":51000000000,"state":"active","ping":48},{"user_id":329,"name":"t√Øger","steam_id":76561198260483157,"connected_time":1901000000000,"state":"active","ping":79},{"user_id":306,"name":"Seron-Lowell","steam_id":76561198070291347,"connected_time":3656000000000,"state":"active","ping":54},{"user_id":330,"name":"AXXAXAXAXA","steam_id":76561198812573748,"connected_time":1878000000000,"state":"active","ping":90},{"user_id":353,"name":"wibe","steam_id":76561198002519060,"connected_time":873000000000,"state":"active","ping":76},{"user_id":269,"name":"clunk","steam_id":76561198836460767,"connected_time":6578000000000,"state":"active","ping":68},{"user_id":349,"name":"cyborgsheriff","steam_id":76561198045734595,"connected_time":1459000000000,"state":"active","ping":80},{"user_id":358,"name":"30.06","steam_id":76561198039531310,"connected_time":96000000000,"state":"active","ping":85},{"user_id":295,"name":"Itai","steam_id":76561198804555329,"connected_time":4072000000000,"state":"active","ping":100},{"user_id":361,"name":"Guwop","steam_id":76561197970425737,"connected_time":6000000000,"state":"spawning","ping":130},{"user_id":345,"name":"slightly drunk","steam_id":76561199184873889,"connected_time":1547000000000,"state":"active","ping":73},{"user_id":354,"name":"Pyrolander","steam_id":76561198050785450,"connected_time":820000000000,"state":"active","ping":48},{"user_id":340,"name":"Oriuke","steam_id":76561197992166123,"connected_time":1646000000000,"state":"active","ping":48},{"user_id":309,"name":"IndigoJones","steam_id":76561198050284262,"connected_time":3548000000000,"state":"active","ping":45},{"user_id":346,"name":"Explosive-Legend #savetf2","steam_id":76561199126827973,"connected_time":1546000000000,"state":"active","ping":113},{"user_id":347,"name":"Gordon","steam_id":76561198303652059,"connected_time":1535000000000,"state":"active","ping":55},{"user_id":355,"name":"john fortress","steam_id":76561198013237629,"connected_time":752000000000,"state":"active","ping":99},{"user_id":310,"name":"senko","steam_id":76561198002990168,"connected_time":3508000000000,"state":"active","ping":44},{"user_id":320,"name":"The SEX Master","steam_id":76561198812424933,"connected_time":2742000000000,"state":"active","ping":66}]},{"server_id":21,"name":"Uncletopia | London | 5 | All Maps","name_short":"lon-5","host":"lon-1.uk.uncletopia.com","port":27055,"enabled":true,"region":"eu","cc":"gb","latitude":51.509865,"longitude":-0.118092,"reserved":0,"last_update":"0001-01-01T00:00:00Z","name_a2s":"Uncletopia | London | 5 | All Maps","protocol":17,"map":"cp_snakewater_final1","folder":"tf","game":"Team Fortress","app_id":440,"player_count":0,"max_players":24,"Bots":0,"server_type":"Dedicated","server_os":"Linux","password":true,"vac":true,"version":"7882260","steam_id":85568392924742829,"keywords":["cp","nocrits","nodmgspread","uncletopia"],"game_id":440,"stv_port":27056,"stv_name":"Uncletopia | London | 5 | All Maps | STV","players":null},{"server_id":22,"name":"Uncletopia | London | 6 | All Maps","name_short":"lon-6","host":"lon-1.uk.uncletopia.com","port":27065,"enabled":true,"region":"eu","cc":"gb","latitude":51.509865,"longitude":-0.118092,"reserved":0,"last_update":"0001-01-01T00:00:00Z","name_a2s":"Uncletopia | London | 6 | All Maps","protocol":17,"map":"cp_altitude","folder":"tf","game":"Team Fortress","app_id":440,"player_count":0,"max_players":24,"Bots":0,"server_type":"Dedicated","server_os":"Linux","password":true,"vac":true,"version":"7882260","steam_id":85568392924742830,"keywords":["cp","nocrits","nodmgspread","uncletopia"],"game_id":440,"stv_port":27066,"stv_name":"Uncletopia | London | 6 | All Maps | STV","players":null},{"server_id":40,"name":"Uncletopia | London | 7 | No Payload","name_short":"lon-7","host":"lon-1.uk.uncletopia.com","port":27075,"enabled":true,"region":"eu","cc":"gb","latitude":51.509865,"longitude":-0.118092,"reserved":0,"last_update":"0001-01-01T00:00:00Z","name_a2s":"Uncletopia | London | 7 | No Payload","protocol":17,"map":"plr_hightower","folder":"tf","game":"Team Fortress","app_id":440,"player_count":23,"max_players":24,"Bots":0,"server_type":"Dedicated","server_os":"Linux","password":true,"vac":true,"version":"7882260","steam_id":85568392924964314,"keywords":["nocrits","nodmgspread","payload","uncletopia"],"game_id":440,"stv_port":27076,"stv_name":"Uncletopia | London | 7 | No Payload | STV","players":[{"user_id":108,"name":"[kot.bob]","steam_id":76561198990993971,"connected_time":1271000000000,"state":"active","ping":120},{"user_id":126,"name":"AidenQG","steam_id":76561198864678536,"connected_time":184000000000,"state":"active","ping":63},{"user_id":70,"name":"Der Herr Doktor","steam_id":76561198119476089,"connected_time":3068000000000,"state":"active","ping":74},{"user_id":102,"name":"Osmo","steam_id":76561199286764992,"connected_time":1670000000000,"state":"active","ping":78},{"user_id":109,"name":"Mr Fruitypebbles","steam_id":76561198133823242,"connected_time":1268000000000,"state":"active","ping":55},{"user_id":117,"name":"üóªüé¥Hadrian Maloneüé¥üóª","steam_id":76561198036151103,"connected_time":553000000000,"state":"active","ping":56},{"user_id":90,"name":"Cosmetic brain","steam_id":76561198055936410,"connected_time":2195000000000,"state":"active","ping":79},{"user_id":119,"name":"Auro","steam_id":76561198224421624,"connected_time":513000000000,"state":"active","ping":39},{"user_id":112,"name":"SirSangoor","steam_id":76561198044462559,"connected_time":917000000000,"state":"active","ping":108},{"user_id":129,"name":"i am sneak","steam_id":76561199136308055,"connected_time":135000000000,"state":"active","ping":56},{"user_id":83,"name":"Ravioli","steam_id":76561198831900441,"connected_time":2432000000000,"state":"active","ping":96},{"user_id":114,"name":"Flying skyhigh","steam_id":76561198372971096,"connected_time":828000000000,"state":"active","ping":75},{"user_id":120,"name":"TJ1212","steam_id":76561199013575313,"connected_time":496000000000,"state":"active","ping":65},{"user_id":121,"name":"Lucky B.üèÜ","steam_id":76561198077571162,"connected_time":491000000000,"state":"active","ping":51},{"user_id":123,"name":"Kokos","steam_id":76561198085501501,"connected_time":442000000000,"state":"active","ping":87},{"user_id":130,"name":"Wir suchen dich!","steam_id":76561198307613521,"connected_time":117000000000,"state":"active","ping":59},{"user_id":132,"name":"engineer drip","steam_id":76561198991032570,"connected_time":85000000000,"state":"active","ping":94},{"user_id":133,"name":"ŸÜŸ•Ôªª Ôªâ‚àöŸ•Ô∫é Ÿ±","steam_id":76561198000777306,"connected_time":32000000000,"state":"spawning","ping":83},{"user_id":100,"name":"Providence","steam_id":76561198003920270,"connected_time":1725000000000,"state":"active","ping":68},{"user_id":43,"name":"Floris Kakadoris","steam_id":76561198258458741,"connected_time":4651000000000,"state":"active","ping":58},{"user_id":134,"name":"—Ç–æ–ª—è","steam_id":76561199098518615,"connected_time":11000000000,"state":"spawning","ping":116},{"user_id":135,"name":"zack.","steam_id":76561198106788720,"connected_time":9000000000,"state":"active","ping":161},{"user_id":136,"name":"Dark Wizart","steam_id":76561198377689439,"connected_time":2000000000,"state":"spawning","ping":118}]},{"server_id":41,"name":"Uncletopia | London | 8 | Community","name_short":"lon-8","host":"lon-1.uk.uncletopia.com","port":27085,"enabled":true,"region":"eu","cc":"gb","latitude":51.509865,"longitude":-0.118092,"reserved":0,"last_update":"0001-01-01T00:00:00Z","name_a2s":"Uncletopia | London | 8 | Community","protocol":17,"map":"workshop/cp_sulfur_rc2.ugc619869471","folder":"tf","game":"Team Fortress","app_id":440,"player_count":0,"max_players":24,"Bots":0,"server_type":"Dedicated","server_os":"Linux","password":true,"vac":true,"version":"7882260","steam_id":85568392924964315,"keywords":["cp","nocrits","nodmgspread","uncletopia"],"game_id":440,"stv_port":27086,"stv_name":"Uncletopia | London | 8 | Community | STV","players":null},{"server_id":300,"name":"Uncletopia | Montr√©al | 1 | All Maps","name_short":"mtl-1","host":"mtl-1.ca.uncletopia.com","port":27015,"enabled":true,"region":"us-east","cc":"ca","latitude":45.50889,"longitude":-73.56167,"reserved":0,"last_update":"0001-01-01T00:00:00Z","name_a2s":"Uncletopia | Montr√©al | 1 | All Maps","protocol":17,"map":"pl_snowycoast","folder":"tf","game":"Team Fortress","app_id":440,"player_count":0,"max_players":24,"Bots":0,"server_type":"Dedicated","server_os":"Linux","password":true,"vac":true,"version":"7882260","steam_id":85568392924500087,"keywords":["nocrits","nodmgspread","payload","uncletopia"],"game_id":440,"stv_port":27016,"stv_name":"Uncletopia | Montr√©al | 1 | All Maps | STV","players":null},{"server_id":301,"name":"Uncletopia | Montr√©al | 2 | All Maps","name_short":"mtl-2","host":"mtl-1.ca.uncletopia.com","port":27025,"enabled":true,"region":"us-east","cc":"ca","latitude":45.50889,"longitude":-73.56167,"reserved":0,"last_update":"0001-01-01T00:00:00Z","name_a2s":"Uncletopia | Montr√©al | 2 | All Maps","protocol":17,"map":"cp_sunshine","folder":"tf","game":"Team Fortress","app_id":440,"player_count":0,"max_players":24,"Bots":0,"server_type":"Dedicated","server_os":"Linux","password":true,"vac":true,"version":"7882260","steam_id":85568392924500088,"keywords":["cp","nocrits","nodmgspread","uncletopia"],"game_id":440,"stv_port":27026,"stv_name":"Uncletopia | Montr√©al | 2 | All Maps | STV","players":null},{"server_id":302,"name":"Uncletopia | Montr√©al | 3 | All Maps","name_short":"mtl-3","host":"mtl-1.ca.uncletopia.com","port":27035,"enabled":true,"region":"us-east","cc":"ca","latitude":45.50889,"longitude":-73.56167,"reserved":0,"last_update":"0001-01-01T00:00:00Z","name_a2s":"Uncletopia | Montr√©al | 3 | All Maps","protocol":17,"map":"pl_borneo","folder":"tf","game":"Team Fortress","app_id":440,"player_count":0,"max_players":24,"Bots":0,"server_type":"Dedicated","server_os":"Linux","password":true,"vac":true,"version":"7882260","steam_id":85568392924500089,"keywords":["nocrits","nodmgspread","payload","uncletopia"],"game_id":440,"stv_port":27036,"stv_name":"Uncletopia | Montr√©al | 3 | All Maps | STV","players":null},{"server_id":303,"name":"Uncletopia | Montr√©al | 4 | No Payload","name_short":"mtl-4","host":"mtl-1.ca.uncletopia.com","port":27045,"enabled":true,"region":"us-east","cc":"ca","latitude":45.50889,"longitude":-73.56167,"reserved":0,"last_update":"0001-01-01T00:00:00Z","name_a2s":"Uncletopia | Montr√©al | 4 | No Payload","protocol":17,"map":"cp_altitude","folder":"tf","game":"Team Fortress","app_id":440,"player_count":0,"max_players":24,"Bots":0,"server_type":"Dedicated","server_os":"Linux","password":true,"vac":true,"version":"7882260","steam_id":85568392924500090,"keywords":["cp","nocrits","nodmgspread","uncletopia"],"game_id":440,"stv_port":27046,"stv_name":"Uncletopia | Montr√©al | 4 | No Payload | STV","players":null},{"server_id":13,"name":"Uncletopia | New York City | 1 | All Maps","name_short":"nyc-1","host":"nyc-1.us.uncletopia.com","port":27015,"enabled":true,"region":"us-east","cc":"us","latitude":40.73061,"longitude":-73.93524,"reserved":0,"last_update":"0001-01-01T00:00:00Z","name_a2s":"Uncletopia | New York City | 1 | All Maps","protocol":17,"map":"koth_highpass","folder":"tf","game":"Team Fortress","app_id":440,"player_count":0,"max_players":24,"Bots":0,"server_type":"Dedicated","server_os":"Linux","password":true,"vac":true,"version":"7882260","steam_id":85568392924469993,"keywords":["cp","nocrits","nodmgspread","uncletopia"],"game_id":440,"stv_port":27016,"stv_name":"Uncletopia | New York City | 1 | All Maps | STV","players":null},{"server_id":14,"name":"Uncletopia | New York City | 2 | All Maps","name_short":"nyc-2","host":"nyc-1.us.uncletopia.com","port":27025,"enabled":true,"region":"us-east","cc":"us","latitude":40.73061,"longitude":-73.93524,"reserved":0,"last_update":"0001-01-01T00:00:00Z","name_a2s":"Uncletopia | New York City | 2 | All Maps","protocol":17,"map":"pl_swiftwater_final1","folder":"tf","game":"Team Fortress","app_id":440,"player_count":0,"max_players":24,"Bots":0,"server_type":"Dedicated","server_os":"Linux","password":true,"vac":true,"version":"7882260","steam_id":85568392924469994,"keywords":["nocrits","nodmgspread","payload","uncletopia"],"game_id":440,"stv_port":27026,"stv_name":"Uncletopia | New York City | 2 | All Maps | STV","players":null},{"server_id":15,"name":"Uncletopia | New York City | 3 | Stopwatch Beta","name_short":"nyc-3","host":"nyc-1.us.uncletopia.com","port":27035,"enabled":true,"region":"us-east","cc":"us","latitude":40.73061,"longitude":-73.93524,"reserved":0,"last_update":"0001-01-01T00:00:00Z","name_a2s":"Uncletopia | New York City | 3 | Stopwatch Beta","protocol":17,"map":"cp_sunshine","folder":"tf","game":"Team Fortress","app_id":440,"player_count":0,"max_players":24,"Bots":0,"server_type":"Dedicated","server_os":"Linux","password":true,"vac":true,"version":"7882260","steam_id":85568392924742820,"keywords":["cp","nocrits","nodmgspread","uncletopia"],"game_id":440,"stv_port":27036,"stv_name":"Uncletopia | New York City | 3 | Stopwatch Beta | STV","players":null},{"server_id":16,"name":"Uncletopia | New York City | 4 | Community","name_short":"nyc-4","host":"nyc-1.us.uncletopia.com","port":27045,"enabled":true,"region":"us-east","cc":"us","latitude":40.73061,"longitude":-73.93524,"reserved":0,"last_update":"0001-01-01T00:00:00Z","name_a2s":"Uncletopia | New York City | 4 | Community","protocol":17,"map":"pl_badwater","folder":"tf","game":"Team Fortress","app_id":440,"player_count":0,"max_players":24,"Bots":0,"server_type":"Dedicated","server_os":"Linux","password":true,"vac":true,"version":"7882260","steam_id":85568392924742821,"keywords":["nocrits","nodmgspread","payload","uncletopia"],"game_id":440,"stv_port":27046,"stv_name":"Uncletopia | New York City | 4 | Community | STV","players":null},{"server_id":142,"name":"Uncletopia | S√£o Paulo | 1 | All Maps","name_short":"sao-1","host":"sao-1.br.uncletopia.com","port":27015,"enabled":true,"region":"sa","cc":"br","latitude":-23.533773,"longitude":-46.62529,"reserved":0,"last_update":"0001-01-01T00:00:00Z","name_a2s":"Uncletopia | S√£o Paulo | 1 | All Maps","protocol":17,"map":"pl_badwater","folder":"tf","game":"Team Fortress","app_id":440,"player_count":0,"max_players":24,"Bots":0,"server_type":"Dedicated","server_os":"Linux","password":true,"vac":true,"version":"7882260","steam_id":85568392924469996,"keywords":["nocrits","nodmgspread","payload","uncletopia"],"game_id":440,"stv_port":27016,"stv_name":"Uncletopia | S√£o Paulo | 1 | All Maps | STV","players":null},{"server_id":143,"name":"Uncletopia | S√£o Paulo | 2 | All Maps","name_short":"sao-2","host":"sao-2.br.uncletopia.com","port":27015,"enabled":true,"region":"sa","cc":"br","latitude":-23.533773,"longitude":-46.62529,"reserved":0,"last_update":"0001-01-01T00:00:00Z","name_a2s":"Uncletopia | S√£o Paulo | 2 | All Maps","protocol":17,"map":"pl_pier","folder":"tf","game":"Team Fortress","app_id":440,"player_count":0,"max_players":24,"Bots":0,"server_type":"Dedicated","server_os":"Linux","password":true,"vac":true,"version":"7882260","steam_id":85568392924485349,"keywords":["nocrits","nodmgspread","payload","uncletopia"],"game_id":440,"stv_port":27016,"stv_name":"Uncletopia | S√£o Paulo | 2 | All Maps | STV","players":null},{"server_id":7,"name":"Uncletopia | Seattle | 1 | All Maps","name_short":"sea-1","host":"sea-1.us.uncletopia.com","port":27015,"enabled":true,"region":"us-west","cc":"us","latitude":47.608013,"longitude":-122.33517,"reserved":0,"last_update":"0001-01-01T00:00:00Z","name_a2s":"Uncletopia | Seattle | 1 | All Maps","protocol":17,"map":"koth_highpass","folder":"tf","game":"Team Fortress","app_id":440,"player_count":0,"max_players":24,"Bots":0,"server_type":"Dedicated","server_os":"Linux","password":true,"vac":true,"version":"7882260","steam_id":85568392924469997,"keywords":["cp","nocrits","nodmgspread","uncletopia"],"game_id":440,"stv_port":27016,"stv_name":"Uncletopia | Seattle | 1 | All Maps | STV","players":null},{"server_id":119,"name":"Uncletopia | Seattle | 2 | All Maps","name_short":"sea-2","host":"sea-1.us.uncletopia.com","port":27025,"enabled":true,"region":"us-west","cc":"us","latitude":47.608013,"longitude":-122.33517,"reserved":0,"last_update":"0001-01-01T00:00:00Z","name_a2s":"Uncletopia | Seattle | 2 | All Maps","protocol":17,"map":"koth_highpass","folder":"tf","game":"Team Fortress","app_id":440,"player_count":0,"max_players":24,"Bots":0,"server_type":"Dedicated","server_os":"Linux","password":true,"vac":true,"version":"7882260","steam_id":85568392924469998,"keywords":["cp","nocrits","nodmgspread","uncletopia"],"game_id":440,"stv_port":27026,"stv_name":"Uncletopia | Seattle | 2 | All Maps | STV","players":null},{"server_id":406,"name":"Uncletopia | Seattle | 3 | Stopwatch Beta","name_short":"sea-3","host":"sea-1.us.uncletopia.com","port":27035,"enabled":true,"region":"us-west","cc":"us","latitude":47.608013,"longitude":-122.33517,"reserved":0,"last_update":"0001-01-01T00:00:00Z","name_a2s":"Uncletopia | Seattle | 3 | Stopwatch Beta","protocol":17,"map":"cp_mountainlab","folder":"tf","game":"Team Fortress","app_id":440,"player_count":0,"max_players":24,"Bots":0,"server_type":"Dedicated","server_os":"Linux","password":true,"vac":true,"version":"7882260","steam_id":85568392924515217,"keywords":["cp","nocrits","nodmgspread","uncletopia"],"game_id":440,"stv_port":27036,"stv_name":"Uncletopia | Seattle | 3 | Stopwatch Beta | STV","players":null},{"server_id":17,"name":"Uncletopia | San Francisco | 1 | All Maps","name_short":"sfo-1","host":"sfo-1.us.uncletopia.com","port":27015,"enabled":true,"region":"us-west","cc":"us","latitude":37.77397,"longitude":-122.4313,"reserved":0,"last_update":"0001-01-01T00:00:00Z","name_a2s":"Uncletopia | San Francisco | 1 | All Maps","protocol":17,"map":"cp_process_final","folder":"tf","game":"Team Fortress","app_id":440,"player_count":0,"max_players":24,"Bots":0,"server_type":"Dedicated","server_os":"Linux","password":true,"vac":true,"version":"7757534","steam_id":85568392924469999,"keywords":["cp","nocrits","nodmgspread","uncletopia"],"game_id":440,"stv_port":27016,"stv_name":"Uncletopia | San Francisco | 1 | All Maps | STV","players":null},{"server_id":18,"name":"Uncletopia | San Francisco | 2 | All Maps","name_short":"sfo-2","host":"sfo-1.us.uncletopia.com","port":27025,"enabled":true,"region":"us-west","cc":"us","latitude":37.77397,"longitude":-122.4313,"reserved":0,"last_update":"0001-01-01T00:00:00Z","name_a2s":"Uncletopia | San Francisco | 2 | All Maps","protocol":17,"map":"koth_highpass","folder":"tf","game":"Team Fortress","app_id":440,"player_count":0,"max_players":24,"Bots":0,"server_type":"Dedicated","server_os":"Linux","password":true,"vac":true,"version":"7757534","steam_id":85568392924470000,"keywords":["cp","nocrits","nodmgspread","uncletopia"],"game_id":440,"stv_port":27026,"stv_name":"Uncletopia | San Francisco | 2 | All Maps | STV","players":null},{"server_id":19,"name":"Uncletopia | San Francisco | 3 | Stopwatch Beta","name_short":"sfo-3","host":"sfo-1.us.uncletopia.com","port":27035,"enabled":true,"region":"us-west","cc":"us","latitude":37.77397,"longitude":-122.4313,"reserved":0,"last_update":"0001-01-01T00:00:00Z","name_a2s":"Uncletopia | San Francisco | 3 | Stopwatch Beta","protocol":17,"map":"koth_lakeside_final","folder":"tf","game":"Team Fortress","app_id":440,"player_count":0,"max_players":24,"Bots":0,"server_type":"Dedicated","server_os":"Linux","password":true,"vac":true,"version":"7757534","steam_id":85568392924742824,"keywords":["cp","nocrits","nodmgspread","uncletopia"],"game_id":440,"stv_port":27036,"stv_name":"Uncletopia | San Francisco | 3 | Stopwatch Beta | STV","players":null},{"server_id":20,"name":"Uncletopia | San Francisco | 4 | Community","name_short":"sfo-4","host":"sfo-1.us.uncletopia.com","port":27045,"enabled":true,"region":"us-west","cc":"us","latitude":37.77397,"longitude":-122.4313,"reserved":0,"last_update":"0001-01-01T00:00:00Z","name_a2s":"Uncletopia | San Francisco | 4 | Community","protocol":17,"map":"cp_altitude","folder":"tf","game":"Team Fortress","app_id":440,"player_count":0,"max_players":24,"Bots":0,"server_type":"Dedicated","server_os":"Linux","password":true,"vac":true,"version":"7757534","steam_id":85568392924742826,"keywords":["cp","nocrits","nodmgspread","uncletopia"],"game_id":440,"stv_port":27046,"stv_name":"Uncletopia | San Francisco | 4 | Community | STV","players":null},{"server_id":141,"name":"Uncletopia | Sydney | 1 | All Maps","name_short":"syd-1","host":"syd-1.au.uncletopia.com","port":27015,"enabled":true,"region":"au","cc":"au","latitude":-33.865143,"longitude":151.2099,"reserved":0,"last_update":"0001-01-01T00:00:00Z","name_a2s":"Uncletopia | Sydney | 1 | All Maps","protocol":17,"map":"pl_badwater","folder":"tf","game":"Team Fortress","app_id":440,"player_count":0,"max_players":24,"Bots":0,"server_type":"Dedicated","server_os":"Linux","password":true,"vac":true,"version":"7882260","steam_id":85568392924470001,"keywords":["nocrits","nodmgspread","payload","uncletopia"],"game_id":440,"stv_port":27016,"stv_name":"Uncletopia | Sydney | 1 | All Maps | STV","players":null},{"server_id":123,"name":"Uncletopia | Sydney | 2 | All Maps","name_short":"syd-2","host":"syd-1.au.uncletopia.com","port":27025,"enabled":true,"region":"au","cc":"au","latitude":-33.865143,"longitude":151.2099,"reserved":0,"last_update":"0001-01-01T00:00:00Z","name_a2s":"Uncletopia | Sydney | 2 | All Maps","protocol":17,"map":"pl_borneo","folder":"tf","game":"Team Fortress","app_id":440,"player_count":0,"max_players":24,"Bots":0,"server_type":"Dedicated","server_os":"Linux","password":true,"vac":true,"version":"7882260","steam_id":85568392924470002,"keywords":["nocrits","nodmgspread","payload","uncletopia"],"game_id":440,"stv_port":27026,"stv_name":"Uncletopia | Sydney | 2 | All Maps | STV","players":null},{"server_id":395,"name":"Uncletopia | Sydney | 3 | All Maps","name_short":"syd-3","host":"syd-1.au.uncletopia.com","port":27035,"enabled":true,"region":"au","cc":"au","latitude":-33.865143,"longitude":151.2099,"reserved":0,"last_update":"0001-01-01T00:00:00Z","name_a2s":"Uncletopia | Sydney | 3 | All Maps","protocol":17,"map":"koth_brazil","folder":"tf","game":"Team Fortress","app_id":440,"player_count":0,"max_players":24,"Bots":0,"server_type":"Dedicated","server_os":"Linux","password":true,"vac":true,"version":"7882260","steam_id":85568392925194467,"keywords":["cp","nocrits","nodmgspread","uncletopia"],"game_id":440,"stv_port":27036,"stv_name":"Uncletopia | Sydney | 3 | All Maps | STV","players":null},{"server_id":396,"name":"Uncletopia | Sydney | 4 | All Maps","name_short":"syd-4","host":"syd-1.au.uncletopia.com","port":27045,"enabled":true,"region":"au","cc":"au","latitude":-33.865143,"longitude":151.2099,"reserved":0,"last_update":"0001-01-01T00:00:00Z","name_a2s":"Uncletopia | Sydney | 4 | All Maps","protocol":17,"map":"pl_badwater","folder":"tf","game":"Team Fortress","app_id":440,"player_count":0,"max_players":24,"Bots":0,"server_type":"Dedicated","server_os":"Linux","password":true,"vac":true,"version":"7882260","steam_id":85568392925397958,"keywords":["nocrits","nodmgspread","payload","uncletopia"],"game_id":440,"stv_port":27046,"stv_name":"Uncletopia | Sydney | 4 | All Maps | STV","players":null},{"server_id":58,"name":"Uncletopia | Sydney | 5 | Stopwatch Beta","name_short":"syd-5","host":"syd-1.au.uncletopia.com","port":27055,"enabled":true,"region":"au","cc":"au","latitude":-33.865143,"longitude":151.2099,"reserved":0,"last_update":"0001-01-01T00:00:00Z","name_a2s":"Uncletopia | Sydney | 5 | Stopwatch Beta","protocol":17,"map":"workshop/pl_summercoast_rc8e.ugc1761528829","folder":"tf","game":"Team Fortress","app_id":440,"player_count":0,"max_players":24,"Bots":0,"server_type":"Dedicated","server_os":"Linux","password":true,"vac":true,"version":"7882260","steam_id":85568392925397959,"keywords":["nocrits","nodmgspread","payload","uncletopia"],"game_id":440,"stv_port":27056,"stv_name":"Uncletopia | Sydney | 5 | Stopwatch Beta | STV","players":null},{"server_id":59,"name":"Uncletopia | Sydney | 6 | Community","name_short":"syd-6","host":"syd-1.au.uncletopia.com","port":27065,"enabled":true,"region":"au","cc":"au","latitude":-33.865143,"longitude":151.2099,"reserved":0,"last_update":"0001-01-01T00:00:00Z","name_a2s":"Uncletopia | Sydney | 6 | Community","protocol":17,"map":"workshop/cp_indulge.ugc528106646","folder":"tf","game":"Team Fortress","app_id":440,"player_count":0,"max_players":24,"Bots":0,"server_type":"Dedicated","server_os":"Linux","password":true,"vac":true,"version":"7882260","steam_id":85568392925397960,"keywords":["cp","nocrits","nodmgspread","uncletopia"],"game_id":440,"stv_port":27066,"stv_name":"Uncletopia | Sydney | 6 | Community | STV","players":null},{"server_id":49,"name":"Uncletopia | Warsaw | 1 | All Maps","name_short":"waw-1","host":"waw-1.pl.uncletopia.com","port":27015,"enabled":true,"region":"eu","cc":"pl","latitude":52.2297,"longitude":21.017532,"reserved":0,"last_update":"0001-01-01T00:00:00Z","name_a2s":"","protocol":0,"map":"","folder":"","game":"","app_id":0,"player_count":0,"max_players":0,"Bots":0,"server_type":"","server_os":"","password":false,"vac":false,"version":"","steam_id":0,"keywords":null,"game_id":0,"stv_port":0,"stv_name":"","players":null},{"server_id":50,"name":"Uncletopia | Warsaw | 2 | All Maps","name_short":"waw-2","host":"waw-1.pl.uncletopia.com","port":27025,"enabled":true,"region":"eu","cc":"pl","latitude":52.2297,"longitude":21.017532,"reserved":0,"last_update":"0001-01-01T00:00:00Z","name_a2s":"Uncletopia | Warsaw | 2 | All Maps","protocol":17,"map":"koth_lakeside_final","folder":"tf","game":"Team Fortress","app_id":440,"player_count":0,"max_players":24,"Bots":0,"server_type":"Dedicated","server_os":"Linux","password":true,"vac":true,"version":"7882260","steam_id":85568392925397851,"keywords":["cp","nocrits","nodmgspread","uncletopia"],"game_id":440,"stv_port":27026,"stv_name":"Uncletopia | Warsaw | 2 | All Maps | STV","players":null},{"server_id":51,"name":"Uncletopia | Warsaw | 3 | All Maps","name_short":"waw-3","host":"waw-1.pl.uncletopia.com","port":27035,"enabled":true,"region":"eu","cc":"pl","latitude":52.2297,"longitude":21.017532,"reserved":0,"last_update":"0001-01-01T00:00:00Z","name_a2s":"Uncletopia | Warsaw | 3 | All Maps","protocol":17,"map":"koth_viaduct","folder":"tf","game":"Team Fortress","app_id":440,"player_count":0,"max_players":24,"Bots":0,"server_type":"Dedicated","server_os":"Linux","password":true,"vac":true,"version":"7882260","steam_id":85568392925397852,"keywords":["cp","nocrits","nodmgspread","uncletopia"],"game_id":440,"stv_port":27036,"stv_name":"Uncletopia | Warsaw | 3 | All Maps | STV","players":null},{"server_id":52,"name":"Uncletopia | Warsaw | 4 | All Maps","name_short":"waw-4","host":"waw-1.pl.uncletopia.com","port":27045,"enabled":true,"region":"eu","cc":"pl","latitude":52.2297,"longitude":21.017532,"reserved":0,"last_update":"0001-01-01T00:00:00Z","name_a2s":"Uncletopia | Warsaw | 4 | All Maps","protocol":17,"map":"koth_highpass","folder":"tf","game":"Team Fortress","app_id":440,"player_count":0,"max_players":24,"Bots":0,"server_type":"Dedicated","server_os":"Linux","password":true,"vac":true,"version":"7882260","steam_id":85568392925397853,"keywords":["cp","nocrits","nodmgspread","uncletopia"],"game_id":440,"stv_port":27046,"stv_name":"Uncletopia | Warsaw | 4 | All Maps | STV","players":null},{"server_id":53,"name":"Uncletopia | Warsaw | 5 | Stopwatch Beta","name_short":"waw-5","host":"waw-1.pl.uncletopia.com","port":27055,"enabled":true,"region":"eu","cc":"pl","latitude":52.2297,"longitude":21.017532,"reserved":0,"last_update":"0001-01-01T00:00:00Z","name_a2s":"Uncletopia | Warsaw | 5 | Stopwatch Beta","protocol":17,"map":"cp_mountainlab","folder":"tf","game":"Team Fortress","app_id":440,"player_count":0,"max_players":24,"Bots":0,"server_type":"Dedicated","server_os":"Linux","password":true,"vac":true,"version":"7882260","steam_id":85568392925397854,"keywords":["cp","nocrits","nodmgspread","uncletopia"],"game_id":440,"stv_port":27056,"stv_name":"Uncletopia | Warsaw | 5 | Stopwatch Beta | STV","players":null},{"server_id":54,"name":"Uncletopia | Warsaw | 6 | Community","name_short":"waw-6","host":"waw-1.pl.uncletopia.com","port":27065,"enabled":true,"region":"eu","cc":"pl","latitude":52.2297,"longitude":21.017532,"reserved":0,"last_update":"0001-01-01T00:00:00Z","name_a2s":"Uncletopia | Warsaw | 6 | Community","protocol":17,"map":"koth_viaduct","folder":"tf","game":"Team Fortress","app_id":440,"player_count":0,"max_players":24,"Bots":0,"server_type":"Dedicated","server_os":"Linux","password":true,"vac":true,"version":"7882260","steam_id":85568392925397856,"keywords":["cp","nocrits","nodmgspread","uncletopia"],"game_id":440,"stv_port":27066,"stv_name":"Uncletopia | Warsaw | 6 | Community | STV","players":null}]}