{"status":true,"message":"","result":[{"server_id":9,"name":"Uncletopia | Atlanta | 1 | All Maps","name_short":"atl-1","host":"atl-1.us.uncletopia.com","port":27015,"enabled":true,"region":"us-east","cc":"us","latitude":33.753746,"longitude":-84.38633,"reserved":0,"last_update":"0001-01-01T00:00:00Z","name_a2s":"Uncletopia | Atlanta | 1 | All Maps","protocol":17,"map":"pl_upward","folder":"tf","game":"Team Fortress","app_id":440,"player_count":24,"max_players":24,"Bots":0,"server_type":"Dedicated","server_os":"Linux","password":true,"vac":true,"version":"7882260","steam_id":85568392924469982,"keywords":["nocrits","nodmgspread","payload","uncletopia"],"game_id":440,"stv_port":27016,"stv_name":"Uncletopia | Atlanta | 1 | All Maps | STV","players":[{"user_id":665,"name":"Big Ball™","steam_id":76561198065637690,"connected_time":3805000000000,"state":"active","ping":53},{"user_id":643,"name":"butterthoughts","steam_id":76561198025120284,"connected_time":5652000000000,"state":"active","ping":74},{"user_id":691,"name":"Coinclever","steam_id":76561198099972692,"connected_time":540000000000,"state":"active","ping":83},{"user_id":692,"name":"Vinnie Gognitti","steam_id":76561198069814977,"connected_time":500000000000,"state":"active","ping":63},{"user_id":673,"name":"BIG HOG","steam_id":76561198079923652,"connected_time":2750000000000,"state":"active","ping":71},{"user_id":642,"name":"Auto","steam_id":76561198118991165,"connected_time":5658000000000,"state":"active","ping":47},{"user_id":688,"name":"WAAAAAAHRIO!!!","steam_id":76561198355576763,"connected_time":1102000000000,"state":"active","ping":59},{"user_id":679,"name":"twin say","steam_id":76561198143132686,"connected_time":1755000000000,"state":"active","ping":104},{"user_id":669,"name":"pocket for sale","steam_id":76561198076560576,"connected_time":3436000000000,"state":"active","ping":170},{"user_id":693,"name":"kat","steam_id":76561198121070295,"connected_time":494000000000,"state":"active","ping":98},{"user_id":683,"name":"Hope Haver","steam_id":76561198048564906,"connected_time":1417000000000,"state":"active","ping":65},{"user_id":667,"name":"lil hog","steam_id":76561199230929836,"connected_time":3579000000000,"state":"active","ping":71},{"user_id":647,"name":"ash","steam_id":76561198127890645,"connected_time":5410000000000,"state":"active","ping":68},{"user_id":653,"name":"cola","steam_id":76561198374390458,"connected_time":4905000000000,"state":"active","ping":57},{"user_id":637,"name":"substance","steam_id":76561198050103868,"connected_time":6362000000000,"state":"active","ping":109},{"user_id":644,"name":"Le4n!!! (real)","steam_id":76561198045522596,"connected_time":5596000000000,"state":"active","ping":68},{"user_id":608,"name":"ARGON| Soulidity","steam_id":76561198429603550,"connected_time":9186000000000,"state":"active","ping":71},{"user_id":694,"name":"concrete_car","steam_id":76561198388207363,"connected_time":477000000000,"state":"active","ping":70},{"user_id":684,"name":"pip","steam_id":76561198095431471,"connected_time":1320000000000,"state":"active","ping":75},{"user_id":695,"name":"catswork","steam_id":76561198081130757,"connected_time":467000000000,"state":"active","ping":85},{"user_id":648,"name":"DFR spoonful","steam_id":76561198927517471,"connected_time":5379000000000,"state":"active","ping":59},{"user_id":654,"name":"Goofball","steam_id":76561198061211537,"connected_time":4862000000000,"state":"active","ping":78},{"user_id":696,"name":"paetho YT","steam_id":76561198152690003,"connected_time":433000000000,"state":"active","ping":45},{"user_id":686,"name":"cass","steam_id":76561198074502046,"connected_time":1298000000000,"state":"active","ping":88}]},{"server_id":104,"name":"Uncletopia | Atlanta | 2 | All Maps","name_short":"atl-2","host":"atl-1.us.uncletopia.com","port":27025,"enabled":true,"region":"us-east","cc":"us","latitude":33.753746,"longitude":-84.38633,"reserved":0,"last_update":"0001-01-01T00:00:00Z","name_a2s":"Uncletopia | Atlanta | 2 | All Maps","protocol":17,"map":"pl_barnblitz","folder":"tf","game":"Team Fortress","app_id":440,"player_count":24,"max_players":24,"Bots":0,"server_type":"Dedicated","server_os":"Linux","password":true,"vac":true,"version":"7882260","steam_id":85568392924469983,"keywords":["nocrits","nodmgspread","payload","uncletopia"],"game_id":440,"stv_port":27026,"stv_name":"Uncletopia | Atlanta | 2 | All Maps | STV","players":[{"user_id":526,"name":"Bocchi the Gock","steam_id":76561198152455316,"connected_time":2636000000000,"state":"active","ping":114},{"user_id":543,"name":"Aniz","steam_id":76561199226665024,"connected_time":693000000000,"state":"active","ping":164},{"user_id":513,"name":"sc_bill","steam_id":76561198066738853,"connected_time":3784000000000,"state":"active","ping":60},{"user_id":519,"name":"marf","steam_id":76561198259541415,"connected_time":3171000000000,"state":"active","ping":122},{"user_id":458,"name":"1TheExterminator","steam_id":76561198972879727,"connected_time":6138000000000,"state":"active","ping":70},{"user_id":531,"name":"hedahman","steam_id":76561198052398134,"connected_time":2000000000000,"state":"active","ping":100},{"user_id":545,"name":"boob enjoyer","steam_id":76561198327390236,"connected_time":415000000000,"state":"active","ping":104},{"user_id":537,"name":"2High2Try","steam_id":76561198041430550,"connected_time":1611000000000,"state":"active","ping":179},{"user_id":546,"name":"Jango","steam_id":76561198084589742,"connected_time":347000000000,"state":"active","ping":54},{"user_id":522,"name":"Kingclinton1","steam_id":76561198052956772,"connected_time":3060000000000,"state":"active","ping":98},{"user_id":532,"name":"mcjuice","steam_id":76561198087730829,"connected_time":1805000000000,"state":"active","ping":53},{"user_id":547,"name":"bortion bortion bortion bortion","steam_id":76561198044034546,"connected_time":309000000000,"state":"active","ping":65},{"user_id":478,"name":"Underscorn","steam_id":76561198374209415,"connected_time":5277000000000,"state":"active","ping":72},{"user_id":541,"name":"Kushkatt","steam_id":76561198058397659,"connected_time":1311000000000,"state":"active","ping":57},{"user_id":544,"name":"Chestnnut","steam_id":76561198077782729,"connected_time":576000000000,"state":"active","ping":80},{"user_id":524,"name":"GimliLOTR","steam_id":76561198163746000,"connected_time":3037000000000,"state":"active","ping":70},{"user_id":534,"name":"G6 1920","steam_id":76561198111669774,"connected_time":1684000000000,"state":"active","ping":73},{"user_id":542,"name":"tupac alive in serbia","steam_id":76561198035695976,"connected_time":1081000000000,"state":"active","ping":123},{"user_id":502,"name":"ursa","steam_id":76561198025394298,"connected_time":4205000000000,"state":"active","ping":90},{"user_id":535,"name":"architect","steam_id":76561198142394470,"connected_time":1676000000000,"state":"active","ping":48},{"user_id":536,"name":"shadowmyls but with huge honker","steam_id":76561197999215868,"connected_time":1664000000000,"state":"active","ping":75},{"user_id":538,"name":"Gr4yyッ","steam_id":76561198126936736,"connected_time":1610000000000,"state":"active","ping":118},{"user_id":548,"name":"Tec","steam_id":76561199096762480,"connected_time":240000000000,"state":"active","ping":165},{"user_id":540,"name":"Weiner Cleaner","steam_id":76561198147514577,"connected_time":1572000000000,"state":"active","ping":101}]},{"server_id":400,"name":"Uncletopia | Atlanta | 3 | Community","name_short":"atl-3","host":"atl-1.us.uncletopia.com","port":27035,"enabled":true,"region":"us-east","cc":"us","latitude":33.753746,"longitude":-84.38633,"reserved":0,"last_update":"0001-01-01T00:00:00Z","name_a2s":"Uncletopia | Atlanta | 3 | Community","protocol":17,"map":"workshop/koth_ramjam_rc1.ugc459778887","folder":"tf","game":"Team Fortress","app_id":440,"player_count":0,"max_players":24,"Bots":0,"server_type":"Dedicated","server_os":"Linux","password":true,"vac":true,"version":"7882260","steam_id":85568392924515187,"keywords":["cp","nocrits","nodmgspread","uncletopia"],"game_id":440,"stv_port":27036,"stv_name":"Uncletopia | Atlanta | 3 | Community | STV","players":null},{"server_id":401,"name":"Uncletopia | Atlanta | 4 | No Payload","name_short":"atl-4","host":"atl-1.us.uncletopia.com","port":27045,"enabled":true,"region":"us-east","cc":"us","latitude":33.753746,"longitude":-84.38633,"reserved":0,"last_update":"0001-01-01T00:00:00Z","name_a2s":"","protocol":0,"map":"","folder":"","game":"","app_id":0,"player_count":0,"max_players":0,"Bots":0,"server_type":"","server_os":"","password":false,"vac":false,"version":"","steam_id":0,"keywords":null,"game_id":0,"stv_port":0,"stv_name":"","players":null},{"server_id":2,"name":"Uncletopia | Chicago | 1 | All Maps","name_short":"chi-1","host":"chi-1.us.uncletopia.com","port":27015,"enabled":true,"region":"us-central","cc":"us","latitude":41.881832,"longitude":-87.62318,"reserved":0,"last_update":"0001-01-01T00:00:00Z","name_a2s":"Uncletopia | Chicago | 1 | All Maps","protocol":17,"map":"pl_swiftwater_final1","folder":"tf","game":"Team Fortress","app_id":440,"player_count":24,"max_players":24,"Bots":0,"server_type":"Dedicated","server_os":"Linux","password":true,"vac":true,"version":"7882260","steam_id":85568392924469984,"keywords":["nocrits","nodmgspread","payload","uncletopia"],"game_id":440,"stv_port":27016,"stv_name":"Uncletopia | Chicago | 1 | All Maps | STV","players":[{"user_id":918,"name":"im_phox","steam_id":76561198070555429,"connected_time":930000000000,"state":"active","ping":90},{"user_id":785,"name":"Swash B","steam_id":76561197969421355,"connected_time":13833000000000,"state":"active","ping":70},{"user_id":868,"name":"Edgeiv","steam_id":76561198074539334,"connected_time":6339000000000,"state":"active","ping":110},{"user_id":922,"name":"bluliciouscow","steam_id":76561198839866507,"connected_time":628000000000,"state":"active","ping":97},{"user_id":888,"name":"minecraft","steam_id":76561198104345201,"connected_time":3284000000000,"state":"active","ping":80},{"user_id":854,"name":"Takyon","steam_id":76561198172075186,"connected_time":7430000000000,"state":"active","ping":167},{"user_id":865,"name":"Snake Handler","steam_id":76561198027198306,"connected_time":6745000000000,"state":"active","ping":57},{"user_id":910,"name":"DinoGoof","steam_id":76561198998427283,"connected_time":1406000000000,"state":"active","ping":69},{"user_id":855,"name":"tidal47","steam_id":76561198219084819,"connected_time":7102000000000,"state":"active","ping":77},{"user_id":850,"name":"RADIO","steam_id":76561198044489449,"connected_time":7910000000000,"state":"active","ping":64},{"user_id":924,"name":"Wizard Raccoon","steam_id":76561198072562591,"connected_time":313000000000,"state":"active","ping":80},{"user_id":880,"name":"Tskuno","steam_id":76561198129291597,"connected_time":4875000000000,"state":"active","ping":60},{"user_id":925,"name":"orgasmo","steam_id":76561198047355245,"connected_time":231000000000,"state":"active","ping":65},{"user_id":920,"name":"Marion Moseby","steam_id":76561198052477319,"connected_time":849000000000,"state":"active","ping":49},{"user_id":926,"name":"Rudy","steam_id":76561198013456828,"connected_time":205000000000,"state":"active","ping":61},{"user_id":916,"name":"Pohnut","steam_id":76561198087831690,"connected_time":1063000000000,"state":"active","ping":137},{"user_id":900,"name":"Mank","steam_id":76561198189421005,"connected_time":2252000000000,"state":"active","ping":57},{"user_id":927,"name":"watchfull","steam_id":76561198433266742,"connected_time":194000000000,"state":"active","ping":113},{"user_id":847,"name":"Iceman10a","steam_id":76561198171922098,"connected_time":8574000000000,"state":"active","ping":115},{"user_id":787,"name":"Lia_Rein","steam_id":76561198151569597,"connected_time":13786000000000,"state":"active","ping":144},{"user_id":895,"name":"Swiggs","steam_id":76561198135015291,"connected_time":3062000000000,"state":"active","ping":77},{"user_id":886,"name":"Astoriae!","steam_id":76561199090168858,"connected_time":3412000000000,"state":"active","ping":66},{"user_id":908,"name":"ReDiculous22","steam_id":76561198038391383,"connected_time":1517000000000,"state":"active","ping":69},{"user_id":917,"name":"h20verdrive","steam_id":76561198115957085,"connected_time":1032000000000,"state":"active","ping":97}]},{"server_id":106,"name":"Uncletopia | Chicago | 2 | All Maps","name_short":"chi-2","host":"chi-1.us.uncletopia.com","port":27025,"enabled":true,"region":"us-central","cc":"us","latitude":41.881832,"longitude":-87.62318,"reserved":0,"last_update":"0001-01-01T00:00:00Z","name_a2s":"Uncletopia | Chicago | 2 | All Maps","protocol":17,"map":"koth_highpass","folder":"tf","game":"Team Fortress","app_id":440,"player_count":0,"max_players":24,"Bots":0,"server_type":"Dedicated","server_os":"Linux","password":true,"vac":true,"version":"7882260","steam_id":85568392924469985,"keywords":["cp","nocrits","nodmgspread","uncletopia"],"game_id":440,"stv_port":27026,"stv_name":"Uncletopia | Chicago | 2 | All Maps | STV","players":null},{"server_id":402,"name":"Uncletopia | Chicago | 3 | All Maps","name_short":"chi-3","host":"chi-1.us.uncletopia.com","port":27035,"enabled":true,"region":"us-central","cc":"us","latitude":41.881832,"longitude":-87.62318,"reserved":0,"last_update":"0001-01-01T00:00:00Z","name_a2s":"Uncletopia | Chicago | 3 | All Maps","protocol":17,"map":"pl_snowycoast","folder":"tf","game":"Team Fortress","app_id":440,"player_count":19,"max_players":24,"Bots":0,"server_type":"Dedicated","server_os":"Linux","password":true,"vac":true,"version":"7882260","steam_id":85568392924515191,"keywords":["nocrits","nodmgspread","payload","uncletopia"],"game_id":440,"stv_port":27036,"stv_name":"Uncletopia | Chicago | 3 | All Maps | STV","players":[{"user_id":873,"name":"Wolf Hat","steam_id":76561198099996051,"connected_time":2738000000000,"state":"active","ping":56},{"user_id":901,"name":"The Muffin Man","steam_id":76561199088286427,"connected_time":146000000000,"state":"active","ping":103},{"user_id":862,"name":"Sgt. Dornan","steam_id":76561198063308122,"connected_time":3323000000000,"state":"active","ping":75},{"user_id":865,"name":"What the fuck is Liechtenstein","steam_id":76561198882404753,"connected_time":2934000000000,"state":"active","ping":87},{"user_id":859,"name":"[DEEP] Danmar33","steam_id":76561198056453091,"connected_time":3692000000000,"state":"active","ping":45},{"user_id":850,"name":"Skeleton Hotel","steam_id":76561198041704727,"connected_time":3972000000000,"state":"active","ping":59},{"user_id":889,"name":"BananaFana","steam_id":76561198008891875,"connected_time":1492000000000,"state":"active","ping":110},{"user_id":886,"name":"Diplodocus","steam_id":76561198023323121,"connected_time":1534000000000,"state":"active","ping":100},{"user_id":902,"name":"Slug Warrior","steam_id":76561197996052704,"connected_time":134000000000,"state":"active","ping":78},{"user_id":821,"name":"Alex","steam_id":76561198135553277,"connected_time":5651000000000,"state":"active","ping":56},{"user_id":900,"name":"The Great Karizma!","steam_id":76561198346191193,"connected_time":577000000000,"state":"active","ping":100},{"user_id":898,"name":"Tanuki in your walls","steam_id":76561198027487285,"connected_time":799000000000,"state":"active","ping":110},{"user_id":877,"name":"TommoSFMO","steam_id":76561198855070608,"connected_time":2610000000000,"state":"active","ping":79},{"user_id":892,"name":"Anonymous_Cletus_TTV","steam_id":76561198243740340,"connected_time":1311000000000,"state":"active","ping":91},{"user_id":895,"name":"dusty","steam_id":76561198881665250,"connected_time":968000000000,"state":"active","ping":92},{"user_id":880,"name":"Horrizan","steam_id":76561197965028480,"connected_time":2391000000000,"state":"active","ping":74},{"user_id":890,"name":"[DEEP] Danmar34","steam_id":76561198098462755,"connected_time":1448000000000,"state":"active","ping":82},{"user_id":891,"name":"lucy","steam_id":76561198856376026,"connected_time":1394000000000,"state":"active","ping":67},{"user_id":899,"name":"Homunculus Gambino","steam_id":76561198158433378,"connected_time":769000000000,"state":"active","ping":64}]},{"server_id":403,"name":"Uncletopia | Chicago | 4 | All Maps","name_short":"chi-4","host":"chi-1.us.uncletopia.com","port":27045,"enabled":true,"region":"us-central","cc":"us","latitude":41.881832,"longitude":-87.62318,"reserved":0,"last_update":"0001-01-01T00:00:00Z","name_a2s":"Uncletopia | Chicago | 4 | All Maps","protocol":17,"map":"pl_badwater","folder":"tf","game":"Team Fortress","app_id":440,"player_count":22,"max_players":24,"Bots":0,"server_type":"Dedicated","server_os":"Linux","password":true,"vac":true,"version":"7882260","steam_id":85568392924515193,"keywords":["nocrits","nodmgspread","payload","uncletopia"],"game_id":440,"stv_port":27046,"stv_name":"Uncletopia | Chicago | 4 | All Maps | STV","players":[{"user_id":359,"name":"Adawnby","steam_id":76561198103057295,"connected_time":4229000000000,"state":"active","ping":79},{"user_id":385,"name":"Goober","steam_id":76561198988863807,"connected_time":1271000000000,"state":"active","ping":76},{"user_id":386,"name":"aleksei","steam_id":76561199061380038,"connected_time":1240000000000,"state":"active","ping":60},{"user_id":392,"name":"Demonic Cipher","steam_id":76561198066082088,"connected_time":99000000000,"state":"active","ping":56},{"user_id":375,"name":"minkmink","steam_id":76561198144911224,"connected_time":1753000000000,"state":"active","ping":58},{"user_id":393,"name":"pete from o)))))))","steam_id":76561198053967778,"connected_time":40000000000,"state":"active","ping":67},{"user_id":264,"name":"[TF2Apples] Intense Green Apple","steam_id":76561198803561622,"connected_time":9500000000000,"state":"active","ping":91},{"user_id":218,"name":"Elias","steam_id":76561198106431732,"connected_time":13314000000000,"state":"active","ping":38},{"user_id":355,"name":"Truffles","steam_id":76561198095868800,"connected_time":4340000000000,"state":"active","ping":79},{"user_id":389,"name":"Corpse01","steam_id":76561198153671643,"connected_time":830000000000,"state":"active","ping":59},{"user_id":384,"name":"sonic1394","steam_id":76561198054636788,"connected_time":1408000000000,"state":"active","ping":69},{"user_id":348,"name":"Banded Magikarp","steam_id":76561198056684863,"connected_time":5141000000000,"state":"active","ping":56},{"user_id":347,"name":"Angry Crab","steam_id":76561198055350230,"connected_time":5168000000000,"state":"active","ping":73},{"user_id":370,"name":"MelonLikeAFelon","steam_id":76561198060170336,"connected_time":2636000000000,"state":"active","ping":67},{"user_id":390,"name":"Wang of Wall St","steam_id":76561198047460598,"connected_time":692000000000,"state":"active","ping":75},{"user_id":394,"name":"Joshy","steam_id":76561198061405421,"connected_time":18000000000,"state":"spawning","ping":79},{"user_id":387,"name":"Burger","steam_id":76561198422412083,"connected_time":1223000000000,"state":"active","ping":62},{"user_id":350,"name":"Grand","steam_id":76561198290143399,"connected_time":5046000000000,"state":"active","ping":74},{"user_id":391,"name":"NoExit","steam_id":76561198065725996,"connected_time":653000000000,"state":"active","ping":110},{"user_id":368,"name":"SuperToaster","steam_id":76561198080274264,"connected_time":3141000000000,"state":"active","ping":67},{"user_id":373,"name":"kerpkek","steam_id":76561198062581880,"connected_time":2524000000000,"state":"active","ping":73},{"user_id":281,"name":"Ashric","steam_id":76561198044655935,"connected_time":8050000000000,"state":"active","ping":43}]},{"server_id":36,"name":"Uncletopia | Chicago | 5 | All Maps","name_short":"chi-5","host":"chi-2.us.uncletopia.com","port":27015,"enabled":true,"region":"us-central","cc":"us","latitude":41.881832,"longitude":-87.62318,"reserved":0,"last_update":"0001-01-01T00:00:00Z","name_a2s":"Uncletopia | Chicago | 5 | All Maps","protocol":17,"map":"pl_upward","folder":"tf","game":"Team Fortress","app_id":440,"player_count":0,"max_players":24,"Bots":0,"server_type":"Dedicated","server_os":"Linux","password":true,"vac":true,"version":"7882260","steam_id":85568392924866362,"keywords":["nocrits","nodmgspread","payload","uncletopia"],"game_id":440,"stv_port":27016,"stv_name":"Uncletopia | Chicago | 5 | All Maps | STV","players":null},{"server_id":37,"name":"Uncletopia | Chicago | 6 | All Maps","name_short":"chi-6","host":"chi-2.us.uncletopia.com","port":27025,"enabled":true,"region":"us-central","cc":"us","latitude":41.881832,"longitude":-87.62318,"reserved":0,"last_update":"0001-01-01T00:00:00Z","name_a2s":"Uncletopia | Chicago | 6 | All Maps","protocol":17,"map":"pl_upward","folder":"tf","game":"Team Fortress","app_id":440,"player_count":23,"max_players":24,"Bots":0,"server_type":"Dedicated","server_os":"Linux","password":true,"vac":true,"version":"7882260","steam_id":85568392924866363,"keywords":["nocrits","nodmgspread","payload","uncletopia"],"game_id":440,"stv_port":27026,"stv_name":"Uncletopia | Chicago | 6 | All Maps | STV","players":[{"user_id":824,"name":"Ann Ziegler (No Sound)","steam_id":76561198052249401,"connected_time":3098000000000,"state":"active","ping":46},{"user_id":848,"name":"dicksnip","steam_id":76561198356515396,"connected_time":1526000000000,"state":"active","ping":89},{"user_id":866,"name":"ozbulu! troutsupply.net","steam_id":76561198067176829,"connected_time":378000000000,"state":"active","ping":110},{"user_id":874,"name":"SetMeOnFire","steam_id":76561198286285026,"connected_time":119000000000,"state":"active","ping":106},{"user_id":821,"name":"noah","steam_id":76561198173310157,"connected_time":3229000000000,"state":"active","ping":54},{"user_id":872,"name":"SirKnight5067","steam_id":76561198377306047,"connected_time":144000000000,"state":"active","ping":57},{"user_id":841,"name":"Mastermind","steam_id":76561198127783432,"connected_time":2109000000000,"state":"active","ping":65},{"user_id":857,"name":"Valerie","steam_id":76561198061409396,"connected_time":1055000000000,"state":"active","ping":50},{"user_id":831,"name":"s-9","steam_id":76561198065339248,"connected_time":2590000000000,"state":"active","ping":98},{"user_id":772,"name":"Phil Collins","steam_id":76561198068868644,"connected_time":6847000000000,"state":"active","ping":107},{"user_id":840,"name":"C O M F Y","steam_id":76561198072101210,"connected_time":2176000000000,"state":"active","ping":85},{"user_id":864,"name":"Mintchacolate","steam_id":76561198058011580,"connected_time":520000000000,"state":"active","ping":51},{"user_id":822,"name":"BigDeac","steam_id":76561198091237274,"connected_time":3229000000000,"state":"active","ping":59},{"user_id":845,"name":"it's peanut time","steam_id":76561198236028020,"connected_time":1564000000000,"state":"active","ping":126},{"user_id":825,"name":"Ryan","steam_id":76561198046600383,"connected_time":3091000000000,"state":"active","ping":90},{"user_id":868,"name":"Carcino","steam_id":76561198006170253,"connected_time":338000000000,"state":"active","ping":74},{"user_id":858,"name":"3xtr3m3rWbyFan2901025","steam_id":76561198042286766,"connected_time":1043000000000,"state":"active","ping":71},{"user_id":875,"name":"//MPinkStahli //_^","steam_id":76561198014421477,"connected_time":79000000000,"state":"active","ping":60},{"user_id":869,"name":"Xuulis","steam_id":76561198042810905,"connected_time":319000000000,"state":"active","ping":72},{"user_id":865,"name":"ZBaldTop","steam_id":76561199396318132,"connected_time":495000000000,"state":"active","ping":48},{"user_id":860,"name":"invb","steam_id":76561197998263914,"connected_time":707000000000,"state":"active","ping":53},{"user_id":870,"name":"GIGAHAXX","steam_id":76561197993714726,"connected_time":308000000000,"state":"active","ping":62},{"user_id":828,"name":"bicth","steam_id":76561198086314381,"connected_time":2918000000000,"state":"active","ping":76}]},{"server_id":38,"name":"Uncletopia | Chicago | 7 | Stopwatch Beta","name_short":"chi-7","host":"chi-2.us.uncletopia.com","port":27035,"enabled":true,"region":"us-central","cc":"us","latitude":41.881832,"longitude":-87.62318,"reserved":0,"last_update":"0001-01-01T00:00:00Z","name_a2s":"Uncletopia | Chicago | 7 | Stopwatch Beta","protocol":17,"map":"workshop/koth_clearcut_b15.ugc2107050255","folder":"tf","game":"Team Fortress","app_id":440,"player_count":0,"max_players":24,"Bots":0,"server_type":"Dedicated","server_os":"Linux","password":true,"vac":true,"version":"7882260","steam_id":85568392924866364,"keywords":["cp","nocrits","nodmgspread","uncletopia"],"game_id":440,"stv_port":27036,"stv_name":"Uncletopia | Chicago | 7 | Stopwatch Beta | STV","players":null},{"server_id":39,"name":"Uncletopia | Chicago | 8 | Community","name_short":"chi-8","host":"chi-2.us.uncletopia.com","port":27045,"enabled":true,"region":"us-central","cc":"us","latitude":41.881832,"longitude":-87.62318,"reserved":0,"last_update":"0001-01-01T00:00:00Z","name_a2s":"Uncletopia | Chicago | 8 | Community","protocol":17,"map":"workshop/pl_badwater_pro_v12.ugc2142942074","folder":"tf","game":"Team Fortress","app_id":440,"player_count":22,"max_players":24,"Bots":0,"server_type":"Dedicated","server_os":"Linux","password":true,"vac":true,"version":"7882260","steam_id":85568392924866365,"keywords":["nocrits","nodmgspread","payload","uncletopia"],"game_id":440,"stv_port":27046,"stv_name":"Uncletopia | Chicago | 8 | Community | STV","players":[{"user_id":224,"name":"PinguEnjoyer6","steam_id":76561199186723516,"connected_time":2441000000000,"state":"active","ping":100},{"user_id":215,"name":"Yoru","steam_id":76561198145072434,"connected_time":3507000000000,"state":"active","ping":69},{"user_id":218,"name":"ben","steam_id":76561198355118155,"connected_time":2910000000000,"state":"active","ping":122},{"user_id":246,"name":"Meat Mans Meat","steam_id":76561198062149455,"connected_time":1144000000000,"state":"active","ping":62},{"user_id":262,"name":"DragoDuck","steam_id":76561198385685683,"connected_time":179000000000,"state":"active","ping":108},{"user_id":238,"name":"burger","steam_id":76561198058209703,"connected_time":1783000000000,"state":"active","ping":65},{"user_id":212,"name":"You dad","steam_id":76561198044013623,"connected_time":3696000000000,"state":"active","ping":72},{"user_id":260,"name":"catnap","steam_id":76561199128135362,"connected_time":476000000000,"state":"active","ping":77},{"user_id":225,"name":"waht","steam_id":76561198148059714,"connected_time":2416000000000,"state":"active","ping":67},{"user_id":226,"name":"GuyGoom","steam_id":76561198254522178,"connected_time":2394000000000,"state":"active","ping":59},{"user_id":240,"name":"Tom Crúaich","steam_id":76561197999439911,"connected_time":1684000000000,"state":"active","ping":76},{"user_id":247,"name":"That Canadian Dude","steam_id":76561198024985831,"connected_time":1143000000000,"state":"active","ping":60},{"user_id":227,"name":"girthmilk","steam_id":76561198054799782,"connected_time":2232000000000,"state":"active","ping":93},{"user_id":221,"name":"Didn't Ask","steam_id":76561198017009322,"connected_time":2740000000000,"state":"active","ping":82},{"user_id":191,"name":"fishy butters ♠","steam_id":76561198147453405,"connected_time":4761000000000,"state":"active","ping":83},{"user_id":251,"name":"CheeseCake488","steam_id":76561199407617942,"connected_time":1007000000000,"state":"active","ping":133},{"user_id":242,"name":"firstlastmcgee","steam_id":76561198170187989,"connected_time":1524000000000,"state":"active","ping":66},{"user_id":253,"name":"CandorDanceFloor","steam_id":76561198062980511,"connected_time":893000000000,"state":"active","ping":77},{"user_id":192,"name":"GThur979","steam_id":76561198405256624,"connected_time":4748000000000,"state":"active","ping":74},{"user_id":255,"name":"Ludcmorais","steam_id":76561198359217809,"connected_time":610000000000,"state":"active","ping":193},{"user_id":235,"name":"ZenkoZSprite","steam_id":76561198190132250,"connected_time":2053000000000,"state":"active","ping":88},{"user_id":257,"name":"GynoGladiator","steam_id":76561198993734603,"connected_time":571000000000,"state":"active","ping":72}]},{"server_id":8,"name":"Uncletopia | Dallas | 1 | All Maps","name_short":"dal-1","host":"dal-1.us.uncletopia.com","port":27015,"enabled":true,"region":"us-central","cc":"us","latitude":32.779167,"longitude":-96.80889,"reserved":0,"last_update":"0001-01-01T00:00:00Z","name_a2s":"Uncletopia | Dallas | 1 | All Maps","protocol":17,"map":"koth_brazil","folder":"tf","game":"Team Fortress","app_id":440,"player_count":23,"max_players":24,"Bots":0,"server_type":"Dedicated","server_os":"Linux","password":true,"vac":true,"version":"7882260","steam_id":85568392924469986,"keywords":["cp","nocrits","nodmgspread","uncletopia"],"game_id":440,"stv_port":27016,"stv_name":"Uncletopia | Dallas | 1 | All Maps | STV","players":[{"user_id":707,"name":"Serene Salamander","steam_id":76561198001094770,"connected_time":1128000000000,"state":"active","ping":88},{"user_id":708,"name":"Moop","steam_id":76561198096984681,"connected_time":1018000000000,"state":"active","ping":63},{"user_id":675,"name":"themadlad67","steam_id":76561199309554436,"connected_time":2669000000000,"state":"active","ping":93},{"user_id":677,"name":"Alice","steam_id":76561198208927047,"connected_time":2358000000000,"state":"active","ping":176},{"user_id":678,"name":"Major_Pippy","steam_id":76561198004482878,"connected_time":2285000000000,"state":"active","ping":99},{"user_id":709,"name":"cc","steam_id":76561199215821942,"connected_time":904000000000,"state":"active","ping":46},{"user_id":679,"name":"RagingRoosevelt","steam_id":76561197985483153,"connected_time":2275000000000,"state":"active","ping":96},{"user_id":680,"name":"cliftoce","steam_id":76561197998912007,"connected_time":2273000000000,"state":"active","ping":89},{"user_id":690,"name":"PirateJet","steam_id":76561198050858744,"connected_time":1980000000000,"state":"active","ping":83},{"user_id":715,"name":"Grumby","steam_id":76561198149175262,"connected_time":574000000000,"state":"active","ping":56},{"user_id":600,"name":"Imrgrim","steam_id":76561198135866481,"connected_time":7077000000000,"state":"active","ping":62},{"user_id":723,"name":"OpossumStyle","steam_id":76561199230107171,"connected_time":51000000000,"state":"active","ping":60},{"user_id":722,"name":"Underwear Monster","steam_id":76561198175742775,"connected_time":101000000000,"state":"active","ping":88},{"user_id":660,"name":"a simple watermelon","steam_id":76561199233335934,"connected_time":3345000000000,"state":"active","ping":62},{"user_id":713,"name":"Lore","steam_id":76561198098407538,"connected_time":630000000000,"state":"active","ping":74},{"user_id":721,"name":"cypherzero","steam_id":76561199182960322,"connected_time":200000000000,"state":"active","ping":55},{"user_id":689,"name":"NexFrost","steam_id":76561197985774837,"connected_time":1992000000000,"state":"active","ping":44},{"user_id":716,"name":"Nekro Kitty","steam_id":76561198025054596,"connected_time":559000000000,"state":"active","ping":75},{"user_id":717,"name":"Fightin Cow","steam_id":76561198080941486,"connected_time":550000000000,"state":"active","ping":61},{"user_id":694,"name":"raduski","steam_id":76561198795699119,"connected_time":1921000000000,"state":"active","ping":78},{"user_id":720,"name":"Smuggley","steam_id":76561198078130271,"connected_time":339000000000,"state":"active","ping":85},{"user_id":700,"name":"shoxidizer","steam_id":76561198981983698,"connected_time":1633000000000,"state":"active","ping":95},{"user_id":719,"name":"LtK","steam_id":76561197993180943,"connected_time":486000000000,"state":"active","ping":44}]},{"server_id":108,"name":"Uncletopia | Dallas | 2 | All Maps","name_short":"dal-2","host":"dal-1.us.uncletopia.com","port":27025,"enabled":true,"region":"us-central","cc":"us","latitude":32.779167,"longitude":-96.80889,"reserved":0,"last_update":"0001-01-01T00:00:00Z","name_a2s":"Uncletopia | Dallas | 2 | All Maps","protocol":17,"map":"koth_viaduct","folder":"tf","game":"Team Fortress","app_id":440,"player_count":21,"max_players":24,"Bots":0,"server_type":"Dedicated","server_os":"Linux","password":true,"vac":true,"version":"7882260","steam_id":85568392924469988,"keywords":["cp","nocrits","nodmgspread","uncletopia"],"game_id":440,"stv_port":27026,"stv_name":"Uncletopia | Dallas | 2 | All Maps | STV","players":[{"user_id":913,"name":"cofferhead","steam_id":76561199191108449,"connected_time":191000000000,"state":"active","ping":87},{"user_id":907,"name":"Seanthebomb","steam_id":76561198017117648,"connected_time":1029000000000,"state":"active","ping":74},{"user_id":900,"name":"squish","steam_id":76561198186417941,"connected_time":1565000000000,"state":"active","ping":60},{"user_id":902,"name":"scrotie mcboogerballs","steam_id":76561198185980055,"connected_time":1277000000000,"state":"active","ping":70},{"user_id":914,"name":"Marge \"ZaZa\" Simpson","steam_id":76561198156496197,"connected_time":137000000000,"state":"active","ping":72},{"user_id":915,"name":"Aloha :3","steam_id":76561198148517055,"connected_time":125000000000,"state":"active","ping":120},{"user_id":906,"name":"postgres","steam_id":76561198011204750,"connected_time":1068000000000,"state":"active","ping":79},{"user_id":911,"name":"Banzai","steam_id":76561198006518981,"connected_time":230000000000,"state":"active","ping":100},{"user_id":904,"name":"Psychromaniac","steam_id":76561198012215214,"connected_time":1164000000000,"state":"active","ping":108},{"user_id":905,"name":"Furious George","steam_id":76561198405111646,"connected_time":1159000000000,"state":"active","ping":81},{"user_id":909,"name":"Grungy Bungee","steam_id":76561199105386998,"connected_time":966000000000,"state":"active","ping":52},{"user_id":893,"name":"Wendo K. Gogh","steam_id":76561198080999985,"connected_time":2107000000000,"state":"active","ping":89},{"user_id":890,"name":"Mr. Bixby","steam_id":76561198868839264,"connected_time":2208000000000,"state":"active","ping":50},{"user_id":894,"name":"Cristifir","steam_id":76561198159502988,"connected_time":2088000000000,"state":"active","ping":83},{"user_id":912,"name":"HeatedArtist","steam_id":76561198961937603,"connected_time":229000000000,"state":"active","ping":113},{"user_id":876,"name":"HanakoToast","steam_id":76561198045233131,"connected_time":3160000000000,"state":"active","ping":91},{"user_id":852,"name":"Antifa Supersoldier","steam_id":76561198141816516,"connected_time":4125000000000,"state":"active","ping":41},{"user_id":886,"name":"Dippington13","steam_id":76561198828530813,"connected_time":2647000000000,"state":"active","ping":80},{"user_id":895,"name":"ฅ^•ﻌ•^ฅ","steam_id":76561198326987939,"connected_time":2082000000000,"state":"active","ping":72},{"user_id":897,"name":"new yorks hottest club","steam_id":76561198075758026,"connected_time":2058000000000,"state":"active","ping":85},{"user_id":899,"name":"dang it/darn it/crap","steam_id":76561198204593875,"connected_time":1766000000000,"state":"active","ping":60}]},{"server_id":5,"name":"Uncletopia | Frankfurt | 1 | All Maps","name_short":"frk-1","host":"frk-1.de.uncletopia.com","port":27015,"enabled":true,"region":"eu","cc":"de","latitude":50.110924,"longitude":8.682127,"reserved":0,"last_update":"0001-01-01T00:00:00Z","name_a2s":"Uncletopia | Frankfurt | 1 | All Maps","protocol":17,"map":"pl_snowycoast","folder":"tf","game":"Team Fortress","app_id":440,"player_count":0,"max_players":24,"Bots":0,"server_type":"Dedicated","server_os":"Linux","password":true,"vac":true,"version":"7882260","steam_id":85568392924469989,"keywords":["nocrits","nodmgspread","payload","uncletopia"],"game_id":440,"stv_port":27016,"stv_name":"Uncletopia | Frankfurt | 1 | All Maps | STV","players":null},{"server_id":110,"name":"Uncletopia | Frankfurt | 2 | All Maps","name_short":"frk-2","host":"frk-1.de.uncletopia.com","port":27025,"enabled":true,"region":"eu","cc":"de","latitude":50.110924,"longitude":8.682127,"reserved":0,"last_update":"0001-01-01T00:00:00Z","name_a2s":"Uncletopia | Frankfurt | 2 | All Maps","protocol":17,"map":"pl_upward","folder":"tf","game":"Team Fortress","app_id":440,"player_count":0,"max_players":24,"Bots":0,"server_type":"Dedicated","server_os":"Linux","password":true,"vac":true,"version":"7882260","steam_id":85568392924469990,"keywords":["nocrits","nodmgspread","payload","uncletopia"],"game_id":440,"stv_port":27026,"stv_name":"Uncletopia | Frankfurt | 2 | All Maps | STV","players":null},{"server_id":308,"name":"Uncletopia | Frankfurt | 3 | All Maps","name_short":"frk-3","host":"frk-1.de.uncletopia.com","port":27035,"enabled":true,"region":"eu","cc":"de","latitude":50.110924,"longitude":8.682127,"reserved":0,"last_update":"0001-01-01T00:00:00Z","name_a2s":"Uncletopia | Frankfurt | 3 | All Maps","protocol":17,"map":"cp_process_final","folder":"tf","game":"Team Fortress","app_id":440,"player_count":0,"max_players":24,"Bots":0,"server_type":"Dedicated","server_os":"Linux","password":true,"vac":true,"version":"7882260","steam_id":85568392924504274,"keywords":["cp","nocrits","nodmgspread","uncletopia"],"game_id":440,"stv_port":27036,"stv_name":"Uncletopia | Frankfurt | 3 | All Maps | STV","players":null},{"server_id":309,"name":"Uncletopia | Frankfurt | 4 | All Maps","name_short":"frk-4","host":"frk-1.de.uncletopia.com","port":27045,"enabled":true,"region":"eu","cc":"de","latitude":50.110924,"longitude":8.682127,"reserved":0,"last_update":"0001-01-01T00:00:00Z","name_a2s":"Uncletopia | Frankfurt | 4 | All Maps","protocol":17,"map":"pl_swiftwater_final1","folder":"tf","game":"Team Fortress","app_id":440,"player_count":0,"max_players":24,"Bots":0,"server_type":"Dedicated","server_os":"Linux","password":true,"vac":true,"version":"7882260","steam_id":85568392924504275,"keywords":["nocrits","nodmgspread","payload","uncletopia"],"game_id":440,"stv_port":27046,"stv_name":"Uncletopia | Frankfurt | 4 | All Maps | STV","players":null},{"server_id":310,"name":"Uncletopia | Frankfurt | 5 | All Maps","name_short":"frk-5","host":"frk-1.de.uncletopia.com","port":27055,"enabled":true,"region":"eu","cc":"de","latitude":50.110924,"longitude":8.682127,"reserved":0,"last_update":"0001-01-01T00:00:00Z","name_a2s":"Uncletopia | Frankfurt | 5 | All Maps","protocol":17,"map":"pl_borneo","folder":"tf","game":"Team Fortress","app_id":440,"player_count":0,"max_players":24,"Bots":0,"server_type":"Dedicated","server_os":"Linux","password":true,"vac":true,"version":"7882260","steam_id":85568392924504277,"keywords":["nocrits","nodmgspread","payload","uncletopia"],"game_id":440,"stv_port":27056,"stv_name":"Uncletopia | Frankfurt | 5 | All Maps | STV","players":null},{"server_id":311,"name":"Uncletopia | Frankfurt | 6 | All Maps","name_short":"frk-6","host":"frk-1.de.uncletopia.com","port":27065,"enabled":true,"region":"eu","cc":"de","latitude":50.110924,"longitude":8.682127,"reserved":0,"last_update":"0001-01-01T00:00:00Z","name_a2s":"Uncletopia | Frankfurt | 6 | All Maps","protocol":17,"map":"cp_snakewater_final1","folder":"tf","game":"Team Fortress","app_id":440,"player_count":0,"max_players":24,"Bots":0,"server_type":"Dedicated","server_os":"Linux","password":true,"vac":true,"version":"7882260","steam_id":85568392924504278,"keywords":["cp","nocrits","nodmgspread","uncletopia"],"game_id":440,"stv_port":27066,"stv_name":"Uncletopia | Frankfurt | 6 | All Maps | STV","players":null},{"server_id":23,"name":"Uncletopia | Frankfurt | 7 | Stopwatch Beta","name_short":"frk-7","host":"frk-1.de.uncletopia.com","port":27075,"enabled":true,"region":"eu","cc":"de","latitude":50.110924,"longitude":8.682127,"reserved":0,"last_update":"0001-01-01T00:00:00Z","name_a2s":"Uncletopia | Frankfurt | 7 | Stopwatch Beta","protocol":17,"map":"cp_snakewater_final1","folder":"tf","game":"Team Fortress","app_id":440,"player_count":0,"max_players":24,"Bots":0,"server_type":"Dedicated","server_os":"Linux","password":true,"vac":true,"version":"7882260","steam_id":85568392924742827,"keywords":["cp","nocrits","nodmgspread","uncletopia"],"game_id":440,"stv_port":27076,"stv_name":"Uncletopia | Frankfurt | 7 | Stopwatch Beta | STV","players":null},{"server_id":24,"name":"Uncletopia | Frankfurt | 8 | Community","name_short":"frk-8","host":"frk-1.de.uncletopia.com","port":27085,"enabled":true,"region":"eu","cc":"de","latitude":50.110924,"longitude":8.682127,"reserved":0,"last_update":"0001-01-01T00:00:00Z","name_a2s":"Uncletopia | Frankfurt | 8 | Community","protocol":17,"map":"cp_mountainlab","folder":"tf","game":"Team Fortress","app_id":440,"player_count":0,"max_players":24,"Bots":0,"server_type":"Dedicated","server_os":"Linux","password":true,"vac":true,"version":"7882260","steam_id":85568392924742828,"keywords":["cp","nocrits","nodmgspread","uncletopia"],"game_id":440,"stv_port":27086,"stv_name":"Uncletopia | Frankfurt | 8 | Community | STV","players":null},{"server_id":202,"name":"Uncletopia | Hong Kong | 1 | All Maps","name_short":"hgk-1","host":"hgk-1.hk.uncletopia.com","port":27015,"enabled":true,"region":"asia","cc":"hk","latitude":22.302711,"longitude":114.177216,"reserved":0,"last_update":"0001-01-01T00:00:00Z","name_a2s":"Uncletopia | Hong Kong | 1 | All Maps","protocol":17,"map":"pl_snowycoast","folder":"tf","game":"Team Fortress","app_id":440,"player_count":2,"max_players":24,"Bots":0,"server_type":"Dedicated","server_os":"Linux","password":true,"vac":true,"version":"7882260","steam_id":85568392924494504,"keywords":["nocrits","nodmgspread","payload","uncletopia"],"game_id":440,"stv_port":27016,"stv_name":"Uncletopia | Hong Kong | 1 | All Maps | STV","players":[{"user_id":6,"name":"♱  I LuV Loona  ♱","steam_id":76561199020745258,"connected_time":1481000000000,"state":"active","ping":77},{"user_id":7,"name":"t e r r i b l e  c o c k","steam_id":76561199086487373,"connected_time":366000000000,"state":"active","ping":57}]},{"server_id":1,"name":"Uncletopia | Los Angeles | 1 | All Maps","name_short":"lax-1","host":"lax-1.us.uncletopia.com","port":27015,"enabled":true,"region":"us-west","cc":"us","latitude":33.94279,"longitude":-118.41004,"reserved":0,"last_update":"0001-01-01T00:00:00Z","name_a2s":"Uncletopia | Los Angeles | 1 | All Maps","protocol":17,"map":"cp_process_final","folder":"tf","game":"Team Fortress","app_id":440,"player_count":24,"max_players":24,"Bots":0,"server_type":"Dedicated","server_os":"Linux","password":true,"vac":true,"version":"7882260","steam_id":85568392924469991,"keywords":["cp","nocrits","nodmgspread","uncletopia"],"game_id":440,"stv_port":27016,"stv_name":"Uncletopia | Los Angeles | 1 | All Maps | STV","players":[{"user_id":550,"name":"Loashes","steam_id":76561198119608299,"connected_time":222000000000,"state":"active","ping":89},{"user_id":548,"name":"papi Chulo","steam_id":76561198126274984,"connected_time":270000000000,"state":"active","ping":85},{"user_id":440,"name":"windyme","steam_id":76561198193819986,"connected_time":8113000000000,"state":"active","ping":134},{"user_id":551,"name":"Courier711","steam_id":76561198053232343,"connected_time":220000000000,"state":"active","ping":59},{"user_id":528,"name":"tr","steam_id":76561198046944222,"connected_time":1287000000000,"state":"active","ping":70},{"user_id":536,"name":"[ G R * T T Y ]","steam_id":76561198048986218,"connected_time":849000000000,"state":"active","ping":58},{"user_id":504,"name":"Gerbias","steam_id":76561198001002427,"connected_time":4162000000000,"state":"active","ping":60},{"user_id":541,"name":"F3RRAL","steam_id":76561198172279275,"connected_time":501000000000,"state":"active","ping":49},{"user_id":519,"name":"UneditedAndy","steam_id":76561198982544947,"connected_time":2661000000000,"state":"active","ping":54},{"user_id":537,"name":"MonkeyNobody","steam_id":76561199451266605,"connected_time":714000000000,"state":"active","ping":57},{"user_id":542,"name":"crankshaft","steam_id":76561197992798282,"connected_time":468000000000,"state":"active","ping":46},{"user_id":507,"name":"Scienceiskewl","steam_id":76561198210382932,"connected_time":3792000000000,"state":"active","ping":57},{"user_id":525,"name":"Mr. Stockington","steam_id":76561198091354032,"connected_time":2232000000000,"state":"active","ping":39},{"user_id":460,"name":"BrightOrangeMango","steam_id":76561198023144607,"connected_time":6945000000000,"state":"active","ping":63},{"user_id":489,"name":"Thunder","steam_id":76561198097721532,"connected_time":4683000000000,"state":"active","ping":45},{"user_id":553,"name":"cringy","steam_id":76561198323000455,"connected_time":4000000000,"state":"spawning","ping":45},{"user_id":547,"name":"Ken","steam_id":76561198190992453,"connected_time":299000000000,"state":"active","ping":58},{"user_id":545,"name":"krl235711","steam_id":76561199027357537,"connected_time":368000000000,"state":"active","ping":91},{"user_id":544,"name":"ena - d","steam_id":76561198072329335,"connected_time":410000000000,"state":"active","ping":106},{"user_id":512,"name":"Whisper!","steam_id":76561198119609795,"connected_time":3280000000000,"state":"active","ping":46},{"user_id":523,"name":"Freckles","steam_id":76561198045671386,"connected_time":2401000000000,"state":"active","ping":83},{"user_id":469,"name":"Nez","steam_id":76561197963109059,"connected_time":6862000000000,"state":"active","ping":62},{"user_id":470,"name":"Handsome Pete","steam_id":76561198003224229,"connected_time":6861000000000,"state":"active","ping":54},{"user_id":549,"name":"gonad epic","steam_id":76561198217435839,"connected_time":269000000000,"state":"active","ping":118}]},{"server_id":112,"name":"Uncletopia | Los Angeles | 2 | All Maps","name_short":"lax-2","host":"lax-1.us.uncletopia.com","port":27025,"enabled":true,"region":"us-west","cc":"us","latitude":33.94279,"longitude":-118.41004,"reserved":0,"last_update":"0001-01-01T00:00:00Z","name_a2s":"Uncletopia | Los Angeles | 2 | All Maps","protocol":17,"map":"pl_snowycoast","folder":"tf","game":"Team Fortress","app_id":440,"player_count":24,"max_players":24,"Bots":0,"server_type":"Dedicated","server_os":"Linux","password":true,"vac":true,"version":"7882260","steam_id":85568392924469992,"keywords":["nocrits","nodmgspread","payload","uncletopia"],"game_id":440,"stv_port":27026,"stv_name":"Uncletopia | Los Angeles | 2 | All Maps | STV","players":[{"user_id":328,"name":"dsmagic","steam_id":76561198038601542,"connected_time":1623000000000,"state":"active","ping":58},{"user_id":347,"name":"ronocc","steam_id":76561198089225457,"connected_time":397000000000,"state":"active","ping":64},{"user_id":339,"name":"No. 9","steam_id":76561198367778462,"connected_time":810000000000,"state":"active","ping":57},{"user_id":301,"name":"Elite_Friendly","steam_id":76561198819972127,"connected_time":3506000000000,"state":"active","ping":85},{"user_id":311,"name":"Jellojiggler","steam_id":76561198094320477,"connected_time":2831000000000,"state":"active","ping":77},{"user_id":350,"name":"The Cock Master","steam_id":76561199122008930,"connected_time":297000000000,"state":"active","ping":70},{"user_id":337,"name":"SAVECASEY","steam_id":76561198857896847,"connected_time":940000000000,"state":"active","ping":45},{"user_id":348,"name":"GlizzLord","steam_id":76561198321010427,"connected_time":350000000000,"state":"active","ping":65},{"user_id":315,"name":"pandoRA","steam_id":76561198075490385,"connected_time":2606000000000,"state":"active","ping":48},{"user_id":340,"name":"wickedpasta","steam_id":76561198150144604,"connected_time":771000000000,"state":"active","ping":58},{"user_id":312,"name":"SleeplessCollin","steam_id":76561198968140914,"connected_time":2828000000000,"state":"active","ping":54},{"user_id":336,"name":"rimble","steam_id":76561198150137369,"connected_time":1207000000000,"state":"active","ping":51},{"user_id":310,"name":"dark souls boss","steam_id":76561198316610724,"connected_time":2929000000000,"state":"active","ping":90},{"user_id":316,"name":"Moomin","steam_id":76561198072726213,"connected_time":2594000000000,"state":"active","ping":47},{"user_id":334,"name":"✿ Flores","steam_id":76561198106938500,"connected_time":1545000000000,"state":"active","ping":46},{"user_id":346,"name":"Drapph","steam_id":76561199384213314,"connected_time":444000000000,"state":"active","ping":208},{"user_id":306,"name":"californjoe","steam_id":76561197965047795,"connected_time":3313000000000,"state":"active","ping":52},{"user_id":333,"name":"June","steam_id":76561198141803658,"connected_time":1584000000000,"state":"active","ping":45},{"user_id":342,"name":"Pho","steam_id":76561198306515742,"connected_time":742000000000,"state":"active","ping":62},{"user_id":294,"name":"[ØWQJØ]chubacaalatake","steam_id":76561198136201697,"connected_time":3721000000000,"state":"active","ping":89},{"user_id":344,"name":"Juligay","steam_id":76561198204873136,"connected_time":682000000000,"state":"active","ping":62},{"user_id":351,"name":"The Horselords and Animal Gods","steam_id":76561197975094050,"connected_time":190000000000,"state":"active","ping":56},{"user_id":349,"name":"GLXy","steam_id":76561198207551544,"connected_time":348000000000,"state":"active","ping":84},{"user_id":352,"name":"Sparse","steam_id":76561198865084441,"connected_time":120000000000,"state":"active","ping":77}]},{"server_id":324,"name":"Uncletopia | Los Angeles | 3 | All Maps","name_short":"lax-3","host":"lax-1.us.uncletopia.com","port":27035,"enabled":true,"region":"us-west","cc":"us","latitude":33.94279,"longitude":-118.41004,"reserved":0,"last_update":"0001-01-01T00:00:00Z","name_a2s":"Uncletopia | Los Angeles | 3 | All Maps","protocol":17,"map":"koth_highpass","folder":"tf","game":"Team Fortress","app_id":440,"player_count":0,"max_players":24,"Bots":0,"server_type":"Dedicated","server_os":"Linux","password":true,"vac":true,"version":"7882260","steam_id":85568392924510198,"keywords":["cp","nocrits","nodmgspread","uncletopia"],"game_id":440,"stv_port":27036,"stv_name":"Uncletopia | Los Angeles | 3 | All Maps | STV","players":null},{"server_id":25,"name":"Uncletopia | Los Angeles | 4 | Stopwatch Beta","name_short":"lax-4","host":"lax-1.us.uncletopia.com","port":27045,"enabled":true,"region":"us-west","cc":"us","latitude":33.94279,"longitude":-118.41004,"reserved":0,"last_update":"0001-01-01T00:00:00Z","name_a2s":"Uncletopia | Los Angeles | 4 | Stopwatch Beta","protocol":17,"map":"koth_viaduct","folder":"tf","game":"Team Fortress","app_id":440,"player_count":0,"max_players":24,"Bots":0,"server_type":"Dedicated","server_os":"Linux","password":true,"vac":true,"version":"7882260","steam_id":85568392924510199,"keywords":["cp","nocrits","nodmgspread","uncletopia"],"game_id":440,"stv_port":27046,"stv_name":"Uncletopia | Los Angeles | 4 | Stopwatch Beta | STV","players":null},{"server_id":11,"name":"Uncletopia | London | 1 | All Maps","name_short":"lon-1","host":"lon-1.uk.uncletopia.com","port":27015,"enabled":true,"region":"eu","cc":"gb","latitude":51.509865,"longitude":-0.118092,"reserved":0,"last_update":"0001-01-01T00:00:00Z","name_a2s":"Uncletopia | London | 1 | All Maps","protocol":17,"map":"pl_hoodoo_final","folder":"tf","game":"Team Fortress","app_id":440,"player_count":0,"max_players":24,"Bots":0,"server_type":"Dedicated","server_os":"Linux","password":true,"vac":true,"version":"7882260","steam_id":85568392924367362,"keywords":["nocrits","nodmgspread","payload","uncletopia"],"game_id":440,"stv_port":27016,"stv_name":"Uncletopia | London | 1 | All Maps | STV","players":null},{"server_id":114,"name":"Uncletopia | London | 2 | All Maps","name_short":"lon-2","host":"lon-1.uk.uncletopia.com","port":27025,"enabled":true,"region":"eu","cc":"gb","latitude":51.509865,"longitude":-0.118092,"reserved":0,"last_update":"0001-01-01T00:00:00Z","name_a2s":"Uncletopia | London | 2 | All Maps","protocol":17,"map":"cp_sunshine","folder":"tf","game":"Team Fortress","app_id":440,"player_count":0,"max_players":24,"Bots":0,"server_type":"Dedicated","server_os":"Linux","password":true,"vac":true,"version":"7882260","steam_id":85568392924470941,"keywords":["cp","nocrits","nodmgspread","uncletopia"],"game_id":440,"stv_port":27026,"stv_name":"Uncletopia | London | 2 | All Maps | STV","players":null},{"server_id":320,"name":"Uncletopia | London | 3 | All Maps","name_short":"lon-3","host":"lon-1.uk.uncletopia.com","port":27035,"enabled":true,"region":"eu","cc":"gb","latitude":51.509865,"longitude":-0.118092,"reserved":0,"last_update":"0001-01-01T00:00:00Z","name_a2s":"Uncletopia | London | 3 | All Maps","protocol":17,"map":"koth_lakeside_final","folder":"tf","game":"Team Fortress","app_id":440,"player_count":0,"max_players":24,"Bots":0,"server_type":"Dedicated","server_os":"Linux","password":true,"vac":true,"version":"7882260","steam_id":85568392924510192,"keywords":["cp","nocrits","nodmgspread","uncletopia"],"game_id":440,"stv_port":27036,"stv_name":"Uncletopia | London | 3 | All Maps | STV","players":null},{"server_id":321,"name":"Uncletopia | London | 4 | All Maps","name_short":"lon-4","host":"lon-1.uk.uncletopia.com","port":27045,"enabled":true,"region":"eu","cc":"gb","latitude":51.509865,"longitude":-0.118092,"reserved":0,"last_update":"0001-01-01T00:00:00Z","name_a2s":"Uncletopia | London | 4 | All Maps","protocol":17,"map":"pl_badwater","folder":"tf","game":"Team Fortress","app_id":440,"player_count":0,"max_players":24,"Bots":0,"server_type":"Dedicated","server_os":"Linux","password":true,"vac":true,"version":"7882260","steam_id":85568392924510193,"keywords":["nocrits","nodmgspread","payload","uncletopia"],"game_id":440,"stv_port":27046,"stv_name":"Uncletopia | London | 4 | All Maps | STV","players":null},{"server_id":21,"name":"Uncletopia | London | 5 | All Maps","name_short":"lon-5","host":"lon-1.uk.uncletopia.com","port":27055,"enabled":true,"region":"eu","cc":"gb","latitude":51.509865,"longitude":-0.118092,"reserved":0,"last_update":"0001-01-01T00:00:00Z","name_a2s":"Uncletopia | London | 5 | All Maps","protocol":17,"map":"pl_pier","folder":"tf","game":"Team Fortress","app_id":440,"player_count":0,"max_players":24,"Bots":0,"server_type":"Dedicated","server_os":"Linux","password":true,"vac":true,"version":"7882260","steam_id":85568392924742829,"keywords":["nocrits","nodmgspread","payload","uncletopia"],"game_id":440,"stv_port":27056,"stv_name":"Uncletopia | London | 5 | All Maps | STV","players":null},{"server_id":22,"name":"Uncletopia | London | 6 | All Maps","name_short":"lon-6","host":"lon-1.uk.uncletopia.com","port":27065,"enabled":true,"region":"eu","cc":"gb","latitude":51.509865,"longitude":-0.118092,"reserved":0,"last_update":"0001-01-01T00:00:00Z","name_a2s":"Uncletopia | London | 6 | All Maps","protocol":17,"map":"koth_cascade","folder":"tf","game":"Team Fortress","app_id":440,"player_count":0,"max_players":24,"Bots":0,"server_type":"Dedicated","server_os":"Linux","password":true,"vac":true,"version":"7882260","steam_id":85568392924742830,"keywords":["cp","nocrits","nodmgspread","uncletopia"],"game_id":440,"stv_port":27066,"stv_name":"Uncletopia | London | 6 | All Maps | STV","players":null},{"server_id":40,"name":"Uncletopia | London | 7 | No Payload","name_short":"lon-7","host":"lon-1.uk.uncletopia.com","port":27075,"enabled":true,"region":"eu","cc":"gb","latitude":51.509865,"longitude":-0.118092,"reserved":0,"last_update":"0001-01-01T00:00:00Z","name_a2s":"Uncletopia | London | 7 | No Payload","protocol":17,"map":"koth_viaduct","folder":"tf","game":"Team Fortress","app_id":440,"player_count":0,"max_players":24,"Bots":0,"server_type":"Dedicated","server_os":"Linux","password":true,"vac":true,"version":"7882260","steam_id":85568392924964314,"keywords":["cp","nocrits","nodmgspread","uncletopia"],"game_id":440,"stv_port":27076,"stv_name":"Uncletopia | London | 7 | No Payload | STV","players":null},{"server_id":41,"name":"Uncletopia | London | 8 | Community","name_short":"lon-8","host":"lon-1.uk.uncletopia.com","port":27085,"enabled":true,"region":"eu","cc":"gb","latitude":51.509865,"longitude":-0.118092,"reserved":0,"last_update":"0001-01-01T00:00:00Z","name_a2s":"Uncletopia | London | 8 | Community","protocol":17,"map":"workshop/koth_bagel_rc6.ugc2514036946","folder":"tf","game":"Team Fortress","app_id":440,"player_count":0,"max_players":24,"Bots":0,"server_type":"Dedicated","server_os":"Linux","password":true,"vac":true,"version":"7882260","steam_id":85568392924964315,"keywords":["cp","nocrits","nodmgspread","uncletopia"],"game_id":440,"stv_port":27086,"stv_name":"Uncletopia | London | 8 | Community | STV","players":null},{"server_id":300,"name":"Uncletopia | Montréal | 1 | All Maps","name_short":"mtl-1","host":"mtl-1.ca.uncletopia.com","port":27015,"enabled":true,"region":"us-east","cc":"ca","latitude":45.50889,"longitude":-73.56167,"reserved":0,"last_update":"0001-01-01T00:00:00Z","name_a2s":"Uncletopia | Montréal | 1 | All Maps","protocol":17,"map":"koth_cascade","folder":"tf","game":"Team Fortress","app_id":440,"player_count":0,"max_players":24,"Bots":0,"server_type":"Dedicated","server_os":"Linux","password":true,"vac":true,"version":"7882260","steam_id":85568392924500087,"keywords":["cp","nocrits","nodmgspread","uncletopia"],"game_id":440,"stv_port":27016,"stv_name":"Uncletopia | Montréal | 1 | All Maps | STV","players":null},{"server_id":301,"name":"Uncletopia | Montréal | 2 | All Maps","name_short":"mtl-2","host":"mtl-1.ca.uncletopia.com","port":27025,"enabled":true,"region":"us-east","cc":"ca","latitude":45.50889,"longitude":-73.56167,"reserved":0,"last_update":"0001-01-01T00:00:00Z","name_a2s":"Uncletopia | Montréal | 2 | All Maps","protocol":17,"map":"pl_snowycoast","folder":"tf","game":"Team Fortress","app_id":440,"player_count":0,"max_players":24,"Bots":0,"server_type":"Dedicated","server_os":"Linux","password":true,"vac":true,"version":"7882260","steam_id":85568392924500088,"keywords":["nocrits","nodmgspread","payload","uncletopia"],"game_id":440,"stv_port":27026,"stv_name":"Uncletopia | Montréal | 2 | All Maps | STV","players":null},{"server_id":302,"name":"Uncletopia | Montréal | 3 | All Maps","name_short":"mtl-3","host":"mtl-1.ca.uncletopia.com","port":27035,"enabled":true,"region":"us-east","cc":"ca","latitude":45.50889,"longitude":-73.56167,"reserved":0,"last_update":"0001-01-01T00:00:00Z","name_a2s":"Uncletopia | Montréal | 3 | All Maps","protocol":17,"map":"koth_viaduct","folder":"tf","game":"Team Fortress","app_id":440,"player_count":0,"max_players":24,"Bots":0,"server_type":"Dedicated","server_os":"Linux","password":true,"vac":true,"version":"7882260","steam_id":85568392924500089,"keywords":["cp","nocrits","nodmgspread","uncletopia"],"game_id":440,"stv_port":27036,"stv_name":"Uncletopia | Montréal | 3 | All Maps | STV","players":null},{"server_id":303,"name":"Uncletopia | Montréal | 4 | No Payload","name_short":"mtl-4","host":"mtl-1.ca.uncletopia.com","port":27045,"enabled":true,"region":"us-east","cc":"ca","latitude":45.50889,"longitude":-73.56167,"reserved":0,"last_update":"0001-01-01T00:00:00Z","name_a2s":"Uncletopia | Montréal | 4 | No Payload","protocol":17,"map":"koth_highpass","folder":"tf","game":"Team Fortress","app_id":440,"player_count":0,"max_players":24,"Bots":0,"server_type":"Dedicated","server_os":"Linux","password":true,"vac":true,"version":"7882260","steam_id":85568392924500090,"keywords":["cp","nocrits","nodmgspread","uncletopia"],"game_id":440,"stv_port":27046,"stv_name":"Uncletopia | Montréal | 4 | No Payload | STV","players":null},{"server_id":13,"name":"Uncletopia | New York City | 1 | All Maps","name_short":"nyc-1","host":"nyc-1.us.uncletopia.com","port":27015,"enabled":true,"region":"us-east","cc":"us","latitude":40.73061,"longitude":-73.93524,"reserved":0,"last_update":"0001-01-01T00:00:00Z","name_a2s":"Uncletopia | New York City | 1 | All Maps","protocol":17,"map":"cp_mountainlab","folder":"tf","game":"Team Fortress","app_id":440,"player_count":0,"max_players":24,"Bots":0,"server_type":"Dedicated","server_os":"Linux","password":true,"vac":true,"version":"7882260","steam_id":85568392924469993,"keywords":["cp","nocrits","nodmgspread","uncletopia"],"game_id":440,"stv_port":27016,"stv_name":"Uncletopia | New York City | 1 | All Maps | STV","players":null},{"server_id":14,"name":"Uncletopia | New York City | 2 | All Maps","name_short":"nyc-2","host":"nyc-1.us.uncletopia.com","port":27025,"enabled":true,"region":"us-east","cc":"us","latitude":40.73061,"longitude":-73.93524,"reserved":0,"last_update":"0001-01-01T00:00:00Z","name_a2s":"Uncletopia | New York City | 2 | All Maps","protocol":17,"map":"plr_hightower","folder":"tf","game":"Team Fortress","app_id":440,"player_count":18,"max_players":24,"Bots":0,"server_type":"Dedicated","server_os":"Linux","password":true,"vac":true,"version":"7882260","steam_id":85568392924469994,"keywords":["nocrits","nodmgspread","payload","uncletopia"],"game_id":440,"stv_port":27026,"stv_name":"Uncletopia | New York City | 2 | All Maps | STV","players":[{"user_id":467,"name":"PokeYoshi","steam_id":76561198218015561,"connected_time":3009000000000,"state":"active","ping":71},{"user_id":531,"name":"Skyblade64","steam_id":76561198042177790,"connected_time":20000000000,"state":"active","ping":84},{"user_id":491,"name":"reatardhole","steam_id":76561198141217941,"connected_time":1955000000000,"state":"active","ping":45},{"user_id":529,"name":"Forehead","steam_id":76561198124151399,"connected_time":283000000000,"state":"active","ping":48},{"user_id":475,"name":"ElElliot","steam_id":76561198842278840,"connected_time":2220000000000,"state":"active","ping":48},{"user_id":526,"name":"plasmaofthedawn","steam_id":76561198287916194,"connected_time":486000000000,"state":"active","ping":54},{"user_id":518,"name":"spiderSpaceman","steam_id":76561198068258553,"connected_time":1189000000000,"state":"active","ping":71},{"user_id":460,"name":"Snoozey","steam_id":76561198017120466,"connected_time":4011000000000,"state":"active","ping":84},{"user_id":527,"name":"yowza!","steam_id":76561198033499175,"connected_time":416000000000,"state":"active","ping":54},{"user_id":502,"name":"Gentoo Linux Gaming","steam_id":76561197999657118,"connected_time":1686000000000,"state":"active","ping":56},{"user_id":530,"name":"*****setget","steam_id":76561198118824188,"connected_time":170000000000,"state":"active","ping":118},{"user_id":420,"name":"A Puppy","steam_id":76561198828184456,"connected_time":7416000000000,"state":"active","ping":48},{"user_id":520,"name":"Twitch.tv/markblood2023tm","steam_id":76561198171746702,"connected_time":961000000000,"state":"active","ping":48},{"user_id":478,"name":"Squiliam","steam_id":76561198025278006,"connected_time":2124000000000,"state":"active","ping":68},{"user_id":462,"name":"erm what the scallop","steam_id":76561198983069721,"connected_time":3875000000000,"state":"active","ping":88},{"user_id":521,"name":"Isaac","steam_id":76561199061379353,"connected_time":896000000000,"state":"active","ping":86},{"user_id":482,"name":"Spike Bones","steam_id":76561198234926120,"connected_time":2060000000000,"state":"active","ping":99},{"user_id":523,"name":"Nekotine ᗜˬᗜ","steam_id":76561198375885194,"connected_time":732000000000,"state":"active","ping":65}]},{"server_id":15,"name":"Uncletopia | New York City | 3 | Stopwatch Beta","name_short":"nyc-3","host":"nyc-1.us.uncletopia.com","port":27035,"enabled":true,"region":"us-east","cc":"us","latitude":40.73061,"longitude":-73.93524,"reserved":0,"last_update":"0001-01-01T00:00:00Z","name_a2s":"Uncletopia | New York City | 3 | Stopwatch Beta","protocol":17,"map":"pl_borneo","folder":"tf","game":"Team Fortress","app_id":440,"player_count":0,"max_players":24,"Bots":0,"server_type":"Dedicated","server_os":"Linux","password":true,"vac":true,"version":"7882260","steam_id":85568392924742820,"keywords":["nocrits","nodmgspread","payload","uncletopia"],"game_id":440,"stv_port":27036,"stv_name":"Uncletopia | New York City | 3 | Stopwatch Beta | STV","players":null},{"server_id":16,"name":"Uncletopia | New York City | 4 | Community","name_short":"nyc-4","host":"nyc-1.us.uncletopia.com","port":27045,"enabled":true,"region":"us-east","cc":"us","latitude":40.73061,"longitude":-73.93524,"reserved":0,"last_update":"0001-01-01T00:00:00Z","name_a2s":"Uncletopia | New York City | 4 | Community","protocol":17,"map":"workshop/cp_propaganda_b18.ugc1603743849","folder":"tf","game":"Team Fortress","app_id":440,"player_count":0,"max_players":24,"Bots":0,"server_type":"Dedicated","server_os":"Linux","password":true,"vac":true,"version":"7882260","steam_id":85568392924742821,"keywords":["cp","nocrits","nodmgspread","uncletopia"],"game_id":440,"stv_port":27046,"stv_name":"Uncletopia | New York City | 4 | Community | STV","players":null},{"server_id":142,"name":"Uncletopia | São Paulo | 1 | All Maps","name_short":"sao-1","host":"sao-1.br.uncletopia.com","port":27015,"enabled":true,"region":"sa","cc":"br","latitude":-23.533773,"longitude":-46.62529,"reserved":0,"last_update":"0001-01-01T00:00:00Z","name_a2s":"Uncletopia | São Paulo | 1 | All Maps","protocol":17,"map":"pl_barnblitz","folder":"tf","game":"Team Fortress","app_id":440,"player_count":0,"max_players":24,"Bots":0,"server_type":"Dedicated","server_os":"Linux","password":true,"vac":true,"version":"7882260","steam_id":85568392924469996,"keywords":["nocrits","nodmgspread","payload","uncletopia"],"game_id":440,"stv_port":27016,"stv_name":"Uncletopia | São Paulo | 1 | All Maps | STV","players":null},{"server_id":143,"name":"Uncletopia | São Paulo | 2 | All Maps","name_short":"sao-2","host":"sao-2.br.uncletopia.com","port":27015,"enabled":true,"region":"sa","cc":"br","latitude":-23.533773,"longitude":-46.62529,"reserved":0,"last_update":"0001-01-01T00:00:00Z","name_a2s":"Uncletopia | São Paulo | 2 | All Maps","protocol":17,"map":"cp_sunshine","folder":"tf","game":"Team Fortress","app_id":440,"player_count":0,"max_players":24,"Bots":0,"server_type":"Dedicated","server_os":"Linux","password":true,"vac":true,"version":"7882260","steam_id":85568392924485349,"keywords":["cp","nocrits","nodmgspread","uncletopia"],"game_id":440,"stv_port":27016,"stv_name":"Uncletopia | São Paulo | 2 | All Maps | STV","players":null},{"server_id":7,"name":"Uncletopia | Seattle | 1 | All Maps","name_short":"sea-1","host":"sea-1.us.uncletopia.com","port":27015,"enabled":true,"region":"us-west","cc":"us","latitude":47.608013,"longitude":-122.33517,"reserved":0,"last_update":"0001-01-01T00:00:00Z","name_a2s":"Uncletopia | Seattle | 1 | All Maps","protocol":17,"map":"pl_borneo","folder":"tf","game":"Team Fortress","app_id":440,"player_count":24,"max_players":24,"Bots":0,"server_type":"Dedicated","server_os":"Linux","password":true,"vac":true,"version":"7882260","steam_id":85568392924469997,"keywords":["nocrits","nodmgspread","payload","uncletopia"],"game_id":440,"stv_port":27016,"stv_name":"Uncletopia | Seattle | 1 | All Maps | STV","players":[{"user_id":654,"name":"forest (italian)","steam_id":76561198157960257,"connected_time":3226000000000,"state":"active","ping":38},{"user_id":632,"name":"Ducks","steam_id":76561198130038345,"connected_time":4748000000000,"state":"active","ping":73},{"user_id":658,"name":"Slothy","steam_id":76561198967069349,"connected_time":2295000000000,"state":"active","ping":56},{"user_id":684,"name":"Wavelengths (they/it)","steam_id":76561197997621320,"connected_time":572000000000,"state":"active","ping":105},{"user_id":661,"name":"Lord Hater","steam_id":76561199158148782,"connected_time":2241000000000,"state":"active","ping":53},{"user_id":667,"name":"John Calibur","steam_id":76561197999986606,"connected_time":1943000000000,"state":"active","ping":62},{"user_id":637,"name":"NEBULA","steam_id":76561198086878595,"connected_time":4259000000000,"state":"active","ping":70},{"user_id":679,"name":"fwoov","steam_id":76561198129166260,"connected_time":755000000000,"state":"active","ping":79},{"user_id":675,"name":"delight","steam_id":76561197980280272,"connected_time":791000000000,"state":"active","ping":36},{"user_id":659,"name":"Chocc","steam_id":76561198068070211,"connected_time":2258000000000,"state":"active","ping":86},{"user_id":652,"name":"soup","steam_id":76561198043209046,"connected_time":3295000000000,"state":"active","ping":84},{"user_id":676,"name":"ed","steam_id":76561198080475712,"connected_time":785000000000,"state":"active","ping":65},{"user_id":687,"name":"NEЯO","steam_id":76561197965450216,"connected_time":62000000000,"state":"active","ping":59},{"user_id":678,"name":"gorlab","steam_id":76561198025089694,"connected_time":784000000000,"state":"active","ping":67},{"user_id":688,"name":"Arsonist Goose","steam_id":76561198147441830,"connected_time":15000000000,"state":"spawning","ping":66},{"user_id":682,"name":"Sniff","steam_id":76561198010270922,"connected_time":672000000000,"state":"active","ping":45},{"user_id":640,"name":"i.love.ants.321","steam_id":76561198169755734,"connected_time":4234000000000,"state":"active","ping":61},{"user_id":664,"name":"Florist","steam_id":76561198009121060,"connected_time":2221000000000,"state":"active","ping":45},{"user_id":635,"name":"Oaky Loafs","steam_id":76561198317179010,"connected_time":4278000000000,"state":"active","ping":61},{"user_id":670,"name":"lasky","steam_id":76561198017030029,"connected_time":976000000000,"state":"active","ping":83},{"user_id":630,"name":"jorts","steam_id":76561199041179985,"connected_time":5302000000000,"state":"active","ping":66},{"user_id":563,"name":"rorywashere /ᐠ - ˕ -マ Ⳋ","steam_id":76561198065825165,"connected_time":6405000000000,"state":"active","ping":98},{"user_id":673,"name":"resh","steam_id":76561198239598834,"connected_time":906000000000,"state":"active","ping":131},{"user_id":649,"name":"Cheezbeargur","steam_id":76561198164702899,"connected_time":3432000000000,"state":"active","ping":70}]},{"server_id":119,"name":"Uncletopia | Seattle | 2 | All Maps","name_short":"sea-2","host":"sea-1.us.uncletopia.com","port":27025,"enabled":true,"region":"us-west","cc":"us","latitude":47.608013,"longitude":-122.33517,"reserved":0,"last_update":"0001-01-01T00:00:00Z","name_a2s":"Uncletopia | Seattle | 2 | All Maps","protocol":17,"map":"pl_badwater","folder":"tf","game":"Team Fortress","app_id":440,"player_count":24,"max_players":24,"Bots":0,"server_type":"Dedicated","server_os":"Linux","password":true,"vac":true,"version":"7882260","steam_id":85568392924469998,"keywords":["nocrits","nodmgspread","payload","uncletopia"],"game_id":440,"stv_port":27026,"stv_name":"Uncletopia | Seattle | 2 | All Maps | STV","players":[{"user_id":453,"name":"General Fisticuffs","steam_id":76561198255721392,"connected_time":4191000000000,"state":"active","ping":102},{"user_id":494,"name":"DMJanitor","steam_id":76561198058929753,"connected_time":32000000000,"state":"active","ping":73},{"user_id":485,"name":"IzzyHoP","steam_id":76561197995927883,"connected_time":1281000000000,"state":"active","ping":47},{"user_id":465,"name":"kree","steam_id":76561197979960008,"connected_time":2950000000000,"state":"active","ping":104},{"user_id":477,"name":"Samvich","steam_id":76561198263319227,"connected_time":1817000000000,"state":"active","ping":56},{"user_id":492,"name":"Kipper","steam_id":76561198008515450,"connected_time":84000000000,"state":"active","ping":76},{"user_id":434,"name":"Faefanger","steam_id":76561198201871002,"connected_time":5697000000000,"state":"active","ping":58},{"user_id":431,"name":"Bloom","steam_id":76561199065581662,"connected_time":5863000000000,"state":"active","ping":100},{"user_id":489,"name":"Dirt Mammal","steam_id":76561198040781653,"connected_time":636000000000,"state":"active","ping":48},{"user_id":495,"name":"Case","steam_id":76561198136862467,"connected_time":1000000000,"state":"spawning","ping":23},{"user_id":478,"name":"SCUD missile up your ass","steam_id":76561198066452726,"connected_time":1730000000000,"state":"active","ping":79},{"user_id":491,"name":"Sweatpants","steam_id":76561198097188001,"connected_time":161000000000,"state":"active","ping":38},{"user_id":474,"name":"Flyingcat9000","steam_id":76561198179561797,"connected_time":1896000000000,"state":"active","ping":41},{"user_id":423,"name":"DocDankDandy","steam_id":76561197999440195,"connected_time":6108000000000,"state":"active","ping":75},{"user_id":457,"name":"gloobern","steam_id":76561198341190679,"connected_time":3536000000000,"state":"active","ping":75},{"user_id":476,"name":"skople -eg","steam_id":76561197996403345,"connected_time":1855000000000,"state":"active","ping":75},{"user_id":490,"name":"Clump","steam_id":76561198049690860,"connected_time":446000000000,"state":"active","ping":57},{"user_id":479,"name":"SvicidalBug","steam_id":76561198221390504,"connected_time":1621000000000,"state":"active","ping":66},{"user_id":467,"name":"stick","steam_id":76561198134334367,"connected_time":2932000000000,"state":"active","ping":90},{"user_id":493,"name":".HareYarko","steam_id":76561197972617632,"connected_time":55000000000,"state":"active","ping":120},{"user_id":462,"name":"2 Point Tom","steam_id":76561198087617008,"connected_time":3166000000000,"state":"active","ping":47},{"user_id":486,"name":"Mink","steam_id":76561198304240881,"connected_time":1216000000000,"state":"active","ping":54},{"user_id":488,"name":"El Gato Paranoico","steam_id":76561198116567116,"connected_time":689000000000,"state":"active","ping":120},{"user_id":468,"name":"narwool :D","steam_id":76561198175955138,"connected_time":2790000000000,"state":"active","ping":77}]},{"server_id":406,"name":"Uncletopia | Seattle | 3 | Stopwatch Beta","name_short":"sea-3","host":"sea-1.us.uncletopia.com","port":27035,"enabled":true,"region":"us-west","cc":"us","latitude":47.608013,"longitude":-122.33517,"reserved":0,"last_update":"0001-01-01T00:00:00Z","name_a2s":"Uncletopia | Seattle | 3 | Stopwatch Beta","protocol":17,"map":"workshop/pl_barnblitz_pro7.ugc582280235","folder":"tf","game":"Team Fortress","app_id":440,"player_count":0,"max_players":24,"Bots":0,"server_type":"Dedicated","server_os":"Linux","password":true,"vac":true,"version":"7882260","steam_id":85568392924515217,"keywords":["nocrits","nodmgspread","payload","uncletopia"],"game_id":440,"stv_port":27036,"stv_name":"Uncletopia | Seattle | 3 | Stopwatch Beta | STV","players":null},{"server_id":17,"name":"Uncletopia | San Francisco | 1 | All Maps","name_short":"sfo-1","host":"sfo-1.us.uncletopia.com","port":27015,"enabled":true,"region":"us-west","cc":"us","latitude":37.77397,"longitude":-122.4313,"reserved":0,"last_update":"0001-01-01T00:00:00Z","name_a2s":"Uncletopia | San Francisco | 1 | All Maps","protocol":17,"map":"pl_snowycoast","folder":"tf","game":"Team Fortress","app_id":440,"player_count":24,"max_players":24,"Bots":0,"server_type":"Dedicated","server_os":"Linux","password":true,"vac":true,"version":"7882260","steam_id":85568392924469999,"keywords":["nocrits","nodmgspread","payload","uncletopia"],"game_id":440,"stv_port":27016,"stv_name":"Uncletopia | San Francisco | 1 | All Maps | STV","players":[{"user_id":288,"name":"ILLVZN","steam_id":76561199065961083,"connected_time":244000000000,"state":"active","ping":56},{"user_id":267,"name":"MegaMatt","steam_id":76561198198900365,"connected_time":2231000000000,"state":"active","ping":60},{"user_id":271,"name":"choppa凸(►˛◄'!)","steam_id":76561198123236186,"connected_time":1840000000000,"state":"active","ping":44},{"user_id":279,"name":"ふわふわ毛布","steam_id":76561198088403016,"connected_time":972000000000,"state":"active","ping":151},{"user_id":234,"name":"Joe Dodger","steam_id":76561198030052564,"connected_time":5672000000000,"state":"active","ping":73},{"user_id":278,"name":"Gentle Opp 3","steam_id":76561198150406851,"connected_time":1060000000000,"state":"active","ping":45},{"user_id":257,"name":"KiwifruitDev","steam_id":76561198042912823,"connected_time":3305000000000,"state":"active","ping":59},{"user_id":280,"name":"☆Lukey☺","steam_id":76561198072441047,"connected_time":720000000000,"state":"active","ping":80},{"user_id":217,"name":"riSygneD","steam_id":76561198331618687,"connected_time":6129000000000,"state":"active","ping":37},{"user_id":281,"name":"MasterCrafter27","steam_id":76561198151035981,"connected_time":711000000000,"state":"active","ping":73},{"user_id":254,"name":"Amogous Supreme","steam_id":76561198025476774,"connected_time":4142000000000,"state":"active","ping":57},{"user_id":282,"name":"FI LO","steam_id":76561198976530881,"connected_time":684000000000,"state":"active","ping":46},{"user_id":265,"name":"smiley","steam_id":76561198240116276,"connected_time":2502000000000,"state":"active","ping":100},{"user_id":245,"name":"jBracko","steam_id":76561198019261602,"connected_time":4540000000000,"state":"active","ping":49},{"user_id":283,"name":"Nimro","steam_id":76561198049334200,"connected_time":681000000000,"state":"active","ping":72},{"user_id":284,"name":"UnusualTofu","steam_id":76561198060103750,"connected_time":674000000000,"state":"active","ping":69},{"user_id":229,"name":"roody","steam_id":76561198066260405,"connected_time":5698000000000,"state":"active","ping":68},{"user_id":266,"name":"Mr. FancyNarwhal","steam_id":76561198056125837,"connected_time":2480000000000,"state":"active","ping":84},{"user_id":211,"name":"Bagoool","steam_id":76561198065368286,"connected_time":6374000000000,"state":"active","ping":100},{"user_id":206,"name":"lite","steam_id":76561198041535914,"connected_time":7048000000000,"state":"active","ping":100},{"user_id":270,"name":"Tegrius","steam_id":76561199059733640,"connected_time":1925000000000,"state":"active","ping":69},{"user_id":285,"name":"lukamine","steam_id":76561198166827208,"connected_time":654000000000,"state":"active","ping":74},{"user_id":287,"name":"Ian","steam_id":76561198159334435,"connected_time":313000000000,"state":"active","ping":177},{"user_id":275,"name":"Power Jake","steam_id":76561198051510260,"connected_time":1752000000000,"state":"active","ping":61}]},{"server_id":18,"name":"Uncletopia | San Francisco | 2 | All Maps","name_short":"sfo-2","host":"sfo-1.us.uncletopia.com","port":27025,"enabled":true,"region":"us-west","cc":"us","latitude":37.77397,"longitude":-122.4313,"reserved":0,"last_update":"0001-01-01T00:00:00Z","name_a2s":"Uncletopia | San Francisco | 2 | All Maps","protocol":17,"map":"pl_upward","folder":"tf","game":"Team Fortress","app_id":440,"player_count":24,"max_players":24,"Bots":0,"server_type":"Dedicated","server_os":"Linux","password":true,"vac":true,"version":"7882260","steam_id":85568392924470000,"keywords":["nocrits","nodmgspread","payload","uncletopia"],"game_id":440,"stv_port":27026,"stv_name":"Uncletopia | San Francisco | 2 | All Maps | STV","players":[{"user_id":353,"name":"Sleempreem","steam_id":76561198131987251,"connected_time":2402000000000,"state":"active","ping":50},{"user_id":373,"name":"crumblejon","steam_id":76561198111273302,"connected_time":22000000000,"state":"active","ping":60},{"user_id":363,"name":"paolobuts","steam_id":76561199047108638,"connected_time":969000000000,"state":"active","ping":42},{"user_id":319,"name":"caRat","steam_id":76561198859267372,"connected_time":5979000000000,"state":"active","ping":106},{"user_id":320,"name":"Keth","steam_id":76561198155903648,"connected_time":5909000000000,"state":"active","ping":70},{"user_id":321,"name":"Robotguy9","steam_id":76561198147429617,"connected_time":5907000000000,"state":"active","ping":85},{"user_id":361,"name":"bannix","steam_id":76561198059744849,"connected_time":1598000000000,"state":"active","ping":57},{"user_id":365,"name":"Thequirka #ForFountainMann","steam_id":76561198968058652,"connected_time":876000000000,"state":"active","ping":56},{"user_id":333,"name":"Fluffy","steam_id":76561198213561811,"connected_time":4550000000000,"state":"active","ping":52},{"user_id":354,"name":"Prez Pineapple","steam_id":76561198253755258,"connected_time":1831000000000,"state":"active","ping":67},{"user_id":356,"name":"Chuck Mcgill","steam_id":76561198353745820,"connected_time":1771000000000,"state":"active","ping":78},{"user_id":344,"name":"Sp0ons","steam_id":76561198844817638,"connected_time":3339000000000,"state":"active","ping":105},{"user_id":346,"name":"MegaBron James","steam_id":76561198066091050,"connected_time":3301000000000,"state":"active","ping":83},{"user_id":357,"name":"Soto101","steam_id":76561198141538280,"connected_time":1729000000000,"state":"active","ping":107},{"user_id":288,"name":"Boba T","steam_id":76561198012278650,"connected_time":8419000000000,"state":"active","ping":74},{"user_id":366,"name":"Artic_Ryuu","steam_id":76561198182194918,"connected_time":839000000000,"state":"active","ping":60},{"user_id":358,"name":"C^a^L","steam_id":76561198241124222,"connected_time":1724000000000,"state":"active","ping":51},{"user_id":367,"name":"SadVeggie","steam_id":76561198163430099,"connected_time":809000000000,"state":"active","ping":147},{"user_id":349,"name":"Nine Inch Иipples","steam_id":76561198149413947,"connected_time":3226000000000,"state":"active","ping":57},{"user_id":359,"name":"His buddy Eric","steam_id":76561198275362375,"connected_time":1721000000000,"state":"active","ping":59},{"user_id":352,"name":"Tuba","steam_id":76561198209166329,"connected_time":2666000000000,"state":"active","ping":64},{"user_id":308,"name":"perc 10","steam_id":76561198116471653,"connected_time":7405000000000,"state":"active","ping":58},{"user_id":347,"name":"lol","steam_id":76561198026491738,"connected_time":3291000000000,"state":"active","ping":71},{"user_id":369,"name":"Phoenix","steam_id":76561199465534945,"connected_time":729000000000,"state":"active","ping":82}]},{"server_id":19,"name":"Uncletopia | San Francisco | 3 | Stopwatch Beta","name_short":"sfo-3","host":"sfo-1.us.uncletopia.com","port":27035,"enabled":true,"region":"us-west","cc":"us","latitude":37.77397,"longitude":-122.4313,"reserved":0,"last_update":"0001-01-01T00:00:00Z","name_a2s":"Uncletopia | San Francisco | 3 | Stopwatch Beta","protocol":17,"map":"workshop/pl_barnblitz_pro7.ugc582280235","folder":"tf","game":"Team Fortress","app_id":440,"player_count":0,"max_players":24,"Bots":0,"server_type":"Dedicated","server_os":"Linux","password":true,"vac":true,"version":"7882260","steam_id":85568392924742824,"keywords":["nocrits","nodmgspread","payload","uncletopia"],"game_id":440,"stv_port":27036,"stv_name":"Uncletopia | San Francisco | 3 | Stopwatch Beta | STV","players":null},{"server_id":20,"name":"Uncletopia | San Francisco | 4 | Community","name_short":"sfo-4","host":"sfo-1.us.uncletopia.com","port":27045,"enabled":true,"region":"us-west","cc":"us","latitude":37.77397,"longitude":-122.4313,"reserved":0,"last_update":"0001-01-01T00:00:00Z","name_a2s":"Uncletopia | San Francisco | 4 | Community","protocol":17,"map":"workshop/cp_indulge.ugc528106646","folder":"tf","game":"Team Fortress","app_id":440,"player_count":0,"max_players":24,"Bots":0,"server_type":"Dedicated","server_os":"Linux","password":true,"vac":true,"version":"7882260","steam_id":85568392924742826,"keywords":["cp","nocrits","nodmgspread","uncletopia"],"game_id":440,"stv_port":27046,"stv_name":"Uncletopia | San Francisco | 4 | Community | STV","players":null},{"server_id":141,"name":"Uncletopia | Sydney | 1 | All Maps","name_short":"syd-1","host":"syd-1.au.uncletopia.com","port":27015,"enabled":true,"region":"au","cc":"au","latitude":-33.865143,"longitude":151.2099,"reserved":0,"last_update":"0001-01-01T00:00:00Z","name_a2s":"Uncletopia | Sydney | 1 | All Maps","protocol":17,"map":"pl_barnblitz","folder":"tf","game":"Team Fortress","app_id":440,"player_count":19,"max_players":24,"Bots":0,"server_type":"Dedicated","server_os":"Linux","password":true,"vac":true,"version":"7882260","steam_id":85568392924470001,"keywords":["nocrits","nodmgspread","payload","uncletopia"],"game_id":440,"stv_port":27016,"stv_name":"Uncletopia | Sydney | 1 | All Maps | STV","players":[{"user_id":209,"name":"Tom","steam_id":76561198819343637,"connected_time":1479000000000,"state":"active","ping":52},{"user_id":210,"name":"ivoangelozocca","steam_id":76561199419790359,"connected_time":1447000000000,"state":"active","ping":152},{"user_id":192,"name":"Zieria","steam_id":76561199261811388,"connected_time":2682000000000,"state":"active","ping":43},{"user_id":237,"name":"Snake ATM","steam_id":76561197968304462,"connected_time":408000000000,"state":"active","ping":50},{"user_id":211,"name":"Shocking","steam_id":76561198427821649,"connected_time":1402000000000,"state":"active","ping":55},{"user_id":238,"name":"exceptional hygiene","steam_id":76561198039920735,"connected_time":341000000000,"state":"active","ping":41},{"user_id":241,"name":"鬼","steam_id":76561198241303512,"connected_time":107000000000,"state":"active","ping":54},{"user_id":226,"name":"Faraday","steam_id":76561198232171500,"connected_time":1072000000000,"state":"active","ping":64},{"user_id":143,"name":"Jeshī","steam_id":76561198105982416,"connected_time":5302000000000,"state":"active","ping":57},{"user_id":220,"name":"Jonathan Man","steam_id":76561198256416570,"connected_time":1165000000000,"state":"active","ping":59},{"user_id":242,"name":"creamy scramble technique","steam_id":76561198006730696,"connected_time":73000000000,"state":"active","ping":68},{"user_id":243,"name":"Asl:3x","steam_id":76561198972095766,"connected_time":65000000000,"state":"active","ping":31},{"user_id":244,"name":"homo erectus","steam_id":76561198838208913,"connected_time":27000000000,"state":"active","ping":62},{"user_id":234,"name":"HazDaddySlim","steam_id":76561198140262325,"connected_time":657000000000,"state":"active","ping":54},{"user_id":229,"name":"BruceWillis235","steam_id":76561198884324029,"connected_time":883000000000,"state":"active","ping":89},{"user_id":188,"name":"Crumpet","steam_id":76561199096381193,"connected_time":2920000000000,"state":"active","ping":54},{"user_id":230,"name":"mrquestables","steam_id":76561198954911129,"connected_time":851000000000,"state":"active","ping":60},{"user_id":227,"name":"Verveeld","steam_id":76561198245980544,"connected_time":1050000000000,"state":"active","ping":74},{"user_id":172,"name":"mc.sleek","steam_id":76561198057602720,"connected_time":3567000000000,"state":"active","ping":75}]},{"server_id":123,"name":"Uncletopia | Sydney | 2 | All Maps","name_short":"syd-2","host":"syd-1.au.uncletopia.com","port":27025,"enabled":true,"region":"au","cc":"au","latitude":-33.865143,"longitude":151.2099,"reserved":0,"last_update":"0001-01-01T00:00:00Z","name_a2s":"Uncletopia | Sydney | 2 | All Maps","protocol":17,"map":"koth_highpass","folder":"tf","game":"Team Fortress","app_id":440,"player_count":3,"max_players":24,"Bots":0,"server_type":"Dedicated","server_os":"Linux","password":true,"vac":true,"version":"7882260","steam_id":85568392924470002,"keywords":["cp","nocrits","nodmgspread","uncletopia"],"game_id":440,"stv_port":27026,"stv_name":"Uncletopia | Sydney | 2 | All Maps | STV","players":[{"user_id":10,"name":"i was born at a very young age","steam_id":76561199222027878,"connected_time":464000000000,"state":"active","ping":62},{"user_id":11,"name":"Branko","steam_id":76561199262196710,"connected_time":445000000000,"state":"active","ping":39},{"user_id":12,"name":"A writhing mass of bees","steam_id":76561198317860338,"connected_time":367000000000,"state":"active","ping":55}]},{"server_id":395,"name":"Uncletopia | Sydney | 3 | All Maps","name_short":"syd-3","host":"syd-1.au.uncletopia.com","port":27035,"enabled":true,"region":"au","cc":"au","latitude":-33.865143,"longitude":151.2099,"reserved":0,"last_update":"0001-01-01T00:00:00Z","name_a2s":"Uncletopia | Sydney | 3 | All Maps","protocol":17,"map":"koth_viaduct","folder":"tf","game":"Team Fortress","app_id":440,"player_count":0,"max_players":24,"Bots":0,"server_type":"Dedicated","server_os":"Linux","password":true,"vac":true,"version":"7882260","steam_id":85568392925194467,"keywords":["cp","nocrits","nodmgspread","uncletopia"],"game_id":440,"stv_port":27036,"stv_name":"Uncletopia | Sydney | 3 | All Maps | STV","players":null},{"server_id":396,"name":"Uncletopia | Sydney | 4 | All Maps","name_short":"syd-4","host":"syd-1.au.uncletopia.com","port":27045,"enabled":true,"region":"au","cc":"au","latitude":-33.865143,"longitude":151.2099,"reserved":0,"last_update":"0001-01-01T00:00:00Z","name_a2s":"Uncletopia | Sydney | 4 | All Maps","protocol":17,"map":"pl_barnblitz","folder":"tf","game":"Team Fortress","app_id":440,"player_count":0,"max_players":24,"Bots":0,"server_type":"Dedicated","server_os":"Linux","password":true,"vac":true,"version":"7882260","steam_id":85568392925397958,"keywords":["nocrits","nodmgspread","payload","uncletopia"],"game_id":440,"stv_port":27046,"stv_name":"Uncletopia | Sydney | 4 | All Maps | STV","players":null},{"server_id":58,"name":"Uncletopia | Sydney | 5 | Stopwatch Beta","name_short":"syd-5","host":"syd-1.au.uncletopia.com","port":27055,"enabled":true,"region":"au","cc":"au","latitude":-33.865143,"longitude":151.2099,"reserved":0,"last_update":"0001-01-01T00:00:00Z","name_a2s":"Uncletopia | Sydney | 5 | Stopwatch Beta","protocol":17,"map":"koth_viaduct","folder":"tf","game":"Team Fortress","app_id":440,"player_count":0,"max_players":24,"Bots":0,"server_type":"Dedicated","server_os":"Linux","password":true,"vac":true,"version":"7882260","steam_id":85568392925397959,"keywords":["cp","nocrits","nodmgspread","uncletopia"],"game_id":440,"stv_port":27056,"stv_name":"Uncletopia | Sydney | 5 | Stopwatch Beta | STV","players":null},{"server_id":59,"name":"Uncletopia | Sydney | 6 | Community","name_short":"syd-6","host":"syd-1.au.uncletopia.com","port":27065,"enabled":true,"region":"au","cc":"au","latitude":-33.865143,"longitude":151.2099,"reserved":0,"last_update":"0001-01-01T00:00:00Z","name_a2s":"Uncletopia | Sydney | 6 | Community","protocol":17,"map":"workshop/koth_ashville_final.ugc2130459942","folder":"tf","game":"Team Fortress","app_id":440,"player_count":0,"max_players":24,"Bots":0,"server_type":"Dedicated","server_os":"Linux","password":true,"vac":true,"version":"7882260","steam_id":85568392925397960,"keywords":["cp","nocrits","nodmgspread","uncletopia"],"game_id":440,"stv_port":27066,"stv_name":"Uncletopia | Sydney | 6 | Community | STV","players":null},{"server_id":49,"name":"Uncletopia | Warsaw | 1 | All Maps","name_short":"waw-1","host":"waw-1.pl.uncletopia.com","port":27015,"enabled":true,"region":"eu","cc":"pl","latitude":52.2297,"longitude":21.017532,"reserved":0,"last_update":"0001-01-01T00:00:00Z","name_a2s":"","protocol":0,"map":"","folder":"","game":"","app_id":0,"player_count":0,"max_players":0,"Bots":0,"server_type":"","server_os":"","password":false,"vac":false,"version":"","steam_id":0,"keywords":null,"game_id":0,"stv_port":0,"stv_name":"","players":null},{"server_id":50,"name":"Uncletopia | Warsaw | 2 | All Maps","name_short":"waw-2","host":"waw-1.pl.uncletopia.com","port":27025,"enabled":true,"region":"eu","cc":"pl","latitude":52.2297,"longitude":21.017532,"reserved":0,"last_update":"0001-01-01T00:00:00Z","name_a2s":"Uncletopia | Warsaw | 2 | All Maps","protocol":17,"map":"koth_viaduct","folder":"tf","game":"Team Fortress","app_id":440,"player_count":0,"max_players":24,"Bots":0,"server_type":"Dedicated","server_os":"Linux","password":true,"vac":true,"version":"7882260","steam_id":85568392925397851,"keywords":["cp","nocrits","nodmgspread","uncletopia"],"game_id":440,"stv_port":27026,"stv_name":"Uncletopia | Warsaw | 2 | All Maps | STV","players":null},{"server_id":51,"name":"Uncletopia | Warsaw | 3 | All Maps","name_short":"waw-3","host":"waw-1.pl.uncletopia.com","port":27035,"enabled":true,"region":"eu","cc":"pl","latitude":52.2297,"longitude":21.017532,"reserved":0,"last_update":"0001-01-01T00:00:00Z","name_a2s":"Uncletopia | Warsaw | 3 | All Maps","protocol":17,"map":"pl_badwater","folder":"tf","game":"Team Fortress","app_id":440,"player_count":0,"max_players":24,"Bots":0,"server_type":"Dedicated","server_os":"Linux","password":true,"vac":true,"version":"7882260","steam_id":85568392925397852,"keywords":["nocrits","nodmgspread","payload","uncletopia"],"game_id":440,"stv_port":27036,"stv_name":"Uncletopia | Warsaw | 3 | All Maps | STV","players":null},{"server_id":52,"name":"Uncletopia | Warsaw | 4 | All Maps","name_short":"waw-4","host":"waw-1.pl.uncletopia.com","port":27045,"enabled":true,"region":"eu","cc":"pl","latitude":52.2297,"longitude":21.017532,"reserved":0,"last_update":"0001-01-01T00:00:00Z","name_a2s":"Uncletopia | Warsaw | 4 | All Maps","protocol":17,"map":"koth_cascade","folder":"tf","game":"Team Fortress","app_id":440,"player_count":0,"max_players":24,"Bots":0,"server_type":"Dedicated","server_os":"Linux","password":true,"vac":true,"version":"7882260","steam_id":85568392925397853,"keywords":["cp","nocrits","nodmgspread","uncletopia"],"game_id":440,"stv_port":27046,"stv_name":"Uncletopia | Warsaw | 4 | All Maps | STV","players":null},{"server_id":53,"name":"Uncletopia | Warsaw | 5 | Stopwatch Beta","name_short":"waw-5","host":"waw-1.pl.uncletopia.com","port":27055,"enabled":true,"region":"eu","cc":"pl","latitude":52.2297,"longitude":21.017532,"reserved":0,"last_update":"0001-01-01T00:00:00Z","name_a2s":"Uncletopia | Warsaw | 5 | Stopwatch Beta","protocol":17,"map":"cp_dustbowl","folder":"tf","game":"Team Fortress","app_id":440,"player_count":0,"max_players":24,"Bots":0,"server_type":"Dedicated","server_os":"Linux","password":true,"vac":true,"version":"7882260","steam_id":85568392925397854,"keywords":["cp","nocrits","nodmgspread","uncletopia"],"game_id":440,"stv_port":27056,"stv_name":"Uncletopia | Warsaw | 5 | Stopwatch Beta | STV","players":null},{"server_id":54,"name":"Uncletopia | Warsaw | 6 | Community","name_short":"waw-6","host":"waw-1.pl.uncletopia.com","port":27065,"enabled":true,"region":"eu","cc":"pl","latitude":52.2297,"longitude":21.017532,"reserved":0,"last_update":"0001-01-01T00:00:00Z","name_a2s":"Uncletopia | Warsaw | 6 | Community","protocol":17,"map":"cp_dustbowl","folder":"tf","game":"Team Fortress","app_id":440,"player_count":0,"max_players":24,"Bots":0,"server_type":"Dedicated","server_os":"Linux","password":true,"vac":true,"version":"7882260","steam_id":85568392925397856,"keywords":["cp","nocrits","nodmgspread","uncletopia"],"game_id":440,"stv_port":27066,"stv_name":"Uncletopia | Warsaw | 6 | Community | STV","players":null}]}