{"status":true,"message":"","result":[{"server_id":9,"name":"Uncletopia | Atlanta | 1 | All Maps","name_short":"atl-1","host":"atl-1.us.uncletopia.com","port":27015,"enabled":true,"region":"us-east","cc":"us","latitude":33.753746,"longitude":-84.38633,"reserved":0,"last_update":"0001-01-01T00:00:00Z","name_a2s":"Uncletopia | Atlanta | 1 | All Maps","protocol":17,"map":"pl_borneo","folder":"tf","game":"Team Fortress","app_id":440,"player_count":17,"max_players":24,"Bots":0,"server_type":"Dedicated","server_os":"Linux","password":true,"vac":true,"version":"7723704","steam_id":85568392924469982,"keywords":["nocrits","nodmgspread","payload","uncletopia"],"game_id":440,"stv_port":27016,"stv_name":"Uncletopia | Atlanta | 1 | All Maps | STV","players":[{"user_id":122,"name":"Emotional Skyscraper Worlds End","steam_id":76561198214370515,"connected_time":183000000000,"state":"active","ping":66},{"user_id":94,"name":"„éâ","steam_id":76561198813574552,"connected_time":3278000000000,"state":"active","ping":45},{"user_id":113,"name":"Naffers","steam_id":76561198195957335,"connected_time":592000000000,"state":"active","ping":105},{"user_id":107,"name":"Abbashea","steam_id":76561199182136969,"connected_time":1975000000000,"state":"active","ping":108},{"user_id":111,"name":"Bubbamanme","steam_id":76561198119778504,"connected_time":1089000000000,"state":"active","ping":110},{"user_id":125,"name":"sheep","steam_id":76561198172943006,"connected_time":17000000000,"state":"spawning","ping":83},{"user_id":108,"name":"BERBBLES","steam_id":76561198815107994,"connected_time":1296000000000,"state":"active","ping":60},{"user_id":56,"name":"shooty","steam_id":76561198128485603,"connected_time":6930000000000,"state":"active","ping":52},{"user_id":120,"name":"xZackAttack27x","steam_id":76561198035446639,"connected_time":278000000000,"state":"active","ping":59},{"user_id":116,"name":"horse","steam_id":76561197974493959,"connected_time":402000000000,"state":"active","ping":71},{"user_id":123,"name":"truundrscr","steam_id":76561198213525809,"connected_time":139000000000,"state":"active","ping":115},{"user_id":121,"name":"floofy","steam_id":76561198389769098,"connected_time":255000000000,"state":"active","ping":87},{"user_id":124,"name":"The mook","steam_id":76561198963551905,"connected_time":63000000000,"state":"active","ping":62},{"user_id":100,"name":"Rabbitone","steam_id":76561198132691749,"connected_time":3114000000000,"state":"active","ping":91},{"user_id":103,"name":"‚ô•Ranman‚ô•Femboy‚ô•","steam_id":76561198042144492,"connected_time":2853000000000,"state":"active","ping":47},{"user_id":110,"name":"FemboyNate","steam_id":76561198146636410,"connected_time":1274000000000,"state":"active","ping":60},{"user_id":77,"name":"TRHD_Pharaxer‚Ñ¢","steam_id":76561198051236069,"connected_time":5154000000000,"state":"active","ping":150}]},{"server_id":400,"name":"Uncletopia | Atlanta | 3 | All Maps","name_short":"atl-3","host":"atl-1.us.uncletopia.com","port":27035,"enabled":true,"region":"us-east","cc":"us","latitude":33.753746,"longitude":-84.38633,"reserved":0,"last_update":"0001-01-01T00:00:00Z","name_a2s":"Uncletopia | Atlanta | 3 | All Maps","protocol":17,"map":"pl_barnblitz","folder":"tf","game":"Team Fortress","app_id":440,"player_count":11,"max_players":24,"Bots":0,"server_type":"Dedicated","server_os":"Linux","password":true,"vac":true,"version":"7723704","steam_id":85568392924515187,"keywords":["nocrits","nodmgspread","payload","uncletopia"],"game_id":440,"stv_port":27036,"stv_name":"Uncletopia | Atlanta | 3 | All Maps | STV","players":[{"user_id":71,"name":"Hermit not Kermit","steam_id":76561198106182525,"connected_time":2922000000000,"state":"active","ping":108},{"user_id":99,"name":"E-ratic Mastermind","steam_id":76561198131882385,"connected_time":126000000000,"state":"active","ping":71},{"user_id":100,"name":"Akulio","steam_id":76561198271891906,"connected_time":22000000000,"state":"spawning","ping":72},{"user_id":97,"name":"White-light","steam_id":76561198077094973,"connected_time":460000000000,"state":"active","ping":57},{"user_id":89,"name":"Quietsharp","steam_id":76561198277968438,"connected_time":1239000000000,"state":"active","ping":96},{"user_id":76,"name":"PROFILE NAME","steam_id":76561199438851854,"connected_time":2722000000000,"state":"active","ping":127},{"user_id":96,"name":"Round King","steam_id":76561198273185290,"connected_time":552000000000,"state":"active","ping":73},{"user_id":77,"name":"Ziggy Q","steam_id":76561197995360978,"connected_time":2721000000000,"state":"active","ping":59},{"user_id":31,"name":"Satori Komeiji","steam_id":76561198158211423,"connected_time":4917000000000,"state":"active","ping":86},{"user_id":92,"name":"RoyalKaiser RBMK","steam_id":76561198886933897,"connected_time":1148000000000,"state":"active","ping":110},{"user_id":42,"name":"Saristan","steam_id":76561198093346048,"connected_time":4764000000000,"state":"active","ping":62}]},{"server_id":401,"name":"Uncletopia | Atlanta | 4 | No Payload","name_short":"atl-4","host":"atl-1.us.uncletopia.com","port":27045,"enabled":true,"region":"us-east","cc":"us","latitude":33.753746,"longitude":-84.38633,"reserved":0,"last_update":"0001-01-01T00:00:00Z","name_a2s":"Uncletopia | Atlanta | 4 | No Payload","protocol":17,"map":"cp_dustbowl","folder":"tf","game":"Team Fortress","app_id":440,"player_count":0,"max_players":24,"Bots":0,"server_type":"Dedicated","server_os":"Linux","password":true,"vac":true,"version":"7723704","steam_id":85568392924515188,"keywords":["cp","nocrits","nodmgspread","uncletopia"],"game_id":440,"stv_port":27046,"stv_name":"Uncletopia | Atlanta | 4 | No Payload | STV","players":null},{"server_id":2,"name":"Uncletopia | Chicago | 1 | All Maps","name_short":"chi-1","host":"chi-1.us.uncletopia.com","port":27015,"enabled":true,"region":"us-central","cc":"us","latitude":41.881832,"longitude":-87.62318,"reserved":0,"last_update":"0001-01-01T00:00:00Z","name_a2s":"Uncletopia | Chicago | 1 | All Maps","protocol":17,"map":"pl_thundermountain","folder":"tf","game":"Team Fortress","app_id":440,"player_count":20,"max_players":24,"Bots":0,"server_type":"Dedicated","server_os":"Linux","password":true,"vac":true,"version":"7723704","steam_id":85568392924469984,"keywords":["nocrits","nodmgspread","payload","uncletopia"],"game_id":440,"stv_port":27016,"stv_name":"Uncletopia | Chicago | 1 | All Maps | STV","players":[{"user_id":174,"name":"Iwantexpresso","steam_id":76561198975831340,"connected_time":27000000000,"state":"spawning","ping":136},{"user_id":171,"name":"Agent BSoD","steam_id":76561198050346368,"connected_time":244000000000,"state":"active","ping":92},{"user_id":161,"name":"HelenKellerIsn'tReal","steam_id":76561198976676213,"connected_time":754000000000,"state":"active","ping":59},{"user_id":173,"name":"Newt","steam_id":76561198842909288,"connected_time":71000000000,"state":"active","ping":103},{"user_id":156,"name":"earthbound393","steam_id":76561199444276547,"connected_time":924000000000,"state":"active","ping":151},{"user_id":175,"name":"The Foolish Samurai","steam_id":76561198094494945,"connected_time":25000000000,"state":"active","ping":107},{"user_id":47,"name":"deepmeta","steam_id":76561199053600691,"connected_time":8353000000000,"state":"active","ping":48},{"user_id":115,"name":"Aeris","steam_id":76561198287271028,"connected_time":3009000000000,"state":"active","ping":45},{"user_id":176,"name":"FuzzyIron","steam_id":76561198204707588,"connected_time":20000000000,"state":"spawning","ping":59},{"user_id":144,"name":"KappaPaRappa","steam_id":76561198401085571,"connected_time":1453000000000,"state":"active","ping":104},{"user_id":127,"name":"Quentin","steam_id":76561198032941413,"connected_time":2461000000000,"state":"active","ping":77},{"user_id":165,"name":"Challenger Charles","steam_id":76561198005576553,"connected_time":558000000000,"state":"active","ping":81},{"user_id":167,"name":"azusa","steam_id":76561198049483469,"connected_time":454000000000,"state":"active","ping":75},{"user_id":158,"name":"Jelqing Table","steam_id":76561198051373750,"connected_time":877000000000,"state":"active","ping":66},{"user_id":168,"name":"jajaja","steam_id":76561197980633611,"connected_time":447000000000,"state":"active","ping":87},{"user_id":147,"name":"LivinInTheMyst","steam_id":76561199109119765,"connected_time":1355000000000,"state":"active","ping":70},{"user_id":137,"name":"Ye (I Love Hitler) West","steam_id":76561198068830312,"connected_time":1625000000000,"state":"active","ping":49},{"user_id":163,"name":"valtiel","steam_id":76561198165212575,"connected_time":669000000000,"state":"active","ping":71},{"user_id":164,"name":"SlimGrady","steam_id":76561198451231329,"connected_time":643000000000,"state":"active","ping":63},{"user_id":166,"name":"Money Collector","steam_id":76561198046249467,"connected_time":551000000000,"state":"active","ping":50}]},{"server_id":106,"name":"Uncletopia | Chicago | 2 | All Maps","name_short":"chi-2","host":"chi-1.us.uncletopia.com","port":27025,"enabled":true,"region":"us-central","cc":"us","latitude":41.881832,"longitude":-87.62318,"reserved":0,"last_update":"0001-01-01T00:00:00Z","name_a2s":"Uncletopia | Chicago | 2 | All Maps","protocol":17,"map":"cp_altitude","folder":"tf","game":"Team Fortress","app_id":440,"player_count":4,"max_players":24,"Bots":0,"server_type":"Dedicated","server_os":"Linux","password":true,"vac":true,"version":"7723704","steam_id":85568392924469985,"keywords":["cp","nocrits","nodmgspread","uncletopia"],"game_id":440,"stv_port":27026,"stv_name":"Uncletopia | Chicago | 2 | All Maps | STV","players":[{"user_id":135,"name":"Saiopun","steam_id":76561199011832069,"connected_time":1597000000000,"state":"active","ping":107},{"user_id":64,"name":"eWVra2Vy","steam_id":76561198453565942,"connected_time":6480000000000,"state":"active","ping":74},{"user_id":117,"name":"overgrown teakettle","steam_id":76561198059041027,"connected_time":2668000000000,"state":"active","ping":94},{"user_id":60,"name":"DenDa","steam_id":76561198321944154,"connected_time":6929000000000,"state":"active","ping":60}]},{"server_id":402,"name":"Uncletopia | Chicago | 3 | All Maps","name_short":"chi-3","host":"chi-1.us.uncletopia.com","port":27035,"enabled":true,"region":"us-central","cc":"us","latitude":41.881832,"longitude":-87.62318,"reserved":0,"last_update":"0001-01-01T00:00:00Z","name_a2s":"Uncletopia | Chicago | 3 | All Maps","protocol":17,"map":"pl_borneo","folder":"tf","game":"Team Fortress","app_id":440,"player_count":24,"max_players":24,"Bots":0,"server_type":"Dedicated","server_os":"Linux","password":true,"vac":true,"version":"7723704","steam_id":85568392924515191,"keywords":["nocrits","nodmgspread","payload","uncletopia"],"game_id":440,"stv_port":27036,"stv_name":"Uncletopia | Chicago | 3 | All Maps | STV","players":[{"user_id":117,"name":"CSCX","steam_id":76561198022728525,"connected_time":543000000000,"state":"active","ping":110},{"user_id":114,"name":"Hentai Fappersurpreme","steam_id":76561198450740161,"connected_time":877000000000,"state":"active","ping":60},{"user_id":101,"name":"a shrieking cloud of bats","steam_id":76561198151363063,"connected_time":2685000000000,"state":"active","ping":62},{"user_id":90,"name":"EPICAlbert777","steam_id":76561198093718909,"connected_time":3354000000000,"state":"active","ping":73},{"user_id":81,"name":"real","steam_id":76561198760197989,"connected_time":3646000000000,"state":"active","ping":67},{"user_id":119,"name":"q!k.glodfyeehs","steam_id":76561198086008437,"connected_time":278000000000,"state":"active","ping":74},{"user_id":120,"name":"yuji","steam_id":76561198401572620,"connected_time":266000000000,"state":"active","ping":60},{"user_id":105,"name":"„ÄéHazon„Äè","steam_id":76561198119852107,"connected_time":2283000000000,"state":"active","ping":62},{"user_id":122,"name":"KingSteve42","steam_id":76561198409455888,"connected_time":255000000000,"state":"active","ping":104},{"user_id":70,"name":"pw","steam_id":76561198087945065,"connected_time":4974000000000,"state":"active","ping":53},{"user_id":109,"name":"SleepyJackdaw","steam_id":76561198053520098,"connected_time":1640000000000,"state":"active","ping":45},{"user_id":127,"name":"bee","steam_id":76561198025553902,"connected_time":108000000000,"state":"active","ping":45},{"user_id":123,"name":"math","steam_id":76561198092542997,"connected_time":255000000000,"state":"active","ping":64},{"user_id":53,"name":"Missile Toad","steam_id":76561198300976003,"connected_time":6389000000000,"state":"active","ping":55},{"user_id":26,"name":"ClericsRose","steam_id":76561198011013806,"connected_time":7055000000000,"state":"active","ping":76},{"user_id":106,"name":"Nefy","steam_id":76561198030017316,"connected_time":1870000000000,"state":"active","ping":73},{"user_id":118,"name":"Murk Wahlberg","steam_id":76561198131467867,"connected_time":473000000000,"state":"active","ping":90},{"user_id":85,"name":"MemeyBoi3rd","steam_id":76561199443570634,"connected_time":3592000000000,"state":"active","ping":110},{"user_id":59,"name":"Scorpie Doodle","steam_id":76561198021845763,"connected_time":5800000000000,"state":"active","ping":51},{"user_id":124,"name":"The Dumper","steam_id":76561198147302569,"connected_time":253000000000,"state":"active","ping":141},{"user_id":125,"name":"IRESPECTWOMEN285","steam_id":76561198080486123,"connected_time":251000000000,"state":"active","ping":105},{"user_id":75,"name":"River Rat","steam_id":76561198116383976,"connected_time":4125000000000,"state":"active","ping":105},{"user_id":112,"name":"'round midnight ‚úø","steam_id":76561198113241020,"connected_time":1562000000000,"state":"active","ping":87},{"user_id":126,"name":"Monsterjj","steam_id":76561198077019286,"connected_time":243000000000,"state":"active","ping":109}]},{"server_id":403,"name":"Uncletopia | Chicago | 4 | All Maps","name_short":"chi-4","host":"chi-1.us.uncletopia.com","port":27045,"enabled":true,"region":"us-central","cc":"us","latitude":41.881832,"longitude":-87.62318,"reserved":0,"last_update":"0001-01-01T00:00:00Z","name_a2s":"Uncletopia | Chicago | 4 | All Maps","protocol":17,"map":"pl_swiftwater_final1","folder":"tf","game":"Team Fortress","app_id":440,"player_count":24,"max_players":24,"Bots":0,"server_type":"Dedicated","server_os":"Linux","password":true,"vac":true,"version":"7723704","steam_id":85568392924515193,"keywords":["nocrits","nodmgspread","payload","uncletopia"],"game_id":440,"stv_port":27046,"stv_name":"Uncletopia | Chicago | 4 | All Maps | STV","players":[{"user_id":89,"name":"Distou","steam_id":76561198397886545,"connected_time":586000000000,"state":"active","ping":100},{"user_id":60,"name":"bad spy player","steam_id":76561198873699671,"connected_time":2441000000000,"state":"active","ping":87},{"user_id":83,"name":"AIRHEAD","steam_id":76561198093101922,"connected_time":1230000000000,"state":"active","ping":93},{"user_id":84,"name":"General Scout","steam_id":76561198072395300,"connected_time":1158000000000,"state":"active","ping":97},{"user_id":64,"name":"Credox","steam_id":76561198073344670,"connected_time":2219000000000,"state":"active","ping":79},{"user_id":96,"name":"sys","steam_id":76561198300912581,"connected_time":282000000000,"state":"active","ping":77},{"user_id":91,"name":"PINGAS DISPENSER‚Ñ¢","steam_id":76561198014868070,"connected_time":398000000000,"state":"active","ping":101},{"user_id":65,"name":"TheWalrus","steam_id":76561198071020954,"connected_time":2182000000000,"state":"active","ping":87},{"user_id":92,"name":"MrLeftTurn","steam_id":76561198856743969,"connected_time":390000000000,"state":"active","ping":119},{"user_id":93,"name":"OrangeShoes","steam_id":76561197971249940,"connected_time":387000000000,"state":"active","ping":56},{"user_id":66,"name":"Bootz","steam_id":76561198030205648,"connected_time":2173000000000,"state":"active","ping":66},{"user_id":68,"name":"bajanga.co","steam_id":76561199122049654,"connected_time":2118000000000,"state":"active","ping":83},{"user_id":94,"name":"SuperNovaFox","steam_id":76561198052172564,"connected_time":345000000000,"state":"active","ping":76},{"user_id":82,"name":"festive klevin","steam_id":76561198799106535,"connected_time":1392000000000,"state":"active","ping":90},{"user_id":81,"name":"(SUNBRO) HOMER VICE","steam_id":76561198020927265,"connected_time":1499000000000,"state":"active","ping":75},{"user_id":74,"name":"OBI WAN SHINOBI","steam_id":76561198045937428,"connected_time":2006000000000,"state":"active","ping":83},{"user_id":41,"name":"Daddy","steam_id":76561198093028567,"connected_time":4953000000000,"state":"active","ping":76},{"user_id":72,"name":"99_Herb","steam_id":76561199147399470,"connected_time":2019000000000,"state":"active","ping":76},{"user_id":85,"name":"FreeBag","steam_id":76561198119587929,"connected_time":1124000000000,"state":"active","ping":63},{"user_id":86,"name":"Gordon Freemason.","steam_id":76561199249733628,"connected_time":1092000000000,"state":"active","ping":78},{"user_id":87,"name":"Psych03","steam_id":76561198061753667,"connected_time":1076000000000,"state":"active","ping":102},{"user_id":76,"name":"buff paul","steam_id":76561198018889261,"connected_time":1993000000000,"state":"active","ping":76},{"user_id":77,"name":"SoWhich","steam_id":76561198237125842,"connected_time":1979000000000,"state":"active","ping":53},{"user_id":95,"name":"harry","steam_id":76561198263271697,"connected_time":310000000000,"state":"active","ping":45}]},{"server_id":36,"name":"Uncletopia | Chicago | 5 | All Maps","name_short":"chi-5","host":"chi-2.us.uncletopia.com","port":27015,"enabled":true,"region":"us-central","cc":"us","latitude":41.881832,"longitude":-87.62318,"reserved":0,"last_update":"0001-01-01T00:00:00Z","name_a2s":"Uncletopia | Chicago | 5 | All Maps","protocol":17,"map":"koth_cascade","folder":"tf","game":"Team Fortress","app_id":440,"player_count":0,"max_players":24,"Bots":0,"server_type":"Dedicated","server_os":"Linux","password":true,"vac":true,"version":"7723704","steam_id":85568392924866362,"keywords":["cp","nocrits","nodmgspread","uncletopia"],"game_id":440,"stv_port":27016,"stv_name":"Uncletopia | Chicago | 5 | All Maps | STV","players":null},{"server_id":37,"name":"Uncletopia | Chicago | 6 | All Maps","name_short":"chi-6","host":"chi-2.us.uncletopia.com","port":27025,"enabled":true,"region":"us-central","cc":"us","latitude":41.881832,"longitude":-87.62318,"reserved":0,"last_update":"0001-01-01T00:00:00Z","name_a2s":"Uncletopia | Chicago | 6 | All Maps","protocol":17,"map":"koth_lakeside_final","folder":"tf","game":"Team Fortress","app_id":440,"player_count":0,"max_players":24,"Bots":0,"server_type":"Dedicated","server_os":"Linux","password":true,"vac":true,"version":"7723704","steam_id":85568392924866363,"keywords":["cp","nocrits","nodmgspread","uncletopia"],"game_id":440,"stv_port":27026,"stv_name":"Uncletopia | Chicago | 6 | All Maps | STV","players":null},{"server_id":38,"name":"Uncletopia | Chicago | 7 | Stopwatch (test)","name_short":"chi-7","host":"chi-2.us.uncletopia.com","port":27035,"enabled":true,"region":"us-central","cc":"us","latitude":41.881832,"longitude":-87.62318,"reserved":0,"last_update":"0001-01-01T00:00:00Z","name_a2s":"Uncletopia | Chicago | 7 | Stopwatch (test)","protocol":17,"map":"pl_upward","folder":"tf","game":"Team Fortress","app_id":440,"player_count":0,"max_players":24,"Bots":0,"server_type":"Dedicated","server_os":"Linux","password":true,"vac":true,"version":"7723704","steam_id":85568392924866364,"keywords":["nocrits","nodmgspread","payload","uncletopia"],"game_id":440,"stv_port":27036,"stv_name":"Uncletopia | Chicago | 7 | Stopwatch (test) | STV","players":null},{"server_id":39,"name":"Uncletopia | Chicago | 8 | Community","name_short":"chi-8","host":"chi-2.us.uncletopia.com","port":27045,"enabled":true,"region":"us-central","cc":"us","latitude":41.881832,"longitude":-87.62318,"reserved":0,"last_update":"0001-01-01T00:00:00Z","name_a2s":"Uncletopia | Chicago | 8 | Community","protocol":17,"map":"workshop/pl_eruption_b8c.ugc2865677281","folder":"tf","game":"Team Fortress","app_id":440,"player_count":0,"max_players":24,"Bots":0,"server_type":"Dedicated","server_os":"Linux","password":true,"vac":true,"version":"7723704","steam_id":85568392924866365,"keywords":["nocrits","nodmgspread","payload","uncletopia"],"game_id":440,"stv_port":27046,"stv_name":"Uncletopia | Chicago | 8 | Community | STV","players":null},{"server_id":8,"name":"Uncletopia | Dallas | 1 | All Maps","name_short":"dal-1","host":"dal-1.us.uncletopia.com","port":27015,"enabled":true,"region":"us-central","cc":"us","latitude":32.779167,"longitude":-96.80889,"reserved":0,"last_update":"0001-01-01T00:00:00Z","name_a2s":"Uncletopia | Dallas | 1 | All Maps","protocol":17,"map":"koth_harvest_final","folder":"tf","game":"Team Fortress","app_id":440,"player_count":17,"max_players":24,"Bots":0,"server_type":"Dedicated","server_os":"Linux","password":true,"vac":true,"version":"7723704","steam_id":85568392924469986,"keywords":["cp","nocrits","nodmgspread","uncletopia"],"game_id":440,"stv_port":27016,"stv_name":"Uncletopia | Dallas | 1 | All Maps | STV","players":[{"user_id":130,"name":"Kin julien","steam_id":76561199146502603,"connected_time":2196000000000,"state":"active","ping":78},{"user_id":157,"name":"ian","steam_id":76561198119616750,"connected_time":1139000000000,"state":"active","ping":96},{"user_id":136,"name":"Surly Joe","steam_id":76561199150833796,"connected_time":2075000000000,"state":"active","ping":79},{"user_id":158,"name":"inzang","steam_id":76561198088318074,"connected_time":1124000000000,"state":"active","ping":50},{"user_id":173,"name":"Queuetimeevent","steam_id":76561198079438423,"connected_time":276000000000,"state":"active","ping":56},{"user_id":153,"name":"Schnitz","steam_id":76561198265484253,"connected_time":1512000000000,"state":"active","ping":76},{"user_id":171,"name":"Sylvaris","steam_id":76561198156678773,"connected_time":576000000000,"state":"active","ping":52},{"user_id":139,"name":"Jacasola","steam_id":76561198055460402,"connected_time":2007000000000,"state":"active","ping":79},{"user_id":162,"name":"Pyyr","steam_id":76561198123491005,"connected_time":1047000000000,"state":"active","ping":65},{"user_id":140,"name":"shadow3004","steam_id":76561198064870076,"connected_time":1997000000000,"state":"active","ping":66},{"user_id":143,"name":"tum","steam_id":76561198084712019,"connected_time":1867000000000,"state":"active","ping":75},{"user_id":166,"name":"skaj","steam_id":76561198082278586,"connected_time":815000000000,"state":"active","ping":70},{"user_id":94,"name":"bo scrungulus","steam_id":76561198038036122,"connected_time":4770000000000,"state":"active","ping":60},{"user_id":80,"name":"üê∫-Iwky-ü¶ä","steam_id":76561198185616311,"connected_time":5820000000000,"state":"active","ping":65},{"user_id":167,"name":"RailRunner66","steam_id":76561198053779091,"connected_time":806000000000,"state":"active","ping":64},{"user_id":172,"name":"Kamin","steam_id":76561198255299559,"connected_time":545000000000,"state":"active","ping":64},{"user_id":169,"name":"NecroHash","steam_id":76561198158007618,"connected_time":629000000000,"state":"active","ping":89}]},{"server_id":108,"name":"Uncletopia | Dallas | 2 | All Maps","name_short":"dal-2","host":"dal-1.us.uncletopia.com","port":27025,"enabled":true,"region":"us-central","cc":"us","latitude":32.779167,"longitude":-96.80889,"reserved":0,"last_update":"0001-01-01T00:00:00Z","name_a2s":"Uncletopia | Dallas | 2 | All Maps","protocol":17,"map":"pl_upward","folder":"tf","game":"Team Fortress","app_id":440,"player_count":21,"max_players":24,"Bots":0,"server_type":"Dedicated","server_os":"Linux","password":true,"vac":true,"version":"7723704","steam_id":85568392924469988,"keywords":["nocrits","nodmgspread","payload","uncletopia"],"game_id":440,"stv_port":27026,"stv_name":"Uncletopia | Dallas | 2 | All Maps | STV","players":[{"user_id":103,"name":"Emma","steam_id":76561198318093783,"connected_time":2302000000000,"state":"active","ping":59},{"user_id":48,"name":"aisu","steam_id":76561198043768507,"connected_time":6017000000000,"state":"active","ping":80},{"user_id":124,"name":"Ko - „Åì - ÏΩî","steam_id":76561198035726982,"connected_time":75000000000,"state":"active","ping":59},{"user_id":126,"name":"java","steam_id":76561198030276792,"connected_time":64000000000,"state":"active","ping":59},{"user_id":75,"name":"Bartleby","steam_id":76561198028522711,"connected_time":4273000000000,"state":"active","ping":67},{"user_id":117,"name":"keffers | Chrimbus Time","steam_id":76561198202338796,"connected_time":829000000000,"state":"active","ping":75},{"user_id":115,"name":"The Ultimate Coomer","steam_id":76561199128833757,"connected_time":1150000000000,"state":"active","ping":45},{"user_id":113,"name":"Bigby","steam_id":76561199056842761,"connected_time":1449000000000,"state":"active","ping":76},{"user_id":129,"name":"TheSublimePinaLover","steam_id":76561198052402618,"connected_time":29000000000,"state":"spawning","ping":90},{"user_id":59,"name":"‚ú©BONGO‚ú©","steam_id":76561198018040930,"connected_time":4639000000000,"state":"active","ping":31},{"user_id":127,"name":"cringe","steam_id":76561198104086771,"connected_time":57000000000,"state":"active","ping":76},{"user_id":41,"name":"peter slideinher","steam_id":76561198000564263,"connected_time":6797000000000,"state":"active","ping":62},{"user_id":119,"name":"DingDongAnalog","steam_id":76561198850181994,"connected_time":773000000000,"state":"active","ping":83},{"user_id":78,"name":"POW got it","steam_id":76561198035698704,"connected_time":4128000000000,"state":"active","ping":92},{"user_id":128,"name":"boxagon","steam_id":76561198307845869,"connected_time":47000000000,"state":"active","ping":94},{"user_id":45,"name":"lanoc","steam_id":76561198055415367,"connected_time":6328000000000,"state":"active","ping":60},{"user_id":65,"name":"AlecTheNefarious","steam_id":76561198035291230,"connected_time":4580000000000,"state":"active","ping":54},{"user_id":121,"name":"tim E","steam_id":76561198401800919,"connected_time":205000000000,"state":"active","ping":106},{"user_id":67,"name":"Dynamo","steam_id":76561198057875639,"connected_time":4560000000000,"state":"active","ping":75},{"user_id":85,"name":"Chaosfall","steam_id":76561198155492265,"connected_time":3850000000000,"state":"active","ping":75},{"user_id":87,"name":"SilentDom","steam_id":76561198008339097,"connected_time":3831000000000,"state":"active","ping":75}]},{"server_id":5,"name":"Uncletopia | Frankfurt | 1 | All Maps","name_short":"frk-1","host":"frk-1.de.uncletopia.com","port":27015,"enabled":true,"region":"eu","cc":"de","latitude":50.110924,"longitude":8.682127,"reserved":0,"last_update":"0001-01-01T00:00:00Z","name_a2s":"Uncletopia | Frankfurt | 1 | All Maps","protocol":17,"map":"cp_mountainlab","folder":"tf","game":"Team Fortress","app_id":440,"player_count":0,"max_players":24,"Bots":0,"server_type":"Dedicated","server_os":"Linux","password":true,"vac":true,"version":"7723704","steam_id":85568392924469989,"keywords":["cp","nocrits","nodmgspread","uncletopia"],"game_id":440,"stv_port":27016,"stv_name":"Uncletopia | Frankfurt | 1 | All Maps | STV","players":null},{"server_id":110,"name":"Uncletopia | Frankfurt | 2 | All Maps","name_short":"frk-2","host":"frk-1.de.uncletopia.com","port":27025,"enabled":true,"region":"eu","cc":"de","latitude":50.110924,"longitude":8.682127,"reserved":0,"last_update":"0001-01-01T00:00:00Z","name_a2s":"Uncletopia | Frankfurt | 2 | All Maps","protocol":17,"map":"pl_pier","folder":"tf","game":"Team Fortress","app_id":440,"player_count":0,"max_players":24,"Bots":0,"server_type":"Dedicated","server_os":"Linux","password":true,"vac":true,"version":"7723704","steam_id":85568392924469990,"keywords":["nocrits","nodmgspread","payload","uncletopia"],"game_id":440,"stv_port":27026,"stv_name":"Uncletopia | Frankfurt | 2 | All Maps | STV","players":null},{"server_id":308,"name":"Uncletopia | Frankfurt | 3 | All Maps","name_short":"frk-3","host":"frk-1.de.uncletopia.com","port":27035,"enabled":true,"region":"eu","cc":"de","latitude":50.110924,"longitude":8.682127,"reserved":0,"last_update":"0001-01-01T00:00:00Z","name_a2s":"Uncletopia | Frankfurt | 3 | All Maps","protocol":17,"map":"pl_swiftwater_final1","folder":"tf","game":"Team Fortress","app_id":440,"player_count":0,"max_players":24,"Bots":0,"server_type":"Dedicated","server_os":"Linux","password":true,"vac":true,"version":"7723704","steam_id":85568392924504274,"keywords":["nocrits","nodmgspread","payload","uncletopia"],"game_id":440,"stv_port":27036,"stv_name":"Uncletopia | Frankfurt | 3 | All Maps | STV","players":null},{"server_id":309,"name":"Uncletopia | Frankfurt | 4 | All Maps","name_short":"frk-4","host":"frk-1.de.uncletopia.com","port":27045,"enabled":true,"region":"eu","cc":"de","latitude":50.110924,"longitude":8.682127,"reserved":0,"last_update":"0001-01-01T00:00:00Z","name_a2s":"Uncletopia | Frankfurt | 4 | All Maps","protocol":17,"map":"cp_altitude","folder":"tf","game":"Team Fortress","app_id":440,"player_count":0,"max_players":24,"Bots":0,"server_type":"Dedicated","server_os":"Linux","password":true,"vac":true,"version":"7723704","steam_id":85568392924504275,"keywords":["cp","nocrits","nodmgspread","uncletopia"],"game_id":440,"stv_port":27046,"stv_name":"Uncletopia | Frankfurt | 4 | All Maps | STV","players":null},{"server_id":310,"name":"Uncletopia | Frankfurt | 5 | All Maps","name_short":"frk-5","host":"frk-1.de.uncletopia.com","port":27055,"enabled":true,"region":"eu","cc":"de","latitude":50.110924,"longitude":8.682127,"reserved":0,"last_update":"0001-01-01T00:00:00Z","name_a2s":"Uncletopia | Frankfurt | 5 | All Maps","protocol":17,"map":"cp_process_final","folder":"tf","game":"Team Fortress","app_id":440,"player_count":0,"max_players":24,"Bots":0,"server_type":"Dedicated","server_os":"Linux","password":true,"vac":true,"version":"7723704","steam_id":85568392924504277,"keywords":["cp","nocrits","nodmgspread","uncletopia"],"game_id":440,"stv_port":27056,"stv_name":"Uncletopia | Frankfurt | 5 | All Maps | STV","players":null},{"server_id":311,"name":"Uncletopia | Frankfurt | 6 | All Maps","name_short":"frk-6","host":"frk-1.de.uncletopia.com","port":27065,"enabled":true,"region":"eu","cc":"de","latitude":50.110924,"longitude":8.682127,"reserved":0,"last_update":"0001-01-01T00:00:00Z","name_a2s":"Uncletopia | Frankfurt | 6 | All Maps","protocol":17,"map":"cp_snakewater_final1","folder":"tf","game":"Team Fortress","app_id":440,"player_count":0,"max_players":24,"Bots":0,"server_type":"Dedicated","server_os":"Linux","password":true,"vac":true,"version":"7723704","steam_id":85568392924504278,"keywords":["cp","nocrits","nodmgspread","uncletopia"],"game_id":440,"stv_port":27066,"stv_name":"Uncletopia | Frankfurt | 6 | All Maps | STV","players":null},{"server_id":23,"name":"Uncletopia | Frankfurt | 7 | No Payload","name_short":"frk-7","host":"frk-1.de.uncletopia.com","port":27075,"enabled":true,"region":"eu","cc":"de","latitude":50.110924,"longitude":8.682127,"reserved":0,"last_update":"0001-01-01T00:00:00Z","name_a2s":"Uncletopia | Frankfurt | 7 | No Payload","protocol":17,"map":"pl_upward","folder":"tf","game":"Team Fortress","app_id":440,"player_count":0,"max_players":24,"Bots":0,"server_type":"Dedicated","server_os":"Linux","password":true,"vac":true,"version":"7723704","steam_id":85568392924742827,"keywords":["nocrits","nodmgspread","payload","uncletopia"],"game_id":440,"stv_port":27076,"stv_name":"Uncletopia | Frankfurt | 7 | No Payload | STV","players":null},{"server_id":24,"name":"Uncletopia | Frankfurt | 8 | Community","name_short":"frk-8","host":"frk-1.de.uncletopia.com","port":27085,"enabled":true,"region":"eu","cc":"de","latitude":50.110924,"longitude":8.682127,"reserved":0,"last_update":"0001-01-01T00:00:00Z","name_a2s":"Uncletopia | Frankfurt | 8 | Community","protocol":17,"map":"cp_altitude","folder":"tf","game":"Team Fortress","app_id":440,"player_count":0,"max_players":24,"Bots":0,"server_type":"Dedicated","server_os":"Linux","password":true,"vac":true,"version":"7723704","steam_id":85568392924742828,"keywords":["cp","nocrits","nodmgspread","uncletopia"],"game_id":440,"stv_port":27086,"stv_name":"Uncletopia | Frankfurt | 8 | Community | STV","players":null},{"server_id":202,"name":"Uncletopia | Hong Kong | 1 | All Maps","name_short":"hgk-1","host":"hgk-1.hk.uncletopia.com","port":27015,"enabled":true,"region":"asia","cc":"hk","latitude":22.302711,"longitude":114.177216,"reserved":0,"last_update":"0001-01-01T00:00:00Z","name_a2s":"Uncletopia | Hong Kong | 1 | All Maps","protocol":17,"map":"pl_thundermountain","folder":"tf","game":"Team Fortress","app_id":440,"player_count":24,"max_players":24,"Bots":0,"server_type":"Dedicated","server_os":"Linux","password":true,"vac":true,"version":"7723704","steam_id":85568392924494504,"keywords":["nocrits","nodmgspread","payload","uncletopia"],"game_id":440,"stv_port":27016,"stv_name":"Uncletopia | Hong Kong | 1 | All Maps | STV","players":[{"user_id":54,"name":"Your Daily Dose of Caffeine","steam_id":76561198148007513,"connected_time":3558000000000,"state":"active","ping":52},{"user_id":91,"name":"nieziou","steam_id":76561198985090987,"connected_time":1932000000000,"state":"active","ping":92},{"user_id":93,"name":"Noyour","steam_id":76561198323259830,"connected_time":1557000000000,"state":"active","ping":113},{"user_id":13,"name":"Lu","steam_id":76561198320532821,"connected_time":6685000000000,"state":"active","ping":58},{"user_id":90,"name":"boopsadventure3","steam_id":76561199376341010,"connected_time":1972000000000,"state":"active","ping":85},{"user_id":68,"name":"SnakeOwl1","steam_id":76561198420073144,"connected_time":3027000000000,"state":"active","ping":88},{"user_id":94,"name":"Aug","steam_id":76561199212711900,"connected_time":1549000000000,"state":"active","ping":128},{"user_id":73,"name":"Warmwalker","steam_id":76561198025089589,"connected_time":2348000000000,"state":"active","ping":91},{"user_id":88,"name":"DarkMornin'","steam_id":76561198117781718,"connected_time":2005000000000,"state":"active","ping":92},{"user_id":33,"name":"nick","steam_id":76561198400698408,"connected_time":4762000000000,"state":"active","ping":88},{"user_id":97,"name":"Gab","steam_id":76561198863909723,"connected_time":1032000000000,"state":"active","ping":77},{"user_id":108,"name":"JayJ","steam_id":76561198324008555,"connected_time":539000000000,"state":"active","ping":49},{"user_id":75,"name":"+","steam_id":76561198121311286,"connected_time":2247000000000,"state":"active","ping":72},{"user_id":101,"name":"Level 3 sentry","steam_id":76561198979802944,"connected_time":826000000000,"state":"active","ping":67},{"user_id":53,"name":"brizzard","steam_id":76561198048438653,"connected_time":3586000000000,"state":"active","ping":51},{"user_id":107,"name":"ogey","steam_id":76561198074339034,"connected_time":588000000000,"state":"active","ping":78},{"user_id":83,"name":"r","steam_id":76561198811024417,"connected_time":2110000000000,"state":"active","ping":62},{"user_id":95,"name":"Slave Buyer","steam_id":76561198877713016,"connected_time":1384000000000,"state":"active","ping":105},{"user_id":89,"name":"CoatedInFire","steam_id":76561199070760845,"connected_time":1992000000000,"state":"active","ping":108},{"user_id":77,"name":"godhood","steam_id":76561198412329672,"connected_time":2184000000000,"state":"active","ping":90},{"user_id":110,"name":"Firefang099","steam_id":76561198136685157,"connected_time":86000000000,"state":"active","ping":61},{"user_id":80,"name":"if you random crit i will EXPLO","steam_id":76561199146847474,"connected_time":2166000000000,"state":"active","ping":50},{"user_id":104,"name":"CosmoLighting101","steam_id":76561199217309000,"connected_time":771000000000,"state":"active","ping":71},{"user_id":111,"name":"scount","steam_id":76561199176110437,"connected_time":73000000000,"state":"active","ping":89}]},{"server_id":1,"name":"Uncletopia | Los Angeles | 1 | All Maps","name_short":"lax-1","host":"lax-1.us.uncletopia.com","port":27015,"enabled":true,"region":"us-west","cc":"us","latitude":33.94279,"longitude":-118.41004,"reserved":0,"last_update":"0001-01-01T00:00:00Z","name_a2s":"Uncletopia | Los Angeles | 1 | All Maps","protocol":17,"map":"cp_egypt_final","folder":"tf","game":"Team Fortress","app_id":440,"player_count":24,"max_players":24,"Bots":0,"server_type":"Dedicated","server_os":"Linux","password":true,"vac":true,"version":"7723704","steam_id":85568392924469991,"keywords":["cp","nocrits","nodmgspread","uncletopia"],"game_id":440,"stv_port":27016,"stv_name":"Uncletopia | Los Angeles | 1 | All Maps | STV","players":[{"user_id":73,"name":"K-2","steam_id":76561198322606535,"connected_time":2761000000000,"state":"active","ping":57},{"user_id":74,"name":"MinusSoup918","steam_id":76561198060902773,"connected_time":2741000000000,"state":"active","ping":60},{"user_id":87,"name":"sweaterfan","steam_id":76561199389567214,"connected_time":1079000000000,"state":"active","ping":100},{"user_id":91,"name":"Optimore","steam_id":76561198047662990,"connected_time":761000000000,"state":"active","ping":42},{"user_id":79,"name":"jablue","steam_id":76561198163637638,"connected_time":2108000000000,"state":"active","ping":46},{"user_id":97,"name":"i have teeth","steam_id":76561198014008520,"connected_time":545000000000,"state":"active","ping":47},{"user_id":84,"name":"gamer_hater","steam_id":76561198973306314,"connected_time":1095000000000,"state":"active","ping":48},{"user_id":93,"name":"cielael","steam_id":76561198043971956,"connected_time":675000000000,"state":"active","ping":49},{"user_id":77,"name":"spot","steam_id":76561198151135298,"connected_time":2166000000000,"state":"active","ping":31},{"user_id":26,"name":"Soap Man","steam_id":76561198000490235,"connected_time":5363000000000,"state":"active","ping":89},{"user_id":90,"name":"‚òÜAtomic Waffle‚òÜ","steam_id":76561198100385184,"connected_time":896000000000,"state":"active","ping":64},{"user_id":81,"name":"Ahzain","steam_id":76561198035894333,"connected_time":2044000000000,"state":"active","ping":97},{"user_id":103,"name":"Azurath","steam_id":76561198171689795,"connected_time":7000000000,"state":"spawning","ping":61},{"user_id":86,"name":"ToughGuy311","steam_id":76561198131458027,"connected_time":1087000000000,"state":"active","ping":105},{"user_id":31,"name":"[K.Y.L.L.]Lyka (He/They)","steam_id":76561198027321950,"connected_time":5259000000000,"state":"active","ping":74},{"user_id":101,"name":"Batso","steam_id":76561198106589452,"connected_time":315000000000,"state":"active","ping":52},{"user_id":33,"name":"Be Gay, Do Crimes, Smoke Weed!","steam_id":76561198092419868,"connected_time":5257000000000,"state":"active","ping":73},{"user_id":95,"name":"SSBM Pelican","steam_id":76561198040697907,"connected_time":648000000000,"state":"active","ping":80},{"user_id":96,"name":"immaculate ejaculation","steam_id":76561198128807857,"connected_time":637000000000,"state":"active","ping":110},{"user_id":102,"name":"stevenvo2467","steam_id":76561199437232220,"connected_time":61000000000,"state":"active","ping":72},{"user_id":98,"name":"blatgotyahat","steam_id":76561198186630357,"connected_time":525000000000,"state":"active","ping":60},{"user_id":99,"name":"E√§rendil","steam_id":76561198067934529,"connected_time":465000000000,"state":"active","ping":63},{"user_id":66,"name":"Greenland","steam_id":76561198860933958,"connected_time":3735000000000,"state":"active","ping":63},{"user_id":100,"name":"Ecliptica","steam_id":76561198171951333,"connected_time":424000000000,"state":"active","ping":111}]},{"server_id":112,"name":"Uncletopia | Los Angeles | 2 | All Maps","name_short":"lax-2","host":"lax-1.us.uncletopia.com","port":27025,"enabled":true,"region":"us-west","cc":"us","latitude":33.94279,"longitude":-118.41004,"reserved":0,"last_update":"0001-01-01T00:00:00Z","name_a2s":"Uncletopia | Los Angeles | 2 | All Maps","protocol":17,"map":"pl_pier","folder":"tf","game":"Team Fortress","app_id":440,"player_count":0,"max_players":24,"Bots":0,"server_type":"Dedicated","server_os":"Linux","password":true,"vac":true,"version":"7723704","steam_id":85568392924469992,"keywords":["nocrits","nodmgspread","payload","uncletopia"],"game_id":440,"stv_port":27026,"stv_name":"Uncletopia | Los Angeles | 2 | All Maps | STV","players":null},{"server_id":324,"name":"Uncletopia | Los Angeles | 3 | All Maps","name_short":"lax-3","host":"lax-1.us.uncletopia.com","port":27035,"enabled":true,"region":"us-west","cc":"us","latitude":33.94279,"longitude":-118.41004,"reserved":0,"last_update":"0001-01-01T00:00:00Z","name_a2s":"Uncletopia | Los Angeles | 3 | All Maps","protocol":17,"map":"koth_highpass","folder":"tf","game":"Team Fortress","app_id":440,"player_count":0,"max_players":24,"Bots":0,"server_type":"Dedicated","server_os":"Linux","password":true,"vac":true,"version":"7723704","steam_id":85568392924510198,"keywords":["cp","nocrits","nodmgspread","uncletopia"],"game_id":440,"stv_port":27036,"stv_name":"Uncletopia | Los Angeles | 3 | All Maps | STV","players":null},{"server_id":25,"name":"Uncletopia | Los Angeles | 4 | No Payload","name_short":"lax-4","host":"lax-1.us.uncletopia.com","port":27045,"enabled":true,"region":"us-west","cc":"us","latitude":33.94279,"longitude":-118.41004,"reserved":0,"last_update":"0001-01-01T00:00:00Z","name_a2s":"Uncletopia | Los Angeles | 4 | No Payload","protocol":17,"map":"cp_snakewater_final1","folder":"tf","game":"Team Fortress","app_id":440,"player_count":0,"max_players":24,"Bots":0,"server_type":"Dedicated","server_os":"Linux","password":true,"vac":true,"version":"7723704","steam_id":85568392924510199,"keywords":["cp","nocrits","nodmgspread","uncletopia"],"game_id":440,"stv_port":27046,"stv_name":"Uncletopia | Los Angeles | 4 | No Payload | STV","players":null},{"server_id":11,"name":"Uncletopia | London | 1 | All Maps","name_short":"lon-1","host":"lon-1.uk.uncletopia.com","port":27015,"enabled":true,"region":"eu","cc":"gb","latitude":51.509865,"longitude":-0.118092,"reserved":0,"last_update":"0001-01-01T00:00:00Z","name_a2s":"Uncletopia | London | 1 | All Maps","protocol":17,"map":"koth_viaduct","folder":"tf","game":"Team Fortress","app_id":440,"player_count":0,"max_players":24,"Bots":0,"server_type":"Dedicated","server_os":"Linux","password":true,"vac":true,"version":"7723704","steam_id":85568392924367362,"keywords":["cp","nocrits","nodmgspread","uncletopia"],"game_id":440,"stv_port":27016,"stv_name":"Uncletopia | London | 1 | All Maps | STV","players":null},{"server_id":114,"name":"Uncletopia | London | 2 | All Maps","name_short":"lon-2","host":"lon-1.uk.uncletopia.com","port":27025,"enabled":true,"region":"eu","cc":"gb","latitude":51.509865,"longitude":-0.118092,"reserved":0,"last_update":"0001-01-01T00:00:00Z","name_a2s":"Uncletopia | London | 2 | All Maps","protocol":17,"map":"koth_highpass","folder":"tf","game":"Team Fortress","app_id":440,"player_count":0,"max_players":24,"Bots":0,"server_type":"Dedicated","server_os":"Linux","password":true,"vac":true,"version":"7723704","steam_id":85568392924470941,"keywords":["cp","nocrits","nodmgspread","uncletopia"],"game_id":440,"stv_port":27026,"stv_name":"Uncletopia | London | 2 | All Maps | STV","players":null},{"server_id":320,"name":"Uncletopia | London | 3 | All Maps","name_short":"lon-3","host":"lon-1.uk.uncletopia.com","port":27035,"enabled":true,"region":"eu","cc":"gb","latitude":51.509865,"longitude":-0.118092,"reserved":0,"last_update":"0001-01-01T00:00:00Z","name_a2s":"Uncletopia | London | 3 | All Maps","protocol":17,"map":"pl_barnblitz","folder":"tf","game":"Team Fortress","app_id":440,"player_count":0,"max_players":24,"Bots":0,"server_type":"Dedicated","server_os":"Linux","password":true,"vac":true,"version":"7723704","steam_id":85568392924510192,"keywords":["nocrits","nodmgspread","payload","uncletopia"],"game_id":440,"stv_port":27036,"stv_name":"Uncletopia | London | 3 | All Maps | STV","players":null},{"server_id":321,"name":"Uncletopia | London | 4 | All Maps","name_short":"lon-4","host":"lon-1.uk.uncletopia.com","port":27045,"enabled":true,"region":"eu","cc":"gb","latitude":51.509865,"longitude":-0.118092,"reserved":0,"last_update":"0001-01-01T00:00:00Z","name_a2s":"Uncletopia | London | 4 | All Maps","protocol":17,"map":"koth_highpass","folder":"tf","game":"Team Fortress","app_id":440,"player_count":0,"max_players":24,"Bots":0,"server_type":"Dedicated","server_os":"Linux","password":true,"vac":true,"version":"7723704","steam_id":85568392924510193,"keywords":["cp","nocrits","nodmgspread","uncletopia"],"game_id":440,"stv_port":27046,"stv_name":"Uncletopia | London | 4 | All Maps | STV","players":null},{"server_id":21,"name":"Uncletopia | London | 5 | All Maps","name_short":"lon-5","host":"lon-1.uk.uncletopia.com","port":27055,"enabled":true,"region":"eu","cc":"gb","latitude":51.509865,"longitude":-0.118092,"reserved":0,"last_update":"0001-01-01T00:00:00Z","name_a2s":"Uncletopia | London | 5 | All Maps","protocol":17,"map":"pl_badwater","folder":"tf","game":"Team Fortress","app_id":440,"player_count":6,"max_players":24,"Bots":0,"server_type":"Dedicated","server_os":"Linux","password":true,"vac":true,"version":"7723704","steam_id":85568392924742829,"keywords":["nocrits","nodmgspread","payload","uncletopia"],"game_id":440,"stv_port":27056,"stv_name":"Uncletopia | London | 5 | All Maps | STV","players":[{"user_id":3,"name":"Azer Oyunbaz YT","steam_id":76561199059425974,"connected_time":1020000000000,"state":"active","ping":166},{"user_id":4,"name":"johnman gooberguy","steam_id":76561199014859764,"connected_time":1019000000000,"state":"active","ping":185},{"user_id":7,"name":"professional yellow man","steam_id":76561198060200599,"connected_time":1007000000000,"state":"active","ping":101},{"user_id":10,"name":"Fevol","steam_id":76561198047802034,"connected_time":962000000000,"state":"active","ping":56},{"user_id":12,"name":"MARNEX","steam_id":76561198149296726,"connected_time":886000000000,"state":"active","ping":90},{"user_id":13,"name":"Lena ^^","steam_id":76561199435586696,"connected_time":866000000000,"state":"active","ping":102}]},{"server_id":22,"name":"Uncletopia | London | 6 | All Maps","name_short":"lon-6","host":"lon-1.uk.uncletopia.com","port":27065,"enabled":true,"region":"eu","cc":"gb","latitude":51.509865,"longitude":-0.118092,"reserved":0,"last_update":"0001-01-01T00:00:00Z","name_a2s":"Uncletopia | London | 6 | All Maps","protocol":17,"map":"cp_altitude","folder":"tf","game":"Team Fortress","app_id":440,"player_count":0,"max_players":24,"Bots":0,"server_type":"Dedicated","server_os":"Linux","password":true,"vac":true,"version":"7723704","steam_id":85568392924742830,"keywords":["cp","nocrits","nodmgspread","uncletopia"],"game_id":440,"stv_port":27066,"stv_name":"Uncletopia | London | 6 | All Maps | STV","players":null},{"server_id":40,"name":"Uncletopia | London | 7 | No Payload","name_short":"lon-7","host":"lon-1.uk.uncletopia.com","port":27075,"enabled":true,"region":"eu","cc":"gb","latitude":51.509865,"longitude":-0.118092,"reserved":0,"last_update":"0001-01-01T00:00:00Z","name_a2s":"Uncletopia | London | 7 | No Payload","protocol":17,"map":"koth_cascade","folder":"tf","game":"Team Fortress","app_id":440,"player_count":0,"max_players":24,"Bots":0,"server_type":"Dedicated","server_os":"Linux","password":true,"vac":true,"version":"7723704","steam_id":85568392924964314,"keywords":["cp","nocrits","nodmgspread","uncletopia"],"game_id":440,"stv_port":27076,"stv_name":"Uncletopia | London | 7 | No Payload | STV","players":null},{"server_id":41,"name":"Uncletopia | London | 8 | Community","name_short":"lon-8","host":"lon-1.uk.uncletopia.com","port":27085,"enabled":true,"region":"eu","cc":"gb","latitude":51.509865,"longitude":-0.118092,"reserved":0,"last_update":"0001-01-01T00:00:00Z","name_a2s":"Uncletopia | London | 8 | Community","protocol":17,"map":"pl_snowycoast","folder":"tf","game":"Team Fortress","app_id":440,"player_count":0,"max_players":24,"Bots":0,"server_type":"Dedicated","server_os":"Linux","password":true,"vac":true,"version":"7723704","steam_id":85568392924964315,"keywords":["nocrits","nodmgspread","payload","uncletopia"],"game_id":440,"stv_port":27086,"stv_name":"Uncletopia | London | 8 | Community | STV","players":null},{"server_id":300,"name":"Uncletopia | Montr√©al | 1 | All Maps","name_short":"mtl-1","host":"mtl-1.ca.uncletopia.com","port":27015,"enabled":true,"region":"us-east","cc":"ca","latitude":45.50889,"longitude":-73.56167,"reserved":0,"last_update":"0001-01-01T00:00:00Z","name_a2s":"Uncletopia | Montr√©al | 1 | All Maps","protocol":17,"map":"pl_badwater","folder":"tf","game":"Team Fortress","app_id":440,"player_count":0,"max_players":24,"Bots":0,"server_type":"Dedicated","server_os":"Linux","password":true,"vac":true,"version":"7723704","steam_id":85568392924500087,"keywords":["nocrits","nodmgspread","payload","uncletopia"],"game_id":440,"stv_port":27016,"stv_name":"Uncletopia | Montr√©al | 1 | All Maps | STV","players":null},{"server_id":301,"name":"Uncletopia | Montr√©al | 2 | All Maps","name_short":"mtl-2","host":"mtl-1.ca.uncletopia.com","port":27025,"enabled":true,"region":"us-east","cc":"ca","latitude":45.50889,"longitude":-73.56167,"reserved":0,"last_update":"0001-01-01T00:00:00Z","name_a2s":"Uncletopia | Montr√©al | 2 | All Maps","protocol":17,"map":"cp_sunshine","folder":"tf","game":"Team Fortress","app_id":440,"player_count":0,"max_players":24,"Bots":0,"server_type":"Dedicated","server_os":"Linux","password":true,"vac":true,"version":"7723704","steam_id":85568392924500088,"keywords":["cp","nocrits","nodmgspread","uncletopia"],"game_id":440,"stv_port":27026,"stv_name":"Uncletopia | Montr√©al | 2 | All Maps | STV","players":null},{"server_id":302,"name":"Uncletopia | Montr√©al | 3 | All Maps","name_short":"mtl-3","host":"mtl-1.ca.uncletopia.com","port":27035,"enabled":true,"region":"us-east","cc":"ca","latitude":45.50889,"longitude":-73.56167,"reserved":0,"last_update":"0001-01-01T00:00:00Z","name_a2s":"Uncletopia | Montr√©al | 3 | All Maps","protocol":17,"map":"cp_dustbowl","folder":"tf","game":"Team Fortress","app_id":440,"player_count":0,"max_players":24,"Bots":0,"server_type":"Dedicated","server_os":"Linux","password":true,"vac":true,"version":"7723704","steam_id":85568392924500089,"keywords":["cp","nocrits","nodmgspread","uncletopia"],"game_id":440,"stv_port":27036,"stv_name":"Uncletopia | Montr√©al | 3 | All Maps | STV","players":null},{"server_id":303,"name":"Uncletopia | Montr√©al | 4 | No Payload","name_short":"mtl-4","host":"mtl-1.ca.uncletopia.com","port":27045,"enabled":true,"region":"us-east","cc":"ca","latitude":45.50889,"longitude":-73.56167,"reserved":0,"last_update":"0001-01-01T00:00:00Z","name_a2s":"Uncletopia | Montr√©al | 4 | No Payload","protocol":17,"map":"cp_process_final","folder":"tf","game":"Team Fortress","app_id":440,"player_count":0,"max_players":24,"Bots":0,"server_type":"Dedicated","server_os":"Linux","password":true,"vac":true,"version":"7723704","steam_id":85568392924500090,"keywords":["cp","nocrits","nodmgspread","uncletopia"],"game_id":440,"stv_port":27046,"stv_name":"Uncletopia | Montr√©al | 4 | No Payload | STV","players":null},{"server_id":13,"name":"Uncletopia | New York City | 1 | All Maps","name_short":"nyc-1","host":"nyc-1.us.uncletopia.com","port":27015,"enabled":true,"region":"us-east","cc":"us","latitude":40.73061,"longitude":-73.93524,"reserved":0,"last_update":"0001-01-01T00:00:00Z","name_a2s":"Uncletopia | New York City | 1 | All Maps","protocol":17,"map":"cp_sunshine","folder":"tf","game":"Team Fortress","app_id":440,"player_count":21,"max_players":24,"Bots":0,"server_type":"Dedicated","server_os":"Linux","password":true,"vac":true,"version":"7723704","steam_id":85568392924469993,"keywords":["cp","nocrits","nodmgspread","uncletopia"],"game_id":440,"stv_port":27016,"stv_name":"Uncletopia | New York City | 1 | All Maps | STV","players":[{"user_id":102,"name":"Menachem","steam_id":76561198041226420,"connected_time":1858000000000,"state":"active","ping":64},{"user_id":131,"name":"Sim","steam_id":76561198119227922,"connected_time":279000000000,"state":"active","ping":53},{"user_id":129,"name":"Festive Joe","steam_id":76561198271907916,"connected_time":378000000000,"state":"active","ping":46},{"user_id":115,"name":"dingus","steam_id":76561198128742436,"connected_time":1079000000000,"state":"active","ping":70},{"user_id":84,"name":"THICC","steam_id":76561198273234133,"connected_time":4305000000000,"state":"active","ping":83},{"user_id":103,"name":"Jaeger Bombastic","steam_id":76561198129825533,"connected_time":1755000000000,"state":"active","ping":45},{"user_id":65,"name":"festivestuntman","steam_id":76561198056911537,"connected_time":5525000000000,"state":"active","ping":52},{"user_id":106,"name":"Jimbo","steam_id":76561198136560547,"connected_time":1595000000000,"state":"active","ping":76},{"user_id":126,"name":"i hate this game","steam_id":76561198143132686,"connected_time":580000000000,"state":"active","ping":105},{"user_id":108,"name":"Matty the Baby Sloth","steam_id":76561198130993937,"connected_time":1527000000000,"state":"active","ping":109},{"user_id":112,"name":"werecat","steam_id":76561198005091213,"connected_time":1276000000000,"state":"active","ping":43},{"user_id":130,"name":"A Puppy","steam_id":76561198828184456,"connected_time":371000000000,"state":"active","ping":48},{"user_id":116,"name":"wool","steam_id":76561198332704108,"connected_time":1066000000000,"state":"active","ping":76},{"user_id":125,"name":"Ziath","steam_id":76561198094009164,"connected_time":656000000000,"state":"active","ping":46},{"user_id":127,"name":"PinheadLarry69","steam_id":76561199159928133,"connected_time":565000000000,"state":"active","ping":61},{"user_id":128,"name":"Bee","steam_id":76561198074681324,"connected_time":496000000000,"state":"active","ping":33},{"user_id":117,"name":"mudturtle","steam_id":76561198292734035,"connected_time":1036000000000,"state":"active","ping":41},{"user_id":133,"name":"Lancewiu","steam_id":76561198010985573,"connected_time":176000000000,"state":"active","ping":44},{"user_id":56,"name":"n8thegr83008","steam_id":76561198214814260,"connected_time":5939000000000,"state":"active","ping":83},{"user_id":135,"name":"$$$","steam_id":76561198218897541,"connected_time":35000000000,"state":"active","ping":44},{"user_id":124,"name":"Infinitee","steam_id":76561198125409130,"connected_time":778000000000,"state":"active","ping":48}]},{"server_id":14,"name":"Uncletopia | New York City | 2 | All Maps","name_short":"nyc-2","host":"nyc-1.us.uncletopia.com","port":27025,"enabled":true,"region":"us-east","cc":"us","latitude":40.73061,"longitude":-73.93524,"reserved":0,"last_update":"0001-01-01T00:00:00Z","name_a2s":"Uncletopia | New York City | 2 | All Maps","protocol":17,"map":"pl_swiftwater_final1","folder":"tf","game":"Team Fortress","app_id":440,"player_count":0,"max_players":24,"Bots":0,"server_type":"Dedicated","server_os":"Linux","password":true,"vac":true,"version":"7723704","steam_id":85568392924469994,"keywords":["nocrits","nodmgspread","payload","uncletopia"],"game_id":440,"stv_port":27026,"stv_name":"Uncletopia | New York City | 2 | All Maps | STV","players":null},{"server_id":15,"name":"Uncletopia | New York City | 3 | All Maps","name_short":"nyc-3","host":"nyc-1.us.uncletopia.com","port":27035,"enabled":true,"region":"us-east","cc":"us","latitude":40.73061,"longitude":-73.93524,"reserved":0,"last_update":"0001-01-01T00:00:00Z","name_a2s":"Uncletopia | New York City | 3 | All Maps","protocol":17,"map":"koth_viaduct","folder":"tf","game":"Team Fortress","app_id":440,"player_count":0,"max_players":24,"Bots":0,"server_type":"Dedicated","server_os":"Linux","password":true,"vac":true,"version":"7723704","steam_id":85568392924742820,"keywords":["cp","nocrits","nodmgspread","uncletopia"],"game_id":440,"stv_port":27036,"stv_name":"Uncletopia | New York City | 3 | All Maps | STV","players":null},{"server_id":16,"name":"Uncletopia | New York City | 4 | Community","name_short":"nyc-4","host":"nyc-1.us.uncletopia.com","port":27045,"enabled":true,"region":"us-east","cc":"us","latitude":40.73061,"longitude":-73.93524,"reserved":0,"last_update":"0001-01-01T00:00:00Z","name_a2s":"Uncletopia | New York City | 4 | Community","protocol":17,"map":"cp_process_final","folder":"tf","game":"Team Fortress","app_id":440,"player_count":0,"max_players":24,"Bots":0,"server_type":"Dedicated","server_os":"Linux","password":true,"vac":true,"version":"7723704","steam_id":85568392924742821,"keywords":["cp","nocrits","nodmgspread","uncletopia"],"game_id":440,"stv_port":27046,"stv_name":"Uncletopia | New York City | 4 | Community | STV","players":null},{"server_id":142,"name":"Uncletopia | S√£o Paulo | 1 | All Maps","name_short":"sao-1","host":"sao-1.br.uncletopia.com","port":27015,"enabled":true,"region":"sa","cc":"br","latitude":-23.533773,"longitude":-46.62529,"reserved":0,"last_update":"0001-01-01T00:00:00Z","name_a2s":"Uncletopia | S√£o Paulo | 1 | All Maps","protocol":17,"map":"pl_upward","folder":"tf","game":"Team Fortress","app_id":440,"player_count":0,"max_players":24,"Bots":0,"server_type":"Dedicated","server_os":"Linux","password":true,"vac":true,"version":"7723704","steam_id":85568392924469996,"keywords":["nocrits","nodmgspread","payload","uncletopia"],"game_id":440,"stv_port":27016,"stv_name":"Uncletopia | S√£o Paulo | 1 | All Maps | STV","players":null},{"server_id":143,"name":"Uncletopia | S√£o Paulo | 2 | All Maps","name_short":"sao-2","host":"sao-2.br.uncletopia.com","port":27015,"enabled":true,"region":"sa","cc":"br","latitude":-23.533773,"longitude":-46.62529,"reserved":0,"last_update":"0001-01-01T00:00:00Z","name_a2s":"Uncletopia | S√£o Paulo | 2 | All Maps","protocol":17,"map":"cp_sunshine","folder":"tf","game":"Team Fortress","app_id":440,"player_count":0,"max_players":24,"Bots":0,"server_type":"Dedicated","server_os":"Linux","password":true,"vac":true,"version":"7723704","steam_id":85568392924485349,"keywords":["cp","nocrits","nodmgspread","uncletopia"],"game_id":440,"stv_port":27016,"stv_name":"Uncletopia | S√£o Paulo | 2 | All Maps | STV","players":null},{"server_id":7,"name":"Uncletopia | Seattle | 1 | All Maps","name_short":"sea-1","host":"sea-1.us.uncletopia.com","port":27015,"enabled":true,"region":"us-west","cc":"us","latitude":47.608013,"longitude":-122.33517,"reserved":0,"last_update":"0001-01-01T00:00:00Z","name_a2s":"Uncletopia | Seattle | 1 | All Maps","protocol":17,"map":"pl_swiftwater_final1","folder":"tf","game":"Team Fortress","app_id":440,"player_count":24,"max_players":24,"Bots":0,"server_type":"Dedicated","server_os":"Linux","password":true,"vac":true,"version":"7723704","steam_id":85568392924469997,"keywords":["nocrits","nodmgspread","payload","uncletopia"],"game_id":440,"stv_port":27016,"stv_name":"Uncletopia | Seattle | 1 | All Maps | STV","players":[{"user_id":110,"name":"Tommy da bird","steam_id":76561198136340711,"connected_time":2676000000000,"state":"active","ping":90},{"user_id":112,"name":"Cinna Mon","steam_id":76561198005840633,"connected_time":2454000000000,"state":"active","ping":52},{"user_id":101,"name":"roythecyclops","steam_id":76561198055295759,"connected_time":3066000000000,"state":"active","ping":126},{"user_id":132,"name":"El Gato Paranoico","steam_id":76561198116567116,"connected_time":1062000000000,"state":"active","ping":113},{"user_id":138,"name":"whimmu","steam_id":76561198370839794,"connected_time":584000000000,"state":"active","ping":92},{"user_id":66,"name":"lol","steam_id":76561198026491738,"connected_time":6802000000000,"state":"active","ping":86},{"user_id":123,"name":"VerseG","steam_id":76561198059246919,"connected_time":1288000000000,"state":"active","ping":42},{"user_id":121,"name":"Arsonist Goose","steam_id":76561198147441830,"connected_time":1528000000000,"state":"active","ping":75},{"user_id":140,"name":"S Q U I S H E  T H A T  C A T","steam_id":76561198293865429,"connected_time":294000000000,"state":"active","ping":43},{"user_id":108,"name":"Level 99 Mudcrab","steam_id":76561198077452771,"connected_time":2696000000000,"state":"active","ping":53},{"user_id":142,"name":"lker","steam_id":76561197976975075,"connected_time":207000000000,"state":"active","ping":111},{"user_id":80,"name":"Aardappel","steam_id":76561198030894676,"connected_time":5357000000000,"state":"active","ping":67},{"user_id":82,"name":"Ayayahuasca","steam_id":76561199002906056,"connected_time":5127000000000,"state":"active","ping":51},{"user_id":86,"name":"RedKnight","steam_id":76561198891277519,"connected_time":3852000000000,"state":"active","ping":92},{"user_id":139,"name":"GUITAR GAMING!!!","steam_id":76561198199604767,"connected_time":361000000000,"state":"active","ping":50},{"user_id":126,"name":"dominosgangster","steam_id":76561199095680478,"connected_time":1181000000000,"state":"active","ping":94},{"user_id":127,"name":"......","steam_id":76561198067612741,"connected_time":1178000000000,"state":"active","ping":48},{"user_id":128,"name":"Seriously Bruh","steam_id":76561198070408485,"connected_time":1168000000000,"state":"active","ping":66},{"user_id":118,"name":"Seagoll","steam_id":76561198017953606,"connected_time":1765000000000,"state":"active","ping":58},{"user_id":136,"name":"Hankenstein","steam_id":76561199036188069,"connected_time":677000000000,"state":"active","ping":55},{"user_id":130,"name":"TheConchinator","steam_id":76561199388149092,"connected_time":1142000000000,"state":"active","ping":114},{"user_id":133,"name":"Lazarus","steam_id":76561198116973457,"connected_time":942000000000,"state":"active","ping":96},{"user_id":116,"name":"Lily Thorn","steam_id":76561198305488625,"connected_time":2179000000000,"state":"active","ping":63},{"user_id":144,"name":"Obtibotimus Prime","steam_id":76561198066091050,"connected_time":198000000000,"state":"active","ping":57}]},{"server_id":119,"name":"Uncletopia | Seattle | 2 | All Maps","name_short":"sea-2","host":"sea-1.us.uncletopia.com","port":27025,"enabled":true,"region":"us-west","cc":"us","latitude":47.608013,"longitude":-122.33517,"reserved":0,"last_update":"0001-01-01T00:00:00Z","name_a2s":"Uncletopia | Seattle | 2 | All Maps","protocol":17,"map":"cp_steel","folder":"tf","game":"Team Fortress","app_id":440,"player_count":24,"max_players":24,"Bots":0,"server_type":"Dedicated","server_os":"Linux","password":true,"vac":true,"version":"7723704","steam_id":85568392924469998,"keywords":["cp","nocrits","nodmgspread","uncletopia"],"game_id":440,"stv_port":27026,"stv_name":"Uncletopia | Seattle | 2 | All Maps | STV","players":[{"user_id":116,"name":"KellyKapoor","steam_id":76561198040828123,"connected_time":217000000000,"state":"active","ping":43},{"user_id":75,"name":"Lambchop","steam_id":76561198043900363,"connected_time":4501000000000,"state":"active","ping":74},{"user_id":121,"name":"DefectiveWarhead","steam_id":76561198067746049,"connected_time":96000000000,"state":"active","ping":60},{"user_id":117,"name":"FrogRotated45Degrees","steam_id":76561198929021924,"connected_time":186000000000,"state":"active","ping":51},{"user_id":119,"name":"Greskrendtregk","steam_id":76561197969553142,"connected_time":168000000000,"state":"active","ping":52},{"user_id":113,"name":"Sailor","steam_id":76561199081983517,"connected_time":853000000000,"state":"active","ping":94},{"user_id":111,"name":"Krieg","steam_id":76561198094517450,"connected_time":1384000000000,"state":"active","ping":61},{"user_id":108,"name":"Esteboss","steam_id":76561198027967265,"connected_time":1453000000000,"state":"active","ping":61},{"user_id":71,"name":"Twitch.Tv/JinxArte","steam_id":76561198280150602,"connected_time":5450000000000,"state":"active","ping":51},{"user_id":74,"name":"Leidon","steam_id":76561198078386945,"connected_time":4782000000000,"state":"active","ping":67},{"user_id":118,"name":"CrackedSanity","steam_id":76561198279841251,"connected_time":169000000000,"state":"active","ping":76},{"user_id":23,"name":"Goofy Goober","steam_id":76561198128299594,"connected_time":8115000000000,"state":"active","ping":88},{"user_id":120,"name":"Scoperaider","steam_id":76561199068449848,"connected_time":140000000000,"state":"active","ping":76},{"user_id":105,"name":"gorlab","steam_id":76561198025089694,"connected_time":1649000000000,"state":"active","ping":63},{"user_id":115,"name":"Stev the Prurient Oxymoron","steam_id":76561197999442625,"connected_time":677000000000,"state":"active","ping":63},{"user_id":102,"name":"GeneralTaco","steam_id":76561198026783097,"connected_time":2029000000000,"state":"active","ping":81},{"user_id":79,"name":"CheekyMcCheek","steam_id":76561198081978491,"connected_time":4373000000000,"state":"active","ping":83},{"user_id":28,"name":"Kei-Ko‚òÜ","steam_id":76561198803824764,"connected_time":8030000000000,"state":"active","ping":79},{"user_id":97,"name":"Phil Collins","steam_id":76561198068868644,"connected_time":2469000000000,"state":"active","ping":86},{"user_id":63,"name":"General Fisticuffs","steam_id":76561198255721392,"connected_time":5793000000000,"state":"active","ping":113},{"user_id":89,"name":"Tom Skirrett","steam_id":76561198014600788,"connected_time":3168000000000,"state":"active","ping":75},{"user_id":107,"name":"That Guy","steam_id":76561197997444126,"connected_time":1528000000000,"state":"active","ping":48},{"user_id":83,"name":"PerKnuckleChuckle","steam_id":76561198023221596,"connected_time":4038000000000,"state":"active","ping":82},{"user_id":62,"name":"Thezest","steam_id":76561198043895839,"connected_time":5967000000000,"state":"active","ping":41}]},{"server_id":17,"name":"Uncletopia | San Francisco | 1 | All Maps","name_short":"sfo-1","host":"sfo-1.us.uncletopia.com","port":27015,"enabled":true,"region":"us-west","cc":"us","latitude":37.77397,"longitude":-122.4313,"reserved":0,"last_update":"0001-01-01T00:00:00Z","name_a2s":"Uncletopia | San Francisco | 1 | All Maps","protocol":17,"map":"pl_upward","folder":"tf","game":"Team Fortress","app_id":440,"player_count":24,"max_players":24,"Bots":0,"server_type":"Dedicated","server_os":"Linux","password":true,"vac":true,"version":"7723704","steam_id":85568392924469999,"keywords":["nocrits","nodmgspread","payload","uncletopia"],"game_id":440,"stv_port":27016,"stv_name":"Uncletopia | San Francisco | 1 | All Maps | STV","players":[{"user_id":12,"name":"Minerkid2004","steam_id":76561198044262827,"connected_time":1593000000000,"state":"active","ping":49},{"user_id":13,"name":"BreadGod","steam_id":76561198050665205,"connected_time":1586000000000,"state":"active","ping":106},{"user_id":14,"name":"YAG(+___+)GLE","steam_id":76561198066685074,"connected_time":1557000000000,"state":"active","ping":56},{"user_id":41,"name":"Death","steam_id":76561198236350408,"connected_time":190000000000,"state":"active","ping":82},{"user_id":43,"name":"SuperBurgerBoy","steam_id":76561198856387197,"connected_time":175000000000,"state":"active","ping":64},{"user_id":19,"name":"TheWrapAssassin","steam_id":76561198183369559,"connected_time":1438000000000,"state":"active","ping":61},{"user_id":26,"name":"Protato","steam_id":76561198053117503,"connected_time":820000000000,"state":"active","ping":65},{"user_id":20,"name":"supcupman","steam_id":76561198051513866,"connected_time":1397000000000,"state":"active","ping":59},{"user_id":21,"name":"Frank Accardi","steam_id":76561198017275707,"connected_time":1072000000000,"state":"active","ping":74},{"user_id":45,"name":"Aviyarn","steam_id":76561199074194652,"connected_time":124000000000,"state":"active","ping":110},{"user_id":23,"name":"Cute Gatito","steam_id":76561198351147780,"connected_time":1042000000000,"state":"active","ping":58},{"user_id":31,"name":"Rasherium","steam_id":76561198317987340,"connected_time":496000000000,"state":"active","ping":204},{"user_id":32,"name":"Discovery","steam_id":76561198841844093,"connected_time":464000000000,"state":"active","ping":58},{"user_id":33,"name":"BionicApe","steam_id":76561198154637711,"connected_time":343000000000,"state":"active","ping":61},{"user_id":34,"name":"Frogzilla","steam_id":76561198077657538,"connected_time":338000000000,"state":"active","ping":71},{"user_id":35,"name":"LYTEWERK","steam_id":76561198002819791,"connected_time":290000000000,"state":"active","ping":83},{"user_id":36,"name":"oil","steam_id":76561198099980149,"connected_time":267000000000,"state":"active","ping":55},{"user_id":37,"name":"Belmore","steam_id":76561198009355231,"connected_time":249000000000,"state":"active","ping":56},{"user_id":38,"name":"Boring101","steam_id":76561198300662918,"connected_time":244000000000,"state":"active","ping":95},{"user_id":39,"name":"Fred","steam_id":76561197983870604,"connected_time":227000000000,"state":"active","ping":61},{"user_id":40,"name":"big car","steam_id":76561198067082350,"connected_time":213000000000,"state":"active","ping":60},{"user_id":42,"name":"Alice in Rubberland","steam_id":76561198087328346,"connected_time":183000000000,"state":"active","ping":107},{"user_id":46,"name":"raduski","steam_id":76561198795699119,"connected_time":104000000000,"state":"active","ping":89},{"user_id":47,"name":"AKKAWI","steam_id":76561198203159952,"connected_time":78000000000,"state":"active","ping":62}]},{"server_id":18,"name":"Uncletopia | San Francisco | 2 | All Maps","name_short":"sfo-2","host":"sfo-1.us.uncletopia.com","port":27025,"enabled":true,"region":"us-west","cc":"us","latitude":37.77397,"longitude":-122.4313,"reserved":0,"last_update":"0001-01-01T00:00:00Z","name_a2s":"Uncletopia | San Francisco | 2 | All Maps","protocol":17,"map":"pl_snowycoast","folder":"tf","game":"Team Fortress","app_id":440,"player_count":0,"max_players":24,"Bots":0,"server_type":"Dedicated","server_os":"Linux","password":true,"vac":true,"version":"7723704","steam_id":85568392924470000,"keywords":["nocrits","nodmgspread","payload","uncletopia"],"game_id":440,"stv_port":27026,"stv_name":"Uncletopia | San Francisco | 2 | All Maps | STV","players":null},{"server_id":19,"name":"Uncletopia | San Francisco | 3 | No Payload","name_short":"sfo-3","host":"sfo-1.us.uncletopia.com","port":27035,"enabled":true,"region":"us-west","cc":"us","latitude":37.77397,"longitude":-122.4313,"reserved":0,"last_update":"0001-01-01T00:00:00Z","name_a2s":"Uncletopia | San Francisco | 3 | No Payload","protocol":17,"map":"plr_hightower","folder":"tf","game":"Team Fortress","app_id":440,"player_count":0,"max_players":24,"Bots":0,"server_type":"Dedicated","server_os":"Linux","password":true,"vac":true,"version":"7723704","steam_id":85568392924742824,"keywords":["nocrits","nodmgspread","payload","uncletopia"],"game_id":440,"stv_port":27036,"stv_name":"Uncletopia | San Francisco | 3 | No Payload | STV","players":null},{"server_id":20,"name":"Uncletopia | San Francisco | 4 | Community","name_short":"sfo-4","host":"sfo-1.us.uncletopia.com","port":27045,"enabled":true,"region":"us-west","cc":"us","latitude":37.77397,"longitude":-122.4313,"reserved":0,"last_update":"0001-01-01T00:00:00Z","name_a2s":"Uncletopia | San Francisco | 4 | Community","protocol":17,"map":"pl_frontier_final","folder":"tf","game":"Team Fortress","app_id":440,"player_count":0,"max_players":24,"Bots":0,"server_type":"Dedicated","server_os":"Linux","password":true,"vac":true,"version":"7723704","steam_id":85568392924742826,"keywords":["nocrits","nodmgspread","payload","uncletopia"],"game_id":440,"stv_port":27046,"stv_name":"Uncletopia | San Francisco | 4 | Community | STV","players":null},{"server_id":141,"name":"Uncletopia | Sydney | 1 | All Maps","name_short":"syd-1","host":"syd-1.au.uncletopia.com","port":27015,"enabled":true,"region":"au","cc":"au","latitude":-33.865143,"longitude":151.2099,"reserved":0,"last_update":"0001-01-01T00:00:00Z","name_a2s":"Uncletopia | Sydney | 1 | All Maps","protocol":17,"map":"koth_viaduct","folder":"tf","game":"Team Fortress","app_id":440,"player_count":6,"max_players":24,"Bots":0,"server_type":"Dedicated","server_os":"Linux","password":true,"vac":true,"version":"7723704","steam_id":85568392924470001,"keywords":["cp","nocrits","nodmgspread","uncletopia"],"game_id":440,"stv_port":27016,"stv_name":"Uncletopia | Sydney | 1 | All Maps | STV","players":[{"user_id":15,"name":"TW_light2022","steam_id":76561199393566784,"connected_time":1492000000000,"state":"active","ping":61},{"user_id":16,"name":"bob","steam_id":76561199218651324,"connected_time":1448000000000,"state":"active","ping":67},{"user_id":17,"name":"Mission","steam_id":76561199218935728,"connected_time":1445000000000,"state":"active","ping":63},{"user_id":18,"name":"monocrumb","steam_id":76561199126588682,"connected_time":1404000000000,"state":"active","ping":64},{"user_id":20,"name":"Office","steam_id":76561198059380714,"connected_time":525000000000,"state":"active","ping":65},{"user_id":23,"name":"pink F2P","steam_id":76561199160972366,"connected_time":227000000000,"state":"active","ping":133}]},{"server_id":123,"name":"Uncletopia | Sydney | 2 | All Maps","name_short":"syd-2","host":"syd-1.au.uncletopia.com","port":27025,"enabled":true,"region":"au","cc":"au","latitude":-33.865143,"longitude":151.2099,"reserved":0,"last_update":"0001-01-01T00:00:00Z","name_a2s":"Uncletopia | Sydney | 2 | All Maps","protocol":17,"map":"cp_mountainlab","folder":"tf","game":"Team Fortress","app_id":440,"player_count":0,"max_players":24,"Bots":0,"server_type":"Dedicated","server_os":"Linux","password":true,"vac":true,"version":"7723704","steam_id":85568392924470002,"keywords":["cp","nocrits","nodmgspread","uncletopia"],"game_id":440,"stv_port":27026,"stv_name":"Uncletopia | Sydney | 2 | All Maps | STV","players":null},{"server_id":395,"name":"Uncletopia | Sydney | 3 | All Maps","name_short":"syd-3","host":"syd-1.au.uncletopia.com","port":27035,"enabled":true,"region":"au","cc":"au","latitude":-33.865143,"longitude":151.2099,"reserved":0,"last_update":"0001-01-01T00:00:00Z","name_a2s":"Uncletopia | Sydney | 3 | All Maps","protocol":17,"map":"pl_borneo","folder":"tf","game":"Team Fortress","app_id":440,"player_count":20,"max_players":24,"Bots":0,"server_type":"Dedicated","server_os":"Linux","password":true,"vac":true,"version":"7723704","steam_id":85568392925194467,"keywords":["nocrits","nodmgspread","payload","uncletopia"],"game_id":440,"stv_port":27036,"stv_name":"Uncletopia | Sydney | 3 | All Maps | STV","players":[{"user_id":53,"name":"LeCarz","steam_id":76561198091515229,"connected_time":897000000000,"state":"active","ping":65},{"user_id":58,"name":"pyro au","steam_id":76561198974824793,"connected_time":477000000000,"state":"active","ping":433},{"user_id":62,"name":"POMsONs PLEAsE-I need them","steam_id":76561199230621703,"connected_time":73000000000,"state":"active","ping":74},{"user_id":40,"name":"Tricka ‚Ä¢","steam_id":76561197968440123,"connected_time":1466000000000,"state":"active","ping":48},{"user_id":41,"name":"kaiiyo","steam_id":76561199184299658,"connected_time":1445000000000,"state":"active","ping":52},{"user_id":63,"name":"NewChris","steam_id":76561198254754182,"connected_time":27000000000,"state":"active","ping":58},{"user_id":36,"name":"SaltierThanYou","steam_id":76561198444395188,"connected_time":1848000000000,"state":"active","ping":69},{"user_id":37,"name":"can of beans","steam_id":76561199005815714,"connected_time":1814000000000,"state":"active","ping":56},{"user_id":55,"name":"Rant","steam_id":76561198949751771,"connected_time":748000000000,"state":"active","ping":45},{"user_id":57,"name":"skatebored","steam_id":76561198129299181,"connected_time":654000000000,"state":"active","ping":70},{"user_id":44,"name":"No Keyboard Gaming","steam_id":76561198412979983,"connected_time":1322000000000,"state":"active","ping":70},{"user_id":45,"name":"Madison Ivy","steam_id":76561198074674290,"connected_time":1319000000000,"state":"active","ping":66},{"user_id":49,"name":"Big Booty Llama","steam_id":76561198074422721,"connected_time":1105000000000,"state":"active","ping":60},{"user_id":47,"name":"The Gaming","steam_id":76561198914415738,"connected_time":1143000000000,"state":"active","ping":55},{"user_id":48,"name":"Owen","steam_id":76561198275779616,"connected_time":1134000000000,"state":"active","ping":71},{"user_id":50,"name":"boglee","steam_id":76561198325680626,"connected_time":1074000000000,"state":"active","ping":60},{"user_id":51,"name":"Blu-Ray copy of Sharktale","steam_id":76561199064716262,"connected_time":1065000000000,"state":"active","ping":36},{"user_id":61,"name":"kingquin","steam_id":76561198880363423,"connected_time":437000000000,"state":"active","ping":116},{"user_id":64,"name":"Phoish","steam_id":76561198442526296,"connected_time":5000000000,"state":"spawning","ping":86},{"user_id":65,"name":"Solidmozza","steam_id":76561197976650325,"connected_time":1000000000,"state":"spawning","ping":47}]},{"server_id":396,"name":"Uncletopia | Sydney | 4 | All Maps","name_short":"syd-4","host":"syd-1.au.uncletopia.com","port":27045,"enabled":true,"region":"au","cc":"au","latitude":-33.865143,"longitude":151.2099,"reserved":0,"last_update":"0001-01-01T00:00:00Z","name_a2s":"Uncletopia | Sydney | 4 | All Maps","protocol":17,"map":"pl_borneo","folder":"tf","game":"Team Fortress","app_id":440,"player_count":17,"max_players":24,"Bots":0,"server_type":"Dedicated","server_os":"Linux","password":true,"vac":true,"version":"7723704","steam_id":85568392925397958,"keywords":["nocrits","nodmgspread","payload","uncletopia"],"game_id":440,"stv_port":27046,"stv_name":"Uncletopia | Sydney | 4 | All Maps | STV","players":[{"user_id":51,"name":"zen","steam_id":76561198302670452,"connected_time":3868000000000,"state":"active","ping":58},{"user_id":71,"name":"DraconicLegends","steam_id":76561199145427539,"connected_time":894000000000,"state":"active","ping":119},{"user_id":72,"name":"Editor_Billy","steam_id":76561199165608946,"connected_time":872000000000,"state":"active","ping":56},{"user_id":74,"name":"howl","steam_id":76561198213150435,"connected_time":682000000000,"state":"active","ping":43},{"user_id":76,"name":"LMAO xDDDDDDD","steam_id":76561198104864553,"connected_time":603000000000,"state":"active","ping":45},{"user_id":52,"name":"CypressFluff (She/Her)","steam_id":76561198174667818,"connected_time":3844000000000,"state":"active","ping":51},{"user_id":66,"name":"Dankered","steam_id":76561198195891217,"connected_time":1698000000000,"state":"active","ping":75},{"user_id":17,"name":"Zoey","steam_id":76561198126153554,"connected_time":6525000000000,"state":"active","ping":76},{"user_id":81,"name":"Raypest","steam_id":76561197980678745,"connected_time":85000000000,"state":"active","ping":32},{"user_id":78,"name":"EpicGuy4227","steam_id":76561198094132328,"connected_time":462000000000,"state":"active","ping":54},{"user_id":79,"name":"Kintaro","steam_id":76561199400481258,"connected_time":177000000000,"state":"active","ping":39},{"user_id":59,"name":"Gurnie_dingo","steam_id":76561198041639674,"connected_time":3041000000000,"state":"active","ping":110},{"user_id":43,"name":"Doctor Estonia","steam_id":76561198057365089,"connected_time":4559000000000,"state":"active","ping":73},{"user_id":80,"name":"Local Trash Expert","steam_id":76561198145598622,"connected_time":162000000000,"state":"active","ping":73},{"user_id":31,"name":"Blueberry Rat","steam_id":76561198149219455,"connected_time":5232000000000,"state":"active","ping":51},{"user_id":32,"name":"man ahhh","steam_id":76561198129577552,"connected_time":5225000000000,"state":"active","ping":82},{"user_id":68,"name":"Azzy","steam_id":76561198096245286,"connected_time":1535000000000,"state":"active","ping":53}]},{"server_id":58,"name":"Uncletopia | Sydney | 5 | No Payload","name_short":"syd-5","host":"syd-1.au.uncletopia.com","port":27055,"enabled":true,"region":"au","cc":"au","latitude":-33.865143,"longitude":151.2099,"reserved":0,"last_update":"0001-01-01T00:00:00Z","name_a2s":"Uncletopia | Sydney | 5 | No Payload","protocol":17,"map":"koth_cascade","folder":"tf","game":"Team Fortress","app_id":440,"player_count":0,"max_players":24,"Bots":0,"server_type":"Dedicated","server_os":"Linux","password":true,"vac":true,"version":"7723704","steam_id":85568392925397959,"keywords":["cp","nocrits","nodmgspread","uncletopia"],"game_id":440,"stv_port":27056,"stv_name":"Uncletopia | Sydney | 5 | No Payload | STV","players":null},{"server_id":59,"name":"Uncletopia | Sydney | 6 | Community","name_short":"syd-6","host":"syd-1.au.uncletopia.com","port":27065,"enabled":true,"region":"au","cc":"au","latitude":-33.865143,"longitude":151.2099,"reserved":0,"last_update":"0001-01-01T00:00:00Z","name_a2s":"Uncletopia | Sydney | 6 | Community","protocol":17,"map":"koth_lakeside_final","folder":"tf","game":"Team Fortress","app_id":440,"player_count":0,"max_players":24,"Bots":0,"server_type":"Dedicated","server_os":"Linux","password":true,"vac":true,"version":"7723704","steam_id":85568392925397960,"keywords":["cp","nocrits","nodmgspread","uncletopia"],"game_id":440,"stv_port":27066,"stv_name":"Uncletopia | Sydney | 6 | Community | STV","players":null},{"server_id":49,"name":"Uncletopia | Warsaw | 1 | All Maps","name_short":"waw-1","host":"waw-1.pl.uncletopia.com","port":27015,"enabled":true,"region":"eu","cc":"pl","latitude":52.2297,"longitude":21.017532,"reserved":0,"last_update":"0001-01-01T00:00:00Z","name_a2s":"Uncletopia | Warsaw | 1 | All Maps","protocol":17,"map":"cp_process_final","folder":"tf","game":"Team Fortress","app_id":440,"player_count":0,"max_players":24,"Bots":0,"server_type":"Dedicated","server_os":"Linux","password":true,"vac":true,"version":"7723704","steam_id":85568392925397850,"keywords":["cp","nocrits","nodmgspread","uncletopia"],"game_id":440,"stv_port":27016,"stv_name":"Uncletopia | Warsaw | 1 | All Maps | STV","players":null},{"server_id":50,"name":"Uncletopia | Warsaw | 2 | All Maps","name_short":"waw-2","host":"waw-1.pl.uncletopia.com","port":27025,"enabled":true,"region":"eu","cc":"pl","latitude":52.2297,"longitude":21.017532,"reserved":0,"last_update":"0001-01-01T00:00:00Z","name_a2s":"Uncletopia | Warsaw | 2 | All Maps","protocol":17,"map":"pl_snowycoast","folder":"tf","game":"Team Fortress","app_id":440,"player_count":0,"max_players":24,"Bots":0,"server_type":"Dedicated","server_os":"Linux","password":true,"vac":true,"version":"7723704","steam_id":85568392925397851,"keywords":["nocrits","nodmgspread","payload","uncletopia"],"game_id":440,"stv_port":27026,"stv_name":"Uncletopia | Warsaw | 2 | All Maps | STV","players":null},{"server_id":51,"name":"Uncletopia | Warsaw | 3 | All Maps","name_short":"waw-3","host":"waw-1.pl.uncletopia.com","port":27035,"enabled":true,"region":"eu","cc":"pl","latitude":52.2297,"longitude":21.017532,"reserved":0,"last_update":"0001-01-01T00:00:00Z","name_a2s":"Uncletopia | Warsaw | 3 | All Maps","protocol":17,"map":"koth_lakeside_final","folder":"tf","game":"Team Fortress","app_id":440,"player_count":0,"max_players":24,"Bots":0,"server_type":"Dedicated","server_os":"Linux","password":true,"vac":true,"version":"7723704","steam_id":85568392925397852,"keywords":["cp","nocrits","nodmgspread","uncletopia"],"game_id":440,"stv_port":27036,"stv_name":"Uncletopia | Warsaw | 3 | All Maps | STV","players":null},{"server_id":52,"name":"Uncletopia | Warsaw | 4 | All Maps","name_short":"waw-4","host":"waw-1.pl.uncletopia.com","port":27045,"enabled":true,"region":"eu","cc":"pl","latitude":52.2297,"longitude":21.017532,"reserved":0,"last_update":"0001-01-01T00:00:00Z","name_a2s":"Uncletopia | Warsaw | 4 | All Maps","protocol":17,"map":"pl_upward","folder":"tf","game":"Team Fortress","app_id":440,"player_count":0,"max_players":24,"Bots":0,"server_type":"Dedicated","server_os":"Linux","password":true,"vac":true,"version":"7723704","steam_id":85568392925397853,"keywords":["nocrits","nodmgspread","payload","uncletopia"],"game_id":440,"stv_port":27046,"stv_name":"Uncletopia | Warsaw | 4 | All Maps | STV","players":null},{"server_id":53,"name":"Uncletopia | Warsaw | 5 | No Payload","name_short":"waw-5","host":"waw-1.pl.uncletopia.com","port":27055,"enabled":true,"region":"eu","cc":"pl","latitude":52.2297,"longitude":21.017532,"reserved":0,"last_update":"0001-01-01T00:00:00Z","name_a2s":"Uncletopia | Warsaw | 5 | No Payload","protocol":17,"map":"koth_highpass","folder":"tf","game":"Team Fortress","app_id":440,"player_count":0,"max_players":24,"Bots":0,"server_type":"Dedicated","server_os":"Linux","password":true,"vac":true,"version":"7723704","steam_id":85568392925397854,"keywords":["cp","nocrits","nodmgspread","uncletopia"],"game_id":440,"stv_port":27056,"stv_name":"Uncletopia | Warsaw | 5 | No Payload | STV","players":null},{"server_id":54,"name":"Uncletopia | Warsaw | 6 | Community","name_short":"waw-6","host":"waw-1.pl.uncletopia.com","port":27065,"enabled":true,"region":"eu","cc":"pl","latitude":52.2297,"longitude":21.017532,"reserved":0,"last_update":"0001-01-01T00:00:00Z","name_a2s":"Uncletopia | Warsaw | 6 | Community","protocol":17,"map":"koth_viaduct","folder":"tf","game":"Team Fortress","app_id":440,"player_count":0,"max_players":24,"Bots":0,"server_type":"Dedicated","server_os":"Linux","password":true,"vac":true,"version":"7723704","steam_id":85568392925397856,"keywords":["cp","nocrits","nodmgspread","uncletopia"],"game_id":440,"stv_port":27066,"stv_name":"Uncletopia | Warsaw | 6 | Community | STV","players":null}]}