{"status":true,"message":"","result":[{"server_id":9,"name":"Uncletopia | Atlanta | 1 | All Maps","name_short":"atl-1","host":"atl-1.us.uncletopia.com","port":27015,"enabled":true,"region":"us-east","cc":"us","latitude":33.753746,"longitude":-84.38633,"reserved":0,"last_update":"0001-01-01T00:00:00Z","name_a2s":"Uncletopia | Atlanta | 1 | All Maps","protocol":17,"map":"cp_dustbowl","folder":"tf","game":"Team Fortress","app_id":440,"player_count":0,"max_players":24,"Bots":0,"server_type":"Dedicated","server_os":"Linux","password":true,"vac":true,"version":"7757534","steam_id":85568392924469982,"keywords":["cp","nocrits","nodmgspread","uncletopia"],"game_id":440,"stv_port":27016,"stv_name":"Uncletopia | Atlanta | 1 | All Maps | STV","players":null},{"server_id":400,"name":"Uncletopia | Atlanta | 3 | Stopwatch Beta","name_short":"atl-3","host":"atl-1.us.uncletopia.com","port":27035,"enabled":true,"region":"us-east","cc":"us","latitude":33.753746,"longitude":-84.38633,"reserved":0,"last_update":"0001-01-01T00:00:00Z","name_a2s":"Uncletopia | Atlanta | 3 | Stopwatch Beta","protocol":17,"map":"pl_upward","folder":"tf","game":"Team Fortress","app_id":440,"player_count":0,"max_players":24,"Bots":0,"server_type":"Dedicated","server_os":"Linux","password":true,"vac":true,"version":"7757534","steam_id":85568392924515187,"keywords":["nocrits","nodmgspread","payload","uncletopia"],"game_id":440,"stv_port":27036,"stv_name":"Uncletopia | Atlanta | 3 | Stopwatch Beta | STV","players":null},{"server_id":401,"name":"Uncletopia | Atlanta | 4 | No Payload","name_short":"atl-4","host":"atl-1.us.uncletopia.com","port":27045,"enabled":true,"region":"us-east","cc":"us","latitude":33.753746,"longitude":-84.38633,"reserved":0,"last_update":"0001-01-01T00:00:00Z","name_a2s":"Uncletopia | Atlanta | 4 | No Payload","protocol":17,"map":"pl_pier","folder":"tf","game":"Team Fortress","app_id":440,"player_count":0,"max_players":24,"Bots":0,"server_type":"Dedicated","server_os":"Linux","password":true,"vac":true,"version":"7723704","steam_id":85568392924515188,"keywords":["nocrits","nodmgspread","payload","uncletopia"],"game_id":440,"stv_port":27046,"stv_name":"Uncletopia | Atlanta | 4 | No Payload | STV","players":null},{"server_id":2,"name":"Uncletopia | Chicago | 1 | All Maps","name_short":"chi-1","host":"chi-1.us.uncletopia.com","port":27015,"enabled":true,"region":"us-central","cc":"us","latitude":41.881832,"longitude":-87.62318,"reserved":0,"last_update":"0001-01-01T00:00:00Z","name_a2s":"Uncletopia | Chicago | 1 | All Maps","protocol":17,"map":"pl_pier","folder":"tf","game":"Team Fortress","app_id":440,"player_count":24,"max_players":24,"Bots":0,"server_type":"Dedicated","server_os":"Linux","password":true,"vac":true,"version":"7757534","steam_id":85568392924469984,"keywords":["nocrits","nodmgspread","payload","uncletopia"],"game_id":440,"stv_port":27016,"stv_name":"Uncletopia | Chicago | 1 | All Maps | STV","players":[{"user_id":56,"name":"badboy6996","steam_id":76561197969386201,"connected_time":1483000000000,"state":"active","ping":60},{"user_id":63,"name":"Spoofle","steam_id":76561199003655066,"connected_time":1346000000000,"state":"active","ping":87},{"user_id":67,"name":"Mae","steam_id":76561198085815757,"connected_time":1138000000000,"state":"active","ping":71},{"user_id":29,"name":"仙女头子于谦","steam_id":76561199031075505,"connected_time":3671000000000,"state":"active","ping":175},{"user_id":66,"name":"Dali","steam_id":76561198077593486,"connected_time":1291000000000,"state":"active","ping":123},{"user_id":44,"name":"skull","steam_id":76561198821775083,"connected_time":2621000000000,"state":"active","ping":70},{"user_id":71,"name":"Gamut","steam_id":76561199185822800,"connected_time":432000000000,"state":"active","ping":81},{"user_id":74,"name":"Stranger Danger","steam_id":76561198115242460,"connected_time":177000000000,"state":"active","ping":94},{"user_id":42,"name":"GREG","steam_id":76561198073021168,"connected_time":2869000000000,"state":"active","ping":67},{"user_id":58,"name":"IKISSYOURWIFEWTONGUE #WEWRESTLE","steam_id":76561198144766439,"connected_time":1395000000000,"state":"active","ping":44},{"user_id":14,"name":"A Box of Kobolds","steam_id":76561198057070883,"connected_time":4424000000000,"state":"active","ping":86},{"user_id":59,"name":"chicken wit dah eggrow","steam_id":76561198115458307,"connected_time":1394000000000,"state":"active","ping":105},{"user_id":70,"name":"the snoog","steam_id":76561198159339442,"connected_time":911000000000,"state":"active","ping":61},{"user_id":51,"name":"mio","steam_id":76561198239286750,"connected_time":1921000000000,"state":"active","ping":71},{"user_id":72,"name":"blind medic P2P","steam_id":76561199200092555,"connected_time":416000000000,"state":"active","ping":190},{"user_id":68,"name":"world machine","steam_id":76561198020689909,"connected_time":1075000000000,"state":"active","ping":90},{"user_id":26,"name":"Quillz","steam_id":76561197996567754,"connected_time":3765000000000,"state":"active","ping":60},{"user_id":49,"name":"DODOOOM(NO SOUND)","steam_id":76561198985082462,"connected_time":2310000000000,"state":"active","ping":140},{"user_id":65,"name":"The Silly Banana #SaveTF2","steam_id":76561199238728842,"connected_time":1314000000000,"state":"active","ping":71},{"user_id":73,"name":"uncle kringle gaming","steam_id":76561198063024859,"connected_time":374000000000,"state":"active","ping":82},{"user_id":31,"name":"Jimmy Two-Times","steam_id":76561198013308693,"connected_time":3642000000000,"state":"active","ping":63},{"user_id":32,"name":"SomeRandomPerson (f2p)","steam_id":76561198977045933,"connected_time":3626000000000,"state":"active","ping":87},{"user_id":37,"name":"Super Noob","steam_id":76561199179611350,"connected_time":3470000000000,"state":"active","ping":69},{"user_id":54,"name":"yomommasabitch","steam_id":76561198323217150,"connected_time":1555000000000,"state":"active","ping":62}]},{"server_id":106,"name":"Uncletopia | Chicago | 2 | All Maps","name_short":"chi-2","host":"chi-1.us.uncletopia.com","port":27025,"enabled":true,"region":"us-central","cc":"us","latitude":41.881832,"longitude":-87.62318,"reserved":0,"last_update":"0001-01-01T00:00:00Z","name_a2s":"Uncletopia | Chicago | 2 | All Maps","protocol":17,"map":"koth_lakeside_final","folder":"tf","game":"Team Fortress","app_id":440,"player_count":0,"max_players":24,"Bots":0,"server_type":"Dedicated","server_os":"Linux","password":true,"vac":true,"version":"7757534","steam_id":85568392924469985,"keywords":["cp","nocrits","nodmgspread","uncletopia"],"game_id":440,"stv_port":27026,"stv_name":"Uncletopia | Chicago | 2 | All Maps | STV","players":null},{"server_id":402,"name":"Uncletopia | Chicago | 3 | All Maps","name_short":"chi-3","host":"chi-1.us.uncletopia.com","port":27035,"enabled":true,"region":"us-central","cc":"us","latitude":41.881832,"longitude":-87.62318,"reserved":0,"last_update":"0001-01-01T00:00:00Z","name_a2s":"Uncletopia | Chicago | 3 | All Maps","protocol":17,"map":"cp_sunshine","folder":"tf","game":"Team Fortress","app_id":440,"player_count":0,"max_players":24,"Bots":0,"server_type":"Dedicated","server_os":"Linux","password":true,"vac":true,"version":"7757534","steam_id":85568392924515191,"keywords":["cp","nocrits","nodmgspread","uncletopia"],"game_id":440,"stv_port":27036,"stv_name":"Uncletopia | Chicago | 3 | All Maps | STV","players":null},{"server_id":403,"name":"Uncletopia | Chicago | 4 | All Maps","name_short":"chi-4","host":"chi-1.us.uncletopia.com","port":27045,"enabled":true,"region":"us-central","cc":"us","latitude":41.881832,"longitude":-87.62318,"reserved":0,"last_update":"0001-01-01T00:00:00Z","name_a2s":"Uncletopia | Chicago | 4 | All Maps","protocol":17,"map":"cp_altitude","folder":"tf","game":"Team Fortress","app_id":440,"player_count":0,"max_players":24,"Bots":0,"server_type":"Dedicated","server_os":"Linux","password":true,"vac":true,"version":"7757534","steam_id":85568392924515193,"keywords":["cp","nocrits","nodmgspread","uncletopia"],"game_id":440,"stv_port":27046,"stv_name":"Uncletopia | Chicago | 4 | All Maps | STV","players":null},{"server_id":36,"name":"Uncletopia | Chicago | 5 | All Maps","name_short":"chi-5","host":"chi-2.us.uncletopia.com","port":27015,"enabled":true,"region":"us-central","cc":"us","latitude":41.881832,"longitude":-87.62318,"reserved":0,"last_update":"0001-01-01T00:00:00Z","name_a2s":"Uncletopia | Chicago | 5 | All Maps","protocol":17,"map":"pl_pier","folder":"tf","game":"Team Fortress","app_id":440,"player_count":24,"max_players":24,"Bots":0,"server_type":"Dedicated","server_os":"Linux","password":true,"vac":true,"version":"7757534","steam_id":85568392924866362,"keywords":["nocrits","nodmgspread","payload","uncletopia"],"game_id":440,"stv_port":27016,"stv_name":"Uncletopia | Chicago | 5 | All Maps | STV","players":[{"user_id":32,"name":"bean","steam_id":76561198828930025,"connected_time":706000000000,"state":"active","ping":81},{"user_id":33,"name":"Jovyel","steam_id":76561198118777065,"connected_time":533000000000,"state":"active","ping":84},{"user_id":7,"name":"kartoffel","steam_id":76561199301833092,"connected_time":2053000000000,"state":"active","ping":120},{"user_id":25,"name":"Sou1Eater7","steam_id":76561198011330131,"connected_time":896000000000,"state":"active","ping":84},{"user_id":8,"name":"Yayifications","steam_id":76561198066227208,"connected_time":1921000000000,"state":"active","ping":60},{"user_id":20,"name":"jump_naught_v3 bonus 6","steam_id":76561198368715869,"connected_time":1102000000000,"state":"active","ping":88},{"user_id":10,"name":"Shoe™","steam_id":76561199114397881,"connected_time":1830000000000,"state":"active","ping":64},{"user_id":12,"name":"Rat From Human Resources","steam_id":76561198090177784,"connected_time":1666000000000,"state":"active","ping":73},{"user_id":21,"name":"Coffee with a Stranger","steam_id":76561198307422313,"connected_time":1075000000000,"state":"active","ping":71},{"user_id":19,"name":"lyra","steam_id":76561198200002859,"connected_time":1373000000000,"state":"active","ping":60},{"user_id":15,"name":"Ace Chromatica","steam_id":76561198042211131,"connected_time":1476000000000,"state":"active","ping":64},{"user_id":16,"name":"Phil Collins","steam_id":76561198068868644,"connected_time":1422000000000,"state":"active","ping":105},{"user_id":17,"name":"Mask","steam_id":76561198877649728,"connected_time":1420000000000,"state":"active","ping":134},{"user_id":34,"name":"urine trouble","steam_id":76561199013266640,"connected_time":496000000000,"state":"active","ping":51},{"user_id":22,"name":"kametro4","steam_id":76561198835430429,"connected_time":1075000000000,"state":"active","ping":75},{"user_id":23,"name":"fart sniffer","steam_id":76561198206922028,"connected_time":1061000000000,"state":"active","ping":105},{"user_id":24,"name":"fountain Mann","steam_id":76561198834350355,"connected_time":1020000000000,"state":"active","ping":111},{"user_id":26,"name":"amazing","steam_id":76561198386233160,"connected_time":876000000000,"state":"active","ping":90},{"user_id":29,"name":"IPlayGamez","steam_id":76561198041387508,"connected_time":789000000000,"state":"active","ping":65},{"user_id":30,"name":"Verschlimmbesserung","steam_id":76561198024991137,"connected_time":778000000000,"state":"active","ping":85},{"user_id":40,"name":"Faraday","steam_id":76561198089928357,"connected_time":261000000000,"state":"active","ping":73},{"user_id":37,"name":"Backside540","steam_id":76561197960602545,"connected_time":357000000000,"state":"active","ping":92},{"user_id":38,"name":"Harold Butts","steam_id":76561198008938931,"connected_time":356000000000,"state":"active","ping":98},{"user_id":39,"name":"ozmatazz","steam_id":76561198359884524,"connected_time":343000000000,"state":"active","ping":109}]},{"server_id":37,"name":"Uncletopia | Chicago | 6 | All Maps","name_short":"chi-6","host":"chi-2.us.uncletopia.com","port":27025,"enabled":true,"region":"us-central","cc":"us","latitude":41.881832,"longitude":-87.62318,"reserved":0,"last_update":"0001-01-01T00:00:00Z","name_a2s":"Uncletopia | Chicago | 6 | All Maps","protocol":17,"map":"cp_mountainlab","folder":"tf","game":"Team Fortress","app_id":440,"player_count":0,"max_players":24,"Bots":0,"server_type":"Dedicated","server_os":"Linux","password":true,"vac":true,"version":"7757534","steam_id":85568392924866363,"keywords":["cp","nocrits","nodmgspread","uncletopia"],"game_id":440,"stv_port":27026,"stv_name":"Uncletopia | Chicago | 6 | All Maps | STV","players":null},{"server_id":38,"name":"Uncletopia | Chicago | 7 | Stopwatch Beta","name_short":"chi-7","host":"chi-2.us.uncletopia.com","port":27035,"enabled":true,"region":"us-central","cc":"us","latitude":41.881832,"longitude":-87.62318,"reserved":0,"last_update":"0001-01-01T00:00:00Z","name_a2s":"Uncletopia | Chicago | 7 | Stopwatch Beta","protocol":17,"map":"cp_sunshine","folder":"tf","game":"Team Fortress","app_id":440,"player_count":0,"max_players":24,"Bots":0,"server_type":"Dedicated","server_os":"Linux","password":true,"vac":true,"version":"7757534","steam_id":85568392924866364,"keywords":["cp","nocrits","nodmgspread","uncletopia"],"game_id":440,"stv_port":27036,"stv_name":"Uncletopia | Chicago | 7 | Stopwatch Beta | STV","players":null},{"server_id":39,"name":"Uncletopia | Chicago | 8 | Community","name_short":"chi-8","host":"chi-2.us.uncletopia.com","port":27045,"enabled":true,"region":"us-central","cc":"us","latitude":41.881832,"longitude":-87.62318,"reserved":0,"last_update":"0001-01-01T00:00:00Z","name_a2s":"Uncletopia | Chicago | 8 | Community","protocol":17,"map":"pl_pier","folder":"tf","game":"Team Fortress","app_id":440,"player_count":0,"max_players":24,"Bots":0,"server_type":"Dedicated","server_os":"Linux","password":true,"vac":true,"version":"7757534","steam_id":85568392924866365,"keywords":["nocrits","nodmgspread","payload","uncletopia"],"game_id":440,"stv_port":27046,"stv_name":"Uncletopia | Chicago | 8 | Community | STV","players":null},{"server_id":8,"name":"Uncletopia | Dallas | 1 | All Maps","name_short":"dal-1","host":"dal-1.us.uncletopia.com","port":27015,"enabled":true,"region":"us-central","cc":"us","latitude":32.779167,"longitude":-96.80889,"reserved":0,"last_update":"0001-01-01T00:00:00Z","name_a2s":"Uncletopia | Dallas | 1 | All Maps","protocol":17,"map":"pl_badwater","folder":"tf","game":"Team Fortress","app_id":440,"player_count":0,"max_players":24,"Bots":0,"server_type":"Dedicated","server_os":"Linux","password":true,"vac":true,"version":"7757534","steam_id":85568392924469986,"keywords":["nocrits","nodmgspread","payload","uncletopia"],"game_id":440,"stv_port":27016,"stv_name":"Uncletopia | Dallas | 1 | All Maps | STV","players":null},{"server_id":108,"name":"Uncletopia | Dallas | 2 | All Maps","name_short":"dal-2","host":"dal-1.us.uncletopia.com","port":27025,"enabled":true,"region":"us-central","cc":"us","latitude":32.779167,"longitude":-96.80889,"reserved":0,"last_update":"0001-01-01T00:00:00Z","name_a2s":"Uncletopia | Dallas | 2 | All Maps","protocol":17,"map":"koth_highpass","folder":"tf","game":"Team Fortress","app_id":440,"player_count":0,"max_players":24,"Bots":0,"server_type":"Dedicated","server_os":"Linux","password":true,"vac":true,"version":"7757534","steam_id":85568392924469988,"keywords":["cp","nocrits","nodmgspread","uncletopia"],"game_id":440,"stv_port":27026,"stv_name":"Uncletopia | Dallas | 2 | All Maps | STV","players":null},{"server_id":5,"name":"Uncletopia | Frankfurt | 1 | All Maps","name_short":"frk-1","host":"frk-1.de.uncletopia.com","port":27015,"enabled":true,"region":"eu","cc":"de","latitude":50.110924,"longitude":8.682127,"reserved":0,"last_update":"0001-01-01T00:00:00Z","name_a2s":"Uncletopia | Frankfurt | 1 | All Maps","protocol":17,"map":"pl_borneo","folder":"tf","game":"Team Fortress","app_id":440,"player_count":24,"max_players":24,"Bots":0,"server_type":"Dedicated","server_os":"Linux","password":true,"vac":true,"version":"7757534","steam_id":85568392924469989,"keywords":["nocrits","nodmgspread","payload","uncletopia"],"game_id":440,"stv_port":27016,"stv_name":"Uncletopia | Frankfurt | 1 | All Maps | STV","players":[{"user_id":196,"name":"AgentArabian","steam_id":76561199179553653,"connected_time":1774000000000,"state":"active","ping":115},{"user_id":215,"name":"Lieutenant Lead","steam_id":76561198336867604,"connected_time":569000000000,"state":"active","ping":45},{"user_id":146,"name":"KeanuCheems","steam_id":76561198145580689,"connected_time":4775000000000,"state":"active","ping":72},{"user_id":221,"name":"Paavo","steam_id":76561198038707190,"connected_time":432000000000,"state":"active","ping":80},{"user_id":222,"name":"Monke","steam_id":76561198066994468,"connected_time":375000000000,"state":"active","ping":63},{"user_id":198,"name":"B0rеаl","steam_id":76561198268369013,"connected_time":1751000000000,"state":"active","ping":77},{"user_id":207,"name":"⩩✞ _SneKerz ⩩✞","steam_id":76561198141259011,"connected_time":1325000000000,"state":"active","ping":73},{"user_id":200,"name":"Melk?","steam_id":76561198247635120,"connected_time":1715000000000,"state":"active","ping":79},{"user_id":217,"name":"yusef","steam_id":76561198108481078,"connected_time":558000000000,"state":"active","ping":109},{"user_id":224,"name":"SpeddyMeddy","steam_id":76561197999693825,"connected_time":229000000000,"state":"active","ping":68},{"user_id":144,"name":"Choruptian","steam_id":76561198017686366,"connected_time":4830000000000,"state":"active","ping":59},{"user_id":186,"name":"Decadence","steam_id":76561198206829379,"connected_time":2432000000000,"state":"active","ping":76},{"user_id":227,"name":"murderwow","steam_id":76561198024566944,"connected_time":29000000000,"state":"active","ping":97},{"user_id":212,"name":"Borazilla","steam_id":76561198083626821,"connected_time":615000000000,"state":"active","ping":106},{"user_id":211,"name":"hud_saytext_time 0","steam_id":76561198010327228,"connected_time":656000000000,"state":"active","ping":51},{"user_id":218,"name":"Reizei","steam_id":76561198148504042,"connected_time":519000000000,"state":"active","ping":75},{"user_id":169,"name":"EdSuedi","steam_id":76561199387956486,"connected_time":3392000000000,"state":"active","ping":52},{"user_id":203,"name":"ike","steam_id":76561198039573338,"connected_time":1660000000000,"state":"active","ping":93},{"user_id":112,"name":"tqla","steam_id":76561198073092585,"connected_time":5863000000000,"state":"active","ping":103},{"user_id":223,"name":"cazador","steam_id":76561198123096922,"connected_time":247000000000,"state":"active","ping":91},{"user_id":170,"name":"Serton♝","steam_id":76561198011061126,"connected_time":3160000000000,"state":"active","ping":90},{"user_id":205,"name":"tealoverr.190","steam_id":76561199028497703,"connected_time":1527000000000,"state":"active","ping":92},{"user_id":225,"name":"JIJI","steam_id":76561198137597283,"connected_time":229000000000,"state":"active","ping":103},{"user_id":204,"name":"I was good before.","steam_id":76561198187045217,"connected_time":1621000000000,"state":"active","ping":76}]},{"server_id":110,"name":"Uncletopia | Frankfurt | 2 | All Maps","name_short":"frk-2","host":"frk-1.de.uncletopia.com","port":27025,"enabled":true,"region":"eu","cc":"de","latitude":50.110924,"longitude":8.682127,"reserved":0,"last_update":"0001-01-01T00:00:00Z","name_a2s":"Uncletopia | Frankfurt | 2 | All Maps","protocol":17,"map":"pl_pier","folder":"tf","game":"Team Fortress","app_id":440,"player_count":24,"max_players":24,"Bots":0,"server_type":"Dedicated","server_os":"Linux","password":true,"vac":true,"version":"7757534","steam_id":85568392924469990,"keywords":["nocrits","nodmgspread","payload","uncletopia"],"game_id":440,"stv_port":27026,"stv_name":"Uncletopia | Frankfurt | 2 | All Maps | STV","players":[{"user_id":64,"name":"Ta grenouille mangeuse de caca","steam_id":76561198091242337,"connected_time":2713000000000,"state":"active","ping":48},{"user_id":89,"name":"Jᵃᶜᵏᶤᵉ Cʰᵃᶰ","steam_id":76561198250935222,"connected_time":207000000000,"state":"active","ping":154},{"user_id":48,"name":"giorno giovanna","steam_id":76561198993161087,"connected_time":3527000000000,"state":"active","ping":41},{"user_id":86,"name":"Soerlssoelssöen","steam_id":76561197993060585,"connected_time":231000000000,"state":"active","ping":72},{"user_id":49,"name":"Dolcelatte","steam_id":76561198038501770,"connected_time":3518000000000,"state":"active","ping":52},{"user_id":90,"name":"bleak autumn night","steam_id":76561198142183478,"connected_time":206000000000,"state":"active","ping":80},{"user_id":81,"name":"asami","steam_id":76561197995593787,"connected_time":745000000000,"state":"active","ping":61},{"user_id":54,"name":"Melon","steam_id":76561198150893860,"connected_time":3479000000000,"state":"active","ping":61},{"user_id":16,"name":"My pee is red","steam_id":76561198219126032,"connected_time":5341000000000,"state":"active","ping":82},{"user_id":62,"name":"Arche","steam_id":76561198000866089,"connected_time":2782000000000,"state":"active","ping":68},{"user_id":82,"name":"video game enjoyer","steam_id":76561198045505082,"connected_time":539000000000,"state":"active","ping":76},{"user_id":93,"name":"dilbertron","steam_id":76561198172707783,"connected_time":188000000000,"state":"active","ping":62},{"user_id":29,"name":"DrilleR_","steam_id":76561198284636705,"connected_time":4695000000000,"state":"active","ping":90},{"user_id":51,"name":"poorchel","steam_id":76561198056905953,"connected_time":3507000000000,"state":"active","ping":121},{"user_id":70,"name":"wads","steam_id":76561198175406562,"connected_time":1703000000000,"state":"active","ping":62},{"user_id":69,"name":"epic gamer moment","steam_id":76561198299515070,"connected_time":1743000000000,"state":"active","ping":105},{"user_id":61,"name":"Kubino148","steam_id":76561198028756615,"connected_time":2797000000000,"state":"active","ping":81},{"user_id":92,"name":"koira","steam_id":76561197996199669,"connected_time":202000000000,"state":"active","ping":90},{"user_id":85,"name":"!x3","steam_id":76561198103285012,"connected_time":233000000000,"state":"active","ping":45},{"user_id":83,"name":"moon","steam_id":76561199212557251,"connected_time":276000000000,"state":"active","ping":134},{"user_id":78,"name":"Gordon Birdman","steam_id":76561198013382324,"connected_time":1111000000000,"state":"active","ping":66},{"user_id":94,"name":"The Witch-Finder General","steam_id":76561198375599872,"connected_time":179000000000,"state":"active","ping":85},{"user_id":95,"name":"mt","steam_id":76561197961319303,"connected_time":176000000000,"state":"active","ping":45},{"user_id":41,"name":"T_G_G","steam_id":76561199114568070,"connected_time":4450000000000,"state":"active","ping":96}]},{"server_id":308,"name":"Uncletopia | Frankfurt | 3 | All Maps","name_short":"frk-3","host":"frk-1.de.uncletopia.com","port":27035,"enabled":true,"region":"eu","cc":"de","latitude":50.110924,"longitude":8.682127,"reserved":0,"last_update":"0001-01-01T00:00:00Z","name_a2s":"Uncletopia | Frankfurt | 3 | All Maps","protocol":17,"map":"cp_altitude","folder":"tf","game":"Team Fortress","app_id":440,"player_count":24,"max_players":24,"Bots":0,"server_type":"Dedicated","server_os":"Linux","password":true,"vac":true,"version":"7757534","steam_id":85568392924504274,"keywords":["cp","nocrits","nodmgspread","uncletopia"],"game_id":440,"stv_port":27036,"stv_name":"Uncletopia | Frankfurt | 3 | All Maps | STV","players":[{"user_id":273,"name":"Commander Boreale","steam_id":76561198118938257,"connected_time":1214000000000,"state":"active","ping":89},{"user_id":274,"name":"VioBeeyo ♥","steam_id":76561198066258544,"connected_time":1181000000000,"state":"active","ping":45},{"user_id":272,"name":"SODA!!!!!!!","steam_id":76561198107362485,"connected_time":1230000000000,"state":"active","ping":60},{"user_id":275,"name":"DotOfNotGot","steam_id":76561198145604010,"connected_time":1150000000000,"state":"active","ping":60},{"user_id":271,"name":"󠀡󠀡","steam_id":76561198015585266,"connected_time":1240000000000,"state":"active","ping":83},{"user_id":285,"name":"Vixtra","steam_id":76561198150706523,"connected_time":993000000000,"state":"active","ping":70},{"user_id":287,"name":"galaxy","steam_id":76561198164819022,"connected_time":832000000000,"state":"active","ping":67},{"user_id":276,"name":"Owl","steam_id":76561198248266580,"connected_time":1141000000000,"state":"active","ping":68},{"user_id":234,"name":"soil.dirt.earth","steam_id":76561198014377623,"connected_time":5071000000000,"state":"active","ping":68},{"user_id":269,"name":"-makina","steam_id":76561198273042780,"connected_time":1553000000000,"state":"active","ping":60},{"user_id":277,"name":"Yony","steam_id":76561199070569941,"connected_time":1124000000000,"state":"active","ping":58},{"user_id":270,"name":"blizz gamming","steam_id":76561198253692868,"connected_time":1243000000000,"state":"active","ping":64},{"user_id":289,"name":"BestDoki","steam_id":76561198009146729,"connected_time":392000000000,"state":"active","ping":64},{"user_id":279,"name":"My meme now","steam_id":76561199244327387,"connected_time":1108000000000,"state":"active","ping":60},{"user_id":280,"name":"isha","steam_id":76561199041566425,"connected_time":1103000000000,"state":"active","ping":57},{"user_id":266,"name":"simon","steam_id":76561198880361394,"connected_time":2269000000000,"state":"active","ping":50},{"user_id":250,"name":"Sandvich Gaming","steam_id":76561199079493666,"connected_time":3793000000000,"state":"active","ping":90},{"user_id":281,"name":"Key Lyor Selph","steam_id":76561198256704286,"connected_time":1097000000000,"state":"active","ping":60},{"user_id":264,"name":"walking plane","steam_id":76561198146779559,"connected_time":2633000000000,"state":"active","ping":87},{"user_id":256,"name":"lawrencefishdom","steam_id":76561199190918059,"connected_time":3133000000000,"state":"active","ping":75},{"user_id":268,"name":"_Shkoot","steam_id":76561198318170398,"connected_time":1619000000000,"state":"active","ping":50},{"user_id":284,"name":"Joghurt","steam_id":76561198005363676,"connected_time":1044000000000,"state":"active","ping":56},{"user_id":283,"name":"big hoops","steam_id":76561198004703799,"connected_time":1079000000000,"state":"active","ping":49},{"user_id":286,"name":"Azor554","steam_id":76561198340344220,"connected_time":986000000000,"state":"active","ping":79}]},{"server_id":309,"name":"Uncletopia | Frankfurt | 4 | All Maps","name_short":"frk-4","host":"frk-1.de.uncletopia.com","port":27045,"enabled":true,"region":"eu","cc":"de","latitude":50.110924,"longitude":8.682127,"reserved":0,"last_update":"0001-01-01T00:00:00Z","name_a2s":"Uncletopia | Frankfurt | 4 | All Maps","protocol":17,"map":"pl_barnblitz","folder":"tf","game":"Team Fortress","app_id":440,"player_count":24,"max_players":24,"Bots":0,"server_type":"Dedicated","server_os":"Linux","password":true,"vac":true,"version":"7757534","steam_id":85568392924504275,"keywords":["nocrits","nodmgspread","payload","uncletopia"],"game_id":440,"stv_port":27046,"stv_name":"Uncletopia | Frankfurt | 4 | All Maps | STV","players":[{"user_id":146,"name":"MorVill","steam_id":76561198809859945,"connected_time":55000000000,"state":"active","ping":62},{"user_id":138,"name":"Nathan","steam_id":76561198394485387,"connected_time":498000000000,"state":"active","ping":78},{"user_id":137,"name":"Vizier","steam_id":76561198114899125,"connected_time":584000000000,"state":"active","ping":81},{"user_id":101,"name":"Sweat Plantation","steam_id":76561198025086883,"connected_time":2714000000000,"state":"active","ping":85},{"user_id":142,"name":"Germanium_Ge","steam_id":76561198130561775,"connected_time":401000000000,"state":"active","ping":56},{"user_id":147,"name":"Cumbustible Punda #SaveTF2","steam_id":76561197974274677,"connected_time":53000000000,"state":"active","ping":48},{"user_id":143,"name":"morco3420","steam_id":76561199360257938,"connected_time":133000000000,"state":"active","ping":73},{"user_id":132,"name":"Jay.k","steam_id":76561198079387590,"connected_time":901000000000,"state":"active","ping":67},{"user_id":86,"name":"LAMC","steam_id":76561199066888917,"connected_time":3981000000000,"state":"active","ping":66},{"user_id":109,"name":"entity with brain damage","steam_id":76561199042470246,"connected_time":2417000000000,"state":"active","ping":44},{"user_id":144,"name":"Ledze Shuns Dope","steam_id":76561198049945010,"connected_time":103000000000,"state":"active","ping":56},{"user_id":124,"name":"JohnTraveltime","steam_id":76561199244281754,"connected_time":1169000000000,"state":"active","ping":155},{"user_id":141,"name":"Záporák","steam_id":76561198207175503,"connected_time":478000000000,"state":"active","ping":61},{"user_id":95,"name":"Lord of the Lockerroom","steam_id":76561198080619697,"connected_time":3334000000000,"state":"active","ping":81},{"user_id":27,"name":"GuSkand","steam_id":76561198043775605,"connected_time":7748000000000,"state":"active","ping":82},{"user_id":104,"name":"S.Scary","steam_id":76561198248602386,"connected_time":2684000000000,"state":"active","ping":60},{"user_id":134,"name":"Deleteanal","steam_id":76561199197830829,"connected_time":877000000000,"state":"active","ping":97},{"user_id":131,"name":"Montrose","steam_id":76561198338911736,"connected_time":958000000000,"state":"active","ping":188},{"user_id":135,"name":"2D","steam_id":76561199113659141,"connected_time":842000000000,"state":"active","ping":131},{"user_id":99,"name":"Florua","steam_id":76561198182297846,"connected_time":2816000000000,"state":"active","ping":54},{"user_id":116,"name":"yyny","steam_id":76561198066287297,"connected_time":2059000000000,"state":"active","ping":45},{"user_id":149,"name":"bad at tf2 episode 2","steam_id":76561198002451113,"connected_time":36000000000,"state":"active","ping":94},{"user_id":150,"name":"Dunya","steam_id":76561198041371314,"connected_time":35000000000,"state":"active","ping":126},{"user_id":151,"name":"n-ski","steam_id":76561198020550849,"connected_time":34000000000,"state":"active","ping":75}]},{"server_id":310,"name":"Uncletopia | Frankfurt | 5 | All Maps","name_short":"frk-5","host":"frk-1.de.uncletopia.com","port":27055,"enabled":true,"region":"eu","cc":"de","latitude":50.110924,"longitude":8.682127,"reserved":0,"last_update":"0001-01-01T00:00:00Z","name_a2s":"Uncletopia | Frankfurt | 5 | All Maps","protocol":17,"map":"koth_lakeside_final","folder":"tf","game":"Team Fortress","app_id":440,"player_count":0,"max_players":24,"Bots":0,"server_type":"Dedicated","server_os":"Linux","password":true,"vac":true,"version":"7757534","steam_id":85568392924504277,"keywords":["cp","nocrits","nodmgspread","uncletopia"],"game_id":440,"stv_port":27056,"stv_name":"Uncletopia | Frankfurt | 5 | All Maps | STV","players":null},{"server_id":311,"name":"Uncletopia | Frankfurt | 6 | All Maps","name_short":"frk-6","host":"frk-1.de.uncletopia.com","port":27065,"enabled":true,"region":"eu","cc":"de","latitude":50.110924,"longitude":8.682127,"reserved":0,"last_update":"0001-01-01T00:00:00Z","name_a2s":"Uncletopia | Frankfurt | 6 | All Maps","protocol":17,"map":"koth_highpass","folder":"tf","game":"Team Fortress","app_id":440,"player_count":0,"max_players":24,"Bots":0,"server_type":"Dedicated","server_os":"Linux","password":true,"vac":true,"version":"7757534","steam_id":85568392924504278,"keywords":["cp","nocrits","nodmgspread","uncletopia"],"game_id":440,"stv_port":27066,"stv_name":"Uncletopia | Frankfurt | 6 | All Maps | STV","players":null},{"server_id":23,"name":"Uncletopia | Frankfurt | 7 | Stopwatch Beta","name_short":"frk-7","host":"frk-1.de.uncletopia.com","port":27075,"enabled":true,"region":"eu","cc":"de","latitude":50.110924,"longitude":8.682127,"reserved":0,"last_update":"0001-01-01T00:00:00Z","name_a2s":"Uncletopia | Frankfurt | 7 | Stopwatch Beta","protocol":17,"map":"workshop/koth_ramjam_rc1.ugc459778887","folder":"tf","game":"Team Fortress","app_id":440,"player_count":0,"max_players":24,"Bots":0,"server_type":"Dedicated","server_os":"Linux","password":true,"vac":true,"version":"7757534","steam_id":85568392924742827,"keywords":["cp","nocrits","nodmgspread","uncletopia"],"game_id":440,"stv_port":27076,"stv_name":"Uncletopia | Frankfurt | 7 | Stopwatch Beta | STV","players":null},{"server_id":24,"name":"Uncletopia | Frankfurt | 8 | Community","name_short":"frk-8","host":"frk-1.de.uncletopia.com","port":27085,"enabled":true,"region":"eu","cc":"de","latitude":50.110924,"longitude":8.682127,"reserved":0,"last_update":"0001-01-01T00:00:00Z","name_a2s":"Uncletopia | Frankfurt | 8 | Community","protocol":17,"map":"workshop/pl_barnblitz_pro7.ugc582280235","folder":"tf","game":"Team Fortress","app_id":440,"player_count":22,"max_players":24,"Bots":0,"server_type":"Dedicated","server_os":"Linux","password":true,"vac":true,"version":"7757534","steam_id":85568392924742828,"keywords":["nocrits","nodmgspread","payload","uncletopia"],"game_id":440,"stv_port":27086,"stv_name":"Uncletopia | Frankfurt | 8 | Community | STV","players":[{"user_id":221,"name":"maitokannuttaja","steam_id":76561198123743550,"connected_time":337000000000,"state":"active","ping":105},{"user_id":217,"name":"astralscr","steam_id":76561199090360946,"connected_time":696000000000,"state":"active","ping":60},{"user_id":225,"name":"wasps","steam_id":76561198049485054,"connected_time":222000000000,"state":"active","ping":77},{"user_id":208,"name":"Rautakaupanmyyjä33","steam_id":76561198101753162,"connected_time":1099000000000,"state":"active","ping":77},{"user_id":184,"name":"Gio'sMonkey","steam_id":76561198892432223,"connected_time":2943000000000,"state":"active","ping":94},{"user_id":146,"name":"Chris","steam_id":76561198018626828,"connected_time":4722000000000,"state":"active","ping":61},{"user_id":194,"name":"JimmyThe\"Hacker\"","steam_id":76561198091667759,"connected_time":1894000000000,"state":"active","ping":198},{"user_id":227,"name":"jovi_","steam_id":76561198449280552,"connected_time":130000000000,"state":"active","ping":60},{"user_id":165,"name":"Guru","steam_id":76561198093853069,"connected_time":3618000000000,"state":"active","ping":47},{"user_id":203,"name":"Bennifer.Gonzales2007","steam_id":76561198085070478,"connected_time":1498000000000,"state":"active","ping":64},{"user_id":198,"name":"Niso","steam_id":76561198237283956,"connected_time":1593000000000,"state":"active","ping":65},{"user_id":216,"name":"this is a cat","steam_id":76561199407659065,"connected_time":702000000000,"state":"active","ping":139},{"user_id":214,"name":"Prison Mike","steam_id":76561198014221596,"connected_time":784000000000,"state":"active","ping":74},{"user_id":226,"name":"Tonys202","steam_id":76561198058331473,"connected_time":210000000000,"state":"active","ping":89},{"user_id":205,"name":"43291842381","steam_id":76561198038160325,"connected_time":1388000000000,"state":"active","ping":72},{"user_id":167,"name":"Fuzz","steam_id":76561198837586838,"connected_time":3609000000000,"state":"active","ping":79},{"user_id":206,"name":"Tormax","steam_id":76561197961182658,"connected_time":1146000000000,"state":"active","ping":93},{"user_id":223,"name":"Nade Eater","steam_id":76561198018744356,"connected_time":260000000000,"state":"active","ping":102},{"user_id":189,"name":"BlueBomBer","steam_id":76561198403586708,"connected_time":2546000000000,"state":"active","ping":170},{"user_id":224,"name":"Mandele","steam_id":76561199183213205,"connected_time":254000000000,"state":"active","ping":110},{"user_id":182,"name":"random clit","steam_id":76561198404802175,"connected_time":3054000000000,"state":"active","ping":183},{"user_id":183,"name":"Mad Cat Kivima","steam_id":76561198028959678,"connected_time":3011000000000,"state":"active","ping":92}]},{"server_id":202,"name":"Uncletopia | Hong Kong | 1 | All Maps","name_short":"hgk-1","host":"hgk-1.hk.uncletopia.com","port":27015,"enabled":true,"region":"asia","cc":"hk","latitude":22.302711,"longitude":114.177216,"reserved":0,"last_update":"0001-01-01T00:00:00Z","name_a2s":"Uncletopia | Hong Kong | 1 | All Maps","protocol":17,"map":"cp_dustbowl","folder":"tf","game":"Team Fortress","app_id":440,"player_count":24,"max_players":24,"Bots":0,"server_type":"Dedicated","server_os":"Linux","password":true,"vac":true,"version":"7757534","steam_id":85568392924494504,"keywords":["cp","nocrits","nodmgspread","uncletopia"],"game_id":440,"stv_port":27016,"stv_name":"Uncletopia | Hong Kong | 1 | All Maps | STV","players":[{"user_id":615,"name":"Tume","steam_id":76561199117576868,"connected_time":1580000000000,"state":"active","ping":127},{"user_id":602,"name":"ey","steam_id":76561198413116920,"connected_time":3140000000000,"state":"active","ping":76},{"user_id":620,"name":"timmy.1366","steam_id":76561199065433547,"connected_time":1539000000000,"state":"active","ping":77},{"user_id":599,"name":"Bollocks","steam_id":76561198978868701,"connected_time":3155000000000,"state":"active","ping":139},{"user_id":614,"name":"P","steam_id":76561198304514505,"connected_time":1598000000000,"state":"active","ping":112},{"user_id":573,"name":"쿠키","steam_id":76561197997220367,"connected_time":3746000000000,"state":"active","ping":43},{"user_id":630,"name":"Puddin","steam_id":76561198140052918,"connected_time":24000000000,"state":"active","ping":91},{"user_id":619,"name":"ævidd","steam_id":76561198447451285,"connected_time":1569000000000,"state":"active","ping":178},{"user_id":601,"name":"uptriste","steam_id":76561198158666692,"connected_time":3143000000000,"state":"active","ping":40},{"user_id":580,"name":"Nimbus","steam_id":76561198877713016,"connected_time":3512000000000,"state":"active","ping":165},{"user_id":583,"name":"LudE","steam_id":76561198828840546,"connected_time":3416000000000,"state":"active","ping":78},{"user_id":608,"name":"Edgy","steam_id":76561199096849508,"connected_time":2776000000000,"state":"active","ping":69},{"user_id":624,"name":"Owmyn","steam_id":76561199239651098,"connected_time":1345000000000,"state":"active","ping":108},{"user_id":531,"name":"Vortex Morez","steam_id":76561198833527091,"connected_time":6319000000000,"state":"active","ping":101},{"user_id":606,"name":"ccripplegamigng blw.tf","steam_id":76561199224830107,"connected_time":2875000000000,"state":"active","ping":122},{"user_id":564,"name":"sloth of the fragment clan","steam_id":76561198214192048,"connected_time":4601000000000,"state":"active","ping":97},{"user_id":623,"name":"Topaz","steam_id":76561198097350308,"connected_time":1384000000000,"state":"active","ping":72},{"user_id":590,"name":"qb","steam_id":76561198412329672,"connected_time":3336000000000,"state":"active","ping":92},{"user_id":628,"name":"cellum95","steam_id":76561198172146871,"connected_time":407000000000,"state":"active","ping":70},{"user_id":609,"name":"ghuzik","steam_id":76561199107596818,"connected_time":2707000000000,"state":"active","ping":110},{"user_id":625,"name":"let cook","steam_id":76561198055553140,"connected_time":1273000000000,"state":"active","ping":83},{"user_id":519,"name":"TomCat","steam_id":76561198133744053,"connected_time":7718000000000,"state":"active","ping":117},{"user_id":612,"name":"Violezine","steam_id":76561199000502615,"connected_time":2148000000000,"state":"active","ping":91},{"user_id":613,"name":"AmaiToxic","steam_id":76561199122491157,"connected_time":2140000000000,"state":"active","ping":182}]},{"server_id":1,"name":"Uncletopia | Los Angeles | 1 | All Maps","name_short":"lax-1","host":"lax-1.us.uncletopia.com","port":27015,"enabled":true,"region":"us-west","cc":"us","latitude":33.94279,"longitude":-118.41004,"reserved":0,"last_update":"0001-01-01T00:00:00Z","name_a2s":"Uncletopia | Los Angeles | 1 | All Maps","protocol":17,"map":"koth_cascade","folder":"tf","game":"Team Fortress","app_id":440,"player_count":0,"max_players":24,"Bots":0,"server_type":"Dedicated","server_os":"Linux","password":true,"vac":true,"version":"7757534","steam_id":85568392924469991,"keywords":["cp","nocrits","nodmgspread","uncletopia"],"game_id":440,"stv_port":27016,"stv_name":"Uncletopia | Los Angeles | 1 | All Maps | STV","players":null},{"server_id":112,"name":"Uncletopia | Los Angeles | 2 | All Maps","name_short":"lax-2","host":"lax-1.us.uncletopia.com","port":27025,"enabled":true,"region":"us-west","cc":"us","latitude":33.94279,"longitude":-118.41004,"reserved":0,"last_update":"0001-01-01T00:00:00Z","name_a2s":"Uncletopia | Los Angeles | 2 | All Maps","protocol":17,"map":"koth_highpass","folder":"tf","game":"Team Fortress","app_id":440,"player_count":0,"max_players":24,"Bots":0,"server_type":"Dedicated","server_os":"Linux","password":true,"vac":true,"version":"7757534","steam_id":85568392924469992,"keywords":["cp","nocrits","nodmgspread","uncletopia"],"game_id":440,"stv_port":27026,"stv_name":"Uncletopia | Los Angeles | 2 | All Maps | STV","players":null},{"server_id":324,"name":"Uncletopia | Los Angeles | 3 | All Maps","name_short":"lax-3","host":"lax-1.us.uncletopia.com","port":27035,"enabled":true,"region":"us-west","cc":"us","latitude":33.94279,"longitude":-118.41004,"reserved":0,"last_update":"0001-01-01T00:00:00Z","name_a2s":"Uncletopia | Los Angeles | 3 | All Maps","protocol":17,"map":"cp_sunshine","folder":"tf","game":"Team Fortress","app_id":440,"player_count":0,"max_players":24,"Bots":0,"server_type":"Dedicated","server_os":"Linux","password":true,"vac":true,"version":"7757534","steam_id":85568392924510198,"keywords":["cp","nocrits","nodmgspread","uncletopia"],"game_id":440,"stv_port":27036,"stv_name":"Uncletopia | Los Angeles | 3 | All Maps | STV","players":null},{"server_id":25,"name":"Uncletopia | Los Angeles | 4 | Stopwatch Beta","name_short":"lax-4","host":"lax-1.us.uncletopia.com","port":27045,"enabled":true,"region":"us-west","cc":"us","latitude":33.94279,"longitude":-118.41004,"reserved":0,"last_update":"0001-01-01T00:00:00Z","name_a2s":"Uncletopia | Los Angeles | 4 | Stopwatch Beta","protocol":17,"map":"workshop/pl_barnblitz_pro7.ugc582280235","folder":"tf","game":"Team Fortress","app_id":440,"player_count":0,"max_players":24,"Bots":0,"server_type":"Dedicated","server_os":"Linux","password":true,"vac":true,"version":"7757534","steam_id":85568392924510199,"keywords":["nocrits","nodmgspread","payload","uncletopia"],"game_id":440,"stv_port":27046,"stv_name":"Uncletopia | Los Angeles | 4 | Stopwatch Beta | STV","players":null},{"server_id":11,"name":"Uncletopia | London | 1 | All Maps","name_short":"lon-1","host":"lon-1.uk.uncletopia.com","port":27015,"enabled":true,"region":"eu","cc":"gb","latitude":51.509865,"longitude":-0.118092,"reserved":0,"last_update":"0001-01-01T00:00:00Z","name_a2s":"Uncletopia | London | 1 | All Maps","protocol":17,"map":"pl_frontier_final","folder":"tf","game":"Team Fortress","app_id":440,"player_count":24,"max_players":24,"Bots":0,"server_type":"Dedicated","server_os":"Linux","password":true,"vac":true,"version":"7757534","steam_id":85568392924367362,"keywords":["nocrits","nodmgspread","payload","uncletopia"],"game_id":440,"stv_port":27016,"stv_name":"Uncletopia | London | 1 | All Maps | STV","players":[{"user_id":151,"name":"john fortress","steam_id":76561198013237629,"connected_time":1204000000000,"state":"active","ping":104},{"user_id":162,"name":"Dominus..","steam_id":76561199065917088,"connected_time":338000000000,"state":"active","ping":62},{"user_id":164,"name":"C.H.E.R.E.P.","steam_id":76561198026938595,"connected_time":309000000000,"state":"active","ping":85},{"user_id":156,"name":"Christmas Ham","steam_id":76561198119601623,"connected_time":950000000000,"state":"active","ping":46},{"user_id":138,"name":"UltimateAura","steam_id":76561198338361324,"connected_time":1683000000000,"state":"active","ping":42},{"user_id":163,"name":"problack","steam_id":76561198000514719,"connected_time":322000000000,"state":"active","ping":67},{"user_id":146,"name":"monikka","steam_id":76561198297003397,"connected_time":1275000000000,"state":"active","ping":61},{"user_id":135,"name":"BΣNZOIC","steam_id":76561198875665995,"connected_time":2004000000000,"state":"active","ping":79},{"user_id":167,"name":"Dr. Funkenstein","steam_id":76561197977816210,"connected_time":86000000000,"state":"active","ping":51},{"user_id":123,"name":"Lovelessvaccuum","steam_id":76561198079555422,"connected_time":2449000000000,"state":"active","ping":31},{"user_id":93,"name":"Crab communist","steam_id":76561198368339225,"connected_time":4310000000000,"state":"active","ping":111},{"user_id":130,"name":"pablo","steam_id":76561198089285014,"connected_time":2149000000000,"state":"active","ping":66},{"user_id":165,"name":"Roj Blake","steam_id":76561197960291725,"connected_time":295000000000,"state":"active","ping":45},{"user_id":166,"name":"333res","steam_id":76561198148106704,"connected_time":272000000000,"state":"active","ping":92},{"user_id":85,"name":"Spieller","steam_id":76561198057197847,"connected_time":5211000000000,"state":"active","ping":81},{"user_id":137,"name":"Jughead","steam_id":76561198000355410,"connected_time":1804000000000,"state":"active","ping":44},{"user_id":159,"name":"Tulmius","steam_id":76561198253888461,"connected_time":543000000000,"state":"active","ping":53},{"user_id":136,"name":"Autumnsky","steam_id":76561198055161203,"connected_time":1944000000000,"state":"active","ping":60},{"user_id":149,"name":"dubysa","steam_id":76561198079774530,"connected_time":1214000000000,"state":"active","ping":79},{"user_id":157,"name":"gxoul","steam_id":76561199091006994,"connected_time":916000000000,"state":"active","ping":84},{"user_id":148,"name":"potateking","steam_id":76561198066579830,"connected_time":1239000000000,"state":"active","ping":76},{"user_id":153,"name":"Bottom of the barrel terrorist","steam_id":76561198929386604,"connected_time":1181000000000,"state":"active","ping":92},{"user_id":82,"name":"FELHEEE","steam_id":76561197987151150,"connected_time":5328000000000,"state":"active","ping":93},{"user_id":160,"name":"Mr.B","steam_id":76561199204478925,"connected_time":412000000000,"state":"active","ping":114}]},{"server_id":114,"name":"Uncletopia | London | 2 | All Maps","name_short":"lon-2","host":"lon-1.uk.uncletopia.com","port":27025,"enabled":true,"region":"eu","cc":"gb","latitude":51.509865,"longitude":-0.118092,"reserved":0,"last_update":"0001-01-01T00:00:00Z","name_a2s":"Uncletopia | London | 2 | All Maps","protocol":17,"map":"cp_powerhouse","folder":"tf","game":"Team Fortress","app_id":440,"player_count":24,"max_players":24,"Bots":0,"server_type":"Dedicated","server_os":"Linux","password":true,"vac":true,"version":"7757534","steam_id":85568392924470941,"keywords":["cp","nocrits","nodmgspread","uncletopia"],"game_id":440,"stv_port":27026,"stv_name":"Uncletopia | London | 2 | All Maps | STV","players":[{"user_id":322,"name":"LOBZIK","steam_id":76561198114830120,"connected_time":2295000000000,"state":"active","ping":78},{"user_id":335,"name":"Perämiehenä","steam_id":76561197968945306,"connected_time":1488000000000,"state":"active","ping":73},{"user_id":351,"name":"Sckytes","steam_id":76561198046050018,"connected_time":165000000000,"state":"active","ping":81},{"user_id":340,"name":"T1 (ted1)","steam_id":76561199229022826,"connected_time":860000000000,"state":"active","ping":98},{"user_id":338,"name":"1couver","steam_id":76561198168553215,"connected_time":970000000000,"state":"active","ping":105},{"user_id":324,"name":"S0LDaTo","steam_id":76561198269413360,"connected_time":2274000000000,"state":"active","ping":66},{"user_id":341,"name":"ShiftingMind","steam_id":76561198448975127,"connected_time":827000000000,"state":"active","ping":91},{"user_id":352,"name":"Mirrorman96","steam_id":76561198028028658,"connected_time":0,"state":"spawning","ping":0},{"user_id":326,"name":"Man O' Steel","steam_id":76561198108612758,"connected_time":2265000000000,"state":"active","ping":63},{"user_id":327,"name":"sv_MrGibbs","steam_id":76561198114071972,"connected_time":2263000000000,"state":"active","ping":43},{"user_id":343,"name":"Default Profile Picture","steam_id":76561198358456877,"connected_time":813000000000,"state":"active","ping":66},{"user_id":348,"name":"Bulyto","steam_id":76561198043205202,"connected_time":682000000000,"state":"active","ping":67},{"user_id":345,"name":"Klinmir","steam_id":76561198352339376,"connected_time":786000000000,"state":"active","ping":103},{"user_id":328,"name":"Fennec","steam_id":76561198073255476,"connected_time":2260000000000,"state":"active","ping":57},{"user_id":332,"name":"sigma","steam_id":76561198135746029,"connected_time":2139000000000,"state":"active","ping":55},{"user_id":318,"name":"MÉZ","steam_id":76561198167504701,"connected_time":2486000000000,"state":"active","ping":70},{"user_id":346,"name":"Kevin","steam_id":76561198035625423,"connected_time":786000000000,"state":"active","ping":86},{"user_id":330,"name":"Prinz Eugen","steam_id":76561198129154766,"connected_time":2241000000000,"state":"active","ping":57},{"user_id":277,"name":"Gaius","steam_id":76561198188174963,"connected_time":4480000000000,"state":"active","ping":41},{"user_id":331,"name":"Painfully Average","steam_id":76561198381881577,"connected_time":2223000000000,"state":"active","ping":131},{"user_id":317,"name":"ani","steam_id":76561198255413507,"connected_time":2553000000000,"state":"active","ping":89},{"user_id":347,"name":"S_ApplePie","steam_id":76561198106947669,"connected_time":780000000000,"state":"active","ping":84},{"user_id":290,"name":"SoupER","steam_id":76561198063056668,"connected_time":4115000000000,"state":"active","ping":49},{"user_id":350,"name":"Poodle","steam_id":76561198015483504,"connected_time":405000000000,"state":"active","ping":85}]},{"server_id":320,"name":"Uncletopia | London | 3 | All Maps","name_short":"lon-3","host":"lon-1.uk.uncletopia.com","port":27035,"enabled":true,"region":"eu","cc":"gb","latitude":51.509865,"longitude":-0.118092,"reserved":0,"last_update":"0001-01-01T00:00:00Z","name_a2s":"Uncletopia | London | 3 | All Maps","protocol":17,"map":"koth_lakeside_final","folder":"tf","game":"Team Fortress","app_id":440,"player_count":0,"max_players":24,"Bots":0,"server_type":"Dedicated","server_os":"Linux","password":true,"vac":true,"version":"7757534","steam_id":85568392924510192,"keywords":["cp","nocrits","nodmgspread","uncletopia"],"game_id":440,"stv_port":27036,"stv_name":"Uncletopia | London | 3 | All Maps | STV","players":null},{"server_id":321,"name":"Uncletopia | London | 4 | All Maps","name_short":"lon-4","host":"lon-1.uk.uncletopia.com","port":27045,"enabled":true,"region":"eu","cc":"gb","latitude":51.509865,"longitude":-0.118092,"reserved":0,"last_update":"0001-01-01T00:00:00Z","name_a2s":"Uncletopia | London | 4 | All Maps","protocol":17,"map":"koth_cascade","folder":"tf","game":"Team Fortress","app_id":440,"player_count":0,"max_players":24,"Bots":0,"server_type":"Dedicated","server_os":"Linux","password":true,"vac":true,"version":"7757534","steam_id":85568392924510193,"keywords":["cp","nocrits","nodmgspread","uncletopia"],"game_id":440,"stv_port":27046,"stv_name":"Uncletopia | London | 4 | All Maps | STV","players":null},{"server_id":21,"name":"Uncletopia | London | 5 | All Maps","name_short":"lon-5","host":"lon-1.uk.uncletopia.com","port":27055,"enabled":true,"region":"eu","cc":"gb","latitude":51.509865,"longitude":-0.118092,"reserved":0,"last_update":"0001-01-01T00:00:00Z","name_a2s":"Uncletopia | London | 5 | All Maps","protocol":17,"map":"cp_metalworks","folder":"tf","game":"Team Fortress","app_id":440,"player_count":21,"max_players":24,"Bots":0,"server_type":"Dedicated","server_os":"Linux","password":true,"vac":true,"version":"7757534","steam_id":85568392924742829,"keywords":["cp","nocrits","nodmgspread","uncletopia"],"game_id":440,"stv_port":27056,"stv_name":"Uncletopia | London | 5 | All Maps | STV","players":[{"user_id":233,"name":"Fat Pigeon","steam_id":76561198817940142,"connected_time":5277000000000,"state":"active","ping":54},{"user_id":295,"name":"Ze","steam_id":76561198314901652,"connected_time":622000000000,"state":"active","ping":67},{"user_id":299,"name":"the real lancer from deltarune","steam_id":76561199078505144,"connected_time":365000000000,"state":"active","ping":91},{"user_id":296,"name":"Jørn","steam_id":76561199073257952,"connected_time":514000000000,"state":"active","ping":71},{"user_id":269,"name":"pinkerton","steam_id":76561198083103830,"connected_time":1869000000000,"state":"active","ping":119},{"user_id":285,"name":"purplecan","steam_id":76561199208283508,"connected_time":970000000000,"state":"active","ping":82},{"user_id":297,"name":"Arcweld","steam_id":76561198816060720,"connected_time":453000000000,"state":"active","ping":67},{"user_id":300,"name":"ЖидоMUDведь","steam_id":76561197993319696,"connected_time":363000000000,"state":"active","ping":105},{"user_id":292,"name":"JC","steam_id":76561198029213352,"connected_time":744000000000,"state":"active","ping":44},{"user_id":288,"name":"PotatoBob","steam_id":76561199192517531,"connected_time":860000000000,"state":"active","ping":54},{"user_id":303,"name":"Jack","steam_id":76561198325505238,"connected_time":134000000000,"state":"active","ping":82},{"user_id":273,"name":"waffle toaster","steam_id":76561198799089628,"connected_time":1810000000000,"state":"active","ping":45},{"user_id":231,"name":"subway vergil","steam_id":76561199110064166,"connected_time":5468000000000,"state":"active","ping":63},{"user_id":289,"name":"Potato","steam_id":76561198883934935,"connected_time":840000000000,"state":"active","ping":72},{"user_id":203,"name":"_zipfile","steam_id":76561198066133808,"connected_time":7292000000000,"state":"active","ping":71},{"user_id":304,"name":"random_player691","steam_id":76561199209946306,"connected_time":118000000000,"state":"active","ping":48},{"user_id":294,"name":"Cuthbert","steam_id":76561198204649481,"connected_time":660000000000,"state":"active","ping":118},{"user_id":263,"name":"Flare","steam_id":76561198039098320,"connected_time":2120000000000,"state":"active","ping":54},{"user_id":298,"name":"e36 1.8","steam_id":76561198134203031,"connected_time":412000000000,"state":"active","ping":70},{"user_id":249,"name":"X-tis","steam_id":76561198043837480,"connected_time":3730000000000,"state":"active","ping":62},{"user_id":262,"name":"duster cat","steam_id":76561198832231975,"connected_time":2170000000000,"state":"active","ping":93}]},{"server_id":22,"name":"Uncletopia | London | 6 | All Maps","name_short":"lon-6","host":"lon-1.uk.uncletopia.com","port":27065,"enabled":true,"region":"eu","cc":"gb","latitude":51.509865,"longitude":-0.118092,"reserved":0,"last_update":"0001-01-01T00:00:00Z","name_a2s":"Uncletopia | London | 6 | All Maps","protocol":17,"map":"cp_process_final","folder":"tf","game":"Team Fortress","app_id":440,"player_count":0,"max_players":24,"Bots":0,"server_type":"Dedicated","server_os":"Linux","password":true,"vac":true,"version":"7757534","steam_id":85568392924742830,"keywords":["cp","nocrits","nodmgspread","uncletopia"],"game_id":440,"stv_port":27066,"stv_name":"Uncletopia | London | 6 | All Maps | STV","players":null},{"server_id":40,"name":"Uncletopia | London | 7 | No Payload","name_short":"lon-7","host":"lon-1.uk.uncletopia.com","port":27075,"enabled":true,"region":"eu","cc":"gb","latitude":51.509865,"longitude":-0.118092,"reserved":0,"last_update":"0001-01-01T00:00:00Z","name_a2s":"Uncletopia | London | 7 | No Payload","protocol":17,"map":"plr_hightower","folder":"tf","game":"Team Fortress","app_id":440,"player_count":19,"max_players":24,"Bots":0,"server_type":"Dedicated","server_os":"Linux","password":true,"vac":true,"version":"7757534","steam_id":85568392924964314,"keywords":["nocrits","nodmgspread","payload","uncletopia"],"game_id":440,"stv_port":27076,"stv_name":"Uncletopia | London | 7 | No Payload | STV","players":[{"user_id":149,"name":"Tomau5","steam_id":76561198027409468,"connected_time":2026000000000,"state":"active","ping":53},{"user_id":161,"name":"Mercury","steam_id":76561198148379456,"connected_time":656000000000,"state":"active","ping":85},{"user_id":172,"name":"Dingus","steam_id":76561198140514058,"connected_time":370000000000,"state":"active","ping":39},{"user_id":160,"name":"PilloF","steam_id":76561198088635943,"connected_time":669000000000,"state":"active","ping":75},{"user_id":175,"name":"Ma͡xim͜us","steam_id":76561197970986094,"connected_time":222000000000,"state":"active","ping":55},{"user_id":176,"name":"abigail","steam_id":76561198132932617,"connected_time":162000000000,"state":"active","ping":59},{"user_id":177,"name":"🌼 HugeE","steam_id":76561198245495152,"connected_time":152000000000,"state":"active","ping":60},{"user_id":166,"name":"TheWalrusSociety","steam_id":76561198042997812,"connected_time":541000000000,"state":"active","ping":86},{"user_id":165,"name":"khô","steam_id":76561198988750340,"connected_time":571000000000,"state":"active","ping":74},{"user_id":108,"name":"MelonLikeAFelon","steam_id":76561198060170336,"connected_time":4769000000000,"state":"active","ping":162},{"user_id":109,"name":"IndigoJones","steam_id":76561198050284262,"connected_time":4745000000000,"state":"active","ping":44},{"user_id":138,"name":"Peroxot","steam_id":76561198387927289,"connected_time":3049000000000,"state":"active","ping":75},{"user_id":167,"name":"Sputnik1","steam_id":76561199059003709,"connected_time":513000000000,"state":"active","ping":131},{"user_id":168,"name":"Hector","steam_id":76561198028618586,"connected_time":465000000000,"state":"active","ping":66},{"user_id":89,"name":"lazoboy","steam_id":76561199074095198,"connected_time":5857000000000,"state":"active","ping":120},{"user_id":135,"name":"Rayoo 420 BLAZE IT 🐟","steam_id":76561198215225492,"connected_time":3152000000000,"state":"active","ping":56},{"user_id":142,"name":"Pls.do.it!","steam_id":76561198211638119,"connected_time":2988000000000,"state":"active","ping":71},{"user_id":125,"name":"FUKAYU","steam_id":76561198380484033,"connected_time":3694000000000,"state":"active","ping":47},{"user_id":174,"name":"meriones","steam_id":76561198034234373,"connected_time":352000000000,"state":"active","ping":45}]},{"server_id":41,"name":"Uncletopia | London | 8 | Community","name_short":"lon-8","host":"lon-1.uk.uncletopia.com","port":27085,"enabled":true,"region":"eu","cc":"gb","latitude":51.509865,"longitude":-0.118092,"reserved":0,"last_update":"0001-01-01T00:00:00Z","name_a2s":"Uncletopia | London | 8 | Community","protocol":17,"map":"workshop/pl_fifthcurve_rc1.ugc648227046","folder":"tf","game":"Team Fortress","app_id":440,"player_count":0,"max_players":24,"Bots":0,"server_type":"Dedicated","server_os":"Linux","password":true,"vac":true,"version":"7757534","steam_id":85568392924964315,"keywords":["nocrits","nodmgspread","payload","uncletopia"],"game_id":440,"stv_port":27086,"stv_name":"Uncletopia | London | 8 | Community | STV","players":null},{"server_id":300,"name":"Uncletopia | Montréal | 1 | All Maps","name_short":"mtl-1","host":"mtl-1.ca.uncletopia.com","port":27015,"enabled":true,"region":"us-east","cc":"ca","latitude":45.50889,"longitude":-73.56167,"reserved":0,"last_update":"0001-01-01T00:00:00Z","name_a2s":"Uncletopia | Montréal | 1 | All Maps","protocol":17,"map":"koth_cascade","folder":"tf","game":"Team Fortress","app_id":440,"player_count":0,"max_players":24,"Bots":0,"server_type":"Dedicated","server_os":"Linux","password":true,"vac":true,"version":"7757534","steam_id":85568392924500087,"keywords":["cp","nocrits","nodmgspread","uncletopia"],"game_id":440,"stv_port":27016,"stv_name":"Uncletopia | Montréal | 1 | All Maps | STV","players":null},{"server_id":301,"name":"Uncletopia | Montréal | 2 | All Maps","name_short":"mtl-2","host":"mtl-1.ca.uncletopia.com","port":27025,"enabled":true,"region":"us-east","cc":"ca","latitude":45.50889,"longitude":-73.56167,"reserved":0,"last_update":"0001-01-01T00:00:00Z","name_a2s":"Uncletopia | Montréal | 2 | All Maps","protocol":17,"map":"pl_borneo","folder":"tf","game":"Team Fortress","app_id":440,"player_count":0,"max_players":24,"Bots":0,"server_type":"Dedicated","server_os":"Linux","password":true,"vac":true,"version":"7757534","steam_id":85568392924500088,"keywords":["nocrits","nodmgspread","payload","uncletopia"],"game_id":440,"stv_port":27026,"stv_name":"Uncletopia | Montréal | 2 | All Maps | STV","players":null},{"server_id":302,"name":"Uncletopia | Montréal | 3 | All Maps","name_short":"mtl-3","host":"mtl-1.ca.uncletopia.com","port":27035,"enabled":true,"region":"us-east","cc":"ca","latitude":45.50889,"longitude":-73.56167,"reserved":0,"last_update":"0001-01-01T00:00:00Z","name_a2s":"Uncletopia | Montréal | 3 | All Maps","protocol":17,"map":"cp_sunshine","folder":"tf","game":"Team Fortress","app_id":440,"player_count":0,"max_players":24,"Bots":0,"server_type":"Dedicated","server_os":"Linux","password":true,"vac":true,"version":"7757534","steam_id":85568392924500089,"keywords":["cp","nocrits","nodmgspread","uncletopia"],"game_id":440,"stv_port":27036,"stv_name":"Uncletopia | Montréal | 3 | All Maps | STV","players":null},{"server_id":303,"name":"Uncletopia | Montréal | 4 | No Payload","name_short":"mtl-4","host":"mtl-1.ca.uncletopia.com","port":27045,"enabled":true,"region":"us-east","cc":"ca","latitude":45.50889,"longitude":-73.56167,"reserved":0,"last_update":"0001-01-01T00:00:00Z","name_a2s":"Uncletopia | Montréal | 4 | No Payload","protocol":17,"map":"koth_lakeside_final","folder":"tf","game":"Team Fortress","app_id":440,"player_count":0,"max_players":24,"Bots":0,"server_type":"Dedicated","server_os":"Linux","password":true,"vac":true,"version":"7757534","steam_id":85568392924500090,"keywords":["cp","nocrits","nodmgspread","uncletopia"],"game_id":440,"stv_port":27046,"stv_name":"Uncletopia | Montréal | 4 | No Payload | STV","players":null},{"server_id":13,"name":"Uncletopia | New York City | 1 | All Maps","name_short":"nyc-1","host":"nyc-1.us.uncletopia.com","port":27015,"enabled":true,"region":"us-east","cc":"us","latitude":40.73061,"longitude":-73.93524,"reserved":0,"last_update":"0001-01-01T00:00:00Z","name_a2s":"Uncletopia | New York City | 1 | All Maps","protocol":17,"map":"pl_borneo","folder":"tf","game":"Team Fortress","app_id":440,"player_count":0,"max_players":24,"Bots":0,"server_type":"Dedicated","server_os":"Linux","password":true,"vac":true,"version":"7757534","steam_id":85568392924469993,"keywords":["nocrits","nodmgspread","payload","uncletopia"],"game_id":440,"stv_port":27016,"stv_name":"Uncletopia | New York City | 1 | All Maps | STV","players":null},{"server_id":14,"name":"Uncletopia | New York City | 2 | All Maps","name_short":"nyc-2","host":"nyc-1.us.uncletopia.com","port":27025,"enabled":true,"region":"us-east","cc":"us","latitude":40.73061,"longitude":-73.93524,"reserved":0,"last_update":"0001-01-01T00:00:00Z","name_a2s":"Uncletopia | New York City | 2 | All Maps","protocol":17,"map":"koth_viaduct","folder":"tf","game":"Team Fortress","app_id":440,"player_count":0,"max_players":24,"Bots":0,"server_type":"Dedicated","server_os":"Linux","password":true,"vac":true,"version":"7757534","steam_id":85568392924469994,"keywords":["cp","nocrits","nodmgspread","uncletopia"],"game_id":440,"stv_port":27026,"stv_name":"Uncletopia | New York City | 2 | All Maps | STV","players":null},{"server_id":15,"name":"Uncletopia | New York City | 3 | Stopwatch Beta","name_short":"nyc-3","host":"nyc-1.us.uncletopia.com","port":27035,"enabled":true,"region":"us-east","cc":"us","latitude":40.73061,"longitude":-73.93524,"reserved":0,"last_update":"0001-01-01T00:00:00Z","name_a2s":"Uncletopia | New York City | 3 | Stopwatch Beta","protocol":17,"map":"koth_lakeside_final","folder":"tf","game":"Team Fortress","app_id":440,"player_count":0,"max_players":24,"Bots":0,"server_type":"Dedicated","server_os":"Linux","password":true,"vac":true,"version":"7757534","steam_id":85568392924742820,"keywords":["cp","nocrits","nodmgspread","uncletopia"],"game_id":440,"stv_port":27036,"stv_name":"Uncletopia | New York City | 3 | Stopwatch Beta | STV","players":null},{"server_id":16,"name":"Uncletopia | New York City | 4 | Community","name_short":"nyc-4","host":"nyc-1.us.uncletopia.com","port":27045,"enabled":true,"region":"us-east","cc":"us","latitude":40.73061,"longitude":-73.93524,"reserved":0,"last_update":"0001-01-01T00:00:00Z","name_a2s":"Uncletopia | New York City | 4 | Community","protocol":17,"map":"workshop/koth_bagel_rc5.ugc2514036946","folder":"tf","game":"Team Fortress","app_id":440,"player_count":0,"max_players":24,"Bots":0,"server_type":"Dedicated","server_os":"Linux","password":true,"vac":true,"version":"7757534","steam_id":85568392924742821,"keywords":["cp","nocrits","nodmgspread","uncletopia"],"game_id":440,"stv_port":27046,"stv_name":"Uncletopia | New York City | 4 | Community | STV","players":null},{"server_id":142,"name":"Uncletopia | São Paulo | 1 | All Maps","name_short":"sao-1","host":"sao-1.br.uncletopia.com","port":27015,"enabled":true,"region":"sa","cc":"br","latitude":-23.533773,"longitude":-46.62529,"reserved":0,"last_update":"0001-01-01T00:00:00Z","name_a2s":"Uncletopia | São Paulo | 1 | All Maps","protocol":17,"map":"pl_snowycoast","folder":"tf","game":"Team Fortress","app_id":440,"player_count":0,"max_players":24,"Bots":0,"server_type":"Dedicated","server_os":"Linux","password":true,"vac":true,"version":"7757534","steam_id":85568392924469996,"keywords":["nocrits","nodmgspread","payload","uncletopia"],"game_id":440,"stv_port":27016,"stv_name":"Uncletopia | São Paulo | 1 | All Maps | STV","players":null},{"server_id":143,"name":"Uncletopia | São Paulo | 2 | All Maps","name_short":"sao-2","host":"sao-2.br.uncletopia.com","port":27015,"enabled":true,"region":"sa","cc":"br","latitude":-23.533773,"longitude":-46.62529,"reserved":0,"last_update":"0001-01-01T00:00:00Z","name_a2s":"Uncletopia | São Paulo | 2 | All Maps","protocol":17,"map":"pl_barnblitz","folder":"tf","game":"Team Fortress","app_id":440,"player_count":0,"max_players":24,"Bots":0,"server_type":"Dedicated","server_os":"Linux","password":true,"vac":true,"version":"7757534","steam_id":85568392924485349,"keywords":["nocrits","nodmgspread","payload","uncletopia"],"game_id":440,"stv_port":27016,"stv_name":"Uncletopia | São Paulo | 2 | All Maps | STV","players":null},{"server_id":7,"name":"Uncletopia | Seattle | 1 | All Maps","name_short":"sea-1","host":"sea-1.us.uncletopia.com","port":27015,"enabled":true,"region":"us-west","cc":"us","latitude":47.608013,"longitude":-122.33517,"reserved":0,"last_update":"0001-01-01T00:00:00Z","name_a2s":"Uncletopia | Seattle | 1 | All Maps","protocol":17,"map":"pl_badwater","folder":"tf","game":"Team Fortress","app_id":440,"player_count":0,"max_players":24,"Bots":0,"server_type":"Dedicated","server_os":"Linux","password":true,"vac":true,"version":"7757534","steam_id":85568392924469997,"keywords":["nocrits","nodmgspread","payload","uncletopia"],"game_id":440,"stv_port":27016,"stv_name":"Uncletopia | Seattle | 1 | All Maps | STV","players":null},{"server_id":119,"name":"Uncletopia | Seattle | 2 | All Maps","name_short":"sea-2","host":"sea-1.us.uncletopia.com","port":27025,"enabled":true,"region":"us-west","cc":"us","latitude":47.608013,"longitude":-122.33517,"reserved":0,"last_update":"0001-01-01T00:00:00Z","name_a2s":"Uncletopia | Seattle | 2 | All Maps","protocol":17,"map":"pl_swiftwater_final1","folder":"tf","game":"Team Fortress","app_id":440,"player_count":0,"max_players":24,"Bots":0,"server_type":"Dedicated","server_os":"Linux","password":true,"vac":true,"version":"7757534","steam_id":85568392924469998,"keywords":["nocrits","nodmgspread","payload","uncletopia"],"game_id":440,"stv_port":27026,"stv_name":"Uncletopia | Seattle | 2 | All Maps | STV","players":null},{"server_id":406,"name":"Uncletopia | Seattle | 3 | Stopwatch Beta","name_short":"sea-3","host":"sea-1.us.uncletopia.com","port":27035,"enabled":true,"region":"us-west","cc":"us","latitude":47.608013,"longitude":-122.33517,"reserved":0,"last_update":"0001-01-01T00:00:00Z","name_a2s":"Uncletopia | Seattle | 3 | Stopwatch Beta","protocol":17,"map":"workshop/koth_bagel_rc5.ugc2514036946","folder":"tf","game":"Team Fortress","app_id":440,"player_count":0,"max_players":24,"Bots":0,"server_type":"Dedicated","server_os":"Linux","password":true,"vac":true,"version":"7757534","steam_id":85568392924515217,"keywords":["cp","nocrits","nodmgspread","uncletopia"],"game_id":440,"stv_port":27036,"stv_name":"Uncletopia | Seattle | 3 | Stopwatch Beta | STV","players":null},{"server_id":17,"name":"Uncletopia | San Francisco | 1 | All Maps","name_short":"sfo-1","host":"sfo-1.us.uncletopia.com","port":27015,"enabled":true,"region":"us-west","cc":"us","latitude":37.77397,"longitude":-122.4313,"reserved":0,"last_update":"0001-01-01T00:00:00Z","name_a2s":"Uncletopia | San Francisco | 1 | All Maps","protocol":17,"map":"pl_snowycoast","folder":"tf","game":"Team Fortress","app_id":440,"player_count":0,"max_players":24,"Bots":0,"server_type":"Dedicated","server_os":"Linux","password":true,"vac":true,"version":"7757534","steam_id":85568392924469999,"keywords":["nocrits","nodmgspread","payload","uncletopia"],"game_id":440,"stv_port":27016,"stv_name":"Uncletopia | San Francisco | 1 | All Maps | STV","players":null},{"server_id":18,"name":"Uncletopia | San Francisco | 2 | All Maps","name_short":"sfo-2","host":"sfo-1.us.uncletopia.com","port":27025,"enabled":true,"region":"us-west","cc":"us","latitude":37.77397,"longitude":-122.4313,"reserved":0,"last_update":"0001-01-01T00:00:00Z","name_a2s":"Uncletopia | San Francisco | 2 | All Maps","protocol":17,"map":"cp_snakewater_final1","folder":"tf","game":"Team Fortress","app_id":440,"player_count":0,"max_players":24,"Bots":0,"server_type":"Dedicated","server_os":"Linux","password":true,"vac":true,"version":"7757534","steam_id":85568392924470000,"keywords":["cp","nocrits","nodmgspread","uncletopia"],"game_id":440,"stv_port":27026,"stv_name":"Uncletopia | San Francisco | 2 | All Maps | STV","players":null},{"server_id":19,"name":"Uncletopia | San Francisco | 3 | Stopwatch Beta","name_short":"sfo-3","host":"sfo-1.us.uncletopia.com","port":27035,"enabled":true,"region":"us-west","cc":"us","latitude":37.77397,"longitude":-122.4313,"reserved":0,"last_update":"0001-01-01T00:00:00Z","name_a2s":"Uncletopia | San Francisco | 3 | Stopwatch Beta","protocol":17,"map":"workshop/koth_clearcut_b15.ugc2107050255","folder":"tf","game":"Team Fortress","app_id":440,"player_count":0,"max_players":24,"Bots":0,"server_type":"Dedicated","server_os":"Linux","password":true,"vac":true,"version":"7757534","steam_id":85568392924742824,"keywords":["cp","nocrits","nodmgspread","uncletopia"],"game_id":440,"stv_port":27036,"stv_name":"Uncletopia | San Francisco | 3 | Stopwatch Beta | STV","players":null},{"server_id":20,"name":"Uncletopia | San Francisco | 4 | Community","name_short":"sfo-4","host":"sfo-1.us.uncletopia.com","port":27045,"enabled":true,"region":"us-west","cc":"us","latitude":37.77397,"longitude":-122.4313,"reserved":0,"last_update":"0001-01-01T00:00:00Z","name_a2s":"Uncletopia | San Francisco | 4 | Community","protocol":17,"map":"workshop/pl_eruption_b9a.ugc2807898013","folder":"tf","game":"Team Fortress","app_id":440,"player_count":21,"max_players":24,"Bots":0,"server_type":"Dedicated","server_os":"Linux","password":true,"vac":true,"version":"7757534","steam_id":85568392924742826,"keywords":["nocrits","nodmgspread","payload","uncletopia"],"game_id":440,"stv_port":27046,"stv_name":"Uncletopia | San Francisco | 4 | Community | STV","players":[{"user_id":874,"name":"Defeat","steam_id":76561198065203818,"connected_time":510000000000,"state":"active","ping":56},{"user_id":878,"name":"rice white","steam_id":76561198320732910,"connected_time":203000000000,"state":"active","ping":120},{"user_id":885,"name":"foog tropler","steam_id":76561198968338494,"connected_time":0,"state":"spawning","ping":15},{"user_id":820,"name":"Grapefruit","steam_id":76561198269253587,"connected_time":4079000000000,"state":"active","ping":47},{"user_id":877,"name":"Dusk (little)","steam_id":76561198088681558,"connected_time":380000000000,"state":"active","ping":63},{"user_id":664,"name":"daemon","steam_id":76561198001541433,"connected_time":19085000000000,"state":"active","ping":105},{"user_id":860,"name":"Link2434","steam_id":76561198020477928,"connected_time":1435000000000,"state":"active","ping":85},{"user_id":861,"name":"AzovStal'","steam_id":76561198081841996,"connected_time":1359000000000,"state":"active","ping":70},{"user_id":875,"name":"CMDR Osowiec","steam_id":76561198267752855,"connected_time":496000000000,"state":"active","ping":73},{"user_id":883,"name":"asyashi","steam_id":76561198111365589,"connected_time":118000000000,"state":"active","ping":181},{"user_id":880,"name":"goop","steam_id":76561198311256085,"connected_time":158000000000,"state":"active","ping":97},{"user_id":846,"name":"Laszlo","steam_id":76561198141198352,"connected_time":2738000000000,"state":"active","ping":91},{"user_id":838,"name":"Fishtacollahma","steam_id":76561198060115913,"connected_time":3052000000000,"state":"active","ping":63},{"user_id":856,"name":"Flexicus","steam_id":76561198041863013,"connected_time":1841000000000,"state":"active","ping":62},{"user_id":867,"name":"Anxious Nerd Bird","steam_id":76561198112178602,"connected_time":966000000000,"state":"active","ping":76},{"user_id":858,"name":"kramer","steam_id":76561198117761965,"connected_time":1742000000000,"state":"active","ping":119},{"user_id":859,"name":"Midwest emo is a gang","steam_id":76561198094281330,"connected_time":1690000000000,"state":"active","ping":121},{"user_id":865,"name":"Cookie Dough","steam_id":76561198882007496,"connected_time":1186000000000,"state":"active","ping":99},{"user_id":884,"name":"normalperson","steam_id":76561199376144500,"connected_time":95000000000,"state":"active","ping":220},{"user_id":881,"name":"saul goodman","steam_id":76561199165336576,"connected_time":146000000000,"state":"active","ping":92},{"user_id":823,"name":"Justiceinacan","steam_id":76561198067238033,"connected_time":4022000000000,"state":"active","ping":129}]},{"server_id":141,"name":"Uncletopia | Sydney | 1 | All Maps","name_short":"syd-1","host":"syd-1.au.uncletopia.com","port":27015,"enabled":true,"region":"au","cc":"au","latitude":-33.865143,"longitude":151.2099,"reserved":0,"last_update":"0001-01-01T00:00:00Z","name_a2s":"Uncletopia | Sydney | 1 | All Maps","protocol":17,"map":"pl_barnblitz","folder":"tf","game":"Team Fortress","app_id":440,"player_count":0,"max_players":24,"Bots":0,"server_type":"Dedicated","server_os":"Linux","password":true,"vac":true,"version":"7757534","steam_id":85568392924470001,"keywords":["nocrits","nodmgspread","payload","uncletopia"],"game_id":440,"stv_port":27016,"stv_name":"Uncletopia | Sydney | 1 | All Maps | STV","players":null},{"server_id":123,"name":"Uncletopia | Sydney | 2 | All Maps","name_short":"syd-2","host":"syd-1.au.uncletopia.com","port":27025,"enabled":true,"region":"au","cc":"au","latitude":-33.865143,"longitude":151.2099,"reserved":0,"last_update":"0001-01-01T00:00:00Z","name_a2s":"Uncletopia | Sydney | 2 | All Maps","protocol":17,"map":"pl_badwater","folder":"tf","game":"Team Fortress","app_id":440,"player_count":24,"max_players":24,"Bots":0,"server_type":"Dedicated","server_os":"Linux","password":true,"vac":true,"version":"7757534","steam_id":85568392924470002,"keywords":["nocrits","nodmgspread","payload","uncletopia"],"game_id":440,"stv_port":27026,"stv_name":"Uncletopia | Sydney | 2 | All Maps | STV","players":[{"user_id":447,"name":"Lincoln2603","steam_id":76561198170236666,"connected_time":1503000000000,"state":"active","ping":44},{"user_id":413,"name":"The Bisoneer TF2","steam_id":76561199446773766,"connected_time":4617000000000,"state":"active","ping":84},{"user_id":440,"name":"bagurgher","steam_id":76561198198491197,"connected_time":2396000000000,"state":"active","ping":56},{"user_id":448,"name":"kyokai","steam_id":76561198341072593,"connected_time":1347000000000,"state":"active","ping":80},{"user_id":449,"name":"Grumpholdian","steam_id":76561198349707208,"connected_time":1342000000000,"state":"active","ping":89},{"user_id":425,"name":"Branko","steam_id":76561199262196710,"connected_time":3702000000000,"state":"active","ping":35},{"user_id":450,"name":"Pow!","steam_id":76561198271701272,"connected_time":1327000000000,"state":"active","ping":70},{"user_id":457,"name":"Hardcase","steam_id":76561198124442611,"connected_time":356000000000,"state":"active","ping":78},{"user_id":458,"name":"Hooray!","steam_id":76561198066726621,"connected_time":330000000000,"state":"active","ping":45},{"user_id":468,"name":"wackel","steam_id":76561198091003826,"connected_time":164000000000,"state":"active","ping":60},{"user_id":469,"name":"Sirpiggy","steam_id":76561198294985303,"connected_time":113000000000,"state":"active","ping":281},{"user_id":459,"name":"old chunk of coal","steam_id":76561197990537324,"connected_time":285000000000,"state":"active","ping":107},{"user_id":460,"name":"l333am","steam_id":76561198363218204,"connected_time":279000000000,"state":"active","ping":65},{"user_id":461,"name":"Oysenberry","steam_id":76561198125443335,"connected_time":275000000000,"state":"active","ping":34},{"user_id":462,"name":"aerO.","steam_id":76561197988828263,"connected_time":273000000000,"state":"active","ping":64},{"user_id":463,"name":"Anime Cat Girl","steam_id":76561198406388524,"connected_time":272000000000,"state":"active","ping":56},{"user_id":464,"name":"NateSquared","steam_id":76561198324329687,"connected_time":253000000000,"state":"active","ping":75},{"user_id":465,"name":"synthemesc","steam_id":76561198046712125,"connected_time":250000000000,"state":"active","ping":82},{"user_id":466,"name":"KillerBlow","steam_id":76561198930232832,"connected_time":250000000000,"state":"active","ping":83},{"user_id":467,"name":"Y0shua3","steam_id":76561199381627916,"connected_time":235000000000,"state":"active","ping":98},{"user_id":470,"name":"Jy","steam_id":76561198104427524,"connected_time":94000000000,"state":"active","ping":54},{"user_id":471,"name":"online marketer","steam_id":76561198814458512,"connected_time":74000000000,"state":"active","ping":90},{"user_id":472,"name":"FailFish","steam_id":76561198054886877,"connected_time":23000000000,"state":"active","ping":67},{"user_id":473,"name":"Simon","steam_id":76561199122086348,"connected_time":8000000000,"state":"spawning","ping":331}]},{"server_id":395,"name":"Uncletopia | Sydney | 3 | All Maps","name_short":"syd-3","host":"syd-1.au.uncletopia.com","port":27035,"enabled":true,"region":"au","cc":"au","latitude":-33.865143,"longitude":151.2099,"reserved":0,"last_update":"0001-01-01T00:00:00Z","name_a2s":"Uncletopia | Sydney | 3 | All Maps","protocol":17,"map":"koth_viaduct","folder":"tf","game":"Team Fortress","app_id":440,"player_count":0,"max_players":24,"Bots":0,"server_type":"Dedicated","server_os":"Linux","password":true,"vac":true,"version":"7757534","steam_id":85568392925194467,"keywords":["cp","nocrits","nodmgspread","uncletopia"],"game_id":440,"stv_port":27036,"stv_name":"Uncletopia | Sydney | 3 | All Maps | STV","players":null},{"server_id":396,"name":"Uncletopia | Sydney | 4 | All Maps","name_short":"syd-4","host":"syd-1.au.uncletopia.com","port":27045,"enabled":true,"region":"au","cc":"au","latitude":-33.865143,"longitude":151.2099,"reserved":0,"last_update":"0001-01-01T00:00:00Z","name_a2s":"Uncletopia | Sydney | 4 | All Maps","protocol":17,"map":"koth_highpass","folder":"tf","game":"Team Fortress","app_id":440,"player_count":0,"max_players":24,"Bots":0,"server_type":"Dedicated","server_os":"Linux","password":true,"vac":true,"version":"7757534","steam_id":85568392925397958,"keywords":["cp","nocrits","nodmgspread","uncletopia"],"game_id":440,"stv_port":27046,"stv_name":"Uncletopia | Sydney | 4 | All Maps | STV","players":null},{"server_id":58,"name":"Uncletopia | Sydney | 5 | Stopwatch Beta","name_short":"syd-5","host":"syd-1.au.uncletopia.com","port":27055,"enabled":true,"region":"au","cc":"au","latitude":-33.865143,"longitude":151.2099,"reserved":0,"last_update":"0001-01-01T00:00:00Z","name_a2s":"Uncletopia | Sydney | 5 | Stopwatch Beta","protocol":17,"map":"workshop/koth_ashville_final.ugc2130459942","folder":"tf","game":"Team Fortress","app_id":440,"player_count":0,"max_players":24,"Bots":0,"server_type":"Dedicated","server_os":"Linux","password":true,"vac":true,"version":"7757534","steam_id":85568392925397959,"keywords":["cp","nocrits","nodmgspread","uncletopia"],"game_id":440,"stv_port":27056,"stv_name":"Uncletopia | Sydney | 5 | Stopwatch Beta | STV","players":null},{"server_id":59,"name":"Uncletopia | Sydney | 6 | Community","name_short":"syd-6","host":"syd-1.au.uncletopia.com","port":27065,"enabled":true,"region":"au","cc":"au","latitude":-33.865143,"longitude":151.2099,"reserved":0,"last_update":"0001-01-01T00:00:00Z","name_a2s":"Uncletopia | Sydney | 6 | Community","protocol":17,"map":"workshop/koth_ashville_final.ugc2130459942","folder":"tf","game":"Team Fortress","app_id":440,"player_count":0,"max_players":24,"Bots":0,"server_type":"Dedicated","server_os":"Linux","password":true,"vac":true,"version":"7757534","steam_id":85568392925397960,"keywords":["cp","nocrits","nodmgspread","uncletopia"],"game_id":440,"stv_port":27066,"stv_name":"Uncletopia | Sydney | 6 | Community | STV","players":null},{"server_id":49,"name":"Uncletopia | Warsaw | 1 | All Maps","name_short":"waw-1","host":"waw-1.pl.uncletopia.com","port":27015,"enabled":true,"region":"eu","cc":"pl","latitude":52.2297,"longitude":21.017532,"reserved":0,"last_update":"0001-01-01T00:00:00Z","name_a2s":"","protocol":0,"map":"","folder":"","game":"","app_id":0,"player_count":0,"max_players":0,"Bots":0,"server_type":"","server_os":"","password":false,"vac":false,"version":"","steam_id":0,"keywords":null,"game_id":0,"stv_port":0,"stv_name":"","players":null},{"server_id":50,"name":"Uncletopia | Warsaw | 2 | All Maps","name_short":"waw-2","host":"waw-1.pl.uncletopia.com","port":27025,"enabled":true,"region":"eu","cc":"pl","latitude":52.2297,"longitude":21.017532,"reserved":0,"last_update":"0001-01-01T00:00:00Z","name_a2s":"Uncletopia | Warsaw | 2 | All Maps","protocol":17,"map":"cp_snakewater_final1","folder":"tf","game":"Team Fortress","app_id":440,"player_count":0,"max_players":24,"Bots":0,"server_type":"Dedicated","server_os":"Linux","password":true,"vac":true,"version":"7757534","steam_id":85568392925397851,"keywords":["cp","nocrits","nodmgspread","uncletopia"],"game_id":440,"stv_port":27026,"stv_name":"Uncletopia | Warsaw | 2 | All Maps | STV","players":null},{"server_id":51,"name":"Uncletopia | Warsaw | 3 | All Maps","name_short":"waw-3","host":"waw-1.pl.uncletopia.com","port":27035,"enabled":true,"region":"eu","cc":"pl","latitude":52.2297,"longitude":21.017532,"reserved":0,"last_update":"0001-01-01T00:00:00Z","name_a2s":"Uncletopia | Warsaw | 3 | All Maps","protocol":17,"map":"pl_barnblitz","folder":"tf","game":"Team Fortress","app_id":440,"player_count":0,"max_players":24,"Bots":0,"server_type":"Dedicated","server_os":"Linux","password":true,"vac":true,"version":"7757534","steam_id":85568392925397852,"keywords":["nocrits","nodmgspread","payload","uncletopia"],"game_id":440,"stv_port":27036,"stv_name":"Uncletopia | Warsaw | 3 | All Maps | STV","players":null},{"server_id":52,"name":"Uncletopia | Warsaw | 4 | All Maps","name_short":"waw-4","host":"waw-1.pl.uncletopia.com","port":27045,"enabled":true,"region":"eu","cc":"pl","latitude":52.2297,"longitude":21.017532,"reserved":0,"last_update":"0001-01-01T00:00:00Z","name_a2s":"Uncletopia | Warsaw | 4 | All Maps","protocol":17,"map":"pl_borneo","folder":"tf","game":"Team Fortress","app_id":440,"player_count":0,"max_players":24,"Bots":0,"server_type":"Dedicated","server_os":"Linux","password":true,"vac":true,"version":"7757534","steam_id":85568392925397853,"keywords":["nocrits","nodmgspread","payload","uncletopia"],"game_id":440,"stv_port":27046,"stv_name":"Uncletopia | Warsaw | 4 | All Maps | STV","players":null},{"server_id":53,"name":"Uncletopia | Warsaw | 5 | Stopwatch Beta","name_short":"waw-5","host":"waw-1.pl.uncletopia.com","port":27055,"enabled":true,"region":"eu","cc":"pl","latitude":52.2297,"longitude":21.017532,"reserved":0,"last_update":"0001-01-01T00:00:00Z","name_a2s":"Uncletopia | Warsaw | 5 | Stopwatch Beta","protocol":17,"map":"pl_upward","folder":"tf","game":"Team Fortress","app_id":440,"player_count":0,"max_players":24,"Bots":0,"server_type":"Dedicated","server_os":"Linux","password":true,"vac":true,"version":"7757534","steam_id":85568392925397854,"keywords":["nocrits","nodmgspread","payload","uncletopia"],"game_id":440,"stv_port":27056,"stv_name":"Uncletopia | Warsaw | 5 | Stopwatch Beta | STV","players":null},{"server_id":54,"name":"Uncletopia | Warsaw | 6 | Community","name_short":"waw-6","host":"waw-1.pl.uncletopia.com","port":27065,"enabled":true,"region":"eu","cc":"pl","latitude":52.2297,"longitude":21.017532,"reserved":0,"last_update":"0001-01-01T00:00:00Z","name_a2s":"Uncletopia | Warsaw | 6 | Community","protocol":17,"map":"workshop/koth_bagel_rc5.ugc2514036946","folder":"tf","game":"Team Fortress","app_id":440,"player_count":0,"max_players":24,"Bots":0,"server_type":"Dedicated","server_os":"Linux","password":true,"vac":true,"version":"7757534","steam_id":85568392925397856,"keywords":["cp","nocrits","nodmgspread","uncletopia"],"game_id":440,"stv_port":27066,"stv_name":"Uncletopia | Warsaw | 6 | Community | STV","players":null}]}