{"status":true,"message":"","result":[{"server_id":9,"name":"Uncletopia | Atlanta | 1 | All Maps","name_short":"atl-1","host":"atl-1.us.uncletopia.com","port":27015,"enabled":true,"region":"us-east","cc":"us","latitude":33.753746,"longitude":-84.38633,"reserved":0,"last_update":"0001-01-01T00:00:00Z","name_a2s":"Uncletopia | Atlanta | 1 | All Maps","protocol":17,"map":"pl_badwater","folder":"tf","game":"Team Fortress","app_id":440,"player_count":24,"max_players":24,"Bots":0,"server_type":"Dedicated","server_os":"Linux","password":true,"vac":true,"version":"7961495","steam_id":85568392924469982,"keywords":["nocrits","nodmgspread","payload","uncletopia"],"game_id":440,"stv_port":27016,"stv_name":"Uncletopia | Atlanta | 1 | All Maps | STV","players":[{"user_id":658,"name":"The Notorious T.A.F.T.","steam_id":76561198073012352,"connected_time":2366000000000,"state":"active","ping":62},{"user_id":656,"name":"catawampus","steam_id":76561198043684960,"connected_time":2861000000000,"state":"active","ping":67},{"user_id":645,"name":"2cats_2curious","steam_id":76561198027143149,"connected_time":3549000000000,"state":"active","ping":61},{"user_id":621,"name":"mom","steam_id":76561198069307482,"connected_time":5434000000000,"state":"active","ping":151},{"user_id":646,"name":"[PDR] Kuma üêª","steam_id":76561198006445078,"connected_time":3540000000000,"state":"active","ping":104},{"user_id":670,"name":"Temujin","steam_id":76561198030936583,"connected_time":1317000000000,"state":"active","ping":45},{"user_id":677,"name":"sat","steam_id":76561198084311006,"connected_time":275000000000,"state":"active","ping":65},{"user_id":674,"name":"diigdugg","steam_id":76561198172581861,"connected_time":919000000000,"state":"active","ping":48},{"user_id":667,"name":"1st place love live fan","steam_id":76561198037951506,"connected_time":1452000000000,"state":"active","ping":45},{"user_id":648,"name":"Fermenting Kiwi","steam_id":76561198253303497,"connected_time":3416000000000,"state":"active","ping":90},{"user_id":659,"name":"JustaDude","steam_id":76561199151914748,"connected_time":2346000000000,"state":"active","ping":78},{"user_id":633,"name":"inx_is_strange","steam_id":76561198223991316,"connected_time":4666000000000,"state":"active","ping":69},{"user_id":629,"name":"twitch.tv/Yoshi21 | TF2Pugs.com","steam_id":76561198002516729,"connected_time":5183000000000,"state":"active","ping":53},{"user_id":666,"name":"Ripping Heads","steam_id":76561198006146062,"connected_time":1808000000000,"state":"active","ping":61},{"user_id":657,"name":"Lumi The ‚úßLesbian‚úß","steam_id":76561198089978036,"connected_time":2449000000000,"state":"active","ping":56},{"user_id":664,"name":"centipede","steam_id":76561199238694456,"connected_time":2136000000000,"state":"active","ping":73},{"user_id":620,"name":"cap'n","steam_id":76561198034008930,"connected_time":5444000000000,"state":"active","ping":74},{"user_id":669,"name":"Nathan Yeet","steam_id":76561198883966591,"connected_time":1420000000000,"state":"active","ping":76},{"user_id":643,"name":"runescape legend","steam_id":76561198077791373,"connected_time":3811000000000,"state":"active","ping":90},{"user_id":668,"name":"Shipmunk","steam_id":76561198063062670,"connected_time":1441000000000,"state":"active","ping":53},{"user_id":676,"name":"GatorAIDS","steam_id":76561198043220092,"connected_time":843000000000,"state":"active","ping":75},{"user_id":662,"name":"Overwatch's PvE Mode","steam_id":76561198046127710,"connected_time":2286000000000,"state":"active","ping":74},{"user_id":627,"name":"ATF - Dog Squad","steam_id":76561198154395780,"connected_time":5337000000000,"state":"active","ping":66}]},{"server_id":104,"name":"Uncletopia | Atlanta | 2 | All Maps","name_short":"atl-2","host":"atl-1.us.uncletopia.com","port":27025,"enabled":true,"region":"us-east","cc":"us","latitude":33.753746,"longitude":-84.38633,"reserved":0,"last_update":"0001-01-01T00:00:00Z","name_a2s":"Uncletopia | Atlanta | 2 | All Maps","protocol":17,"map":"cp_process_final","folder":"tf","game":"Team Fortress","app_id":440,"player_count":0,"max_players":24,"Bots":0,"server_type":"Dedicated","server_os":"Linux","password":true,"vac":true,"version":"7961495","steam_id":85568392924469983,"keywords":["cp","nocrits","nodmgspread","uncletopia"],"game_id":440,"stv_port":27026,"stv_name":"Uncletopia | Atlanta | 2 | All Maps | STV","players":null},{"server_id":400,"name":"Uncletopia | Atlanta | 3 | Stopwatch","name_short":"atl-3","host":"atl-1.us.uncletopia.com","port":27035,"enabled":true,"region":"us-east","cc":"us","latitude":33.753746,"longitude":-84.38633,"reserved":0,"last_update":"0001-01-01T00:00:00Z","name_a2s":"Uncletopia | Atlanta | 3 | Stopwatch","protocol":17,"map":"workshop/koth_bagel_rc6.ugc2514036946","folder":"tf","game":"Team Fortress","app_id":440,"player_count":0,"max_players":24,"Bots":0,"server_type":"Dedicated","server_os":"Linux","password":true,"vac":true,"version":"7961495","steam_id":85568392924515187,"keywords":["cp","nocrits","nodmgspread","uncletopia"],"game_id":440,"stv_port":27036,"stv_name":"Uncletopia | Atlanta | 3 | Stopwatch | STV","players":null},{"server_id":401,"name":"Uncletopia | Atlanta | 4 | Community","name_short":"atl-4","host":"atl-1.us.uncletopia.com","port":27045,"enabled":true,"region":"us-east","cc":"us","latitude":33.753746,"longitude":-84.38633,"reserved":0,"last_update":"0001-01-01T00:00:00Z","name_a2s":"Uncletopia | Atlanta | 4 | Community","protocol":17,"map":"workshop/koth_bagel_rc6.ugc2514036946","folder":"tf","game":"Team Fortress","app_id":440,"player_count":1,"max_players":24,"Bots":0,"server_type":"Dedicated","server_os":"Linux","password":true,"vac":true,"version":"7961495","steam_id":85568392924515188,"keywords":["cp","nocrits","nodmgspread","uncletopia"],"game_id":440,"stv_port":27046,"stv_name":"Uncletopia | Atlanta | 4 | Community | STV","players":[{"user_id":45,"name":"Abom","steam_id":76561198059685658,"connected_time":68000000000,"state":"active","ping":72}]},{"server_id":2,"name":"Uncletopia | Chicago | 1 | All Maps","name_short":"chi-1","host":"chi-1.us.uncletopia.com","port":27015,"enabled":true,"region":"us-central","cc":"us","latitude":41.881832,"longitude":-87.62318,"reserved":0,"last_update":"0001-01-01T00:00:00Z","name_a2s":"Uncletopia | Chicago | 1 | All Maps","protocol":17,"map":"cp_dustbowl","folder":"tf","game":"Team Fortress","app_id":440,"player_count":20,"max_players":24,"Bots":0,"server_type":"Dedicated","server_os":"Linux","password":true,"vac":true,"version":"7961495","steam_id":85568392924469984,"keywords":["cp","nocrits","nodmgspread","uncletopia"],"game_id":440,"stv_port":27016,"stv_name":"Uncletopia | Chicago | 1 | All Maps | STV","players":[{"user_id":926,"name":"MD","steam_id":76561197976300679,"connected_time":7940000000000,"state":"spawning","ping":170},{"user_id":991,"name":"Troyer","steam_id":76561198038005881,"connected_time":1468000000000,"state":"spawning","ping":89},{"user_id":997,"name":"55 Gallon Barrel of Duke's Mayo","steam_id":76561198092483430,"connected_time":1426000000000,"state":"spawning","ping":160},{"user_id":996,"name":"M","steam_id":76561198174958927,"connected_time":1445000000000,"state":"spawning","ping":188},{"user_id":1011,"name":"Terratrox","steam_id":76561198207115731,"connected_time":87000000000,"state":"spawning","ping":148},{"user_id":935,"name":"Vin Diesel #imfromisrael","steam_id":76561197969386201,"connected_time":7533000000000,"state":"connecting","ping":56},{"user_id":939,"name":"off the bennies x)!!!","steam_id":76561198144766439,"connected_time":6752000000000,"state":"spawning","ping":107},{"user_id":1007,"name":"Lily (she/her)","steam_id":76561198355495948,"connected_time":465000000000,"state":"connecting","ping":156},{"user_id":1001,"name":"RollingCow","steam_id":76561198067114237,"connected_time":1391000000000,"state":"spawning","ping":166},{"user_id":998,"name":"Ruby","steam_id":76561198053335880,"connected_time":1424000000000,"state":"spawning","ping":163},{"user_id":981,"name":"Saucy Boy","steam_id":76561198178332031,"connected_time":2810000000000,"state":"spawning","ping":135},{"user_id":992,"name":"Mr. Belcher","steam_id":76561198170679462,"connected_time":1462000000000,"state":"spawning","ping":127},{"user_id":995,"name":"Soulman","steam_id":76561199012664006,"connected_time":1449000000000,"state":"spawning","ping":218},{"user_id":1008,"name":"joinkswag","steam_id":76561198935077614,"connected_time":411000000000,"state":"spawning","ping":199},{"user_id":967,"name":"firetruck","steam_id":76561198074188404,"connected_time":4151000000000,"state":"spawning","ping":129},{"user_id":1009,"name":"The Pootis'd Berd","steam_id":76561198141903490,"connected_time":371000000000,"state":"spawning","ping":197},{"user_id":982,"name":"4pi3","steam_id":76561199093363610,"connected_time":2789000000000,"state":"spawning","ping":161},{"user_id":994,"name":"Rambly Dambly","steam_id":76561198844496567,"connected_time":1456000000000,"state":"spawning","ping":128},{"user_id":912,"name":"Tibalt Nyahuma","steam_id":76561198034779431,"connected_time":9672000000000,"state":"spawning","ping":148},{"user_id":986,"name":"Burns","steam_id":76561198425555150,"connected_time":2128000000000,"state":"spawning","ping":147}]},{"server_id":106,"name":"Uncletopia | Chicago | 2 | All Maps","name_short":"chi-2","host":"chi-1.us.uncletopia.com","port":27025,"enabled":true,"region":"us-central","cc":"us","latitude":41.881832,"longitude":-87.62318,"reserved":0,"last_update":"0001-01-01T00:00:00Z","name_a2s":"Uncletopia | Chicago | 2 | All Maps","protocol":17,"map":"cp_steel","folder":"tf","game":"Team Fortress","app_id":440,"player_count":24,"max_players":24,"Bots":0,"server_type":"Dedicated","server_os":"Linux","password":true,"vac":true,"version":"7961495","steam_id":85568392924469985,"keywords":["cp","nocrits","nodmgspread","uncletopia"],"game_id":440,"stv_port":27026,"stv_name":"Uncletopia | Chicago | 2 | All Maps | STV","players":[{"user_id":1028,"name":"Scarf","steam_id":76561198095706832,"connected_time":34000000000,"state":"active","ping":61},{"user_id":986,"name":"‚ô°Ame‚ô°","steam_id":76561198071217748,"connected_time":3062000000000,"state":"active","ping":51},{"user_id":981,"name":"Aegle","steam_id":76561198871463455,"connected_time":3652000000000,"state":"active","ping":89},{"user_id":1022,"name":"Ninjoth","steam_id":76561198038611753,"connected_time":928000000000,"state":"active","ping":70},{"user_id":1025,"name":"Poppet","steam_id":76561198012301951,"connected_time":687000000000,"state":"active","ping":60},{"user_id":1024,"name":"Nestor","steam_id":76561198070782619,"connected_time":868000000000,"state":"active","ping":54},{"user_id":1020,"name":"A Mysterious Gift","steam_id":76561198077838946,"connected_time":1200000000000,"state":"active","ping":59},{"user_id":931,"name":"Lae","steam_id":76561198185527278,"connected_time":7716000000000,"state":"active","ping":71},{"user_id":958,"name":"motherfucker 2.0","steam_id":76561198141189209,"connected_time":5266000000000,"state":"active","ping":59},{"user_id":1026,"name":"marlow","steam_id":76561198094408360,"connected_time":581000000000,"state":"active","ping":75},{"user_id":1019,"name":"Nathontin","steam_id":76561198263545504,"connected_time":1424000000000,"state":"active","ping":60},{"user_id":1003,"name":"sloth (lawful good)","steam_id":76561198047098172,"connected_time":2238000000000,"state":"active","ping":75},{"user_id":1015,"name":"MoonWolf","steam_id":76561198095735033,"connected_time":1638000000000,"state":"active","ping":60},{"user_id":1023,"name":"Boot Scootin Boogie","steam_id":76561198059171120,"connected_time":902000000000,"state":"active","ping":68},{"user_id":997,"name":"BOTDOWNBOTDOWN1","steam_id":76561198073020685,"connected_time":2345000000000,"state":"active","ping":64},{"user_id":1017,"name":"jj","steam_id":76561198123287268,"connected_time":1460000000000,"state":"active","ping":45},{"user_id":999,"name":"Lemon Soda","steam_id":76561198140208761,"connected_time":2310000000000,"state":"active","ping":59},{"user_id":982,"name":"Avenging Spirit","steam_id":76561198119572121,"connected_time":3620000000000,"state":"active","ping":60},{"user_id":936,"name":"Lead Licker","steam_id":76561198162668339,"connected_time":7484000000000,"state":"active","ping":58},{"user_id":1018,"name":"demoknight tf2","steam_id":76561198070393998,"connected_time":1458000000000,"state":"active","ping":66},{"user_id":1006,"name":"Gay Loogi Gang","steam_id":76561198097031529,"connected_time":2148000000000,"state":"active","ping":72},{"user_id":1027,"name":"Admiral Crumbs","steam_id":76561198108791583,"connected_time":302000000000,"state":"active","ping":65},{"user_id":1005,"name":"fnord","steam_id":76561199508468914,"connected_time":2209000000000,"state":"active","ping":75},{"user_id":1012,"name":"zoey","steam_id":76561198084679526,"connected_time":1826000000000,"state":"active","ping":56}]},{"server_id":402,"name":"Uncletopia | Chicago | 3 | All Maps","name_short":"chi-3","host":"chi-1.us.uncletopia.com","port":27035,"enabled":true,"region":"us-central","cc":"us","latitude":41.881832,"longitude":-87.62318,"reserved":0,"last_update":"0001-01-01T00:00:00Z","name_a2s":"Uncletopia | Chicago | 3 | All Maps","protocol":17,"map":"cp_snakewater_final1","folder":"tf","game":"Team Fortress","app_id":440,"player_count":0,"max_players":24,"Bots":0,"server_type":"Dedicated","server_os":"Linux","password":true,"vac":true,"version":"7961495","steam_id":85568392924515191,"keywords":["cp","nocrits","nodmgspread","uncletopia"],"game_id":440,"stv_port":27036,"stv_name":"Uncletopia | Chicago | 3 | All Maps | STV","players":null},{"server_id":403,"name":"Uncletopia | Chicago | 4 | All Maps","name_short":"chi-4","host":"chi-1.us.uncletopia.com","port":27045,"enabled":true,"region":"us-central","cc":"us","latitude":41.881832,"longitude":-87.62318,"reserved":0,"last_update":"0001-01-01T00:00:00Z","name_a2s":"Uncletopia | Chicago | 4 | All Maps","protocol":17,"map":"plr_hightower","folder":"tf","game":"Team Fortress","app_id":440,"player_count":0,"max_players":24,"Bots":0,"server_type":"Dedicated","server_os":"Linux","password":true,"vac":true,"version":"7961495","steam_id":85568392924515193,"keywords":["nocrits","nodmgspread","payload","uncletopia"],"game_id":440,"stv_port":27046,"stv_name":"Uncletopia | Chicago | 4 | All Maps | STV","players":null},{"server_id":36,"name":"Uncletopia | Chicago | 5 | All Maps","name_short":"chi-5","host":"chi-2.us.uncletopia.com","port":27015,"enabled":true,"region":"us-central","cc":"us","latitude":41.881832,"longitude":-87.62318,"reserved":0,"last_update":"0001-01-01T00:00:00Z","name_a2s":"Uncletopia | Chicago | 5 | All Maps","protocol":17,"map":"pl_swiftwater_final1","folder":"tf","game":"Team Fortress","app_id":440,"player_count":24,"max_players":24,"Bots":0,"server_type":"Dedicated","server_os":"Linux","password":true,"vac":true,"version":"7961495","steam_id":85568392924866362,"keywords":["nocrits","nodmgspread","payload","uncletopia"],"game_id":440,"stv_port":27016,"stv_name":"Uncletopia | Chicago | 5 | All Maps | STV","players":[{"user_id":465,"name":"twitter verified death date","steam_id":76561198138221795,"connected_time":121000000000,"state":"active","ping":75},{"user_id":451,"name":"Game Broke No Fix","steam_id":76561198028271650,"connected_time":1161000000000,"state":"active","ping":110},{"user_id":415,"name":"boy killer","steam_id":76561198051310816,"connected_time":2919000000000,"state":"active","ping":60},{"user_id":468,"name":"Julien","steam_id":76561198065393150,"connected_time":87000000000,"state":"active","ping":64},{"user_id":442,"name":"jrocBABY","steam_id":76561198094800773,"connected_time":1730000000000,"state":"active","ping":64},{"user_id":466,"name":"Pongallow","steam_id":76561198146876078,"connected_time":120000000000,"state":"active","ping":46},{"user_id":452,"name":"Castroy","steam_id":76561198108160099,"connected_time":1079000000000,"state":"active","ping":58},{"user_id":416,"name":"CLIJY","steam_id":76561197994477006,"connected_time":2874000000000,"state":"active","ping":34},{"user_id":449,"name":"GnobleGnome","steam_id":76561198028659931,"connected_time":1412000000000,"state":"active","ping":90},{"user_id":441,"name":"IBA Chandler","steam_id":76561198403649648,"connected_time":1760000000000,"state":"active","ping":46},{"user_id":460,"name":"OiledAssShaker","steam_id":76561198132068284,"connected_time":309000000000,"state":"active","ping":60},{"user_id":443,"name":"hotdog","steam_id":76561198052576687,"connected_time":1700000000000,"state":"active","ping":82},{"user_id":454,"name":"Smog","steam_id":76561198043705383,"connected_time":617000000000,"state":"active","ping":66},{"user_id":461,"name":"MMC Train","steam_id":76561198087472085,"connected_time":296000000000,"state":"active","ping":99},{"user_id":462,"name":"grind (‚úì), social climb (‚úó)","steam_id":76561198118776341,"connected_time":278000000000,"state":"active","ping":72},{"user_id":444,"name":"Jiwoo","steam_id":76561198078292855,"connected_time":1693000000000,"state":"active","ping":43},{"user_id":431,"name":"chill stoner guy w cool stories","steam_id":76561198120973162,"connected_time":2428000000000,"state":"active","ping":78},{"user_id":469,"name":"Loxic","steam_id":76561198043617388,"connected_time":87000000000,"state":"active","ping":63},{"user_id":464,"name":"Saddam \"Jak\" Hussein","steam_id":76561198096366496,"connected_time":131000000000,"state":"active","ping":53},{"user_id":457,"name":"Dog Goggles","steam_id":76561197995233692,"connected_time":512000000000,"state":"active","ping":73},{"user_id":398,"name":"Yongle","steam_id":76561198068591156,"connected_time":4737000000000,"state":"active","ping":56},{"user_id":399,"name":"larguu","steam_id":76561197994336210,"connected_time":4651000000000,"state":"active","ping":60},{"user_id":459,"name":"Kiril","steam_id":76561198051433762,"connected_time":448000000000,"state":"active","ping":130},{"user_id":447,"name":"CJdog","steam_id":76561198155027929,"connected_time":1504000000000,"state":"active","ping":60}]},{"server_id":37,"name":"Uncletopia | Chicago | 6 | All Maps","name_short":"chi-6","host":"chi-2.us.uncletopia.com","port":27025,"enabled":true,"region":"us-central","cc":"us","latitude":41.881832,"longitude":-87.62318,"reserved":0,"last_update":"0001-01-01T00:00:00Z","name_a2s":"Uncletopia | Chicago | 6 | All Maps","protocol":17,"map":"pl_badwater","folder":"tf","game":"Team Fortress","app_id":440,"player_count":0,"max_players":24,"Bots":0,"server_type":"Dedicated","server_os":"Linux","password":true,"vac":true,"version":"7961495","steam_id":85568392924866363,"keywords":["nocrits","nodmgspread","payload","uncletopia"],"game_id":440,"stv_port":27026,"stv_name":"Uncletopia | Chicago | 6 | All Maps | STV","players":null},{"server_id":38,"name":"Uncletopia | Chicago | 7 | Stopwatch","name_short":"chi-7","host":"chi-2.us.uncletopia.com","port":27035,"enabled":true,"region":"us-central","cc":"us","latitude":41.881832,"longitude":-87.62318,"reserved":0,"last_update":"0001-01-01T00:00:00Z","name_a2s":"Uncletopia | Chicago | 7 | Stopwatch","protocol":17,"map":"workshop/pl_barnblitz_pro7.ugc582280235","folder":"tf","game":"Team Fortress","app_id":440,"player_count":0,"max_players":24,"Bots":0,"server_type":"Dedicated","server_os":"Linux","password":true,"vac":true,"version":"7961495","steam_id":85568392924866364,"keywords":["nocrits","nodmgspread","payload","uncletopia"],"game_id":440,"stv_port":27036,"stv_name":"Uncletopia | Chicago | 7 | Stopwatch | STV","players":null},{"server_id":39,"name":"Uncletopia | Chicago | 8 | Community","name_short":"chi-8","host":"chi-2.us.uncletopia.com","port":27045,"enabled":true,"region":"us-central","cc":"us","latitude":41.881832,"longitude":-87.62318,"reserved":0,"last_update":"0001-01-01T00:00:00Z","name_a2s":"Uncletopia | Chicago | 8 | Community","protocol":17,"map":"workshop/koth_slaughter_rc1.ugc1712845210","folder":"tf","game":"Team Fortress","app_id":440,"player_count":0,"max_players":24,"Bots":0,"server_type":"Dedicated","server_os":"Linux","password":true,"vac":true,"version":"7961495","steam_id":85568392924866365,"keywords":["cp","nocrits","nodmgspread","uncletopia"],"game_id":440,"stv_port":27046,"stv_name":"Uncletopia | Chicago | 8 | Community | STV","players":null},{"server_id":8,"name":"Uncletopia | Dallas | 1 | All Maps","name_short":"dal-1","host":"dal-1.us.uncletopia.com","port":27015,"enabled":true,"region":"us-central","cc":"us","latitude":32.779167,"longitude":-96.80889,"reserved":0,"last_update":"0001-01-01T00:00:00Z","name_a2s":"Uncletopia | Dallas | 1 | All Maps","protocol":17,"map":"koth_cascade","folder":"tf","game":"Team Fortress","app_id":440,"player_count":2,"max_players":24,"Bots":0,"server_type":"Dedicated","server_os":"Linux","password":true,"vac":true,"version":"7961495","steam_id":85568392924469986,"keywords":["cp","nocrits","nodmgspread","uncletopia"],"game_id":440,"stv_port":27016,"stv_name":"Uncletopia | Dallas | 1 | All Maps | STV","players":[{"user_id":917,"name":"tunaa","steam_id":76561198362763159,"connected_time":16000000000,"state":"active","ping":88},{"user_id":918,"name":"Just Juanito","steam_id":76561198241446874,"connected_time":0,"state":"spawning","ping":0}]},{"server_id":108,"name":"Uncletopia | Dallas | 2 | All Maps","name_short":"dal-2","host":"dal-1.us.uncletopia.com","port":27025,"enabled":true,"region":"us-central","cc":"us","latitude":32.779167,"longitude":-96.80889,"reserved":0,"last_update":"0001-01-01T00:00:00Z","name_a2s":"Uncletopia | Dallas | 2 | All Maps","protocol":17,"map":"koth_lakeside_final","folder":"tf","game":"Team Fortress","app_id":440,"player_count":0,"max_players":24,"Bots":0,"server_type":"Dedicated","server_os":"Linux","password":true,"vac":true,"version":"7961495","steam_id":85568392924469988,"keywords":["cp","nocrits","nodmgspread","uncletopia"],"game_id":440,"stv_port":27026,"stv_name":"Uncletopia | Dallas | 2 | All Maps | STV","players":null},{"server_id":404,"name":"Uncletopia | Dallas | 3 | All Maps","name_short":"dal-3","host":"dal-1.us.uncletopia.com","port":27035,"enabled":true,"region":"us-central","cc":"us","latitude":32.779167,"longitude":-96.80889,"reserved":0,"last_update":"0001-01-01T00:00:00Z","name_a2s":"Uncletopia | Dallas | 3 | All Maps","protocol":17,"map":"cp_mountainlab","folder":"tf","game":"Team Fortress","app_id":440,"player_count":19,"max_players":24,"Bots":0,"server_type":"Dedicated","server_os":"Linux","password":true,"vac":true,"version":"7961495","steam_id":85568392924515219,"keywords":["cp","nocrits","nodmgspread","uncletopia"],"game_id":440,"stv_port":27036,"stv_name":"Uncletopia | Dallas | 3 | All Maps | STV","players":[{"user_id":469,"name":"„É´„Éä„Éª„Éé„Éº„Éª„Çπ„É©„ÉÉ„ÉÑ","steam_id":76561198197135971,"connected_time":240000000000,"state":"active","ping":59},{"user_id":437,"name":"Lorelei","steam_id":76561198095778842,"connected_time":2755000000000,"state":"active","ping":92},{"user_id":433,"name":"Orion 1 | Glitch","steam_id":76561198101234226,"connected_time":3911000000000,"state":"active","ping":64},{"user_id":464,"name":"Maxhaenel","steam_id":76561197986020059,"connected_time":710000000000,"state":"active","ping":152},{"user_id":471,"name":"Happy Bucket","steam_id":76561198066053527,"connected_time":181000000000,"state":"active","ping":84},{"user_id":472,"name":"hexedronin","steam_id":76561198304746267,"connected_time":170000000000,"state":"active","ping":48},{"user_id":335,"name":"^0 Flamingsheep667","steam_id":76561198856399690,"connected_time":10864000000000,"state":"active","ping":135},{"user_id":440,"name":"verd","steam_id":76561198012001217,"connected_time":2620000000000,"state":"active","ping":75},{"user_id":473,"name":"SloppySulking","steam_id":76561198866538571,"connected_time":167000000000,"state":"active","ping":43},{"user_id":474,"name":"don","steam_id":76561198204410892,"connected_time":52000000000,"state":"active","ping":54},{"user_id":432,"name":"Microsoft Hollowpoint","steam_id":76561198874445824,"connected_time":4178000000000,"state":"active","ping":70},{"user_id":457,"name":"American Dad Funny Moments #32","steam_id":76561198254874328,"connected_time":1466000000000,"state":"active","ping":92},{"user_id":458,"name":"gay porn","steam_id":76561198102454261,"connected_time":1459000000000,"state":"active","ping":79},{"user_id":460,"name":"Junko","steam_id":76561198146089003,"connected_time":1433000000000,"state":"active","ping":74},{"user_id":462,"name":"Squiggle","steam_id":76561198257197535,"connected_time":1101000000000,"state":"active","ping":69},{"user_id":454,"name":"puffyb","steam_id":76561198086001555,"connected_time":1549000000000,"state":"active","ping":82},{"user_id":421,"name":"The Lovers?","steam_id":76561198066619792,"connected_time":5307000000000,"state":"active","ping":55},{"user_id":459,"name":"Reisen Udongein Inaba","steam_id":76561198051082314,"connected_time":1458000000000,"state":"active","ping":87},{"user_id":465,"name":"Wander","steam_id":76561198073362336,"connected_time":547000000000,"state":"active","ping":32}]},{"server_id":405,"name":"Uncletopia | Dallas | 4 | Community","name_short":"dal-4","host":"dal-1.us.uncletopia.com","port":27045,"enabled":true,"region":"us-central","cc":"us","latitude":32.779167,"longitude":-96.80889,"reserved":0,"last_update":"0001-01-01T00:00:00Z","name_a2s":"Uncletopia | Dallas | 4 | Community","protocol":17,"map":"workshop/koth_synthetic_rc6a.ugc1549817316","folder":"tf","game":"Team Fortress","app_id":440,"player_count":0,"max_players":24,"Bots":0,"server_type":"Dedicated","server_os":"Linux","password":true,"vac":true,"version":"7961495","steam_id":85568392924515220,"keywords":["cp","nocrits","nodmgspread","uncletopia"],"game_id":440,"stv_port":27046,"stv_name":"Uncletopia | Dallas | 4 | Community | STV","players":null},{"server_id":5,"name":"Uncletopia | Frankfurt | 1 | All Maps","name_short":"frk-1","host":"frk-1.de.uncletopia.com","port":27015,"enabled":true,"region":"eu","cc":"de","latitude":50.110924,"longitude":8.682127,"reserved":0,"last_update":"0001-01-01T00:00:00Z","name_a2s":"Uncletopia | Frankfurt | 1 | All Maps","protocol":17,"map":"plr_bananabay","folder":"tf","game":"Team Fortress","app_id":440,"player_count":24,"max_players":24,"Bots":0,"server_type":"Dedicated","server_os":"Linux","password":true,"vac":true,"version":"7961495","steam_id":85568392924469989,"keywords":["nocrits","nodmgspread","payload","uncletopia"],"game_id":440,"stv_port":27016,"stv_name":"Uncletopia | Frankfurt | 1 | All Maps | STV","players":[{"user_id":145,"name":"Loona my beloved","steam_id":76561198067182918,"connected_time":198000000000,"state":"active","ping":127},{"user_id":149,"name":"FancyRancy","steam_id":76561198415354519,"connected_time":153000000000,"state":"active","ping":53},{"user_id":52,"name":"thog","steam_id":76561198219901556,"connected_time":5732000000000,"state":"active","ping":94},{"user_id":146,"name":"Neon","steam_id":76561198069049007,"connected_time":195000000000,"state":"active","ping":117},{"user_id":132,"name":"Pablo","steam_id":76561199009805208,"connected_time":1007000000000,"state":"active","ping":99},{"user_id":154,"name":"tealoverr.190","steam_id":76561199028497703,"connected_time":34000000000,"state":"spawning","ping":103},{"user_id":18,"name":"Enigmus","steam_id":76561197994063627,"connected_time":9004000000000,"state":"active","ping":87},{"user_id":136,"name":"404nonamefound","steam_id":76561198354682115,"connected_time":635000000000,"state":"active","ping":55},{"user_id":151,"name":"Milk","steam_id":76561198125876588,"connected_time":114000000000,"state":"active","ping":59},{"user_id":129,"name":"TSx* Naxer","steam_id":76561198011986779,"connected_time":1175000000000,"state":"active","ping":63},{"user_id":134,"name":"panama papers","steam_id":76561198181368101,"connected_time":751000000000,"state":"active","ping":52},{"user_id":97,"name":"Walle","steam_id":76561197995148937,"connected_time":2780000000000,"state":"active","ping":63},{"user_id":148,"name":"G_raff","steam_id":76561199048512726,"connected_time":175000000000,"state":"active","ping":75},{"user_id":153,"name":"Nyhde","steam_id":76561198012771416,"connected_time":53000000000,"state":"active","ping":92},{"user_id":107,"name":"George W Bush","steam_id":76561198846784757,"connected_time":2104000000000,"state":"active","ping":60},{"user_id":31,"name":"Zerfesh","steam_id":76561198117534358,"connected_time":7916000000000,"state":"active","ping":82},{"user_id":150,"name":"Silverstorm","steam_id":76561198118175267,"connected_time":137000000000,"state":"active","ping":60},{"user_id":127,"name":"grr","steam_id":76561199429407130,"connected_time":1302000000000,"state":"active","ping":77},{"user_id":140,"name":"Siegmeyer","steam_id":76561198328543549,"connected_time":315000000000,"state":"active","ping":82},{"user_id":110,"name":"God is serb","steam_id":76561198966246028,"connected_time":1983000000000,"state":"active","ping":75},{"user_id":113,"name":"Burgoo_King","steam_id":76561198133572225,"connected_time":1929000000000,"state":"active","ping":61},{"user_id":142,"name":"Mr Krembo","steam_id":76561199093060828,"connected_time":279000000000,"state":"active","ping":88},{"user_id":119,"name":"Tututerok","steam_id":76561198150325060,"connected_time":1623000000000,"state":"active","ping":95},{"user_id":122,"name":"tim","steam_id":76561198801490317,"connected_time":1515000000000,"state":"active","ping":115}]},{"server_id":110,"name":"Uncletopia | Frankfurt | 2 | All Maps","name_short":"frk-2","host":"frk-1.de.uncletopia.com","port":27025,"enabled":true,"region":"eu","cc":"de","latitude":50.110924,"longitude":8.682127,"reserved":0,"last_update":"0001-01-01T00:00:00Z","name_a2s":"Uncletopia | Frankfurt | 2 | All Maps","protocol":17,"map":"plr_hightower","folder":"tf","game":"Team Fortress","app_id":440,"player_count":0,"max_players":24,"Bots":0,"server_type":"Dedicated","server_os":"Linux","password":true,"vac":true,"version":"7961495","steam_id":85568392924469990,"keywords":["nocrits","nodmgspread","payload","uncletopia"],"game_id":440,"stv_port":27026,"stv_name":"Uncletopia | Frankfurt | 2 | All Maps | STV","players":null},{"server_id":308,"name":"Uncletopia | Frankfurt | 3 | All Maps","name_short":"frk-3","host":"frk-1.de.uncletopia.com","port":27035,"enabled":true,"region":"eu","cc":"de","latitude":50.110924,"longitude":8.682127,"reserved":0,"last_update":"0001-01-01T00:00:00Z","name_a2s":"Uncletopia | Frankfurt | 3 | All Maps","protocol":17,"map":"cp_metalworks","folder":"tf","game":"Team Fortress","app_id":440,"player_count":0,"max_players":24,"Bots":0,"server_type":"Dedicated","server_os":"Linux","password":true,"vac":true,"version":"7961495","steam_id":85568392924504274,"keywords":["cp","nocrits","nodmgspread","uncletopia"],"game_id":440,"stv_port":27036,"stv_name":"Uncletopia | Frankfurt | 3 | All Maps | STV","players":null},{"server_id":309,"name":"Uncletopia | Frankfurt | 4 | All Maps","name_short":"frk-4","host":"frk-1.de.uncletopia.com","port":27045,"enabled":true,"region":"eu","cc":"de","latitude":50.110924,"longitude":8.682127,"reserved":0,"last_update":"0001-01-01T00:00:00Z","name_a2s":"Uncletopia | Frankfurt | 4 | All Maps","protocol":17,"map":"cp_gorge","folder":"tf","game":"Team Fortress","app_id":440,"player_count":0,"max_players":24,"Bots":0,"server_type":"Dedicated","server_os":"Linux","password":true,"vac":true,"version":"7961495","steam_id":85568392924504275,"keywords":["cp","nocrits","nodmgspread","uncletopia"],"game_id":440,"stv_port":27046,"stv_name":"Uncletopia | Frankfurt | 4 | All Maps | STV","players":null},{"server_id":310,"name":"Uncletopia | Frankfurt | 5 | All Maps","name_short":"frk-5","host":"frk-1.de.uncletopia.com","port":27055,"enabled":true,"region":"eu","cc":"de","latitude":50.110924,"longitude":8.682127,"reserved":0,"last_update":"0001-01-01T00:00:00Z","name_a2s":"Uncletopia | Frankfurt | 5 | All Maps","protocol":17,"map":"pl_borneo","folder":"tf","game":"Team Fortress","app_id":440,"player_count":0,"max_players":24,"Bots":0,"server_type":"Dedicated","server_os":"Linux","password":true,"vac":true,"version":"7961495","steam_id":85568392924504277,"keywords":["nocrits","nodmgspread","payload","uncletopia"],"game_id":440,"stv_port":27056,"stv_name":"Uncletopia | Frankfurt | 5 | All Maps | STV","players":null},{"server_id":311,"name":"Uncletopia | Frankfurt | 6 | All Maps","name_short":"frk-6","host":"frk-1.de.uncletopia.com","port":27065,"enabled":true,"region":"eu","cc":"de","latitude":50.110924,"longitude":8.682127,"reserved":0,"last_update":"0001-01-01T00:00:00Z","name_a2s":"Uncletopia | Frankfurt | 6 | All Maps","protocol":17,"map":"cp_coldfront","folder":"tf","game":"Team Fortress","app_id":440,"player_count":0,"max_players":24,"Bots":0,"server_type":"Dedicated","server_os":"Linux","password":true,"vac":true,"version":"7961495","steam_id":85568392924504278,"keywords":["cp","nocrits","nodmgspread","uncletopia"],"game_id":440,"stv_port":27066,"stv_name":"Uncletopia | Frankfurt | 6 | All Maps | STV","players":null},{"server_id":23,"name":"Uncletopia | Frankfurt | 7 | Stopwatch","name_short":"frk-7","host":"frk-1.de.uncletopia.com","port":27075,"enabled":true,"region":"eu","cc":"de","latitude":50.110924,"longitude":8.682127,"reserved":0,"last_update":"0001-01-01T00:00:00Z","name_a2s":"Uncletopia | Frankfurt | 7 | Stopwatch","protocol":17,"map":"cp_sunshine","folder":"tf","game":"Team Fortress","app_id":440,"player_count":0,"max_players":24,"Bots":0,"server_type":"Dedicated","server_os":"Linux","password":true,"vac":true,"version":"7961495","steam_id":85568392924742827,"keywords":["cp","nocrits","nodmgspread","uncletopia"],"game_id":440,"stv_port":27076,"stv_name":"Uncletopia | Frankfurt | 7 | Stopwatch | STV","players":null},{"server_id":24,"name":"Uncletopia | Frankfurt | 8 | Community","name_short":"frk-8","host":"frk-1.de.uncletopia.com","port":27085,"enabled":true,"region":"eu","cc":"de","latitude":50.110924,"longitude":8.682127,"reserved":0,"last_update":"0001-01-01T00:00:00Z","name_a2s":"Uncletopia | Frankfurt | 8 | Community","protocol":17,"map":"workshop/pl_boundary_final1.ugc456799153","folder":"tf","game":"Team Fortress","app_id":440,"player_count":0,"max_players":24,"Bots":0,"server_type":"Dedicated","server_os":"Linux","password":true,"vac":true,"version":"7961495","steam_id":85568392924742828,"keywords":["nocrits","nodmgspread","payload","uncletopia"],"game_id":440,"stv_port":27086,"stv_name":"Uncletopia | Frankfurt | 8 | Community | STV","players":null},{"server_id":202,"name":"Uncletopia | Hong Kong | 1 | All Maps","name_short":"hgk-1","host":"hgk-1.hk.uncletopia.com","port":27015,"enabled":true,"region":"asia","cc":"hk","latitude":22.302711,"longitude":114.177216,"reserved":0,"last_update":"0001-01-01T00:00:00Z","name_a2s":"Uncletopia | Hong Kong | 1 | All Maps","protocol":17,"map":"pl_upward","folder":"tf","game":"Team Fortress","app_id":440,"player_count":19,"max_players":24,"Bots":0,"server_type":"Dedicated","server_os":"Linux","password":true,"vac":true,"version":"7961495","steam_id":85568392924494504,"keywords":["nocrits","nodmgspread","payload","uncletopia"],"game_id":440,"stv_port":27016,"stv_name":"Uncletopia | Hong Kong | 1 | All Maps | STV","players":[{"user_id":37,"name":"Lady D.","steam_id":76561199225360457,"connected_time":2538000000000,"state":"active","ping":60},{"user_id":40,"name":"izdihargaurim.r","steam_id":76561199508260958,"connected_time":2161000000000,"state":"active","ping":91},{"user_id":67,"name":"Jack The Dripper","steam_id":76561198338185850,"connected_time":122000000000,"state":"active","ping":153},{"user_id":63,"name":"kazaba","steam_id":76561199052251739,"connected_time":339000000000,"state":"active","ping":124},{"user_id":44,"name":"coakDeLera","steam_id":76561199262817512,"connected_time":1230000000000,"state":"active","ping":68},{"user_id":47,"name":"Skyler White yo","steam_id":76561198895193247,"connected_time":1100000000000,"state":"active","ping":62},{"user_id":49,"name":"Dell Conagher","steam_id":76561198853001370,"connected_time":1010000000000,"state":"active","ping":57},{"user_id":52,"name":"2746","steam_id":76561199390507975,"connected_time":932000000000,"state":"active","ping":36},{"user_id":54,"name":"pablo.gaming_2014","steam_id":76561198965473654,"connected_time":680000000000,"state":"active","ping":73},{"user_id":55,"name":"turd","steam_id":76561199006212966,"connected_time":635000000000,"state":"active","ping":85},{"user_id":68,"name":"Chinese Cat Gaming","steam_id":76561198155393989,"connected_time":43000000000,"state":"active","ping":254},{"user_id":64,"name":"eekynetwo(I can't chat)","steam_id":76561198990017441,"connected_time":335000000000,"state":"active","ping":75},{"user_id":70,"name":"Bill","steam_id":76561198044762968,"connected_time":30000000000,"state":"active","ping":90},{"user_id":59,"name":"Mahoxen","steam_id":76561199121861959,"connected_time":489000000000,"state":"active","ping":91},{"user_id":60,"name":"spacerock2014","steam_id":76561199158853202,"connected_time":473000000000,"state":"active","ping":66},{"user_id":65,"name":"toad‚ô°","steam_id":76561198082199290,"connected_time":258000000000,"state":"active","ping":42},{"user_id":62,"name":"„Åø„Åï„Å®","steam_id":76561199068027247,"connected_time":439000000000,"state":"active","ping":119},{"user_id":71,"name":"water tastes good","steam_id":76561199375947670,"connected_time":26000000000,"state":"active","ping":85},{"user_id":72,"name":"Cynthia","steam_id":76561198874418999,"connected_time":2000000000,"state":"spawning","ping":255}]},{"server_id":1,"name":"Uncletopia | Los Angeles | 1 | All Maps","name_short":"lax-1","host":"lax-1.us.uncletopia.com","port":27015,"enabled":true,"region":"us-west","cc":"us","latitude":33.94279,"longitude":-118.41004,"reserved":0,"last_update":"0001-01-01T00:00:00Z","name_a2s":"Uncletopia | Los Angeles | 1 | All Maps","protocol":17,"map":"pl_swiftwater_final1","folder":"tf","game":"Team Fortress","app_id":440,"player_count":24,"max_players":24,"Bots":0,"server_type":"Dedicated","server_os":"Linux","password":true,"vac":true,"version":"7961495","steam_id":85568392924469991,"keywords":["nocrits","nodmgspread","payload","uncletopia"],"game_id":440,"stv_port":27016,"stv_name":"Uncletopia | Los Angeles | 1 | All Maps | STV","players":[{"user_id":346,"name":"BBQ Pig","steam_id":76561198102392020,"connected_time":1019000000000,"state":"active","ping":45},{"user_id":342,"name":"Yaoi Boy Princess","steam_id":76561197997343746,"connected_time":1276000000000,"state":"active","ping":45},{"user_id":322,"name":"a chicken","steam_id":76561198313121580,"connected_time":2843000000000,"state":"active","ping":61},{"user_id":359,"name":"Eden","steam_id":76561198081284664,"connected_time":97000000000,"state":"active","ping":58},{"user_id":324,"name":"clocky broad","steam_id":76561198131833567,"connected_time":2684000000000,"state":"active","ping":64},{"user_id":285,"name":"meph","steam_id":76561198149683030,"connected_time":5002000000000,"state":"active","ping":71},{"user_id":347,"name":"Hipster Monkey","steam_id":76561197961022492,"connected_time":852000000000,"state":"active","ping":58},{"user_id":302,"name":"coco","steam_id":76561198252066462,"connected_time":3644000000000,"state":"active","ping":37},{"user_id":325,"name":"AMY TOO MUCH FOR ZBLOCK","steam_id":76561199013338126,"connected_time":2605000000000,"state":"active","ping":52},{"user_id":338,"name":"happer","steam_id":76561198018252253,"connected_time":1797000000000,"state":"active","ping":54},{"user_id":348,"name":"Unlicensed Fed","steam_id":76561198166040449,"connected_time":828000000000,"state":"active","ping":45},{"user_id":349,"name":"slosh","steam_id":76561198060546760,"connected_time":818000000000,"state":"active","ping":144},{"user_id":288,"name":"Whisper!","steam_id":76561198119609795,"connected_time":4693000000000,"state":"active","ping":50},{"user_id":350,"name":"nobody stop me","steam_id":76561198016889445,"connected_time":812000000000,"state":"active","ping":88},{"user_id":339,"name":"jimmy outlaw","steam_id":76561198070380402,"connected_time":1718000000000,"state":"active","ping":105},{"user_id":332,"name":"Gamer to Femboy pipeline","steam_id":76561198026941076,"connected_time":2406000000000,"state":"active","ping":72},{"user_id":351,"name":"Auty","steam_id":76561198092794138,"connected_time":811000000000,"state":"active","ping":40},{"user_id":320,"name":"psi","steam_id":76561198061497429,"connected_time":3041000000000,"state":"active","ping":79},{"user_id":352,"name":"Supersonic","steam_id":76561198042167127,"connected_time":786000000000,"state":"active","ping":85},{"user_id":358,"name":"Cat on the Moon","steam_id":76561198272661627,"connected_time":454000000000,"state":"active","ping":48},{"user_id":357,"name":"Keamy","steam_id":76561199471434875,"connected_time":532000000000,"state":"active","ping":149},{"user_id":281,"name":"lol","steam_id":76561198026491738,"connected_time":5196000000000,"state":"active","ping":69},{"user_id":341,"name":"the cock","steam_id":76561198065153674,"connected_time":1333000000000,"state":"active","ping":65},{"user_id":282,"name":"Humble Learner","steam_id":76561198066091050,"connected_time":5196000000000,"state":"active","ping":74}]},{"server_id":112,"name":"Uncletopia | Los Angeles | 2 | All Maps","name_short":"lax-2","host":"lax-1.us.uncletopia.com","port":27025,"enabled":true,"region":"us-west","cc":"us","latitude":33.94279,"longitude":-118.41004,"reserved":0,"last_update":"0001-01-01T00:00:00Z","name_a2s":"Uncletopia | Los Angeles | 2 | All Maps","protocol":17,"map":"ctf_landfall","folder":"tf","game":"Team Fortress","app_id":440,"player_count":18,"max_players":24,"Bots":0,"server_type":"Dedicated","server_os":"Linux","password":true,"vac":true,"version":"7961495","steam_id":85568392924469992,"keywords":["ctf","nocrits","nodmgspread","uncletopia"],"game_id":440,"stv_port":27026,"stv_name":"Uncletopia | Los Angeles | 2 | All Maps | STV","players":[{"user_id":307,"name":"Kasimir","steam_id":76561198013840333,"connected_time":8000000000,"state":"active","ping":137},{"user_id":300,"name":"nfseskimo","steam_id":76561198078745666,"connected_time":438000000000,"state":"active","ping":65},{"user_id":280,"name":"Wutville Addict","steam_id":76561198060007148,"connected_time":2517000000000,"state":"active","ping":145},{"user_id":281,"name":"Juicy","steam_id":76561198049220780,"connected_time":2476000000000,"state":"active","ping":46},{"user_id":301,"name":"·µê·µâ·µí ∑","steam_id":76561199200969139,"connected_time":326000000000,"state":"active","ping":121},{"user_id":285,"name":"TimeForHype","steam_id":76561197996714494,"connected_time":2363000000000,"state":"active","ping":71},{"user_id":279,"name":"Load","steam_id":76561198135643594,"connected_time":2700000000000,"state":"active","ping":110},{"user_id":304,"name":"thai","steam_id":76561198052462287,"connected_time":212000000000,"state":"active","ping":73},{"user_id":266,"name":"day6","steam_id":76561198168492250,"connected_time":3307000000000,"state":"active","ping":54},{"user_id":269,"name":"R0hban","steam_id":76561198071163718,"connected_time":3101000000000,"state":"active","ping":41},{"user_id":184,"name":"rock gaming","steam_id":76561199402868311,"connected_time":8762000000000,"state":"active","ping":45},{"user_id":274,"name":"Sock Puppet","steam_id":76561197983066945,"connected_time":3065000000000,"state":"active","ping":53},{"user_id":294,"name":"array","steam_id":76561198280409646,"connected_time":971000000000,"state":"active","ping":33},{"user_id":290,"name":"Atrix","steam_id":76561198084930312,"connected_time":1841000000000,"state":"active","ping":48},{"user_id":292,"name":"Dogg wader","steam_id":76561199090314340,"connected_time":1285000000000,"state":"active","ping":83},{"user_id":276,"name":"eatmysteel","steam_id":76561198976437527,"connected_time":2940000000000,"state":"active","ping":98},{"user_id":286,"name":"this","steam_id":76561197995469460,"connected_time":1916000000000,"state":"active","ping":53},{"user_id":284,"name":"Sad_Kiwi","steam_id":76561198356255997,"connected_time":2408000000000,"state":"active","ping":132}]},{"server_id":324,"name":"Uncletopia | Los Angeles | 3 | All Maps","name_short":"lax-3","host":"lax-1.us.uncletopia.com","port":27035,"enabled":true,"region":"us-west","cc":"us","latitude":33.94279,"longitude":-118.41004,"reserved":0,"last_update":"0001-01-01T00:00:00Z","name_a2s":"Uncletopia | Los Angeles | 3 | All Maps","protocol":17,"map":"pl_snowycoast","folder":"tf","game":"Team Fortress","app_id":440,"player_count":0,"max_players":24,"Bots":0,"server_type":"Dedicated","server_os":"Linux","password":true,"vac":true,"version":"7961495","steam_id":85568392924510198,"keywords":["nocrits","nodmgspread","payload","uncletopia"],"game_id":440,"stv_port":27036,"stv_name":"Uncletopia | Los Angeles | 3 | All Maps | STV","players":null},{"server_id":25,"name":"Uncletopia | Los Angeles | 4 | Stopwatch","name_short":"lax-4","host":"lax-1.us.uncletopia.com","port":27045,"enabled":true,"region":"us-west","cc":"us","latitude":33.94279,"longitude":-118.41004,"reserved":0,"last_update":"0001-01-01T00:00:00Z","name_a2s":"Uncletopia | Los Angeles | 4 | Stopwatch","protocol":17,"map":"workshop/koth_clearcut_b15.ugc2107050255","folder":"tf","game":"Team Fortress","app_id":440,"player_count":0,"max_players":24,"Bots":0,"server_type":"Dedicated","server_os":"Linux","password":true,"vac":true,"version":"7961495","steam_id":85568392924510199,"keywords":["cp","nocrits","nodmgspread","uncletopia"],"game_id":440,"stv_port":27046,"stv_name":"Uncletopia | Los Angeles | 4 | Stopwatch | STV","players":null},{"server_id":11,"name":"Uncletopia | London | 1 | All Maps","name_short":"lon-1","host":"lon-1.uk.uncletopia.com","port":27015,"enabled":true,"region":"eu","cc":"gb","latitude":51.509865,"longitude":-0.118092,"reserved":0,"last_update":"0001-01-01T00:00:00Z","name_a2s":"Uncletopia | London | 1 | All Maps","protocol":17,"map":"koth_lakeside_final","folder":"tf","game":"Team Fortress","app_id":440,"player_count":0,"max_players":24,"Bots":0,"server_type":"Dedicated","server_os":"Linux","password":true,"vac":true,"version":"7961495","steam_id":85568392924367362,"keywords":["cp","nocrits","nodmgspread","uncletopia"],"game_id":440,"stv_port":27016,"stv_name":"Uncletopia | London | 1 | All Maps | STV","players":null},{"server_id":114,"name":"Uncletopia | London | 2 | All Maps","name_short":"lon-2","host":"lon-1.uk.uncletopia.com","port":27025,"enabled":true,"region":"eu","cc":"gb","latitude":51.509865,"longitude":-0.118092,"reserved":0,"last_update":"0001-01-01T00:00:00Z","name_a2s":"Uncletopia | London | 2 | All Maps","protocol":17,"map":"pl_snowycoast","folder":"tf","game":"Team Fortress","app_id":440,"player_count":0,"max_players":24,"Bots":0,"server_type":"Dedicated","server_os":"Linux","password":true,"vac":true,"version":"7961495","steam_id":85568392924470941,"keywords":["nocrits","nodmgspread","payload","uncletopia"],"game_id":440,"stv_port":27026,"stv_name":"Uncletopia | London | 2 | All Maps | STV","players":null},{"server_id":320,"name":"Uncletopia | London | 3 | All Maps","name_short":"lon-3","host":"lon-1.uk.uncletopia.com","port":27035,"enabled":true,"region":"eu","cc":"gb","latitude":51.509865,"longitude":-0.118092,"reserved":0,"last_update":"0001-01-01T00:00:00Z","name_a2s":"Uncletopia | London | 3 | All Maps","protocol":17,"map":"koth_lakeside_final","folder":"tf","game":"Team Fortress","app_id":440,"player_count":0,"max_players":24,"Bots":0,"server_type":"Dedicated","server_os":"Linux","password":true,"vac":true,"version":"7961495","steam_id":85568392924510192,"keywords":["cp","nocrits","nodmgspread","uncletopia"],"game_id":440,"stv_port":27036,"stv_name":"Uncletopia | London | 3 | All Maps | STV","players":null},{"server_id":321,"name":"Uncletopia | London | 4 | All Maps","name_short":"lon-4","host":"lon-1.uk.uncletopia.com","port":27045,"enabled":true,"region":"eu","cc":"gb","latitude":51.509865,"longitude":-0.118092,"reserved":0,"last_update":"0001-01-01T00:00:00Z","name_a2s":"Uncletopia | London | 4 | All Maps","protocol":17,"map":"pl_badwater","folder":"tf","game":"Team Fortress","app_id":440,"player_count":0,"max_players":24,"Bots":0,"server_type":"Dedicated","server_os":"Linux","password":true,"vac":true,"version":"7961495","steam_id":85568392924510193,"keywords":["nocrits","nodmgspread","payload","uncletopia"],"game_id":440,"stv_port":27046,"stv_name":"Uncletopia | London | 4 | All Maps | STV","players":null},{"server_id":21,"name":"Uncletopia | London | 5 | All Maps","name_short":"lon-5","host":"lon-1.uk.uncletopia.com","port":27055,"enabled":true,"region":"eu","cc":"gb","latitude":51.509865,"longitude":-0.118092,"reserved":0,"last_update":"0001-01-01T00:00:00Z","name_a2s":"Uncletopia | London | 5 | All Maps","protocol":17,"map":"koth_lazarus","folder":"tf","game":"Team Fortress","app_id":440,"player_count":0,"max_players":24,"Bots":0,"server_type":"Dedicated","server_os":"Linux","password":true,"vac":true,"version":"7961495","steam_id":85568392924742829,"keywords":["cp","nocrits","nodmgspread","uncletopia"],"game_id":440,"stv_port":27056,"stv_name":"Uncletopia | London | 5 | All Maps | STV","players":null},{"server_id":22,"name":"Uncletopia | London | 6 | All Maps","name_short":"lon-6","host":"lon-1.uk.uncletopia.com","port":27065,"enabled":true,"region":"eu","cc":"gb","latitude":51.509865,"longitude":-0.118092,"reserved":0,"last_update":"0001-01-01T00:00:00Z","name_a2s":"Uncletopia | London | 6 | All Maps","protocol":17,"map":"cp_gorge","folder":"tf","game":"Team Fortress","app_id":440,"player_count":0,"max_players":24,"Bots":0,"server_type":"Dedicated","server_os":"Linux","password":true,"vac":true,"version":"7961495","steam_id":85568392924742830,"keywords":["cp","nocrits","nodmgspread","uncletopia"],"game_id":440,"stv_port":27066,"stv_name":"Uncletopia | London | 6 | All Maps | STV","players":null},{"server_id":40,"name":"Uncletopia | London | 7 | Stopwatch","name_short":"lon-7","host":"lon-1.uk.uncletopia.com","port":27075,"enabled":true,"region":"eu","cc":"gb","latitude":51.509865,"longitude":-0.118092,"reserved":0,"last_update":"0001-01-01T00:00:00Z","name_a2s":"Uncletopia | London | 7 | Stopwatch","protocol":17,"map":"workshop/pl_badwater_pro_v12.ugc2142942074","folder":"tf","game":"Team Fortress","app_id":440,"player_count":1,"max_players":24,"Bots":0,"server_type":"Dedicated","server_os":"Linux","password":true,"vac":true,"version":"7961495","steam_id":85568392924964314,"keywords":["nocrits","nodmgspread","payload","uncletopia"],"game_id":440,"stv_port":27076,"stv_name":"Uncletopia | London | 7 | Stopwatch | STV","players":[{"user_id":3,"name":"Denialman (Muted)","steam_id":76561198309182092,"connected_time":5000000000,"state":"spawning","ping":64}]},{"server_id":41,"name":"Uncletopia | London | 8 | Community","name_short":"lon-8","host":"lon-1.uk.uncletopia.com","port":27085,"enabled":true,"region":"eu","cc":"gb","latitude":51.509865,"longitude":-0.118092,"reserved":0,"last_update":"0001-01-01T00:00:00Z","name_a2s":"Uncletopia | London | 8 | Community","protocol":17,"map":"workshop/cp_villa_b19.ugc2113052569","folder":"tf","game":"Team Fortress","app_id":440,"player_count":0,"max_players":24,"Bots":0,"server_type":"Dedicated","server_os":"Linux","password":true,"vac":true,"version":"7961495","steam_id":85568392924964315,"keywords":["cp","nocrits","nodmgspread","uncletopia"],"game_id":440,"stv_port":27086,"stv_name":"Uncletopia | London | 8 | Community | STV","players":null},{"server_id":300,"name":"Uncletopia | Montr√©al | 1 | One Thousand Uncles","name_short":"mtl-1","host":"mtl-1.ca.uncletopia.com","port":27015,"enabled":true,"region":"us-east","cc":"ca","latitude":45.50889,"longitude":-73.56167,"reserved":0,"last_update":"0001-01-01T00:00:00Z","name_a2s":"Uncletopia | Montr√©al | 1 | One Thousand Uncles","protocol":17,"map":"pl_goldrush","folder":"tf","game":"Team Fortress","app_id":440,"player_count":0,"max_players":32,"Bots":0,"server_type":"Dedicated","server_os":"Linux","password":true,"vac":true,"version":"7961495","steam_id":85568392924500087,"keywords":["alltalk","danepve","increased_maxplayers","norespawntime","payload","uncletopia"],"game_id":440,"stv_port":0,"stv_name":"","players":null},{"server_id":301,"name":"Uncletopia | Montr√©al | 2 | One Thousand Uncles","name_short":"mtl-2","host":"mtl-1.ca.uncletopia.com","port":27025,"enabled":true,"region":"us-east","cc":"ca","latitude":45.50889,"longitude":-73.56167,"reserved":0,"last_update":"0001-01-01T00:00:00Z","name_a2s":"Uncletopia | Montr√©al | 2 | One Thousand Uncles","protocol":17,"map":"pl_badwater","folder":"tf","game":"Team Fortress","app_id":440,"player_count":0,"max_players":32,"Bots":0,"server_type":"Dedicated","server_os":"Linux","password":true,"vac":true,"version":"7961495","steam_id":85568392924500088,"keywords":["alltalk","danepve","increased_maxplayers","norespawntime","payload","uncletopia"],"game_id":440,"stv_port":0,"stv_name":"","players":null},{"server_id":302,"name":"Uncletopia | Montr√©al | 3 | One Thousand Uncles","name_short":"mtl-3","host":"mtl-1.ca.uncletopia.com","port":27035,"enabled":true,"region":"us-east","cc":"ca","latitude":45.50889,"longitude":-73.56167,"reserved":0,"last_update":"0001-01-01T00:00:00Z","name_a2s":"Uncletopia | Montr√©al | 3 | One Thousand Uncles","protocol":17,"map":"pl_upward","folder":"tf","game":"Team Fortress","app_id":440,"player_count":0,"max_players":32,"Bots":0,"server_type":"Dedicated","server_os":"Linux","password":true,"vac":true,"version":"7961495","steam_id":85568392924500089,"keywords":["alltalk","danepve","increased_maxplayers","norespawntime","payload","uncletopia"],"game_id":440,"stv_port":0,"stv_name":"","players":null},{"server_id":13,"name":"Uncletopia | New York City | 1 | All Maps","name_short":"nyc-1","host":"nyc-1.us.uncletopia.com","port":27015,"enabled":true,"region":"us-east","cc":"us","latitude":40.73061,"longitude":-73.93524,"reserved":0,"last_update":"0001-01-01T00:00:00Z","name_a2s":"Uncletopia | New York City | 1 | All Maps","protocol":17,"map":"koth_viaduct","folder":"tf","game":"Team Fortress","app_id":440,"player_count":0,"max_players":24,"Bots":0,"server_type":"Dedicated","server_os":"Linux","password":true,"vac":true,"version":"7961495","steam_id":85568392924469993,"keywords":["cp","nocrits","nodmgspread","uncletopia"],"game_id":440,"stv_port":27016,"stv_name":"Uncletopia | New York City | 1 | All Maps | STV","players":null},{"server_id":14,"name":"Uncletopia | New York City | 2 | All Maps","name_short":"nyc-2","host":"nyc-1.us.uncletopia.com","port":27025,"enabled":true,"region":"us-east","cc":"us","latitude":40.73061,"longitude":-73.93524,"reserved":0,"last_update":"0001-01-01T00:00:00Z","name_a2s":"Uncletopia | New York City | 2 | All Maps","protocol":17,"map":"cp_gorge","folder":"tf","game":"Team Fortress","app_id":440,"player_count":0,"max_players":24,"Bots":0,"server_type":"Dedicated","server_os":"Linux","password":true,"vac":true,"version":"7961495","steam_id":85568392924469994,"keywords":["cp","nocrits","nodmgspread","uncletopia"],"game_id":440,"stv_port":27026,"stv_name":"Uncletopia | New York City | 2 | All Maps | STV","players":null},{"server_id":15,"name":"Uncletopia | New York City | 3 | Stopwatch","name_short":"nyc-3","host":"nyc-1.us.uncletopia.com","port":27035,"enabled":true,"region":"us-east","cc":"us","latitude":40.73061,"longitude":-73.93524,"reserved":0,"last_update":"0001-01-01T00:00:00Z","name_a2s":"Uncletopia | New York City | 3 | Stopwatch","protocol":17,"map":"workshop/koth_clearcut_b15.ugc2107050255","folder":"tf","game":"Team Fortress","app_id":440,"player_count":0,"max_players":24,"Bots":0,"server_type":"Dedicated","server_os":"Linux","password":true,"vac":true,"version":"7961495","steam_id":85568392924742820,"keywords":["cp","nocrits","nodmgspread","uncletopia"],"game_id":440,"stv_port":27036,"stv_name":"Uncletopia | New York City | 3 | Stopwatch | STV","players":null},{"server_id":16,"name":"Uncletopia | New York City | 4 | Community","name_short":"nyc-4","host":"nyc-1.us.uncletopia.com","port":27045,"enabled":true,"region":"us-east","cc":"us","latitude":40.73061,"longitude":-73.93524,"reserved":0,"last_update":"0001-01-01T00:00:00Z","name_a2s":"Uncletopia | New York City | 4 | Community","protocol":17,"map":"workshop/cp_hazyfort_rc6.ugc1365963729","folder":"tf","game":"Team Fortress","app_id":440,"player_count":0,"max_players":24,"Bots":0,"server_type":"Dedicated","server_os":"Linux","password":true,"vac":true,"version":"7961495","steam_id":85568392924742821,"keywords":["cp","nocrits","nodmgspread","uncletopia"],"game_id":440,"stv_port":27046,"stv_name":"Uncletopia | New York City | 4 | Community | STV","players":null},{"server_id":142,"name":"Uncletopia | S√£o Paulo | 1 | All Maps","name_short":"sao-1","host":"sao-1.br.uncletopia.com","port":27015,"enabled":true,"region":"sa","cc":"br","latitude":-23.533773,"longitude":-46.62529,"reserved":0,"last_update":"0001-01-01T00:00:00Z","name_a2s":"Uncletopia | S√£o Paulo | 1 | All Maps","protocol":17,"map":"koth_highpass","folder":"tf","game":"Team Fortress","app_id":440,"player_count":0,"max_players":24,"Bots":0,"server_type":"Dedicated","server_os":"Linux","password":true,"vac":true,"version":"7961495","steam_id":85568392924469996,"keywords":["cp","nocrits","nodmgspread","uncletopia"],"game_id":440,"stv_port":27016,"stv_name":"Uncletopia | S√£o Paulo | 1 | All Maps | STV","players":null},{"server_id":143,"name":"Uncletopia | S√£o Paulo | 2 | Community","name_short":"sao-2","host":"sao-2.br.uncletopia.com","port":27015,"enabled":true,"region":"sa","cc":"br","latitude":-23.533773,"longitude":-46.62529,"reserved":0,"last_update":"0001-01-01T00:00:00Z","name_a2s":"Uncletopia | S√£o Paulo | 2 | Community","protocol":17,"map":"workshop/cp_croissant_final.ugc458840209","folder":"tf","game":"Team Fortress","app_id":440,"player_count":0,"max_players":24,"Bots":0,"server_type":"Dedicated","server_os":"Linux","password":true,"vac":true,"version":"7961495","steam_id":85568392924485349,"keywords":["cp","nocrits","nodmgspread","uncletopia"],"game_id":440,"stv_port":27016,"stv_name":"Uncletopia | S√£o Paulo | 2 | Community | STV","players":null},{"server_id":7,"name":"Uncletopia | Seattle | 1 | All Maps","name_short":"sea-1","host":"sea-1.us.uncletopia.com","port":27015,"enabled":true,"region":"us-west","cc":"us","latitude":47.608013,"longitude":-122.33517,"reserved":0,"last_update":"0001-01-01T00:00:00Z","name_a2s":"Uncletopia | Seattle | 1 | All Maps","protocol":17,"map":"cp_snakewater_final1","folder":"tf","game":"Team Fortress","app_id":440,"player_count":24,"max_players":24,"Bots":0,"server_type":"Dedicated","server_os":"Linux","password":true,"vac":true,"version":"7961495","steam_id":85568392924469997,"keywords":["cp","nocrits","nodmgspread","uncletopia"],"game_id":440,"stv_port":27016,"stv_name":"Uncletopia | Seattle | 1 | All Maps | STV","players":[{"user_id":733,"name":"panda","steam_id":76561198025214612,"connected_time":483000000000,"state":"active","ping":42},{"user_id":747,"name":"BL√òRG","steam_id":76561198036126673,"connected_time":10000000000,"state":"active","ping":95},{"user_id":699,"name":"Grassman (Cc)","steam_id":76561198026488532,"connected_time":2807000000000,"state":"active","ping":59},{"user_id":736,"name":"Puppeteer","steam_id":76561198159928108,"connected_time":288000000000,"state":"active","ping":47},{"user_id":714,"name":"ORng","steam_id":76561198153213886,"connected_time":1971000000000,"state":"active","ping":45},{"user_id":735,"name":"Cpt. Dingle","steam_id":76561198025720199,"connected_time":449000000000,"state":"active","ping":64},{"user_id":730,"name":"Kamin","steam_id":76561198255299559,"connected_time":536000000000,"state":"active","ping":120},{"user_id":737,"name":"benji","steam_id":76561198084417967,"connected_time":233000000000,"state":"active","ping":58},{"user_id":724,"name":"Creature","steam_id":76561198194585781,"connected_time":820000000000,"state":"active","ping":73},{"user_id":717,"name":"Nom Skirrett","steam_id":76561198014600788,"connected_time":1872000000000,"state":"active","ping":67},{"user_id":738,"name":"wugmup","steam_id":76561199096287734,"connected_time":163000000000,"state":"active","ping":82},{"user_id":669,"name":"[TrC] Dackstrus","steam_id":76561197973518509,"connected_time":5133000000000,"state":"active","ping":51},{"user_id":731,"name":"zee","steam_id":76561198148876424,"connected_time":525000000000,"state":"active","ping":54},{"user_id":725,"name":"That wasn't milk","steam_id":76561198155294045,"connected_time":812000000000,"state":"active","ping":63},{"user_id":729,"name":"MrPeanutBetter","steam_id":76561199149697526,"connected_time":559000000000,"state":"active","ping":45},{"user_id":734,"name":"reiidaya","steam_id":76561198325306660,"connected_time":481000000000,"state":"active","ping":51},{"user_id":739,"name":"Dr. Inkulus | snln ûuI Àô…π·ó°","steam_id":76561198212231033,"connected_time":155000000000,"state":"active","ping":39},{"user_id":740,"name":"The Champagne Of Mayonnaise","steam_id":76561197961107982,"connected_time":138000000000,"state":"active","ping":70},{"user_id":744,"name":"Antzen","steam_id":76561198041343470,"connected_time":45000000000,"state":"active","ping":69},{"user_id":682,"name":"no vc no c","steam_id":76561197989503095,"connected_time":4603000000000,"state":"active","ping":153},{"user_id":713,"name":"JD_Sushi","steam_id":76561199119343323,"connected_time":1981000000000,"state":"active","ping":41},{"user_id":742,"name":"1000 Ping","steam_id":76561198098330939,"connected_time":114000000000,"state":"active","ping":100},{"user_id":745,"name":"Sailor","steam_id":76561199081983517,"connected_time":42000000000,"state":"active","ping":92},{"user_id":746,"name":"sherbink","steam_id":76561198357132470,"connected_time":28000000000,"state":"active","ping":90}]},{"server_id":119,"name":"Uncletopia | Seattle | 2 | All Maps","name_short":"sea-2","host":"sea-1.us.uncletopia.com","port":27025,"enabled":true,"region":"us-west","cc":"us","latitude":47.608013,"longitude":-122.33517,"reserved":0,"last_update":"0001-01-01T00:00:00Z","name_a2s":"Uncletopia | Seattle | 2 | All Maps","protocol":17,"map":"koth_harvest_final","folder":"tf","game":"Team Fortress","app_id":440,"player_count":22,"max_players":24,"Bots":0,"server_type":"Dedicated","server_os":"Linux","password":true,"vac":true,"version":"7961495","steam_id":85568392924469998,"keywords":["cp","nocrits","nodmgspread","uncletopia"],"game_id":440,"stv_port":27026,"stv_name":"Uncletopia | Seattle | 2 | All Maps | STV","players":[{"user_id":540,"name":"fwoov","steam_id":76561198129166260,"connected_time":4387000000000,"state":"active","ping":89},{"user_id":570,"name":"self sufficient kitten ‚ô•","steam_id":76561197960592612,"connected_time":529000000000,"state":"active","ping":45},{"user_id":538,"name":"L√© Mon","steam_id":76561198078626283,"connected_time":4830000000000,"state":"active","ping":31},{"user_id":550,"name":"resh","steam_id":76561198239598834,"connected_time":3241000000000,"state":"active","ping":130},{"user_id":509,"name":"gorlab","steam_id":76561198025089694,"connected_time":7352000000000,"state":"active","ping":60},{"user_id":572,"name":"Grand","steam_id":76561198290143399,"connected_time":494000000000,"state":"active","ping":74},{"user_id":571,"name":"Grill Skills","steam_id":76561198053575147,"connected_time":517000000000,"state":"active","ping":45},{"user_id":555,"name":"Sweets","steam_id":76561198998446307,"connected_time":3023000000000,"state":"active","ping":66},{"user_id":546,"name":"samantha","steam_id":76561198049258493,"connected_time":3619000000000,"state":"active","ping":62},{"user_id":539,"name":"delight","steam_id":76561197980280272,"connected_time":4829000000000,"state":"active","ping":43},{"user_id":559,"name":"John Calibur","steam_id":76561197999986606,"connected_time":2078000000000,"state":"active","ping":73},{"user_id":575,"name":"hazel","steam_id":76561198037292232,"connected_time":478000000000,"state":"active","ping":120},{"user_id":574,"name":"paws :3","steam_id":76561199371694361,"connected_time":492000000000,"state":"active","ping":170},{"user_id":576,"name":"Facepalm","steam_id":76561198001935226,"connected_time":445000000000,"state":"active","ping":60},{"user_id":485,"name":"Cheezbeargur","steam_id":76561198164702899,"connected_time":9651000000000,"state":"active","ping":68},{"user_id":557,"name":"thunderous prophet","steam_id":76561198131166135,"connected_time":2895000000000,"state":"active","ping":37},{"user_id":577,"name":"bath","steam_id":76561197969993352,"connected_time":340000000000,"state":"active","ping":105},{"user_id":565,"name":"NotThatGuyPal","steam_id":76561199127607812,"connected_time":1023000000000,"state":"active","ping":72},{"user_id":563,"name":"Gm_Sweet","steam_id":76561199445091548,"connected_time":1398000000000,"state":"active","ping":59},{"user_id":558,"name":"rorywashere /·ê† - Àï -„Éû ‚≥ä","steam_id":76561198065825165,"connected_time":2882000000000,"state":"active","ping":108},{"user_id":497,"name":"smeasly","steam_id":76561198028718812,"connected_time":8579000000000,"state":"active","ping":42},{"user_id":578,"name":"jorts","steam_id":76561199041179985,"connected_time":298000000000,"state":"active","ping":54}]},{"server_id":406,"name":"Uncletopia | Seattle | 3 | Stopwatch","name_short":"sea-3","host":"sea-1.us.uncletopia.com","port":27035,"enabled":true,"region":"us-west","cc":"us","latitude":47.608013,"longitude":-122.33517,"reserved":0,"last_update":"0001-01-01T00:00:00Z","name_a2s":"Uncletopia | Seattle | 3 | Stopwatch","protocol":17,"map":"workshop/koth_product_final.ugc454272353","folder":"tf","game":"Team Fortress","app_id":440,"player_count":0,"max_players":24,"Bots":0,"server_type":"Dedicated","server_os":"Linux","password":true,"vac":true,"version":"7961495","steam_id":85568392924515217,"keywords":["cp","nocrits","nodmgspread","uncletopia"],"game_id":440,"stv_port":27036,"stv_name":"Uncletopia | Seattle | 3 | Stopwatch | STV","players":null},{"server_id":17,"name":"Uncletopia | San Francisco | 1 | All Maps","name_short":"sfo-1","host":"sfo-1.us.uncletopia.com","port":27015,"enabled":true,"region":"us-west","cc":"us","latitude":37.77397,"longitude":-122.4313,"reserved":0,"last_update":"0001-01-01T00:00:00Z","name_a2s":"Uncletopia | San Francisco | 1 | All Maps","protocol":17,"map":"koth_lakeside_final","folder":"tf","game":"Team Fortress","app_id":440,"player_count":0,"max_players":24,"Bots":0,"server_type":"Dedicated","server_os":"Linux","password":true,"vac":true,"version":"7961495","steam_id":85568392924469999,"keywords":["cp","nocrits","nodmgspread","uncletopia"],"game_id":440,"stv_port":27016,"stv_name":"Uncletopia | San Francisco | 1 | All Maps | STV","players":null},{"server_id":18,"name":"Uncletopia | San Francisco | 2 | All Maps","name_short":"sfo-2","host":"sfo-1.us.uncletopia.com","port":27025,"enabled":true,"region":"us-west","cc":"us","latitude":37.77397,"longitude":-122.4313,"reserved":0,"last_update":"0001-01-01T00:00:00Z","name_a2s":"Uncletopia | San Francisco | 2 | All Maps","protocol":17,"map":"pl_frontier_final","folder":"tf","game":"Team Fortress","app_id":440,"player_count":0,"max_players":24,"Bots":0,"server_type":"Dedicated","server_os":"Linux","password":true,"vac":true,"version":"7961495","steam_id":85568392924470000,"keywords":["nocrits","nodmgspread","payload","uncletopia"],"game_id":440,"stv_port":27026,"stv_name":"Uncletopia | San Francisco | 2 | All Maps | STV","players":null},{"server_id":19,"name":"Uncletopia | San Francisco | 3 | Stopwatch","name_short":"sfo-3","host":"sfo-1.us.uncletopia.com","port":27035,"enabled":true,"region":"us-west","cc":"us","latitude":37.77397,"longitude":-122.4313,"reserved":0,"last_update":"0001-01-01T00:00:00Z","name_a2s":"Uncletopia | San Francisco | 3 | Stopwatch","protocol":17,"map":"koth_highpass","folder":"tf","game":"Team Fortress","app_id":440,"player_count":0,"max_players":24,"Bots":0,"server_type":"Dedicated","server_os":"Linux","password":true,"vac":true,"version":"7961495","steam_id":85568392924742824,"keywords":["cp","nocrits","nodmgspread","uncletopia"],"game_id":440,"stv_port":27036,"stv_name":"Uncletopia | San Francisco | 3 | Stopwatch | STV","players":null},{"server_id":20,"name":"Uncletopia | San Francisco | 4 | Community","name_short":"sfo-4","host":"sfo-1.us.uncletopia.com","port":27045,"enabled":true,"region":"us-west","cc":"us","latitude":37.77397,"longitude":-122.4313,"reserved":0,"last_update":"0001-01-01T00:00:00Z","name_a2s":"Uncletopia | San Francisco | 4 | Community","protocol":17,"map":"workshop/koth_slaughter_rc1.ugc1712845210","folder":"tf","game":"Team Fortress","app_id":440,"player_count":0,"max_players":24,"Bots":0,"server_type":"Dedicated","server_os":"Linux","password":true,"vac":true,"version":"7961495","steam_id":85568392924742826,"keywords":["cp","nocrits","nodmgspread","uncletopia"],"game_id":440,"stv_port":27046,"stv_name":"Uncletopia | San Francisco | 4 | Community | STV","players":null},{"server_id":141,"name":"Uncletopia | Sydney | 1 | All Maps","name_short":"syd-1","host":"syd-1.au.uncletopia.com","port":27015,"enabled":true,"region":"au","cc":"au","latitude":-33.865143,"longitude":151.2099,"reserved":0,"last_update":"0001-01-01T00:00:00Z","name_a2s":"Uncletopia | Sydney | 1 | All Maps","protocol":17,"map":"pl_frontier_final","folder":"tf","game":"Team Fortress","app_id":440,"player_count":3,"max_players":24,"Bots":0,"server_type":"Dedicated","server_os":"Linux","password":true,"vac":true,"version":"7961495","steam_id":85568392924470001,"keywords":["nocrits","nodmgspread","payload","uncletopia"],"game_id":440,"stv_port":27016,"stv_name":"Uncletopia | Sydney | 1 | All Maps | STV","players":[{"user_id":37,"name":"Mitch","steam_id":76561198405622505,"connected_time":698000000000,"state":"active","ping":52},{"user_id":28,"name":"Penguinator5000","steam_id":76561198038183553,"connected_time":1360000000000,"state":"active","ping":33},{"user_id":36,"name":"SUPERMANBOY16065","steam_id":76561199281766009,"connected_time":958000000000,"state":"active","ping":90}]},{"server_id":123,"name":"Uncletopia | Sydney | 2 | All Maps","name_short":"syd-2","host":"syd-1.au.uncletopia.com","port":27025,"enabled":true,"region":"au","cc":"au","latitude":-33.865143,"longitude":151.2099,"reserved":0,"last_update":"0001-01-01T00:00:00Z","name_a2s":"Uncletopia | Sydney | 2 | All Maps","protocol":17,"map":"koth_cascade","folder":"tf","game":"Team Fortress","app_id":440,"player_count":0,"max_players":24,"Bots":0,"server_type":"Dedicated","server_os":"Linux","password":true,"vac":true,"version":"7961495","steam_id":85568392924470002,"keywords":["cp","nocrits","nodmgspread","uncletopia"],"game_id":440,"stv_port":27026,"stv_name":"Uncletopia | Sydney | 2 | All Maps | STV","players":null},{"server_id":395,"name":"Uncletopia | Sydney | 3 | All Maps","name_short":"syd-3","host":"syd-1.au.uncletopia.com","port":27035,"enabled":true,"region":"au","cc":"au","latitude":-33.865143,"longitude":151.2099,"reserved":0,"last_update":"0001-01-01T00:00:00Z","name_a2s":"Uncletopia | Sydney | 3 | All Maps","protocol":17,"map":"cp_metalworks","folder":"tf","game":"Team Fortress","app_id":440,"player_count":0,"max_players":24,"Bots":0,"server_type":"Dedicated","server_os":"Linux","password":true,"vac":true,"version":"7961495","steam_id":85568392925194467,"keywords":["cp","nocrits","nodmgspread","uncletopia"],"game_id":440,"stv_port":27036,"stv_name":"Uncletopia | Sydney | 3 | All Maps | STV","players":null},{"server_id":396,"name":"Uncletopia | Sydney | 4 | All Maps","name_short":"syd-4","host":"syd-1.au.uncletopia.com","port":27045,"enabled":true,"region":"au","cc":"au","latitude":-33.865143,"longitude":151.2099,"reserved":0,"last_update":"0001-01-01T00:00:00Z","name_a2s":"Uncletopia | Sydney | 4 | All Maps","protocol":17,"map":"pl_snowycoast","folder":"tf","game":"Team Fortress","app_id":440,"player_count":8,"max_players":24,"Bots":0,"server_type":"Dedicated","server_os":"Linux","password":true,"vac":true,"version":"7961495","steam_id":85568392925397958,"keywords":["nocrits","nodmgspread","payload","uncletopia"],"game_id":440,"stv_port":27046,"stv_name":"Uncletopia | Sydney | 4 | All Maps | STV","players":[{"user_id":21,"name":"Oblivious blob","steam_id":76561198141673936,"connected_time":141000000000,"state":"active","ping":75},{"user_id":13,"name":"ANDY64","steam_id":76561198049447026,"connected_time":805000000000,"state":"active","ping":66},{"user_id":9,"name":"Gobifox","steam_id":76561198054041068,"connected_time":1363000000000,"state":"active","ping":79},{"user_id":10,"name":"FascismSalad","steam_id":76561198262410973,"connected_time":1352000000000,"state":"active","ping":45},{"user_id":11,"name":"pathway","steam_id":76561198346674092,"connected_time":1034000000000,"state":"active","ping":72},{"user_id":15,"name":"the negotiator","steam_id":76561199229260149,"connected_time":360000000000,"state":"active","ping":59},{"user_id":16,"name":"scoot010","steam_id":76561198821606563,"connected_time":251000000000,"state":"active","ping":32},{"user_id":18,"name":"CypressFluff (she/her)","steam_id":76561198174667818,"connected_time":213000000000,"state":"active","ping":45}]},{"server_id":58,"name":"Uncletopia | Sydney | 5 | Stopwatch","name_short":"syd-5","host":"syd-1.au.uncletopia.com","port":27055,"enabled":true,"region":"au","cc":"au","latitude":-33.865143,"longitude":151.2099,"reserved":0,"last_update":"0001-01-01T00:00:00Z","name_a2s":"Uncletopia | Sydney | 5 | Stopwatch","protocol":17,"map":"workshop/koth_jamram_rc1a.ugc2964065613","folder":"tf","game":"Team Fortress","app_id":440,"player_count":0,"max_players":24,"Bots":0,"server_type":"Dedicated","server_os":"Linux","password":true,"vac":true,"version":"7961495","steam_id":85568392925397959,"keywords":["cp","nocrits","nodmgspread","uncletopia"],"game_id":440,"stv_port":27056,"stv_name":"Uncletopia | Sydney | 5 | Stopwatch | STV","players":null},{"server_id":59,"name":"Uncletopia | Sydney | 6 | Community","name_short":"syd-6","host":"syd-1.au.uncletopia.com","port":27065,"enabled":true,"region":"au","cc":"au","latitude":-33.865143,"longitude":151.2099,"reserved":0,"last_update":"0001-01-01T00:00:00Z","name_a2s":"Uncletopia | Sydney | 6 | Community","protocol":17,"map":"workshop/koth_trenchfoot_ab1.ugc731436616","folder":"tf","game":"Team Fortress","app_id":440,"player_count":0,"max_players":24,"Bots":0,"server_type":"Dedicated","server_os":"Linux","password":true,"vac":true,"version":"7961495","steam_id":85568392925397960,"keywords":["cp","nocrits","nodmgspread","uncletopia"],"game_id":440,"stv_port":27066,"stv_name":"Uncletopia | Sydney | 6 | Community | STV","players":null},{"server_id":49,"name":"Uncletopia | Warsaw | 1 | One Thousand Uncles","name_short":"waw-1","host":"waw-1.pl.uncletopia.com","port":27015,"enabled":true,"region":"eu","cc":"pl","latitude":52.2297,"longitude":21.017532,"reserved":0,"last_update":"0001-01-01T00:00:00Z","name_a2s":"Uncletopia | Warsaw | 1 | One Thousand Uncles","protocol":17,"map":"cp_altitude","folder":"tf","game":"Team Fortress","app_id":440,"player_count":0,"max_players":32,"Bots":0,"server_type":"Dedicated","server_os":"Linux","password":true,"vac":true,"version":"7961495","steam_id":85568392925397850,"keywords":["alltalk","cp","danepve","increased_maxplayers","norespawntime","uncletopia"],"game_id":440,"stv_port":0,"stv_name":"","players":null},{"server_id":50,"name":"Uncletopia | Warsaw | 2 | One Thousand Uncles","name_short":"waw-2","host":"waw-1.pl.uncletopia.com","port":27025,"enabled":true,"region":"eu","cc":"pl","latitude":52.2297,"longitude":21.017532,"reserved":0,"last_update":"0001-01-01T00:00:00Z","name_a2s":"Uncletopia | Warsaw | 2 | One Thousand Uncles","protocol":17,"map":"cp_egypt_final","folder":"tf","game":"Team Fortress","app_id":440,"player_count":0,"max_players":32,"Bots":0,"server_type":"Dedicated","server_os":"Linux","password":true,"vac":true,"version":"7961495","steam_id":85568392925397851,"keywords":["alltalk","cp","danepve","increased_maxplayers","norespawntime","uncletopia"],"game_id":440,"stv_port":0,"stv_name":"","players":null},{"server_id":51,"name":"Uncletopia | Warsaw | 3 | All Maps","name_short":"waw-3","host":"waw-1.pl.uncletopia.com","port":27035,"enabled":true,"region":"eu","cc":"pl","latitude":52.2297,"longitude":21.017532,"reserved":0,"last_update":"0001-01-01T00:00:00Z","name_a2s":"Uncletopia | Warsaw | 3 | All Maps","protocol":17,"map":"pl_snowycoast","folder":"tf","game":"Team Fortress","app_id":440,"player_count":0,"max_players":24,"Bots":0,"server_type":"Dedicated","server_os":"Linux","password":true,"vac":true,"version":"7961495","steam_id":85568392925397852,"keywords":["nocrits","nodmgspread","payload","uncletopia"],"game_id":440,"stv_port":27036,"stv_name":"Uncletopia | Warsaw | 3 | All Maps | STV","players":null},{"server_id":52,"name":"Uncletopia | Warsaw | 4 | All Maps","name_short":"waw-4","host":"waw-1.pl.uncletopia.com","port":27045,"enabled":true,"region":"eu","cc":"pl","latitude":52.2297,"longitude":21.017532,"reserved":0,"last_update":"0001-01-01T00:00:00Z","name_a2s":"Uncletopia | Warsaw | 4 | All Maps","protocol":17,"map":"cp_fastlane","folder":"tf","game":"Team Fortress","app_id":440,"player_count":0,"max_players":24,"Bots":0,"server_type":"Dedicated","server_os":"Linux","password":true,"vac":true,"version":"7961495","steam_id":85568392925397853,"keywords":["cp","nocrits","nodmgspread","uncletopia"],"game_id":440,"stv_port":27046,"stv_name":"Uncletopia | Warsaw | 4 | All Maps | STV","players":null},{"server_id":53,"name":"Uncletopia | Warsaw | 5 | Stopwatch","name_short":"waw-5","host":"waw-1.pl.uncletopia.com","port":27055,"enabled":true,"region":"eu","cc":"pl","latitude":52.2297,"longitude":21.017532,"reserved":0,"last_update":"0001-01-01T00:00:00Z","name_a2s":"Uncletopia | Warsaw | 5 | Stopwatch","protocol":17,"map":"cp_gullywash_final1","folder":"tf","game":"Team Fortress","app_id":440,"player_count":0,"max_players":24,"Bots":0,"server_type":"Dedicated","server_os":"Linux","password":true,"vac":true,"version":"7961495","steam_id":85568392925397854,"keywords":["cp","nocrits","nodmgspread","uncletopia"],"game_id":440,"stv_port":27056,"stv_name":"Uncletopia | Warsaw | 5 | Stopwatch | STV","players":null},{"server_id":54,"name":"Uncletopia | Warsaw | 6 | Community","name_short":"waw-6","host":"waw-1.pl.uncletopia.com","port":27065,"enabled":true,"region":"eu","cc":"pl","latitude":52.2297,"longitude":21.017532,"reserved":0,"last_update":"0001-01-01T00:00:00Z","name_a2s":"Uncletopia | Warsaw | 6 | Community","protocol":17,"map":"workshop/cp_fulgur_rc2a.ugc2068252300","folder":"tf","game":"Team Fortress","app_id":440,"player_count":0,"max_players":24,"Bots":0,"server_type":"Dedicated","server_os":"Linux","password":true,"vac":true,"version":"7961495","steam_id":85568392925397856,"keywords":["cp","nocrits","nodmgspread","uncletopia"],"game_id":440,"stv_port":27066,"stv_name":"Uncletopia | Warsaw | 6 | Community | STV","players":null}]}