{"status":true,"message":"","result":[{"server_id":9,"name":"Uncletopia | Atlanta | 1 | All Maps","name_short":"atl-1","host":"atl-1.us.uncletopia.com","port":27015,"enabled":true,"region":"us-east","cc":"us","latitude":33.753746,"longitude":-84.38633,"reserved":0,"last_update":"0001-01-01T00:00:00Z","name_a2s":"Uncletopia | Atlanta | 1 | All Maps","protocol":17,"map":"pl_swiftwater_final1","folder":"tf","game":"Team Fortress","app_id":440,"player_count":24,"max_players":24,"Bots":0,"server_type":"Dedicated","server_os":"Linux","password":true,"vac":true,"version":"7757534","steam_id":85568392924469982,"keywords":["nocrits","nodmgspread","payload","uncletopia"],"game_id":440,"stv_port":27016,"stv_name":"Uncletopia | Atlanta | 1 | All Maps | STV","players":[{"user_id":562,"name":"com lag","steam_id":76561198019019392,"connected_time":4443000000000,"state":"active","ping":64},{"user_id":584,"name":"Jin Gulilo","steam_id":76561198065151242,"connected_time":1454000000000,"state":"active","ping":80},{"user_id":543,"name":"✯Agent Æ120✯","steam_id":76561198202370363,"connected_time":6055000000000,"state":"active","ping":64},{"user_id":544,"name":"lil hog","steam_id":76561199230929836,"connected_time":6048000000000,"state":"active","ping":85},{"user_id":600,"name":"BIG HOG","steam_id":76561198079923652,"connected_time":174000000000,"state":"active","ping":75},{"user_id":529,"name":"cola","steam_id":76561198374390458,"connected_time":7819000000000,"state":"active","ping":47},{"user_id":576,"name":"eish","steam_id":76561198089463603,"connected_time":3163000000000,"state":"active","ping":118},{"user_id":552,"name":"floofy","steam_id":76561198389769098,"connected_time":4572000000000,"state":"active","ping":91},{"user_id":583,"name":"the taxi driver","steam_id":76561198830243167,"connected_time":1458000000000,"state":"active","ping":83},{"user_id":582,"name":"chexo4","steam_id":76561198150532531,"connected_time":1633000000000,"state":"active","ping":50},{"user_id":580,"name":"Daisy the Pitbull","steam_id":76561198150327877,"connected_time":2214000000000,"state":"active","ping":45},{"user_id":530,"name":"fortnite.jimmy.2014","steam_id":76561199177672325,"connected_time":7425000000000,"state":"active","ping":45},{"user_id":598,"name":"lker","steam_id":76561197976975075,"connected_time":552000000000,"state":"active","ping":40},{"user_id":554,"name":"Shame","steam_id":76561198100490994,"connected_time":4565000000000,"state":"active","ping":59},{"user_id":599,"name":"Lilith","steam_id":76561198125102885,"connected_time":431000000000,"state":"active","ping":68},{"user_id":597,"name":"stampdawg","steam_id":76561198050500060,"connected_time":709000000000,"state":"active","ping":81},{"user_id":581,"name":"Bottom Trans Cowgirl","steam_id":76561198304239680,"connected_time":2208000000000,"state":"active","ping":75},{"user_id":596,"name":"Epifiny","steam_id":76561198027958086,"connected_time":725000000000,"state":"active","ping":81},{"user_id":594,"name":"freak ya nature","steam_id":76561198310502474,"connected_time":917000000000,"state":"active","ping":57},{"user_id":561,"name":"FemboyNate","steam_id":76561198146636410,"connected_time":4505000000000,"state":"active","ping":59},{"user_id":564,"name":"Mage","steam_id":76561198285026879,"connected_time":4353000000000,"state":"active","ping":80},{"user_id":592,"name":"ATL1 | ma0re","steam_id":76561199231971506,"connected_time":1272000000000,"state":"active","ping":66},{"user_id":588,"name":"Zave","steam_id":76561198031565082,"connected_time":1436000000000,"state":"active","ping":124},{"user_id":559,"name":"sansa musa","steam_id":76561198163723555,"connected_time":4548000000000,"state":"active","ping":79}]},{"server_id":104,"name":"Uncletopia | Atlanta | 2 | All Maps","name_short":"atl-2","host":"atl-1.us.uncletopia.com","port":27025,"enabled":true,"region":"us-east","cc":"us","latitude":33.753746,"longitude":-84.38633,"reserved":0,"last_update":"0001-01-01T00:00:00Z","name_a2s":"Uncletopia | Atlanta | 2 | All Maps","protocol":17,"map":"cp_sunshine","folder":"tf","game":"Team Fortress","app_id":440,"player_count":24,"max_players":24,"Bots":0,"server_type":"Dedicated","server_os":"Linux","password":true,"vac":true,"version":"7757534","steam_id":85568392924469983,"keywords":["cp","nocrits","nodmgspread","uncletopia"],"game_id":440,"stv_port":27026,"stv_name":"Uncletopia | Atlanta | 2 | All Maps | STV","players":[{"user_id":254,"name":"Whore of Babylon","steam_id":76561198068384756,"connected_time":99000000000,"state":"active","ping":82},{"user_id":253,"name":"raw.crit","steam_id":76561198033033884,"connected_time":561000000000,"state":"active","ping":72},{"user_id":232,"name":"svj","steam_id":76561198074318183,"connected_time":1732000000000,"state":"active","ping":60},{"user_id":256,"name":"Kasimir","steam_id":76561198013840333,"connected_time":74000000000,"state":"active","ping":87},{"user_id":228,"name":"Voodo133","steam_id":76561198042670351,"connected_time":2303000000000,"state":"active","ping":84},{"user_id":252,"name":"DreamE","steam_id":76561198077649123,"connected_time":592000000000,"state":"active","ping":47},{"user_id":249,"name":"b4rry","steam_id":76561198365887154,"connected_time":900000000000,"state":"active","ping":72},{"user_id":163,"name":"Brown_Dream","steam_id":76561198975766145,"connected_time":6424000000000,"state":"active","ping":75},{"user_id":223,"name":"Kiso 火","steam_id":76561198141026844,"connected_time":2876000000000,"state":"active","ping":117},{"user_id":245,"name":"Winter the Witchie","steam_id":76561198151971178,"connected_time":1259000000000,"state":"active","ping":77},{"user_id":247,"name":"creamer","steam_id":76561198144095056,"connected_time":1041000000000,"state":"active","ping":81},{"user_id":248,"name":"ballin ft.","steam_id":76561198822069026,"connected_time":941000000000,"state":"active","ping":104},{"user_id":258,"name":"Plinko","steam_id":76561197968530638,"connected_time":32000000000,"state":"active","ping":31},{"user_id":176,"name":"Myn","steam_id":76561198055438857,"connected_time":5466000000000,"state":"active","ping":75},{"user_id":214,"name":"Joe Beef","steam_id":76561198437703253,"connected_time":3021000000000,"state":"active","ping":75},{"user_id":146,"name":"captainspatklz","steam_id":76561198432167270,"connected_time":7577000000000,"state":"active","ping":53},{"user_id":237,"name":"deech","steam_id":76561198066429444,"connected_time":1650000000000,"state":"active","ping":71},{"user_id":216,"name":"A Duck Phone!?","steam_id":76561198044707749,"connected_time":3013000000000,"state":"active","ping":77},{"user_id":238,"name":"All Tomorrow's Parties","steam_id":76561197995936212,"connected_time":1648000000000,"state":"active","ping":59},{"user_id":178,"name":"aisu","steam_id":76561198043768507,"connected_time":5437000000000,"state":"active","ping":82},{"user_id":250,"name":"JerlBays","steam_id":76561198096773292,"connected_time":771000000000,"state":"active","ping":49},{"user_id":257,"name":"Intro Bonito","steam_id":76561198119478838,"connected_time":39000000000,"state":"spawning","ping":46},{"user_id":184,"name":"proud owner of a large tongue","steam_id":76561198106690989,"connected_time":4871000000000,"state":"active","ping":75},{"user_id":225,"name":"roman","steam_id":76561198170066797,"connected_time":2775000000000,"state":"active","ping":62}]},{"server_id":400,"name":"Uncletopia | Atlanta | 3 | Community","name_short":"atl-3","host":"atl-1.us.uncletopia.com","port":27035,"enabled":true,"region":"us-east","cc":"us","latitude":33.753746,"longitude":-84.38633,"reserved":0,"last_update":"0001-01-01T00:00:00Z","name_a2s":"Uncletopia | Atlanta | 3 | Community","protocol":17,"map":"workshop/cp_bruhstbowl_b5.ugc2878604990","folder":"tf","game":"Team Fortress","app_id":440,"player_count":24,"max_players":24,"Bots":0,"server_type":"Dedicated","server_os":"Linux","password":true,"vac":true,"version":"7757534","steam_id":85568392924515187,"keywords":["cp","nocrits","nodmgspread","uncletopia"],"game_id":440,"stv_port":27036,"stv_name":"Uncletopia | Atlanta | 3 | Community | STV","players":[{"user_id":83,"name":"Derply","steam_id":76561198871211642,"connected_time":5288000000000,"state":"active","ping":112},{"user_id":82,"name":"mel","steam_id":76561198097124190,"connected_time":5408000000000,"state":"active","ping":75},{"user_id":157,"name":"Sheep Boy","steam_id":76561198102154601,"connected_time":1242000000000,"state":"active","ping":136},{"user_id":134,"name":"MrPopcornMan","steam_id":76561198227950712,"connected_time":2381000000000,"state":"active","ping":55},{"user_id":154,"name":"Shwal","steam_id":76561198138840448,"connected_time":1527000000000,"state":"active","ping":63},{"user_id":127,"name":"medic enthusiast","steam_id":76561198323031964,"connected_time":2888000000000,"state":"active","ping":78},{"user_id":116,"name":"Red_Hatkins","steam_id":76561198214004105,"connected_time":3606000000000,"state":"active","ping":90},{"user_id":146,"name":"Nordlaw","steam_id":76561198850830481,"connected_time":2124000000000,"state":"active","ping":97},{"user_id":168,"name":"BotEthan","steam_id":76561198141829527,"connected_time":46000000000,"state":"active","ping":73},{"user_id":166,"name":"bass player","steam_id":76561198203357580,"connected_time":181000000000,"state":"active","ping":64},{"user_id":72,"name":"dmdr1969","steam_id":76561198080469611,"connected_time":6206000000000,"state":"active","ping":57},{"user_id":140,"name":"Chris Pratt's pocket spaghetti","steam_id":76561198138347045,"connected_time":2231000000000,"state":"active","ping":62},{"user_id":165,"name":"B00G","steam_id":76561198049705966,"connected_time":197000000000,"state":"active","ping":64},{"user_id":133,"name":"GoldenJalapeno","steam_id":76561198064949206,"connected_time":2394000000000,"state":"active","ping":101},{"user_id":169,"name":"seats","steam_id":76561197998756039,"connected_time":40000000000,"state":"active","ping":108},{"user_id":162,"name":"Red","steam_id":76561198031865869,"connected_time":351000000000,"state":"active","ping":73},{"user_id":170,"name":"booty gremlin","steam_id":76561198044546534,"connected_time":35000000000,"state":"active","ping":78},{"user_id":87,"name":"Quiver Cakes ._.","steam_id":76561198243155576,"connected_time":5046000000000,"state":"active","ping":78},{"user_id":161,"name":"Yoru","steam_id":76561198119698950,"connected_time":365000000000,"state":"active","ping":109},{"user_id":156,"name":"10k Calorie B\u0026R Oreo Shake","steam_id":76561198057745131,"connected_time":1279000000000,"state":"active","ping":39},{"user_id":159,"name":"[TSG] Turner's Chocolate Milk","steam_id":76561198058963288,"connected_time":585000000000,"state":"active","ping":64},{"user_id":171,"name":"Mendo","steam_id":76561198068884273,"connected_time":16000000000,"state":"spawning","ping":143},{"user_id":145,"name":"Cheif","steam_id":76561198802147518,"connected_time":2159000000000,"state":"active","ping":68},{"user_id":120,"name":"MDD","steam_id":76561197998850659,"connected_time":3247000000000,"state":"active","ping":98}]},{"server_id":401,"name":"Uncletopia | Atlanta | 4 | No Payload","name_short":"atl-4","host":"atl-1.us.uncletopia.com","port":27045,"enabled":true,"region":"us-east","cc":"us","latitude":33.753746,"longitude":-84.38633,"reserved":0,"last_update":"0001-01-01T00:00:00Z","name_a2s":"","protocol":0,"map":"","folder":"","game":"","app_id":0,"player_count":0,"max_players":0,"Bots":0,"server_type":"","server_os":"","password":false,"vac":false,"version":"","steam_id":0,"keywords":null,"game_id":0,"stv_port":0,"stv_name":"","players":null},{"server_id":2,"name":"Uncletopia | Chicago | 1 | All Maps","name_short":"chi-1","host":"chi-1.us.uncletopia.com","port":27015,"enabled":true,"region":"us-central","cc":"us","latitude":41.881832,"longitude":-87.62318,"reserved":0,"last_update":"0001-01-01T00:00:00Z","name_a2s":"Uncletopia | Chicago | 1 | All Maps","protocol":17,"map":"pl_snowycoast","folder":"tf","game":"Team Fortress","app_id":440,"player_count":24,"max_players":24,"Bots":0,"server_type":"Dedicated","server_os":"Linux","password":true,"vac":true,"version":"7757534","steam_id":85568392924469984,"keywords":["nocrits","nodmgspread","payload","uncletopia"],"game_id":440,"stv_port":27016,"stv_name":"Uncletopia | Chicago | 1 | All Maps | STV","players":[{"user_id":397,"name":"Mump Stump","steam_id":76561198135942769,"connected_time":117000000000,"state":"active","ping":94},{"user_id":370,"name":"Astoriae!","steam_id":76561199090168858,"connected_time":2125000000000,"state":"active","ping":67},{"user_id":396,"name":"MCHolden","steam_id":76561199142512034,"connected_time":118000000000,"state":"active","ping":57},{"user_id":398,"name":"ballswapper54","steam_id":76561198277425703,"connected_time":108000000000,"state":"active","ping":60},{"user_id":374,"name":"swk","steam_id":76561198153178081,"connected_time":1402000000000,"state":"active","ping":70},{"user_id":404,"name":"Lynx","steam_id":76561198322363286,"connected_time":25000000000,"state":"spawning","ping":74},{"user_id":381,"name":"flamingcookies","steam_id":76561198280864779,"connected_time":1146000000000,"state":"active","ping":87},{"user_id":399,"name":"DarthEthanBoy","steam_id":76561198441643581,"connected_time":78000000000,"state":"active","ping":84},{"user_id":376,"name":"Raniel Dicciardo","steam_id":76561198053859538,"connected_time":1385000000000,"state":"active","ping":77},{"user_id":385,"name":"Trove","steam_id":76561198110970476,"connected_time":1016000000000,"state":"active","ping":47},{"user_id":402,"name":"IIP","steam_id":76561198286102406,"connected_time":55000000000,"state":"active","ping":52},{"user_id":391,"name":"Cyclaw","steam_id":76561198076045689,"connected_time":904000000000,"state":"active","ping":46},{"user_id":355,"name":"Thundermonkey (SMOKE)","steam_id":76561198017631728,"connected_time":3586000000000,"state":"active","ping":63},{"user_id":362,"name":"Look a Bird","steam_id":76561198016294724,"connected_time":3299000000000,"state":"active","ping":84},{"user_id":400,"name":"geeWIZ","steam_id":76561198067909242,"connected_time":74000000000,"state":"active","ping":74},{"user_id":363,"name":"Guy Man","steam_id":76561198093329130,"connected_time":3285000000000,"state":"active","ping":106},{"user_id":401,"name":"Sanic_Bum","steam_id":76561198094179822,"connected_time":71000000000,"state":"active","ping":59},{"user_id":295,"name":"HumFreY","steam_id":76561198076639682,"connected_time":7349000000000,"state":"active","ping":75},{"user_id":395,"name":"DocLucky","steam_id":76561199093899249,"connected_time":221000000000,"state":"active","ping":156},{"user_id":393,"name":"Clutch Peterson","steam_id":76561199401133139,"connected_time":669000000000,"state":"active","ping":75},{"user_id":403,"name":"Pug536","steam_id":76561198344766089,"connected_time":53000000000,"state":"active","ping":104},{"user_id":389,"name":"Hawai'i","steam_id":76561198212866289,"connected_time":919000000000,"state":"active","ping":85},{"user_id":372,"name":"Droop","steam_id":76561198856700517,"connected_time":1634000000000,"state":"active","ping":74},{"user_id":317,"name":"Siri Keeton","steam_id":76561198006579827,"connected_time":5806000000000,"state":"active","ping":85}]},{"server_id":106,"name":"Uncletopia | Chicago | 2 | All Maps","name_short":"chi-2","host":"chi-1.us.uncletopia.com","port":27025,"enabled":true,"region":"us-central","cc":"us","latitude":41.881832,"longitude":-87.62318,"reserved":0,"last_update":"0001-01-01T00:00:00Z","name_a2s":"Uncletopia | Chicago | 2 | All Maps","protocol":17,"map":"pl_badwater","folder":"tf","game":"Team Fortress","app_id":440,"player_count":24,"max_players":24,"Bots":0,"server_type":"Dedicated","server_os":"Linux","password":true,"vac":true,"version":"7757534","steam_id":85568392924469985,"keywords":["nocrits","nodmgspread","payload","uncletopia"],"game_id":440,"stv_port":27026,"stv_name":"Uncletopia | Chicago | 2 | All Maps | STV","players":[{"user_id":726,"name":"LerN","steam_id":76561198083463877,"connected_time":781000000000,"state":"active","ping":60},{"user_id":729,"name":"pollo","steam_id":76561198273411260,"connected_time":475000000000,"state":"active","ping":60},{"user_id":721,"name":"Fredrick","steam_id":76561197981419964,"connected_time":1020000000000,"state":"active","ping":67},{"user_id":695,"name":"Chicken Nugget","steam_id":76561198082601232,"connected_time":2440000000000,"state":"active","ping":75},{"user_id":712,"name":"Byte The Protogen","steam_id":76561199229871383,"connected_time":1582000000000,"state":"active","ping":114},{"user_id":718,"name":"Icaras","steam_id":76561198416724843,"connected_time":1040000000000,"state":"active","ping":132},{"user_id":702,"name":"Viokik","steam_id":76561198408846602,"connected_time":2234000000000,"state":"active","ping":64},{"user_id":725,"name":"creeeeeee","steam_id":76561198392539722,"connected_time":809000000000,"state":"active","ping":80},{"user_id":691,"name":"cannanza [=3]","steam_id":76561198103496593,"connected_time":2668000000000,"state":"active","ping":64},{"user_id":630,"name":"Happy Tree Friends","steam_id":76561198110694072,"connected_time":7619000000000,"state":"active","ping":86},{"user_id":724,"name":"jmarcian62","steam_id":76561198378981448,"connected_time":978000000000,"state":"active","ping":99},{"user_id":716,"name":"Fudge_Cake","steam_id":76561198059218167,"connected_time":1046000000000,"state":"active","ping":73},{"user_id":604,"name":"Scoober","steam_id":76561198079736959,"connected_time":9432000000000,"state":"active","ping":81},{"user_id":692,"name":"girls night out!!","steam_id":76561198406252824,"connected_time":2668000000000,"state":"active","ping":104},{"user_id":700,"name":"Ejaculation Zach","steam_id":76561198203765200,"connected_time":2379000000000,"state":"active","ping":63},{"user_id":708,"name":"Tree","steam_id":76561198195445331,"connected_time":1921000000000,"state":"active","ping":118},{"user_id":731,"name":"titan","steam_id":76561198197388678,"connected_time":36000000000,"state":"active","ping":83},{"user_id":614,"name":"_Lusty_","steam_id":76561198876948142,"connected_time":8320000000000,"state":"active","ping":85},{"user_id":722,"name":"hoop-sie (new pc)","steam_id":76561198089516781,"connected_time":1017000000000,"state":"active","ping":72},{"user_id":730,"name":"Pancreas Enjoyer","steam_id":76561199438598904,"connected_time":282000000000,"state":"active","ping":76},{"user_id":704,"name":"cody","steam_id":76561198847749278,"connected_time":2133000000000,"state":"active","ping":73},{"user_id":697,"name":"dake","steam_id":76561199161322235,"connected_time":2430000000000,"state":"active","ping":102},{"user_id":701,"name":"BisKit","steam_id":76561198140624153,"connected_time":2377000000000,"state":"active","ping":99},{"user_id":723,"name":"rude boi","steam_id":76561198006783260,"connected_time":999000000000,"state":"active","ping":68}]},{"server_id":402,"name":"Uncletopia | Chicago | 3 | All Maps","name_short":"chi-3","host":"chi-1.us.uncletopia.com","port":27035,"enabled":true,"region":"us-central","cc":"us","latitude":41.881832,"longitude":-87.62318,"reserved":0,"last_update":"0001-01-01T00:00:00Z","name_a2s":"Uncletopia | Chicago | 3 | All Maps","protocol":17,"map":"pl_badwater","folder":"tf","game":"Team Fortress","app_id":440,"player_count":25,"max_players":24,"Bots":0,"server_type":"Dedicated","server_os":"Linux","password":true,"vac":true,"version":"7757534","steam_id":85568392924515191,"keywords":["nocrits","nodmgspread","payload","uncletopia"],"game_id":440,"stv_port":27036,"stv_name":"Uncletopia | Chicago | 3 | All Maps | STV","players":[{"user_id":266,"name":"Yakul","steam_id":76561198100040013,"connected_time":4578000000000,"state":"active","ping":105},{"user_id":299,"name":"Chicken","steam_id":76561198163690511,"connected_time":1923000000000,"state":"active","ping":98},{"user_id":302,"name":"Wallem","steam_id":76561198052361822,"connected_time":836000000000,"state":"active","ping":72},{"user_id":309,"name":"Furrio","steam_id":76561198174104607,"connected_time":704000000000,"state":"active","ping":69},{"user_id":312,"name":"Scita","steam_id":76561198066861559,"connected_time":519000000000,"state":"active","ping":71},{"user_id":307,"name":"CGamer6155","steam_id":76561199440141596,"connected_time":728000000000,"state":"active","ping":56},{"user_id":300,"name":"Evil Pipe Bomb Wizard","steam_id":76561198120710051,"connected_time":1727000000000,"state":"active","ping":82},{"user_id":189,"name":"Abra","steam_id":76561198007616630,"connected_time":9493000000000,"state":"active","ping":67},{"user_id":314,"name":"xiii","steam_id":76561198079416036,"connected_time":335000000000,"state":"active","ping":45},{"user_id":326,"name":"Yeti","steam_id":76561198035450920,"connected_time":26000000000,"state":"active","ping":82},{"user_id":317,"name":"Soil","steam_id":76561198943879122,"connected_time":328000000000,"state":"active","ping":69},{"user_id":297,"name":"r/atheism","steam_id":76561198116821551,"connected_time":1959000000000,"state":"active","ping":60},{"user_id":259,"name":"Cyber Cylon","steam_id":76561198048972781,"connected_time":5344000000000,"state":"active","ping":55},{"user_id":311,"name":"HisuOkami","steam_id":76561198339397760,"connected_time":542000000000,"state":"active","ping":61},{"user_id":306,"name":"Forklift Certified Cat Girl","steam_id":76561198072555204,"connected_time":729000000000,"state":"active","ping":47},{"user_id":318,"name":"mao zaddy","steam_id":76561198283687382,"connected_time":315000000000,"state":"active","ping":80},{"user_id":313,"name":"Possibly -0 yearsold","steam_id":76561199065932107,"connected_time":404000000000,"state":"active","ping":77},{"user_id":310,"name":"Ignalis","steam_id":76561198025662927,"connected_time":589000000000,"state":"active","ping":63},{"user_id":327,"name":"META.exe","steam_id":76561199067098696,"connected_time":22000000000,"state":"active","ping":86},{"user_id":305,"name":"Løst","steam_id":76561198035677801,"connected_time":749000000000,"state":"active","ping":66},{"user_id":315,"name":"God of bread","steam_id":76561198373688035,"connected_time":333000000000,"state":"active","ping":62},{"user_id":330,"name":"rudy","steam_id":76561198088712799,"connected_time":1000000000,"state":"spawning","ping":58},{"user_id":308,"name":"nhbiker","steam_id":76561198081277675,"connected_time":727000000000,"state":"active","ping":56},{"user_id":329,"name":"Kraul","steam_id":76561198043682060,"connected_time":11000000000,"state":"spawning","ping":98},{"user_id":321,"name":"(1)Game Broke No Fix","steam_id":76561198028271650,"connected_time":150000000000,"state":"active","ping":152}]},{"server_id":403,"name":"Uncletopia | Chicago | 4 | All Maps","name_short":"chi-4","host":"chi-1.us.uncletopia.com","port":27045,"enabled":true,"region":"us-central","cc":"us","latitude":41.881832,"longitude":-87.62318,"reserved":0,"last_update":"0001-01-01T00:00:00Z","name_a2s":"Uncletopia | Chicago | 4 | All Maps","protocol":17,"map":"pl_thundermountain","folder":"tf","game":"Team Fortress","app_id":440,"player_count":23,"max_players":24,"Bots":0,"server_type":"Dedicated","server_os":"Linux","password":true,"vac":true,"version":"7757534","steam_id":85568392924515193,"keywords":["nocrits","nodmgspread","payload","uncletopia"],"game_id":440,"stv_port":27046,"stv_name":"Uncletopia | Chicago | 4 | All Maps | STV","players":[{"user_id":429,"name":"Toygar","steam_id":76561198023679830,"connected_time":85000000000,"state":"active","ping":49},{"user_id":426,"name":"Flyfriend28","steam_id":76561198131983415,"connected_time":197000000000,"state":"active","ping":61},{"user_id":423,"name":"Daminknight","steam_id":76561198194870615,"connected_time":461000000000,"state":"active","ping":86},{"user_id":387,"name":"Hammerhead","steam_id":76561198897122890,"connected_time":3050000000000,"state":"active","ping":58},{"user_id":418,"name":"Balerion the Black Dread","steam_id":76561198003728369,"connected_time":752000000000,"state":"active","ping":62},{"user_id":378,"name":"Wormy","steam_id":76561198045221301,"connected_time":3458000000000,"state":"active","ping":78},{"user_id":403,"name":"Apple Zoo","steam_id":76561198013732450,"connected_time":1995000000000,"state":"active","ping":58},{"user_id":406,"name":"Floating Peasant","steam_id":76561198000183671,"connected_time":1917000000000,"state":"active","ping":61},{"user_id":379,"name":"=Silver=","steam_id":76561198292307127,"connected_time":3455000000000,"state":"active","ping":95},{"user_id":407,"name":"TechnoNeko22","steam_id":76561198335866466,"connected_time":1813000000000,"state":"active","ping":90},{"user_id":388,"name":"Chimpish","steam_id":76561199263493270,"connected_time":2970000000000,"state":"active","ping":97},{"user_id":397,"name":"Snow","steam_id":76561198151556270,"connected_time":2034000000000,"state":"active","ping":94},{"user_id":410,"name":"Sexyrevolver","steam_id":76561199058132505,"connected_time":1675000000000,"state":"active","ping":64},{"user_id":414,"name":"Mug Moment Gaming","steam_id":76561198233098136,"connected_time":1336000000000,"state":"active","ping":56},{"user_id":424,"name":"2cats_2curious","steam_id":76561198027143149,"connected_time":458000000000,"state":"active","ping":44},{"user_id":394,"name":"Professional Zoo Tycoon Player","steam_id":76561198013026044,"connected_time":2445000000000,"state":"active","ping":85},{"user_id":402,"name":"tanavast","steam_id":76561198152297274,"connected_time":2000000000000,"state":"active","ping":51},{"user_id":362,"name":"jolo","steam_id":76561198042831480,"connected_time":4346000000000,"state":"active","ping":74},{"user_id":396,"name":"Honda Element","steam_id":76561198086907573,"connected_time":2111000000000,"state":"active","ping":61},{"user_id":425,"name":"koolamundo","steam_id":76561198101705890,"connected_time":418000000000,"state":"active","ping":67},{"user_id":415,"name":"steakfarmasian","steam_id":76561198212754036,"connected_time":1267000000000,"state":"active","ping":46},{"user_id":422,"name":"DoxPlaysGames","steam_id":76561198240339332,"connected_time":668000000000,"state":"active","ping":84},{"user_id":428,"name":"quint","steam_id":76561198046797995,"connected_time":174000000000,"state":"active","ping":66}]},{"server_id":36,"name":"Uncletopia | Chicago | 5 | All Maps","name_short":"chi-5","host":"chi-2.us.uncletopia.com","port":27015,"enabled":true,"region":"us-central","cc":"us","latitude":41.881832,"longitude":-87.62318,"reserved":0,"last_update":"0001-01-01T00:00:00Z","name_a2s":"Uncletopia | Chicago | 5 | All Maps","protocol":17,"map":"pl_badwater","folder":"tf","game":"Team Fortress","app_id":440,"player_count":24,"max_players":24,"Bots":0,"server_type":"Dedicated","server_os":"Linux","password":true,"vac":true,"version":"7757534","steam_id":85568392924866362,"keywords":["nocrits","nodmgspread","payload","uncletopia"],"game_id":440,"stv_port":27016,"stv_name":"Uncletopia | Chicago | 5 | All Maps | STV","players":[{"user_id":385,"name":"ttv/lilirouxxx","steam_id":76561198000522179,"connected_time":1625000000000,"state":"active","ping":72},{"user_id":375,"name":"Sevice","steam_id":76561198108904001,"connected_time":1874000000000,"state":"active","ping":62},{"user_id":372,"name":"Chilli","steam_id":76561199229885599,"connected_time":1959000000000,"state":"active","ping":84},{"user_id":319,"name":"Aer0","steam_id":76561198799656067,"connected_time":5311000000000,"state":"active","ping":63},{"user_id":392,"name":"Sam","steam_id":76561198079393512,"connected_time":939000000000,"state":"active","ping":80},{"user_id":403,"name":"GS Herb","steam_id":76561198330311949,"connected_time":230000000000,"state":"active","ping":64},{"user_id":299,"name":"Joe Grumbo","steam_id":76561198048485190,"connected_time":6421000000000,"state":"active","ping":72},{"user_id":377,"name":"awootism","steam_id":76561198046130018,"connected_time":1866000000000,"state":"active","ping":68},{"user_id":404,"name":"MrGumms-TTV","steam_id":76561198083489407,"connected_time":201000000000,"state":"active","ping":44},{"user_id":390,"name":"floom","steam_id":76561198387571809,"connected_time":944000000000,"state":"active","ping":59},{"user_id":391,"name":"Romo","steam_id":76561198243101572,"connected_time":943000000000,"state":"active","ping":94},{"user_id":405,"name":"TheBestEvie","steam_id":76561199137363562,"connected_time":85000000000,"state":"active","ping":180},{"user_id":395,"name":"the spy from team fortress 2","steam_id":76561198047797306,"connected_time":829000000000,"state":"active","ping":61},{"user_id":399,"name":"Pajama_Boy","steam_id":76561198171673793,"connected_time":547000000000,"state":"active","ping":86},{"user_id":357,"name":"Vapeinhand","steam_id":76561198134439943,"connected_time":3209000000000,"state":"active","ping":70},{"user_id":393,"name":"OpenDown","steam_id":76561198064132688,"connected_time":932000000000,"state":"active","ping":68},{"user_id":397,"name":"BillButtLicker69","steam_id":76561198070119268,"connected_time":580000000000,"state":"active","ping":93},{"user_id":398,"name":"Hatty","steam_id":76561198046004237,"connected_time":577000000000,"state":"active","ping":77},{"user_id":389,"name":"Manacharge","steam_id":76561198003128157,"connected_time":1226000000000,"state":"active","ping":74},{"user_id":380,"name":"Mythius","steam_id":76561198401392472,"connected_time":1833000000000,"state":"active","ping":74},{"user_id":381,"name":"Aegis","steam_id":76561198272052750,"connected_time":1805000000000,"state":"active","ping":88},{"user_id":394,"name":"Morakyt","steam_id":76561198075632402,"connected_time":919000000000,"state":"active","ping":77},{"user_id":354,"name":"MrCalmL.I","steam_id":76561198966598137,"connected_time":3463000000000,"state":"active","ping":74},{"user_id":401,"name":"semaj (._. )/","steam_id":76561199072490942,"connected_time":464000000000,"state":"active","ping":91}]},{"server_id":37,"name":"Uncletopia | Chicago | 6 | All Maps","name_short":"chi-6","host":"chi-2.us.uncletopia.com","port":27025,"enabled":true,"region":"us-central","cc":"us","latitude":41.881832,"longitude":-87.62318,"reserved":0,"last_update":"0001-01-01T00:00:00Z","name_a2s":"Uncletopia | Chicago | 6 | All Maps","protocol":17,"map":"koth_viaduct","folder":"tf","game":"Team Fortress","app_id":440,"player_count":24,"max_players":24,"Bots":0,"server_type":"Dedicated","server_os":"Linux","password":true,"vac":true,"version":"7757534","steam_id":85568392924866363,"keywords":["cp","nocrits","nodmgspread","uncletopia"],"game_id":440,"stv_port":27026,"stv_name":"Uncletopia | Chicago | 6 | All Maps | STV","players":[{"user_id":242,"name":"GamerMan","steam_id":76561199058616824,"connected_time":558000000000,"state":"active","ping":72},{"user_id":216,"name":"DO THE DEVIL CHALLENGE","steam_id":76561198045437723,"connected_time":1580000000000,"state":"active","ping":82},{"user_id":229,"name":"K) Mazin","steam_id":76561198003419146,"connected_time":1164000000000,"state":"active","ping":70},{"user_id":221,"name":"TheMilkMoustache","steam_id":76561198056589371,"connected_time":1409000000000,"state":"active","ping":70},{"user_id":210,"name":"i'm washed","steam_id":76561198940368888,"connected_time":1961000000000,"state":"active","ping":42},{"user_id":200,"name":"_normal","steam_id":76561198338505734,"connected_time":3255000000000,"state":"active","ping":59},{"user_id":246,"name":"Tommy Gruvich","steam_id":76561198047709672,"connected_time":150000000000,"state":"active","ping":61},{"user_id":218,"name":"Bad Medic Buddy","steam_id":76561198093222632,"connected_time":1533000000000,"state":"active","ping":76},{"user_id":247,"name":"Robofish","steam_id":76561198043800025,"connected_time":123000000000,"state":"active","ping":58},{"user_id":208,"name":"thecal","steam_id":76561198307893384,"connected_time":2332000000000,"state":"active","ping":53},{"user_id":235,"name":"リグマ","steam_id":76561197993145277,"connected_time":1045000000000,"state":"active","ping":86},{"user_id":219,"name":"triangleman","steam_id":76561198972733542,"connected_time":1528000000000,"state":"active","ping":63},{"user_id":220,"name":"The Last Thing","steam_id":76561198047192080,"connected_time":1412000000000,"state":"active","ping":84},{"user_id":237,"name":"Monack","steam_id":76561198126796274,"connected_time":728000000000,"state":"active","ping":76},{"user_id":238,"name":"Letter \"1\"","steam_id":76561198295280927,"connected_time":716000000000,"state":"active","ping":77},{"user_id":244,"name":"Chucklin","steam_id":76561198010823579,"connected_time":413000000000,"state":"active","ping":78},{"user_id":198,"name":"TATARA","steam_id":76561199098759517,"connected_time":3332000000000,"state":"active","ping":135},{"user_id":225,"name":"Nickorea","steam_id":76561198025784788,"connected_time":1194000000000,"state":"active","ping":60},{"user_id":214,"name":"Pontifex","steam_id":76561198013016489,"connected_time":1933000000000,"state":"active","ping":86},{"user_id":249,"name":"opal","steam_id":76561198070050042,"connected_time":83000000000,"state":"active","ping":100},{"user_id":241,"name":"Lots0","steam_id":76561198043143145,"connected_time":633000000000,"state":"active","ping":90},{"user_id":226,"name":"F4ceguy","steam_id":76561199034382522,"connected_time":1187000000000,"state":"active","ping":112},{"user_id":209,"name":"Analogy != Definition","steam_id":76561197999657118,"connected_time":2039000000000,"state":"active","ping":84}]},{"server_id":38,"name":"Uncletopia | Chicago | 7 | Stopwatch Beta","name_short":"chi-7","host":"chi-2.us.uncletopia.com","port":27035,"enabled":true,"region":"us-central","cc":"us","latitude":41.881832,"longitude":-87.62318,"reserved":0,"last_update":"0001-01-01T00:00:00Z","name_a2s":"Uncletopia | Chicago | 7 | Stopwatch Beta","protocol":17,"map":"pl_upward","folder":"tf","game":"Team Fortress","app_id":440,"player_count":20,"max_players":24,"Bots":0,"server_type":"Dedicated","server_os":"Linux","password":true,"vac":true,"version":"7757534","steam_id":85568392924866364,"keywords":["nocrits","nodmgspread","payload","uncletopia"],"game_id":440,"stv_port":27036,"stv_name":"Uncletopia | Chicago | 7 | Stopwatch Beta | STV","players":[{"user_id":65,"name":"Jalynn","steam_id":76561198050815890,"connected_time":292000000000,"state":"active","ping":94},{"user_id":60,"name":"Dundramino","steam_id":76561198196976154,"connected_time":513000000000,"state":"active","ping":72},{"user_id":66,"name":"Tis_Me_Hacksoulslayer1","steam_id":76561198340064206,"connected_time":249000000000,"state":"active","ping":74},{"user_id":72,"name":"BroBuck3","steam_id":76561198119436987,"connected_time":6000000000,"state":"spawning","ping":62},{"user_id":14,"name":"Tech Deck","steam_id":76561199070437675,"connected_time":2990000000000,"state":"active","ping":107},{"user_id":58,"name":"Corn","steam_id":76561198177186718,"connected_time":691000000000,"state":"active","ping":54},{"user_id":39,"name":"Pxls_","steam_id":76561198151150175,"connected_time":1901000000000,"state":"active","ping":54},{"user_id":18,"name":"DaMultiversalist","steam_id":76561198239552412,"connected_time":2258000000000,"state":"active","ping":64},{"user_id":48,"name":"The Great Skott","steam_id":76561198038936309,"connected_time":1499000000000,"state":"active","ping":82},{"user_id":20,"name":"Schmingus","steam_id":76561199476148332,"connected_time":2210000000000,"state":"active","ping":111},{"user_id":62,"name":"JimmY","steam_id":76561198386339252,"connected_time":439000000000,"state":"active","ping":107},{"user_id":24,"name":"The Drunk Clown","steam_id":76561197986850426,"connected_time":2148000000000,"state":"active","ping":73},{"user_id":68,"name":"party pooper","steam_id":76561198068760559,"connected_time":136000000000,"state":"active","ping":64},{"user_id":57,"name":"Bytor2121","steam_id":76561197991263350,"connected_time":1005000000000,"state":"active","ping":50},{"user_id":29,"name":"Fiftystorm","steam_id":76561198296894704,"connected_time":2079000000000,"state":"active","ping":74},{"user_id":30,"name":"PennyS","steam_id":76561198044634606,"connected_time":2059000000000,"state":"active","ping":59},{"user_id":31,"name":"snezhnaya","steam_id":76561198076395081,"connected_time":2052000000000,"state":"active","ping":105},{"user_id":69,"name":"Corbe","steam_id":76561198353893927,"connected_time":124000000000,"state":"active","ping":40},{"user_id":56,"name":"Randall","steam_id":76561198902667170,"connected_time":1118000000000,"state":"active","ping":108},{"user_id":70,"name":"Kid named download","steam_id":76561199192074448,"connected_time":99000000000,"state":"active","ping":84}]},{"server_id":39,"name":"Uncletopia | Chicago | 8 | Community","name_short":"chi-8","host":"chi-2.us.uncletopia.com","port":27045,"enabled":true,"region":"us-central","cc":"us","latitude":41.881832,"longitude":-87.62318,"reserved":0,"last_update":"0001-01-01T00:00:00Z","name_a2s":"Uncletopia | Chicago | 8 | Community","protocol":17,"map":"workshop/koth_product_final.ugc454272353","folder":"tf","game":"Team Fortress","app_id":440,"player_count":5,"max_players":24,"Bots":0,"server_type":"Dedicated","server_os":"Linux","password":true,"vac":true,"version":"7757534","steam_id":85568392924866365,"keywords":["cp","nocrits","nodmgspread","uncletopia"],"game_id":440,"stv_port":27046,"stv_name":"Uncletopia | Chicago | 8 | Community | STV","players":[{"user_id":41,"name":"bagelbillnacho","steam_id":76561198174342389,"connected_time":995000000000,"state":"active","ping":71},{"user_id":45,"name":"beeborbug","steam_id":76561198116600982,"connected_time":477000000000,"state":"active","ping":65},{"user_id":44,"name":"GGG","steam_id":76561198308315479,"connected_time":534000000000,"state":"active","ping":90},{"user_id":43,"name":"badhorse4444","steam_id":76561198979008266,"connected_time":879000000000,"state":"active","ping":88},{"user_id":47,"name":"Hypertripp","steam_id":76561198066776627,"connected_time":127000000000,"state":"active","ping":74}]},{"server_id":8,"name":"Uncletopia | Dallas | 1 | All Maps","name_short":"dal-1","host":"dal-1.us.uncletopia.com","port":27015,"enabled":true,"region":"us-central","cc":"us","latitude":32.779167,"longitude":-96.80889,"reserved":0,"last_update":"0001-01-01T00:00:00Z","name_a2s":"Uncletopia | Dallas | 1 | All Maps","protocol":17,"map":"pl_upward","folder":"tf","game":"Team Fortress","app_id":440,"player_count":24,"max_players":24,"Bots":0,"server_type":"Dedicated","server_os":"Linux","password":true,"vac":true,"version":"7757534","steam_id":85568392924469986,"keywords":["nocrits","nodmgspread","payload","uncletopia"],"game_id":440,"stv_port":27016,"stv_name":"Uncletopia | Dallas | 1 | All Maps | STV","players":[{"user_id":681,"name":"snak","steam_id":76561199131462397,"connected_time":945000000000,"state":"active","ping":96},{"user_id":685,"name":"threat to albanian natsec","steam_id":76561198070136627,"connected_time":772000000000,"state":"active","ping":74},{"user_id":632,"name":"crack crisis","steam_id":76561198332519926,"connected_time":4276000000000,"state":"active","ping":88},{"user_id":692,"name":"CollDragon","steam_id":76561198067534450,"connected_time":159000000000,"state":"active","ping":80},{"user_id":677,"name":"StrangerHYP","steam_id":76561198395336752,"connected_time":1474000000000,"state":"active","ping":84},{"user_id":700,"name":"DSM-IVCE","steam_id":76561199438515797,"connected_time":44000000000,"state":"active","ping":123},{"user_id":693,"name":"c","steam_id":76561199215821942,"connected_time":133000000000,"state":"active","ping":53},{"user_id":645,"name":"DiabetesMan","steam_id":76561198075668940,"connected_time":3744000000000,"state":"active","ping":85},{"user_id":687,"name":"Gaiduk","steam_id":76561198112323877,"connected_time":742000000000,"state":"active","ping":101},{"user_id":654,"name":"Ghaeril","steam_id":76561198047880019,"connected_time":2808000000000,"state":"active","ping":61},{"user_id":678,"name":"Pixeled","steam_id":76561198088917077,"connected_time":1337000000000,"state":"active","ping":94},{"user_id":656,"name":"Yuri Tarded","steam_id":76561198034339940,"connected_time":2787000000000,"state":"active","ping":76},{"user_id":648,"name":"dr cock","steam_id":76561198124810219,"connected_time":3694000000000,"state":"active","ping":99},{"user_id":658,"name":"domfoor22","steam_id":76561199445914774,"connected_time":2774000000000,"state":"active","ping":98},{"user_id":690,"name":"hummus in my tummus","steam_id":76561199438698036,"connected_time":220000000000,"state":"active","ping":90},{"user_id":695,"name":"danielaugello15","steam_id":76561199235977512,"connected_time":126000000000,"state":"active","ping":180},{"user_id":684,"name":"iluvtoust","steam_id":76561198869269207,"connected_time":821000000000,"state":"active","ping":45},{"user_id":686,"name":"xthyl","steam_id":76561199361299006,"connected_time":768000000000,"state":"active","ping":80},{"user_id":691,"name":"ambrotos","steam_id":76561198042600523,"connected_time":216000000000,"state":"active","ping":47},{"user_id":696,"name":"meggie","steam_id":76561198038291026,"connected_time":120000000000,"state":"active","ping":36},{"user_id":679,"name":"Roland_Actual","steam_id":76561198103212376,"connected_time":1154000000000,"state":"active","ping":87},{"user_id":671,"name":"0x01FE","steam_id":76561198838881917,"connected_time":1940000000000,"state":"active","ping":64},{"user_id":698,"name":"HeavyB1rd","steam_id":76561198966550815,"connected_time":103000000000,"state":"active","ping":61},{"user_id":699,"name":"lolipoptable","steam_id":76561198109203665,"connected_time":98000000000,"state":"active","ping":89}]},{"server_id":108,"name":"Uncletopia | Dallas | 2 | All Maps","name_short":"dal-2","host":"dal-1.us.uncletopia.com","port":27025,"enabled":true,"region":"us-central","cc":"us","latitude":32.779167,"longitude":-96.80889,"reserved":0,"last_update":"0001-01-01T00:00:00Z","name_a2s":"Uncletopia | Dallas | 2 | All Maps","protocol":17,"map":"pl_frontier_final","folder":"tf","game":"Team Fortress","app_id":440,"player_count":23,"max_players":24,"Bots":0,"server_type":"Dedicated","server_os":"Linux","password":true,"vac":true,"version":"7757534","steam_id":85568392924469988,"keywords":["nocrits","nodmgspread","payload","uncletopia"],"game_id":440,"stv_port":27026,"stv_name":"Uncletopia | Dallas | 2 | All Maps | STV","players":[{"user_id":347,"name":"dog","steam_id":76561198263873491,"connected_time":13116000000000,"state":"active","ping":59},{"user_id":479,"name":"Humon Player","steam_id":76561198013593178,"connected_time":2705000000000,"state":"active","ping":58},{"user_id":508,"name":"Nexumine","steam_id":76561198090402098,"connected_time":191000000000,"state":"active","ping":75},{"user_id":489,"name":"mau","steam_id":76561198354473513,"connected_time":881000000000,"state":"active","ping":72},{"user_id":480,"name":"FunGi","steam_id":76561198881418662,"connected_time":2658000000000,"state":"active","ping":77},{"user_id":503,"name":"DaviCrusader","steam_id":76561198158171169,"connected_time":279000000000,"state":"active","ping":97},{"user_id":507,"name":"Feni","steam_id":76561198044714181,"connected_time":240000000000,"state":"active","ping":111},{"user_id":502,"name":"DannyM","steam_id":76561198351165570,"connected_time":324000000000,"state":"active","ping":40},{"user_id":469,"name":"slime ( ,'' w'' )","steam_id":76561198198984282,"connected_time":3508000000000,"state":"active","ping":93},{"user_id":485,"name":"big ol' buford","steam_id":76561198290675957,"connected_time":1642000000000,"state":"active","ping":45},{"user_id":509,"name":"soof","steam_id":76561198043762955,"connected_time":142000000000,"state":"active","ping":89},{"user_id":487,"name":"Butman902","steam_id":76561198190200054,"connected_time":1608000000000,"state":"active","ping":58},{"user_id":465,"name":"Sevfront","steam_id":76561198249207818,"connected_time":3932000000000,"state":"active","ping":75},{"user_id":483,"name":"wizard","steam_id":76561197974871380,"connected_time":1972000000000,"state":"active","ping":104},{"user_id":504,"name":"||:♩♩♩♪:|| Opplydead","steam_id":76561198028630334,"connected_time":273000000000,"state":"active","ping":79},{"user_id":481,"name":"Concolor","steam_id":76561198027734150,"connected_time":2164000000000,"state":"active","ping":93},{"user_id":478,"name":"❤ Ashley ❤","steam_id":76561198056428303,"connected_time":2854000000000,"state":"active","ping":79},{"user_id":482,"name":"VixianUwU","steam_id":76561198948815060,"connected_time":2072000000000,"state":"active","ping":74},{"user_id":486,"name":"Dr. drips","steam_id":76561198209380493,"connected_time":1626000000000,"state":"active","ping":77},{"user_id":500,"name":"AverageRundownJoe","steam_id":76561198059359620,"connected_time":369000000000,"state":"active","ping":99},{"user_id":510,"name":"gardener","steam_id":76561199032446839,"connected_time":74000000000,"state":"active","ping":104},{"user_id":505,"name":"PajamaPants","steam_id":76561198400306643,"connected_time":271000000000,"state":"active","ping":94},{"user_id":506,"name":"chester","steam_id":76561198952172376,"connected_time":270000000000,"state":"active","ping":90}]},{"server_id":5,"name":"Uncletopia | Frankfurt | 1 | All Maps","name_short":"frk-1","host":"frk-1.de.uncletopia.com","port":27015,"enabled":true,"region":"eu","cc":"de","latitude":50.110924,"longitude":8.682127,"reserved":0,"last_update":"0001-01-01T00:00:00Z","name_a2s":"Uncletopia | Frankfurt | 1 | All Maps","protocol":17,"map":"cp_dustbowl","folder":"tf","game":"Team Fortress","app_id":440,"player_count":0,"max_players":24,"Bots":0,"server_type":"Dedicated","server_os":"Linux","password":true,"vac":true,"version":"7757534","steam_id":85568392924469989,"keywords":["cp","nocrits","nodmgspread","uncletopia"],"game_id":440,"stv_port":27016,"stv_name":"Uncletopia | Frankfurt | 1 | All Maps | STV","players":null},{"server_id":110,"name":"Uncletopia | Frankfurt | 2 | All Maps","name_short":"frk-2","host":"frk-1.de.uncletopia.com","port":27025,"enabled":true,"region":"eu","cc":"de","latitude":50.110924,"longitude":8.682127,"reserved":0,"last_update":"0001-01-01T00:00:00Z","name_a2s":"Uncletopia | Frankfurt | 2 | All Maps","protocol":17,"map":"koth_highpass","folder":"tf","game":"Team Fortress","app_id":440,"player_count":0,"max_players":24,"Bots":0,"server_type":"Dedicated","server_os":"Linux","password":true,"vac":true,"version":"7757534","steam_id":85568392924469990,"keywords":["cp","nocrits","nodmgspread","uncletopia"],"game_id":440,"stv_port":27026,"stv_name":"Uncletopia | Frankfurt | 2 | All Maps | STV","players":null},{"server_id":308,"name":"Uncletopia | Frankfurt | 3 | All Maps","name_short":"frk-3","host":"frk-1.de.uncletopia.com","port":27035,"enabled":true,"region":"eu","cc":"de","latitude":50.110924,"longitude":8.682127,"reserved":0,"last_update":"0001-01-01T00:00:00Z","name_a2s":"Uncletopia | Frankfurt | 3 | All Maps","protocol":17,"map":"koth_lakeside_final","folder":"tf","game":"Team Fortress","app_id":440,"player_count":0,"max_players":24,"Bots":0,"server_type":"Dedicated","server_os":"Linux","password":true,"vac":true,"version":"7757534","steam_id":85568392924504274,"keywords":["cp","nocrits","nodmgspread","uncletopia"],"game_id":440,"stv_port":27036,"stv_name":"Uncletopia | Frankfurt | 3 | All Maps | STV","players":null},{"server_id":309,"name":"Uncletopia | Frankfurt | 4 | All Maps","name_short":"frk-4","host":"frk-1.de.uncletopia.com","port":27045,"enabled":true,"region":"eu","cc":"de","latitude":50.110924,"longitude":8.682127,"reserved":0,"last_update":"0001-01-01T00:00:00Z","name_a2s":"Uncletopia | Frankfurt | 4 | All Maps","protocol":17,"map":"cp_dustbowl","folder":"tf","game":"Team Fortress","app_id":440,"player_count":0,"max_players":24,"Bots":0,"server_type":"Dedicated","server_os":"Linux","password":true,"vac":true,"version":"7757534","steam_id":85568392924504275,"keywords":["cp","nocrits","nodmgspread","uncletopia"],"game_id":440,"stv_port":27046,"stv_name":"Uncletopia | Frankfurt | 4 | All Maps | STV","players":null},{"server_id":310,"name":"Uncletopia | Frankfurt | 5 | All Maps","name_short":"frk-5","host":"frk-1.de.uncletopia.com","port":27055,"enabled":true,"region":"eu","cc":"de","latitude":50.110924,"longitude":8.682127,"reserved":0,"last_update":"0001-01-01T00:00:00Z","name_a2s":"Uncletopia | Frankfurt | 5 | All Maps","protocol":17,"map":"koth_lakeside_final","folder":"tf","game":"Team Fortress","app_id":440,"player_count":0,"max_players":24,"Bots":0,"server_type":"Dedicated","server_os":"Linux","password":true,"vac":true,"version":"7757534","steam_id":85568392924504277,"keywords":["cp","nocrits","nodmgspread","uncletopia"],"game_id":440,"stv_port":27056,"stv_name":"Uncletopia | Frankfurt | 5 | All Maps | STV","players":null},{"server_id":311,"name":"Uncletopia | Frankfurt | 6 | All Maps","name_short":"frk-6","host":"frk-1.de.uncletopia.com","port":27065,"enabled":true,"region":"eu","cc":"de","latitude":50.110924,"longitude":8.682127,"reserved":0,"last_update":"0001-01-01T00:00:00Z","name_a2s":"Uncletopia | Frankfurt | 6 | All Maps","protocol":17,"map":"pl_frontier_final","folder":"tf","game":"Team Fortress","app_id":440,"player_count":0,"max_players":24,"Bots":0,"server_type":"Dedicated","server_os":"Linux","password":true,"vac":true,"version":"7757534","steam_id":85568392924504278,"keywords":["nocrits","nodmgspread","payload","uncletopia"],"game_id":440,"stv_port":27066,"stv_name":"Uncletopia | Frankfurt | 6 | All Maps | STV","players":null},{"server_id":23,"name":"Uncletopia | Frankfurt | 7 | Stopwatch Beta","name_short":"frk-7","host":"frk-1.de.uncletopia.com","port":27075,"enabled":true,"region":"eu","cc":"de","latitude":50.110924,"longitude":8.682127,"reserved":0,"last_update":"0001-01-01T00:00:00Z","name_a2s":"Uncletopia | Frankfurt | 7 | Stopwatch Beta","protocol":17,"map":"workshop/koth_ramjam_rc1.ugc459778887","folder":"tf","game":"Team Fortress","app_id":440,"player_count":0,"max_players":24,"Bots":0,"server_type":"Dedicated","server_os":"Linux","password":true,"vac":true,"version":"7757534","steam_id":85568392924742827,"keywords":["cp","nocrits","nodmgspread","uncletopia"],"game_id":440,"stv_port":27076,"stv_name":"Uncletopia | Frankfurt | 7 | Stopwatch Beta | STV","players":null},{"server_id":24,"name":"Uncletopia | Frankfurt | 8 | Community","name_short":"frk-8","host":"frk-1.de.uncletopia.com","port":27085,"enabled":true,"region":"eu","cc":"de","latitude":50.110924,"longitude":8.682127,"reserved":0,"last_update":"0001-01-01T00:00:00Z","name_a2s":"Uncletopia | Frankfurt | 8 | Community","protocol":17,"map":"workshop/cp_sulfur_rc2.ugc619869471","folder":"tf","game":"Team Fortress","app_id":440,"player_count":0,"max_players":24,"Bots":0,"server_type":"Dedicated","server_os":"Linux","password":true,"vac":true,"version":"7757534","steam_id":85568392924742828,"keywords":["cp","nocrits","nodmgspread","uncletopia"],"game_id":440,"stv_port":27086,"stv_name":"Uncletopia | Frankfurt | 8 | Community | STV","players":null},{"server_id":202,"name":"Uncletopia | Hong Kong | 1 | All Maps","name_short":"hgk-1","host":"hgk-1.hk.uncletopia.com","port":27015,"enabled":true,"region":"asia","cc":"hk","latitude":22.302711,"longitude":114.177216,"reserved":0,"last_update":"0001-01-01T00:00:00Z","name_a2s":"Uncletopia | Hong Kong | 1 | All Maps","protocol":17,"map":"koth_highpass","folder":"tf","game":"Team Fortress","app_id":440,"player_count":8,"max_players":24,"Bots":0,"server_type":"Dedicated","server_os":"Linux","password":true,"vac":true,"version":"7757534","steam_id":85568392924494504,"keywords":["cp","nocrits","nodmgspread","uncletopia"],"game_id":440,"stv_port":27016,"stv_name":"Uncletopia | Hong Kong | 1 | All Maps | STV","players":[{"user_id":19,"name":"Madgoat01","steam_id":76561198438429996,"connected_time":244000000000,"state":"active","ping":96},{"user_id":6,"name":"Jean Lelouch","steam_id":76561199111480909,"connected_time":3185000000000,"state":"active","ping":118},{"user_id":9,"name":"An ordinary bruh","steam_id":76561198267446959,"connected_time":2676000000000,"state":"active","ping":54},{"user_id":10,"name":"String","steam_id":76561198413554775,"connected_time":1980000000000,"state":"active","ping":51},{"user_id":13,"name":"swag","steam_id":76561199428874104,"connected_time":1303000000000,"state":"active","ping":65},{"user_id":12,"name":"Nonexistent","steam_id":76561198980563251,"connected_time":1743000000000,"state":"active","ping":80},{"user_id":14,"name":"Basscus","steam_id":76561198866547450,"connected_time":1110000000000,"state":"active","ping":72},{"user_id":20,"name":"Ref3","steam_id":76561198266574605,"connected_time":31000000000,"state":"active","ping":83}]},{"server_id":1,"name":"Uncletopia | Los Angeles | 1 | All Maps","name_short":"lax-1","host":"lax-1.us.uncletopia.com","port":27015,"enabled":true,"region":"us-west","cc":"us","latitude":33.94279,"longitude":-118.41004,"reserved":0,"last_update":"0001-01-01T00:00:00Z","name_a2s":"Uncletopia | Los Angeles | 1 | All Maps","protocol":17,"map":"pl_badwater","folder":"tf","game":"Team Fortress","app_id":440,"player_count":23,"max_players":24,"Bots":0,"server_type":"Dedicated","server_os":"Linux","password":true,"vac":true,"version":"7757534","steam_id":85568392924469991,"keywords":["nocrits","nodmgspread","payload","uncletopia"],"game_id":440,"stv_port":27016,"stv_name":"Uncletopia | Los Angeles | 1 | All Maps | STV","players":[{"user_id":112,"name":"tweet","steam_id":76561198166515735,"connected_time":16506000000000,"state":"active","ping":51},{"user_id":362,"name":"dlwlrma","steam_id":76561198047813960,"connected_time":826000000000,"state":"active","ping":74},{"user_id":368,"name":"pro-PAIN","steam_id":76561198104544593,"connected_time":73000000000,"state":"active","ping":49},{"user_id":331,"name":"zapato","steam_id":76561198142278437,"connected_time":4333000000000,"state":"active","ping":98},{"user_id":350,"name":"blank","steam_id":76561198105529673,"connected_time":2024000000000,"state":"active","ping":39},{"user_id":361,"name":"carcin","steam_id":76561198042271448,"connected_time":867000000000,"state":"active","ping":106},{"user_id":367,"name":"will pocket if good","steam_id":76561198066833577,"connected_time":387000000000,"state":"active","ping":76},{"user_id":364,"name":"golia","steam_id":76561198000264266,"connected_time":787000000000,"state":"active","ping":64},{"user_id":201,"name":"[DATS➡] Sugar Meowth","steam_id":76561197995251793,"connected_time":10244000000000,"state":"active","ping":75},{"user_id":349,"name":"monk","steam_id":76561198041266286,"connected_time":2025000000000,"state":"active","ping":50},{"user_id":369,"name":"Geight","steam_id":76561197991645292,"connected_time":6000000000,"state":"spawning","ping":69},{"user_id":347,"name":"›› Phish","steam_id":76561198218719943,"connected_time":2085000000000,"state":"active","ping":44},{"user_id":366,"name":"celery","steam_id":76561199004451589,"connected_time":620000000000,"state":"active","ping":73},{"user_id":338,"name":"BrightOrangeMango","steam_id":76561198023144607,"connected_time":3505000000000,"state":"active","ping":60},{"user_id":341,"name":"June","steam_id":76561198141803658,"connected_time":3468000000000,"state":"active","ping":41},{"user_id":346,"name":"Firepig102","steam_id":76561198060248559,"connected_time":2346000000000,"state":"active","ping":92},{"user_id":370,"name":"Mothership","steam_id":76561198044029501,"connected_time":2000000000,"state":"spawning","ping":83},{"user_id":332,"name":"Txchniques","steam_id":76561198119601842,"connected_time":4224000000000,"state":"active","ping":92},{"user_id":359,"name":"Poodle Snuggels","steam_id":76561199069873466,"connected_time":1000000000000,"state":"active","ping":122},{"user_id":292,"name":"darwin","steam_id":76561199081837220,"connected_time":6959000000000,"state":"active","ping":99},{"user_id":60,"name":"Eden","steam_id":76561198081284664,"connected_time":20785000000000,"state":"active","ping":44},{"user_id":371,"name":"cream team","steam_id":76561198139043953,"connected_time":2000000000,"state":"spawning","ping":56},{"user_id":355,"name":"Koiba","steam_id":76561198114470376,"connected_time":1792000000000,"state":"active","ping":71}]},{"server_id":112,"name":"Uncletopia | Los Angeles | 2 | All Maps","name_short":"lax-2","host":"lax-1.us.uncletopia.com","port":27025,"enabled":true,"region":"us-west","cc":"us","latitude":33.94279,"longitude":-118.41004,"reserved":0,"last_update":"0001-01-01T00:00:00Z","name_a2s":"Uncletopia | Los Angeles | 2 | All Maps","protocol":17,"map":"pl_badwater","folder":"tf","game":"Team Fortress","app_id":440,"player_count":24,"max_players":24,"Bots":0,"server_type":"Dedicated","server_os":"Linux","password":true,"vac":true,"version":"7757534","steam_id":85568392924469992,"keywords":["nocrits","nodmgspread","payload","uncletopia"],"game_id":440,"stv_port":27026,"stv_name":"Uncletopia | Los Angeles | 2 | All Maps | STV","players":[{"user_id":167,"name":"Justy","steam_id":76561198044014069,"connected_time":396000000000,"state":"active","ping":86},{"user_id":117,"name":"zzZZzz","steam_id":76561198346823843,"connected_time":3230000000000,"state":"active","ping":54},{"user_id":124,"name":"SilverMango","steam_id":76561198091243252,"connected_time":2488000000000,"state":"active","ping":53},{"user_id":138,"name":"Bones0010","steam_id":76561198096186958,"connected_time":1186000000000,"state":"active","ping":86},{"user_id":80,"name":"Katzophrenic","steam_id":76561199077931522,"connected_time":5361000000000,"state":"active","ping":62},{"user_id":164,"name":"Jim Adler The Texas Hammer","steam_id":76561198086437876,"connected_time":421000000000,"state":"active","ping":143},{"user_id":168,"name":"SHADOW (he/him)","steam_id":76561198207768148,"connected_time":152000000000,"state":"active","ping":66},{"user_id":123,"name":"Bony","steam_id":76561199001748822,"connected_time":2546000000000,"state":"active","ping":72},{"user_id":104,"name":"Tort boi","steam_id":76561198125327110,"connected_time":3812000000000,"state":"active","ping":73},{"user_id":141,"name":"Sir.TopHats","steam_id":76561198267326839,"connected_time":1133000000000,"state":"active","ping":86},{"user_id":114,"name":"chunkysquare","steam_id":76561199076468383,"connected_time":3607000000000,"state":"active","ping":36},{"user_id":165,"name":"sporkyson","steam_id":76561198070635731,"connected_time":420000000000,"state":"active","ping":88},{"user_id":169,"name":"Bongo John","steam_id":76561198045309016,"connected_time":68000000000,"state":"active","ping":77},{"user_id":144,"name":"Iron Argus","steam_id":76561198181088245,"connected_time":1056000000000,"state":"active","ping":131},{"user_id":145,"name":"Sand Spider","steam_id":76561198081257957,"connected_time":1056000000000,"state":"active","ping":103},{"user_id":146,"name":"BigFruityBooty","steam_id":76561198011704561,"connected_time":1047000000000,"state":"active","ping":95},{"user_id":137,"name":"crankshaft","steam_id":76561197992798282,"connected_time":1273000000000,"state":"active","ping":44},{"user_id":161,"name":"Vintage TV","steam_id":76561198800334545,"connected_time":586000000000,"state":"active","ping":47},{"user_id":160,"name":"zurgeg","steam_id":76561198284155373,"connected_time":787000000000,"state":"active","ping":119},{"user_id":133,"name":"Npenplz","steam_id":76561197999605423,"connected_time":2001000000000,"state":"active","ping":82},{"user_id":150,"name":"The Horselords and Animal Gods","steam_id":76561197975094050,"connected_time":978000000000,"state":"active","ping":48},{"user_id":152,"name":"michael myers gaming","steam_id":76561198155843685,"connected_time":957000000000,"state":"active","ping":46},{"user_id":136,"name":"Drunk Alastor","steam_id":76561198140849561,"connected_time":1486000000000,"state":"active","ping":114},{"user_id":162,"name":"the Good Guy","steam_id":76561198416759211,"connected_time":567000000000,"state":"active","ping":136}]},{"server_id":324,"name":"Uncletopia | Los Angeles | 3 | All Maps","name_short":"lax-3","host":"lax-1.us.uncletopia.com","port":27035,"enabled":true,"region":"us-west","cc":"us","latitude":33.94279,"longitude":-118.41004,"reserved":0,"last_update":"0001-01-01T00:00:00Z","name_a2s":"Uncletopia | Los Angeles | 3 | All Maps","protocol":17,"map":"koth_viaduct","folder":"tf","game":"Team Fortress","app_id":440,"player_count":24,"max_players":24,"Bots":0,"server_type":"Dedicated","server_os":"Linux","password":true,"vac":true,"version":"7757534","steam_id":85568392924510198,"keywords":["cp","nocrits","nodmgspread","uncletopia"],"game_id":440,"stv_port":27036,"stv_name":"Uncletopia | Los Angeles | 3 | All Maps | STV","players":[{"user_id":154,"name":"james may","steam_id":76561198043857339,"connected_time":66000000000,"state":"active","ping":49},{"user_id":139,"name":"Antonpirulero10","steam_id":76561198253036781,"connected_time":1564000000000,"state":"active","ping":84},{"user_id":129,"name":"BELUGA WHALE","steam_id":76561198045964573,"connected_time":2259000000000,"state":"active","ping":57},{"user_id":134,"name":"Thunder","steam_id":76561198097721532,"connected_time":1759000000000,"state":"active","ping":53},{"user_id":142,"name":"MoisesNP","steam_id":76561198027957879,"connected_time":1343000000000,"state":"active","ping":78},{"user_id":147,"name":"ULTRACOCK","steam_id":76561198022967929,"connected_time":867000000000,"state":"active","ping":47},{"user_id":81,"name":"Hazeyboi","steam_id":76561198130687838,"connected_time":4248000000000,"state":"active","ping":91},{"user_id":123,"name":"SolarusD","steam_id":76561198029279861,"connected_time":2497000000000,"state":"active","ping":54},{"user_id":98,"name":"Boone","steam_id":76561198072544858,"connected_time":3893000000000,"state":"active","ping":103},{"user_id":155,"name":"maximusbabaximus","steam_id":76561198419378913,"connected_time":23000000000,"state":"active","ping":67},{"user_id":140,"name":"builderboy","steam_id":76561199057532130,"connected_time":1499000000000,"state":"active","ping":102},{"user_id":84,"name":"DerpyNate","steam_id":76561198100249037,"connected_time":4107000000000,"state":"active","ping":90},{"user_id":135,"name":"lokm","steam_id":76561198030374238,"connected_time":1747000000000,"state":"active","ping":58},{"user_id":150,"name":"British Zoner","steam_id":76561198977330214,"connected_time":532000000000,"state":"active","ping":48},{"user_id":151,"name":"starrk","steam_id":76561198246066894,"connected_time":521000000000,"state":"active","ping":93},{"user_id":91,"name":"Maximum Flame","steam_id":76561198073682529,"connected_time":4060000000000,"state":"active","ping":94},{"user_id":148,"name":"Mad dog of Shimano","steam_id":76561198797266817,"connected_time":848000000000,"state":"active","ping":105},{"user_id":132,"name":"PeptoBismol","steam_id":76561198082669076,"connected_time":1768000000000,"state":"active","ping":51},{"user_id":141,"name":"hidinq","steam_id":76561198321277216,"connected_time":1387000000000,"state":"active","ping":64},{"user_id":122,"name":"neet","steam_id":76561197968115168,"connected_time":2510000000000,"state":"active","ping":104},{"user_id":152,"name":"Drake from State Farm","steam_id":76561199069029812,"connected_time":466000000000,"state":"active","ping":63},{"user_id":145,"name":"Bronze Age GRINDSET","steam_id":76561198859118263,"connected_time":1266000000000,"state":"active","ping":134},{"user_id":149,"name":"Lambchop","steam_id":76561198043900363,"connected_time":839000000000,"state":"active","ping":66},{"user_id":112,"name":"Pump","steam_id":76561198085846167,"connected_time":3148000000000,"state":"active","ping":74}]},{"server_id":25,"name":"Uncletopia | Los Angeles | 4 | Stopwatch Beta","name_short":"lax-4","host":"lax-1.us.uncletopia.com","port":27045,"enabled":true,"region":"us-west","cc":"us","latitude":33.94279,"longitude":-118.41004,"reserved":0,"last_update":"0001-01-01T00:00:00Z","name_a2s":"Uncletopia | Los Angeles | 4 | Stopwatch Beta","protocol":17,"map":"pl_swiftwater_final1","folder":"tf","game":"Team Fortress","app_id":440,"player_count":0,"max_players":24,"Bots":0,"server_type":"Dedicated","server_os":"Linux","password":true,"vac":true,"version":"7757534","steam_id":85568392924510199,"keywords":["nocrits","nodmgspread","payload","uncletopia"],"game_id":440,"stv_port":27046,"stv_name":"Uncletopia | Los Angeles | 4 | Stopwatch Beta | STV","players":null},{"server_id":11,"name":"Uncletopia | London | 1 | All Maps","name_short":"lon-1","host":"lon-1.uk.uncletopia.com","port":27015,"enabled":true,"region":"eu","cc":"gb","latitude":51.509865,"longitude":-0.118092,"reserved":0,"last_update":"0001-01-01T00:00:00Z","name_a2s":"Uncletopia | London | 1 | All Maps","protocol":17,"map":"pl_swiftwater_final1","folder":"tf","game":"Team Fortress","app_id":440,"player_count":0,"max_players":24,"Bots":0,"server_type":"Dedicated","server_os":"Linux","password":true,"vac":true,"version":"7757534","steam_id":85568392924367362,"keywords":["nocrits","nodmgspread","payload","uncletopia"],"game_id":440,"stv_port":27016,"stv_name":"Uncletopia | London | 1 | All Maps | STV","players":null},{"server_id":114,"name":"Uncletopia | London | 2 | All Maps","name_short":"lon-2","host":"lon-1.uk.uncletopia.com","port":27025,"enabled":true,"region":"eu","cc":"gb","latitude":51.509865,"longitude":-0.118092,"reserved":0,"last_update":"0001-01-01T00:00:00Z","name_a2s":"Uncletopia | London | 2 | All Maps","protocol":17,"map":"pl_badwater","folder":"tf","game":"Team Fortress","app_id":440,"player_count":24,"max_players":24,"Bots":0,"server_type":"Dedicated","server_os":"Linux","password":true,"vac":true,"version":"7757534","steam_id":85568392924470941,"keywords":["nocrits","nodmgspread","payload","uncletopia"],"game_id":440,"stv_port":27026,"stv_name":"Uncletopia | London | 2 | All Maps | STV","players":[{"user_id":838,"name":"Anna","steam_id":76561198242792546,"connected_time":6675000000000,"state":"active","ping":69},{"user_id":888,"name":"Edgy Name","steam_id":76561198378270820,"connected_time":1915000000000,"state":"active","ping":71},{"user_id":906,"name":"THE TF2 UPDATE IS REAAAAAL!","steam_id":76561198231648212,"connected_time":107000000000,"state":"active","ping":153},{"user_id":765,"name":"Penis Contortionist","steam_id":76561198073663784,"connected_time":10979000000000,"state":"active","ping":31},{"user_id":907,"name":"m4 rah rah rasputin","steam_id":76561198025389851,"connected_time":96000000000,"state":"active","ping":130},{"user_id":895,"name":"gwałt wątroby 0,7 i 5 piw","steam_id":76561199038973360,"connected_time":1633000000000,"state":"active","ping":111},{"user_id":901,"name":"brainrot","steam_id":76561199414716848,"connected_time":1034000000000,"state":"active","ping":70},{"user_id":867,"name":"Roger Slippers","steam_id":76561198188642265,"connected_time":4232000000000,"state":"active","ping":49},{"user_id":905,"name":"¯\\_(ツ)_/¯","steam_id":76561197994619075,"connected_time":208000000000,"state":"active","ping":62},{"user_id":903,"name":"Bobirulez","steam_id":76561198009125458,"connected_time":941000000000,"state":"active","ping":74},{"user_id":904,"name":"C1PHER","steam_id":76561198846777657,"connected_time":641000000000,"state":"active","ping":164},{"user_id":854,"name":"Graham Crackers","steam_id":76561198089314125,"connected_time":5369000000000,"state":"active","ping":128},{"user_id":880,"name":"Edgebug Earl","steam_id":76561197970114051,"connected_time":2595000000000,"state":"active","ping":44},{"user_id":855,"name":"shit is gruesome!","steam_id":76561198080034976,"connected_time":5344000000000,"state":"active","ping":71},{"user_id":893,"name":"beheading video from 2009","steam_id":76561198834897089,"connected_time":1734000000000,"state":"active","ping":74},{"user_id":894,"name":"how use funny sniper","steam_id":76561198846784757,"connected_time":1652000000000,"state":"active","ping":60},{"user_id":899,"name":"TreeGuy","steam_id":76561198026191469,"connected_time":1490000000000,"state":"active","ping":140},{"user_id":883,"name":"Janitor","steam_id":76561198418538887,"connected_time":2438000000000,"state":"active","ping":94},{"user_id":897,"name":"boo_thefeared","steam_id":76561198127967685,"connected_time":1579000000000,"state":"active","ping":44},{"user_id":902,"name":"Kumalala","steam_id":76561198040238679,"connected_time":1028000000000,"state":"active","ping":69},{"user_id":908,"name":"Perämiehenä","steam_id":76561197968945306,"connected_time":6000000000,"state":"spawning","ping":99},{"user_id":886,"name":"Terra","steam_id":76561198091832353,"connected_time":2357000000000,"state":"active","ping":112},{"user_id":835,"name":"jones","steam_id":76561198044434971,"connected_time":6898000000000,"state":"active","ping":75},{"user_id":900,"name":"TactiMoose","steam_id":76561198287549236,"connected_time":1434000000000,"state":"active","ping":86}]},{"server_id":320,"name":"Uncletopia | London | 3 | All Maps","name_short":"lon-3","host":"lon-1.uk.uncletopia.com","port":27035,"enabled":true,"region":"eu","cc":"gb","latitude":51.509865,"longitude":-0.118092,"reserved":0,"last_update":"0001-01-01T00:00:00Z","name_a2s":"Uncletopia | London | 3 | All Maps","protocol":17,"map":"koth_viaduct","folder":"tf","game":"Team Fortress","app_id":440,"player_count":0,"max_players":24,"Bots":0,"server_type":"Dedicated","server_os":"Linux","password":true,"vac":true,"version":"7757534","steam_id":85568392924510192,"keywords":["cp","nocrits","nodmgspread","uncletopia"],"game_id":440,"stv_port":27036,"stv_name":"Uncletopia | London | 3 | All Maps | STV","players":null},{"server_id":321,"name":"Uncletopia | London | 4 | All Maps","name_short":"lon-4","host":"lon-1.uk.uncletopia.com","port":27045,"enabled":true,"region":"eu","cc":"gb","latitude":51.509865,"longitude":-0.118092,"reserved":0,"last_update":"0001-01-01T00:00:00Z","name_a2s":"Uncletopia | London | 4 | All Maps","protocol":17,"map":"cp_sunshine","folder":"tf","game":"Team Fortress","app_id":440,"player_count":22,"max_players":24,"Bots":0,"server_type":"Dedicated","server_os":"Linux","password":true,"vac":true,"version":"7757534","steam_id":85568392924510193,"keywords":["cp","nocrits","nodmgspread","uncletopia"],"game_id":440,"stv_port":27046,"stv_name":"Uncletopia | London | 4 | All Maps | STV","players":[{"user_id":242,"name":"harizzment","steam_id":76561198890409949,"connected_time":3572000000000,"state":"active","ping":97},{"user_id":263,"name":"IceDreamer","steam_id":76561197997569989,"connected_time":2281000000000,"state":"active","ping":37},{"user_id":150,"name":"rainbow six siege twitch drone","steam_id":76561198180361759,"connected_time":10687000000000,"state":"active","ping":40},{"user_id":293,"name":"Choruptian","steam_id":76561198017686366,"connected_time":31000000000,"state":"spawning","ping":62},{"user_id":290,"name":"♂ Dungeon Master ♂","steam_id":76561198106441033,"connected_time":237000000000,"state":"active","ping":95},{"user_id":291,"name":"Convii","steam_id":76561198053180373,"connected_time":124000000000,"state":"active","ping":53},{"user_id":259,"name":"SuperBob103","steam_id":76561199175360012,"connected_time":2726000000000,"state":"active","ping":46},{"user_id":288,"name":"Into Boobin' Butt","steam_id":76561198067204908,"connected_time":328000000000,"state":"active","ping":53},{"user_id":255,"name":"Coca162","steam_id":76561198230656540,"connected_time":3008000000000,"state":"active","ping":41},{"user_id":292,"name":"Qzxly","steam_id":76561199217201383,"connected_time":43000000000,"state":"spawning","ping":532},{"user_id":264,"name":"kbbq","steam_id":76561198346638308,"connected_time":2231000000000,"state":"active","ping":45},{"user_id":265,"name":"Souris Marine","steam_id":76561199143334415,"connected_time":2210000000000,"state":"active","ping":58},{"user_id":244,"name":"Borat","steam_id":76561198122226417,"connected_time":3538000000000,"state":"active","ping":37},{"user_id":280,"name":"jonbob","steam_id":76561197963506620,"connected_time":1073000000000,"state":"active","ping":55},{"user_id":287,"name":"Temshi","steam_id":76561198170499123,"connected_time":728000000000,"state":"active","ping":162},{"user_id":257,"name":"Shourai","steam_id":76561198201192634,"connected_time":2863000000000,"state":"active","ping":46},{"user_id":274,"name":"ciliorkun18","steam_id":76561198228942500,"connected_time":1945000000000,"state":"active","ping":92},{"user_id":267,"name":"CumbustiblePunda","steam_id":76561197974274677,"connected_time":2132000000000,"state":"active","ping":55},{"user_id":254,"name":"Blinded By Light","steam_id":76561197995196966,"connected_time":3039000000000,"state":"active","ping":87},{"user_id":289,"name":"Booyah","steam_id":76561198032698137,"connected_time":253000000000,"state":"active","ping":71},{"user_id":283,"name":"Circuit","steam_id":76561198825496900,"connected_time":982000000000,"state":"active","ping":135},{"user_id":286,"name":"Alegis2012","steam_id":76561199366336427,"connected_time":758000000000,"state":"active","ping":135}]},{"server_id":21,"name":"Uncletopia | London | 5 | All Maps","name_short":"lon-5","host":"lon-1.uk.uncletopia.com","port":27055,"enabled":true,"region":"eu","cc":"gb","latitude":51.509865,"longitude":-0.118092,"reserved":0,"last_update":"0001-01-01T00:00:00Z","name_a2s":"Uncletopia | London | 5 | All Maps","protocol":17,"map":"koth_lakeside_final","folder":"tf","game":"Team Fortress","app_id":440,"player_count":0,"max_players":24,"Bots":0,"server_type":"Dedicated","server_os":"Linux","password":true,"vac":true,"version":"7757534","steam_id":85568392924742829,"keywords":["cp","nocrits","nodmgspread","uncletopia"],"game_id":440,"stv_port":27056,"stv_name":"Uncletopia | London | 5 | All Maps | STV","players":null},{"server_id":22,"name":"Uncletopia | London | 6 | All Maps","name_short":"lon-6","host":"lon-1.uk.uncletopia.com","port":27065,"enabled":true,"region":"eu","cc":"gb","latitude":51.509865,"longitude":-0.118092,"reserved":0,"last_update":"0001-01-01T00:00:00Z","name_a2s":"Uncletopia | London | 6 | All Maps","protocol":17,"map":"koth_cascade","folder":"tf","game":"Team Fortress","app_id":440,"player_count":0,"max_players":24,"Bots":0,"server_type":"Dedicated","server_os":"Linux","password":true,"vac":true,"version":"7757534","steam_id":85568392924742830,"keywords":["cp","nocrits","nodmgspread","uncletopia"],"game_id":440,"stv_port":27066,"stv_name":"Uncletopia | London | 6 | All Maps | STV","players":null},{"server_id":40,"name":"Uncletopia | London | 7 | No Payload","name_short":"lon-7","host":"lon-1.uk.uncletopia.com","port":27075,"enabled":true,"region":"eu","cc":"gb","latitude":51.509865,"longitude":-0.118092,"reserved":0,"last_update":"0001-01-01T00:00:00Z","name_a2s":"Uncletopia | London | 7 | No Payload","protocol":17,"map":"koth_lakeside_final","folder":"tf","game":"Team Fortress","app_id":440,"player_count":0,"max_players":24,"Bots":0,"server_type":"Dedicated","server_os":"Linux","password":true,"vac":true,"version":"7757534","steam_id":85568392924964314,"keywords":["cp","nocrits","nodmgspread","uncletopia"],"game_id":440,"stv_port":27076,"stv_name":"Uncletopia | London | 7 | No Payload | STV","players":null},{"server_id":41,"name":"Uncletopia | London | 8 | Community","name_short":"lon-8","host":"lon-1.uk.uncletopia.com","port":27085,"enabled":true,"region":"eu","cc":"gb","latitude":51.509865,"longitude":-0.118092,"reserved":0,"last_update":"0001-01-01T00:00:00Z","name_a2s":"Uncletopia | London | 8 | Community","protocol":17,"map":"workshop/cp_alloy_rc3.ugc592805587","folder":"tf","game":"Team Fortress","app_id":440,"player_count":0,"max_players":24,"Bots":0,"server_type":"Dedicated","server_os":"Linux","password":true,"vac":true,"version":"7757534","steam_id":85568392924964315,"keywords":["cp","nocrits","nodmgspread","uncletopia"],"game_id":440,"stv_port":27086,"stv_name":"Uncletopia | London | 8 | Community | STV","players":null},{"server_id":300,"name":"Uncletopia | Montréal | 1 | All Maps","name_short":"mtl-1","host":"mtl-1.ca.uncletopia.com","port":27015,"enabled":true,"region":"us-east","cc":"ca","latitude":45.50889,"longitude":-73.56167,"reserved":0,"last_update":"0001-01-01T00:00:00Z","name_a2s":"Uncletopia | Montréal | 1 | All Maps","protocol":17,"map":"pl_badwater","folder":"tf","game":"Team Fortress","app_id":440,"player_count":0,"max_players":24,"Bots":0,"server_type":"Dedicated","server_os":"Linux","password":true,"vac":true,"version":"7757534","steam_id":85568392924500087,"keywords":["nocrits","nodmgspread","payload","uncletopia"],"game_id":440,"stv_port":27016,"stv_name":"Uncletopia | Montréal | 1 | All Maps | STV","players":null},{"server_id":301,"name":"Uncletopia | Montréal | 2 | All Maps","name_short":"mtl-2","host":"mtl-1.ca.uncletopia.com","port":27025,"enabled":true,"region":"us-east","cc":"ca","latitude":45.50889,"longitude":-73.56167,"reserved":0,"last_update":"0001-01-01T00:00:00Z","name_a2s":"Uncletopia | Montréal | 2 | All Maps","protocol":17,"map":"cp_altitude","folder":"tf","game":"Team Fortress","app_id":440,"player_count":0,"max_players":24,"Bots":0,"server_type":"Dedicated","server_os":"Linux","password":true,"vac":true,"version":"7757534","steam_id":85568392924500088,"keywords":["cp","nocrits","nodmgspread","uncletopia"],"game_id":440,"stv_port":27026,"stv_name":"Uncletopia | Montréal | 2 | All Maps | STV","players":null},{"server_id":302,"name":"Uncletopia | Montréal | 3 | All Maps","name_short":"mtl-3","host":"mtl-1.ca.uncletopia.com","port":27035,"enabled":true,"region":"us-east","cc":"ca","latitude":45.50889,"longitude":-73.56167,"reserved":0,"last_update":"0001-01-01T00:00:00Z","name_a2s":"Uncletopia | Montréal | 3 | All Maps","protocol":17,"map":"pl_swiftwater_final1","folder":"tf","game":"Team Fortress","app_id":440,"player_count":0,"max_players":24,"Bots":0,"server_type":"Dedicated","server_os":"Linux","password":true,"vac":true,"version":"7757534","steam_id":85568392924500089,"keywords":["nocrits","nodmgspread","payload","uncletopia"],"game_id":440,"stv_port":27036,"stv_name":"Uncletopia | Montréal | 3 | All Maps | STV","players":null},{"server_id":303,"name":"Uncletopia | Montréal | 4 | No Payload","name_short":"mtl-4","host":"mtl-1.ca.uncletopia.com","port":27045,"enabled":true,"region":"us-east","cc":"ca","latitude":45.50889,"longitude":-73.56167,"reserved":0,"last_update":"0001-01-01T00:00:00Z","name_a2s":"Uncletopia | Montréal | 4 | No Payload","protocol":17,"map":"koth_harvest_final","folder":"tf","game":"Team Fortress","app_id":440,"player_count":0,"max_players":24,"Bots":0,"server_type":"Dedicated","server_os":"Linux","password":true,"vac":true,"version":"7757534","steam_id":85568392924500090,"keywords":["cp","nocrits","nodmgspread","uncletopia"],"game_id":440,"stv_port":27046,"stv_name":"Uncletopia | Montréal | 4 | No Payload | STV","players":null},{"server_id":13,"name":"Uncletopia | New York City | 1 | All Maps","name_short":"nyc-1","host":"nyc-1.us.uncletopia.com","port":27015,"enabled":true,"region":"us-east","cc":"us","latitude":40.73061,"longitude":-73.93524,"reserved":0,"last_update":"0001-01-01T00:00:00Z","name_a2s":"Uncletopia | New York City | 1 | All Maps","protocol":17,"map":"pl_badwater","folder":"tf","game":"Team Fortress","app_id":440,"player_count":24,"max_players":24,"Bots":0,"server_type":"Dedicated","server_os":"Linux","password":true,"vac":true,"version":"7757534","steam_id":85568392924469993,"keywords":["nocrits","nodmgspread","payload","uncletopia"],"game_id":440,"stv_port":27016,"stv_name":"Uncletopia | New York City | 1 | All Maps | STV","players":[{"user_id":443,"name":"obstagoon gaming","steam_id":76561198424507300,"connected_time":2980000000000,"state":"active","ping":53},{"user_id":444,"name":"stbb","steam_id":76561198173047169,"connected_time":2792000000000,"state":"active","ping":45},{"user_id":482,"name":"i love machine girl","steam_id":76561199187747394,"connected_time":557000000000,"state":"active","ping":62},{"user_id":445,"name":"Phos","steam_id":76561198122339506,"connected_time":2752000000000,"state":"active","ping":91},{"user_id":483,"name":"Hulkster","steam_id":76561198278156353,"connected_time":533000000000,"state":"active","ping":92},{"user_id":480,"name":"Medic BF (sick)","steam_id":76561198197422098,"connected_time":787000000000,"state":"active","ping":46},{"user_id":469,"name":"Vivid Hut 64","steam_id":76561198170050059,"connected_time":1457000000000,"state":"active","ping":57},{"user_id":462,"name":"KiLunaNyx","steam_id":76561199155682155,"connected_time":2074000000000,"state":"active","ping":85},{"user_id":473,"name":"what","steam_id":76561198082336619,"connected_time":1326000000000,"state":"active","ping":56},{"user_id":455,"name":"Everfrost Samoyed","steam_id":76561198072580699,"connected_time":2285000000000,"state":"active","ping":64},{"user_id":404,"name":"Hot Dog Hero","steam_id":76561198254185589,"connected_time":5340000000000,"state":"active","ping":34},{"user_id":464,"name":"Wilhelmktx","steam_id":76561198158102295,"connected_time":2050000000000,"state":"active","ping":68},{"user_id":465,"name":"ThePacBruno","steam_id":76561198046084545,"connected_time":1657000000000,"state":"active","ping":186},{"user_id":475,"name":"Mrs Moth\u003c3 (She/Her)","steam_id":76561198356567287,"connected_time":923000000000,"state":"active","ping":37},{"user_id":479,"name":"FR35H","steam_id":76561198079451544,"connected_time":809000000000,"state":"active","ping":75},{"user_id":448,"name":"prestige worldwide (wide)","steam_id":76561198045655893,"connected_time":2720000000000,"state":"active","ping":72},{"user_id":470,"name":"ultralisk52","steam_id":76561198051666604,"connected_time":1449000000000,"state":"active","ping":84},{"user_id":466,"name":"Razz","steam_id":76561198158027533,"connected_time":1654000000000,"state":"active","ping":61},{"user_id":454,"name":"i am heavy weapons guy","steam_id":76561198311704368,"connected_time":2357000000000,"state":"active","ping":68},{"user_id":453,"name":"Feared Gamer","steam_id":76561198350127514,"connected_time":2429000000000,"state":"active","ping":58},{"user_id":450,"name":"Fandor","steam_id":76561198115777254,"connected_time":2702000000000,"state":"active","ping":72},{"user_id":429,"name":"Father Chungus","steam_id":76561198010370396,"connected_time":4088000000000,"state":"active","ping":73},{"user_id":481,"name":"Dellza","steam_id":76561198449754782,"connected_time":742000000000,"state":"active","ping":81},{"user_id":389,"name":"CesarSalad","steam_id":76561198985356050,"connected_time":6189000000000,"state":"active","ping":58}]},{"server_id":14,"name":"Uncletopia | New York City | 2 | All Maps","name_short":"nyc-2","host":"nyc-1.us.uncletopia.com","port":27025,"enabled":true,"region":"us-east","cc":"us","latitude":40.73061,"longitude":-73.93524,"reserved":0,"last_update":"0001-01-01T00:00:00Z","name_a2s":"Uncletopia | New York City | 2 | All Maps","protocol":17,"map":"plr_bananabay","folder":"tf","game":"Team Fortress","app_id":440,"player_count":23,"max_players":24,"Bots":0,"server_type":"Dedicated","server_os":"Linux","password":true,"vac":true,"version":"7757534","steam_id":85568392924469994,"keywords":["nocrits","nodmgspread","payload","uncletopia"],"game_id":440,"stv_port":27026,"stv_name":"Uncletopia | New York City | 2 | All Maps | STV","players":[{"user_id":694,"name":"Nonsense will NOT be tolerated","steam_id":76561198020092031,"connected_time":1827000000000,"state":"active","ping":68},{"user_id":707,"name":"Edfan","steam_id":76561198021299904,"connected_time":655000000000,"state":"active","ping":79},{"user_id":688,"name":"Two-Teste Tommy","steam_id":76561198064308936,"connected_time":2100000000000,"state":"active","ping":56},{"user_id":716,"name":"Wolfman","steam_id":76561198095264646,"connected_time":102000000000,"state":"active","ping":86},{"user_id":701,"name":"GatoSeiko","steam_id":76561198001001360,"connected_time":1311000000000,"state":"active","ping":166},{"user_id":717,"name":"TheChickenChuck","steam_id":76561199192686708,"connected_time":74000000000,"state":"active","ping":105},{"user_id":702,"name":"farteater22","steam_id":76561198848710113,"connected_time":990000000000,"state":"active","ping":67},{"user_id":664,"name":"Techo","steam_id":76561199169405285,"connected_time":4406000000000,"state":"active","ping":132},{"user_id":718,"name":"Mattmatt","steam_id":76561198318472351,"connected_time":15000000000,"state":"spawning","ping":67},{"user_id":710,"name":"Mr. Dry Lips","steam_id":76561198028157625,"connected_time":585000000000,"state":"active","ping":95},{"user_id":665,"name":"Vladimir Puddin","steam_id":76561198139674520,"connected_time":4389000000000,"state":"active","ping":73},{"user_id":704,"name":"DDMM5008","steam_id":76561198013373274,"connected_time":864000000000,"state":"active","ping":63},{"user_id":489,"name":"Mr_Frosty","steam_id":76561199380389079,"connected_time":13396000000000,"state":"active","ping":94},{"user_id":681,"name":"Nero25","steam_id":76561198027720631,"connected_time":2606000000000,"state":"active","ping":110},{"user_id":697,"name":"Soundwave Gaming","steam_id":76561199013299586,"connected_time":1772000000000,"state":"active","ping":60},{"user_id":715,"name":"Daddys Home","steam_id":76561198034702011,"connected_time":313000000000,"state":"active","ping":69},{"user_id":708,"name":"Huntsman","steam_id":76561198169272582,"connected_time":639000000000,"state":"active","ping":89},{"user_id":713,"name":"guyinatophat51","steam_id":76561198180230694,"connected_time":446000000000,"state":"active","ping":57},{"user_id":706,"name":"you forgot the sauce","steam_id":76561198387016713,"connected_time":742000000000,"state":"active","ping":65},{"user_id":712,"name":"TacticalGlizzy","steam_id":76561198144786171,"connected_time":558000000000,"state":"active","ping":52},{"user_id":714,"name":"Nice21","steam_id":76561199427548141,"connected_time":406000000000,"state":"active","ping":76},{"user_id":668,"name":"Gumit","steam_id":76561198208126512,"connected_time":4113000000000,"state":"active","ping":59},{"user_id":719,"name":"Dino","steam_id":76561198085130361,"connected_time":3000000000,"state":"spawning","ping":81}]},{"server_id":15,"name":"Uncletopia | New York City | 3 | Stopwatch Beta","name_short":"nyc-3","host":"nyc-1.us.uncletopia.com","port":27035,"enabled":true,"region":"us-east","cc":"us","latitude":40.73061,"longitude":-73.93524,"reserved":0,"last_update":"0001-01-01T00:00:00Z","name_a2s":"Uncletopia | New York City | 3 | Stopwatch Beta","protocol":17,"map":"workshop/koth_ashville_final.ugc2130459942","folder":"tf","game":"Team Fortress","app_id":440,"player_count":24,"max_players":24,"Bots":0,"server_type":"Dedicated","server_os":"Linux","password":true,"vac":true,"version":"7757534","steam_id":85568392924742820,"keywords":["cp","nocrits","nodmgspread","uncletopia"],"game_id":440,"stv_port":27036,"stv_name":"Uncletopia | New York City | 3 | Stopwatch Beta | STV","players":[{"user_id":303,"name":"gizo","steam_id":76561199122365834,"connected_time":1610000000000,"state":"active","ping":92},{"user_id":308,"name":"Sir Puffs-A-Lot","steam_id":76561199351850922,"connected_time":1125000000000,"state":"active","ping":62},{"user_id":301,"name":"SownToe","steam_id":76561198170078214,"connected_time":1682000000000,"state":"active","ping":60},{"user_id":289,"name":"Bottle","steam_id":76561198044031558,"connected_time":2554000000000,"state":"active","ping":48},{"user_id":302,"name":"Devoid","steam_id":76561198254039012,"connected_time":1653000000000,"state":"active","ping":31},{"user_id":283,"name":"Waffle Wannabe","steam_id":76561198064510650,"connected_time":2785000000000,"state":"active","ping":38},{"user_id":285,"name":"Chewbacca","steam_id":76561198041927925,"connected_time":2641000000000,"state":"active","ping":47},{"user_id":291,"name":"radiohead enjoyer","steam_id":76561198397662124,"connected_time":2293000000000,"state":"active","ping":89},{"user_id":250,"name":"Billy Shears","steam_id":76561199022178492,"connected_time":3574000000000,"state":"active","ping":69},{"user_id":312,"name":"Gay Porn Stuntman","steam_id":76561198844362758,"connected_time":791000000000,"state":"active","ping":73},{"user_id":313,"name":"PlanktonTheWayICumBuckets","steam_id":76561198074678273,"connected_time":772000000000,"state":"active","ping":42},{"user_id":311,"name":"Pootis","steam_id":76561198135535301,"connected_time":834000000000,"state":"active","ping":47},{"user_id":264,"name":"cellogamer","steam_id":76561198016937098,"connected_time":3264000000000,"state":"active","ping":54},{"user_id":315,"name":"Bzamo","steam_id":76561198039883392,"connected_time":749000000000,"state":"active","ping":44},{"user_id":317,"name":"breeze","steam_id":76561198003181343,"connected_time":471000000000,"state":"active","ping":51},{"user_id":304,"name":"_noodle","steam_id":76561199278361340,"connected_time":1527000000000,"state":"active","ping":85},{"user_id":268,"name":"Hotdog.exe","steam_id":76561198026954009,"connected_time":3210000000000,"state":"active","ping":106},{"user_id":298,"name":"gil-bert","steam_id":76561198353724962,"connected_time":1700000000000,"state":"active","ping":51},{"user_id":290,"name":"Poptart From Mars","steam_id":76561197979930960,"connected_time":2514000000000,"state":"active","ping":92},{"user_id":299,"name":"Kago","steam_id":76561198122617301,"connected_time":1698000000000,"state":"active","ping":46},{"user_id":309,"name":"PC's_Frank","steam_id":76561198034310439,"connected_time":1035000000000,"state":"active","ping":88},{"user_id":318,"name":"The Don","steam_id":76561198016807790,"connected_time":340000000000,"state":"active","ping":51},{"user_id":305,"name":"Lesbian Chungus","steam_id":76561198055964295,"connected_time":1442000000000,"state":"active","ping":63},{"user_id":292,"name":"a footnote in sounding history","steam_id":76561198063064857,"connected_time":2213000000000,"state":"active","ping":74}]},{"server_id":16,"name":"Uncletopia | New York City | 4 | Community","name_short":"nyc-4","host":"nyc-1.us.uncletopia.com","port":27045,"enabled":true,"region":"us-east","cc":"us","latitude":40.73061,"longitude":-73.93524,"reserved":0,"last_update":"0001-01-01T00:00:00Z","name_a2s":"Uncletopia | New York City | 4 | Community","protocol":17,"map":"workshop/cp_overgrown_rc7b.ugc503939302","folder":"tf","game":"Team Fortress","app_id":440,"player_count":0,"max_players":24,"Bots":0,"server_type":"Dedicated","server_os":"Linux","password":true,"vac":true,"version":"7757534","steam_id":85568392924742821,"keywords":["cp","nocrits","nodmgspread","uncletopia"],"game_id":440,"stv_port":27046,"stv_name":"Uncletopia | New York City | 4 | Community | STV","players":null},{"server_id":142,"name":"Uncletopia | São Paulo | 1 | All Maps","name_short":"sao-1","host":"sao-1.br.uncletopia.com","port":27015,"enabled":true,"region":"sa","cc":"br","latitude":-23.533773,"longitude":-46.62529,"reserved":0,"last_update":"0001-01-01T00:00:00Z","name_a2s":"Uncletopia | São Paulo | 1 | All Maps","protocol":17,"map":"koth_lakeside_final","folder":"tf","game":"Team Fortress","app_id":440,"player_count":0,"max_players":24,"Bots":0,"server_type":"Dedicated","server_os":"Linux","password":true,"vac":true,"version":"7757534","steam_id":85568392924469996,"keywords":["cp","nocrits","nodmgspread","uncletopia"],"game_id":440,"stv_port":27016,"stv_name":"Uncletopia | São Paulo | 1 | All Maps | STV","players":null},{"server_id":143,"name":"Uncletopia | São Paulo | 2 | All Maps","name_short":"sao-2","host":"sao-2.br.uncletopia.com","port":27015,"enabled":true,"region":"sa","cc":"br","latitude":-23.533773,"longitude":-46.62529,"reserved":0,"last_update":"0001-01-01T00:00:00Z","name_a2s":"Uncletopia | São Paulo | 2 | All Maps","protocol":17,"map":"pl_badwater","folder":"tf","game":"Team Fortress","app_id":440,"player_count":0,"max_players":24,"Bots":0,"server_type":"Dedicated","server_os":"Linux","password":true,"vac":true,"version":"7757534","steam_id":85568392924485349,"keywords":["nocrits","nodmgspread","payload","uncletopia"],"game_id":440,"stv_port":27016,"stv_name":"Uncletopia | São Paulo | 2 | All Maps | STV","players":null},{"server_id":7,"name":"Uncletopia | Seattle | 1 | All Maps","name_short":"sea-1","host":"sea-1.us.uncletopia.com","port":27015,"enabled":true,"region":"us-west","cc":"us","latitude":47.608013,"longitude":-122.33517,"reserved":0,"last_update":"0001-01-01T00:00:00Z","name_a2s":"Uncletopia | Seattle | 1 | All Maps","protocol":17,"map":"pl_borneo","folder":"tf","game":"Team Fortress","app_id":440,"player_count":24,"max_players":24,"Bots":0,"server_type":"Dedicated","server_os":"Linux","password":true,"vac":true,"version":"7757534","steam_id":85568392924469997,"keywords":["nocrits","nodmgspread","payload","uncletopia"],"game_id":440,"stv_port":27016,"stv_name":"Uncletopia | Seattle | 1 | All Maps | STV","players":[{"user_id":618,"name":"Rocketface","steam_id":76561198043679540,"connected_time":785000000000,"state":"active","ping":75},{"user_id":607,"name":"linnaeus","steam_id":76561198007101809,"connected_time":1679000000000,"state":"active","ping":56},{"user_id":612,"name":"Krampus","steam_id":76561198137530703,"connected_time":1202000000000,"state":"active","ping":118},{"user_id":606,"name":"WorldHippie","steam_id":76561197970477544,"connected_time":1829000000000,"state":"active","ping":83},{"user_id":601,"name":"dickpullups","steam_id":76561198398115944,"connected_time":1983000000000,"state":"active","ping":137},{"user_id":573,"name":"soup","steam_id":76561198043209046,"connected_time":3747000000000,"state":"active","ping":81},{"user_id":587,"name":"NOT FRIENDLY","steam_id":76561198041327231,"connected_time":2903000000000,"state":"active","ping":66},{"user_id":608,"name":"veryscaryreaper","steam_id":76561198380018244,"connected_time":1385000000000,"state":"active","ping":69},{"user_id":621,"name":"MonteJT","steam_id":76561198055409360,"connected_time":474000000000,"state":"active","ping":37},{"user_id":603,"name":"DemoLiberTF2","steam_id":76561198095378689,"connected_time":1965000000000,"state":"active","ping":118},{"user_id":623,"name":"PistoleroJoe","steam_id":76561198272015968,"connected_time":320000000000,"state":"active","ping":45},{"user_id":605,"name":"ScoutSecoTF2","steam_id":76561198366212156,"connected_time":1934000000000,"state":"active","ping":128},{"user_id":609,"name":"BallinLikeStalin","steam_id":76561198229454868,"connected_time":1301000000000,"state":"active","ping":69},{"user_id":592,"name":"TheSecretNewbie","steam_id":76561198194671218,"connected_time":2762000000000,"state":"active","ping":102},{"user_id":613,"name":"Mignyanne :3","steam_id":76561198048754056,"connected_time":1159000000000,"state":"active","ping":60},{"user_id":585,"name":"Cancerous Pineapple","steam_id":76561198097307656,"connected_time":2988000000000,"state":"active","ping":72},{"user_id":610,"name":"Kaiga","steam_id":76561198044052046,"connected_time":1227000000000,"state":"active","ping":133},{"user_id":622,"name":"alexander the just ok","steam_id":76561199256886895,"connected_time":409000000000,"state":"active","ping":115},{"user_id":615,"name":"Ducks","steam_id":76561198130038345,"connected_time":1117000000000,"state":"active","ping":70},{"user_id":596,"name":"gorf 3","steam_id":76561198196909319,"connected_time":2412000000000,"state":"active","ping":57},{"user_id":599,"name":"Big Jackalicious","steam_id":76561199135213338,"connected_time":2044000000000,"state":"active","ping":57},{"user_id":524,"name":"mumbles(feral backburner)","steam_id":76561197994528974,"connected_time":9418000000000,"state":"active","ping":86},{"user_id":580,"name":"p9 jorts","steam_id":76561199041179985,"connected_time":3266000000000,"state":"active","ping":71},{"user_id":568,"name":"Luca","steam_id":76561198125087140,"connected_time":3953000000000,"state":"active","ping":47}]},{"server_id":119,"name":"Uncletopia | Seattle | 2 | All Maps","name_short":"sea-2","host":"sea-1.us.uncletopia.com","port":27025,"enabled":true,"region":"us-west","cc":"us","latitude":47.608013,"longitude":-122.33517,"reserved":0,"last_update":"0001-01-01T00:00:00Z","name_a2s":"Uncletopia | Seattle | 2 | All Maps","protocol":17,"map":"koth_highpass","folder":"tf","game":"Team Fortress","app_id":440,"player_count":24,"max_players":24,"Bots":0,"server_type":"Dedicated","server_os":"Linux","password":true,"vac":true,"version":"7757534","steam_id":85568392924469998,"keywords":["cp","nocrits","nodmgspread","uncletopia"],"game_id":440,"stv_port":27026,"stv_name":"Uncletopia | Seattle | 2 | All Maps | STV","players":[{"user_id":361,"name":"SanitysEdge","steam_id":76561198130732813,"connected_time":3640000000000,"state":"active","ping":74},{"user_id":383,"name":"sewar","steam_id":76561198803732690,"connected_time":2256000000000,"state":"active","ping":80},{"user_id":323,"name":"TheCowledWiz","steam_id":76561198016735868,"connected_time":6973000000000,"state":"active","ping":47},{"user_id":401,"name":"bushman","steam_id":76561197996548146,"connected_time":532000000000,"state":"active","ping":134},{"user_id":397,"name":"FoxesFire_YT","steam_id":76561199405873561,"connected_time":646000000000,"state":"active","ping":134},{"user_id":395,"name":"yup","steam_id":76561199190800520,"connected_time":711000000000,"state":"active","ping":40},{"user_id":408,"name":"kodynotcody","steam_id":76561198340685758,"connected_time":6000000000,"state":"active","ping":114},{"user_id":393,"name":"TDR","steam_id":76561198093243434,"connected_time":805000000000,"state":"active","ping":111},{"user_id":366,"name":"leaderlenny","steam_id":76561199182747781,"connected_time":3555000000000,"state":"active","ping":53},{"user_id":364,"name":"Pot Head Pixie","steam_id":76561198083024504,"connected_time":3599000000000,"state":"active","ping":108},{"user_id":398,"name":"Burgie","steam_id":76561198066425198,"connected_time":642000000000,"state":"active","ping":86},{"user_id":402,"name":"Jack\u0026Coke","steam_id":76561198045199164,"connected_time":508000000000,"state":"active","ping":39},{"user_id":386,"name":"GayestClownAbs (Danganronpa ref","steam_id":76561199089549888,"connected_time":1822000000000,"state":"active","ping":73},{"user_id":346,"name":"Sloome Lover","steam_id":76561198299879257,"connected_time":4941000000000,"state":"active","ping":65},{"user_id":400,"name":"American Dad Funny Moments #32","steam_id":76561198254874328,"connected_time":571000000000,"state":"active","ping":64},{"user_id":384,"name":"Mert","steam_id":76561199122059102,"connected_time":2090000000000,"state":"active","ping":83},{"user_id":354,"name":"Sunny","steam_id":76561198261667312,"connected_time":4446000000000,"state":"active","ping":87},{"user_id":301,"name":"Boyaredeen","steam_id":76561198880492636,"connected_time":8766000000000,"state":"active","ping":59},{"user_id":260,"name":"ＳＬＶＴＣＨＡＭＰ","steam_id":76561198883157736,"connected_time":12197000000000,"state":"active","ping":62},{"user_id":388,"name":"goldhed","steam_id":76561198051751133,"connected_time":1655000000000,"state":"active","ping":63},{"user_id":403,"name":"HDI","steam_id":76561199062715724,"connected_time":469000000000,"state":"active","ping":63},{"user_id":404,"name":"Babs","steam_id":76561198161306948,"connected_time":457000000000,"state":"active","ping":97},{"user_id":390,"name":"DIGGY","steam_id":76561198991238982,"connected_time":1149000000000,"state":"active","ping":55},{"user_id":391,"name":"yaboismitty","steam_id":76561199130187442,"connected_time":1009000000000,"state":"active","ping":81}]},{"server_id":406,"name":"Uncletopia | Seattle | 3 | Stopwatch Beta","name_short":"sea-3","host":"sea-1.us.uncletopia.com","port":27035,"enabled":true,"region":"us-west","cc":"us","latitude":47.608013,"longitude":-122.33517,"reserved":0,"last_update":"0001-01-01T00:00:00Z","name_a2s":"Uncletopia | Seattle | 3 | Stopwatch Beta","protocol":17,"map":"workshop/cp_reckoner_rc6.ugc674719999","folder":"tf","game":"Team Fortress","app_id":440,"player_count":23,"max_players":24,"Bots":0,"server_type":"Dedicated","server_os":"Linux","password":true,"vac":true,"version":"7757534","steam_id":85568392924515217,"keywords":["cp","nocrits","nodmgspread","uncletopia"],"game_id":440,"stv_port":27036,"stv_name":"Uncletopia | Seattle | 3 | Stopwatch Beta | STV","players":[{"user_id":89,"name":"Oneiro","steam_id":76561198281793726,"connected_time":894000000000,"state":"active","ping":148},{"user_id":75,"name":"garry","steam_id":76561199091007559,"connected_time":1985000000000,"state":"active","ping":84},{"user_id":41,"name":"Sal In Haiti","steam_id":76561198055452939,"connected_time":4962000000000,"state":"active","ping":85},{"user_id":71,"name":"Creme","steam_id":76561198034166729,"connected_time":2489000000000,"state":"active","ping":132},{"user_id":90,"name":"tf2","steam_id":76561198997614989,"connected_time":870000000000,"state":"active","ping":63},{"user_id":40,"name":"rana minecraft moment","steam_id":76561198088778979,"connected_time":5010000000000,"state":"active","ping":66},{"user_id":18,"name":"Quon Grene for Vice Prez","steam_id":76561198127545817,"connected_time":5524000000000,"state":"active","ping":84},{"user_id":84,"name":"Reaper","steam_id":76561198435826103,"connected_time":1384000000000,"state":"active","ping":122},{"user_id":73,"name":"chanoc","steam_id":76561198026734746,"connected_time":2026000000000,"state":"active","ping":67},{"user_id":99,"name":"steelmonkey","steam_id":76561198144924704,"connected_time":56000000000,"state":"active","ping":43},{"user_id":86,"name":"Scrumpy","steam_id":76561198174090230,"connected_time":1228000000000,"state":"active","ping":37},{"user_id":92,"name":"Goblin Mode","steam_id":76561198064870076,"connected_time":648000000000,"state":"active","ping":129},{"user_id":52,"name":"Banjo","steam_id":76561198004652853,"connected_time":4192000000000,"state":"active","ping":45},{"user_id":76,"name":"dzcreeper","steam_id":76561198072250723,"connected_time":1963000000000,"state":"active","ping":103},{"user_id":97,"name":"yuffy","steam_id":76561198442887797,"connected_time":404000000000,"state":"active","ping":71},{"user_id":78,"name":"Luke","steam_id":76561198072441047,"connected_time":1902000000000,"state":"active","ping":61},{"user_id":27,"name":"Banzai","steam_id":76561198196503877,"connected_time":5386000000000,"state":"active","ping":45},{"user_id":98,"name":"MisterManne","steam_id":76561198106598600,"connected_time":78000000000,"state":"active","ping":51},{"user_id":96,"name":"TrustworthyStranger","steam_id":76561198154105678,"connected_time":453000000000,"state":"active","ping":84},{"user_id":93,"name":"sophie","steam_id":76561198374224659,"connected_time":641000000000,"state":"active","ping":46},{"user_id":95,"name":"Doof","steam_id":76561198034031819,"connected_time":468000000000,"state":"active","ping":114},{"user_id":82,"name":"Honeybunch","steam_id":76561198014850580,"connected_time":1701000000000,"state":"active","ping":42},{"user_id":45,"name":"Grammaring","steam_id":76561198867366139,"connected_time":4876000000000,"state":"active","ping":80}]},{"server_id":17,"name":"Uncletopia | San Francisco | 1 | All Maps","name_short":"sfo-1","host":"sfo-1.us.uncletopia.com","port":27015,"enabled":true,"region":"us-west","cc":"us","latitude":37.77397,"longitude":-122.4313,"reserved":0,"last_update":"0001-01-01T00:00:00Z","name_a2s":"Uncletopia | San Francisco | 1 | All Maps","protocol":17,"map":"pl_pier","folder":"tf","game":"Team Fortress","app_id":440,"player_count":24,"max_players":24,"Bots":0,"server_type":"Dedicated","server_os":"Linux","password":true,"vac":true,"version":"7757534","steam_id":85568392924469999,"keywords":["nocrits","nodmgspread","payload","uncletopia"],"game_id":440,"stv_port":27016,"stv_name":"Uncletopia | San Francisco | 1 | All Maps | STV","players":[{"user_id":12,"name":"N0Ne","steam_id":76561198376822522,"connected_time":3245000000000,"state":"active","ping":73},{"user_id":30,"name":"ice cream (冰淇淋)","steam_id":76561198976530881,"connected_time":2655000000000,"state":"active","ping":45},{"user_id":14,"name":"EGaySports","steam_id":76561198983736610,"connected_time":2946000000000,"state":"active","ping":75},{"user_id":80,"name":"ttv_shingo_is_live","steam_id":76561198998571073,"connected_time":95000000000,"state":"active","ping":55},{"user_id":63,"name":"VVB","steam_id":76561198056367220,"connected_time":1307000000000,"state":"active","ping":49},{"user_id":18,"name":"Hint of Sausage","steam_id":76561198098879664,"connected_time":2898000000000,"state":"active","ping":81},{"user_id":70,"name":"Pile of Spinach","steam_id":76561198043068841,"connected_time":863000000000,"state":"active","ping":60},{"user_id":45,"name":"Psych03","steam_id":76561198061753667,"connected_time":1985000000000,"state":"active","ping":55},{"user_id":21,"name":"DrowsyDrew (Zzz)","steam_id":76561198011767666,"connected_time":2775000000000,"state":"active","ping":130},{"user_id":22,"name":"anipe10","steam_id":76561199084698417,"connected_time":2760000000000,"state":"active","ping":77},{"user_id":55,"name":"Sabag3D","steam_id":76561198094402240,"connected_time":1596000000000,"state":"active","ping":93},{"user_id":73,"name":"TheMagicMrWaffle","steam_id":76561198104357256,"connected_time":579000000000,"state":"active","ping":55},{"user_id":67,"name":"Feen","steam_id":76561198174164170,"connected_time":1154000000000,"state":"active","ping":115},{"user_id":68,"name":"Cloudman","steam_id":76561198041389138,"connected_time":1008000000000,"state":"active","ping":181},{"user_id":29,"name":"Waffle","steam_id":76561198355460424,"connected_time":2678000000000,"state":"active","ping":57},{"user_id":75,"name":"Gift_Card","steam_id":76561197995405617,"connected_time":418000000000,"state":"active","ping":126},{"user_id":32,"name":"Stick","steam_id":76561198123341834,"connected_time":2621000000000,"state":"active","ping":104},{"user_id":59,"name":"Joey Four Balls","steam_id":76561198366893329,"connected_time":1569000000000,"state":"active","ping":131},{"user_id":60,"name":"Pumpkin Spice","steam_id":76561199016285746,"connected_time":1554000000000,"state":"active","ping":111},{"user_id":43,"name":"FlaxenFlyingVixen","steam_id":76561198085142253,"connected_time":2051000000000,"state":"active","ping":120},{"user_id":66,"name":"[Colorbomb]","steam_id":76561198006316527,"connected_time":1195000000000,"state":"active","ping":77},{"user_id":77,"name":"Bumbo Blast","steam_id":76561198061498882,"connected_time":381000000000,"state":"active","ping":102},{"user_id":79,"name":"Frank","steam_id":76561198126681511,"connected_time":166000000000,"state":"active","ping":66},{"user_id":40,"name":"Ivan I","steam_id":76561198341781527,"connected_time":2538000000000,"state":"active","ping":120}]},{"server_id":18,"name":"Uncletopia | San Francisco | 2 | All Maps","name_short":"sfo-2","host":"sfo-1.us.uncletopia.com","port":27025,"enabled":true,"region":"us-west","cc":"us","latitude":37.77397,"longitude":-122.4313,"reserved":0,"last_update":"0001-01-01T00:00:00Z","name_a2s":"Uncletopia | San Francisco | 2 | All Maps","protocol":17,"map":"koth_highpass","folder":"tf","game":"Team Fortress","app_id":440,"player_count":0,"max_players":24,"Bots":0,"server_type":"Dedicated","server_os":"Linux","password":true,"vac":true,"version":"7757534","steam_id":85568392924470000,"keywords":["cp","nocrits","nodmgspread","uncletopia"],"game_id":440,"stv_port":27026,"stv_name":"Uncletopia | San Francisco | 2 | All Maps | STV","players":null},{"server_id":19,"name":"Uncletopia | San Francisco | 3 | Stopwatch Beta","name_short":"sfo-3","host":"sfo-1.us.uncletopia.com","port":27035,"enabled":true,"region":"us-west","cc":"us","latitude":37.77397,"longitude":-122.4313,"reserved":0,"last_update":"0001-01-01T00:00:00Z","name_a2s":"Uncletopia | San Francisco | 3 | Stopwatch Beta","protocol":17,"map":"pl_borneo","folder":"tf","game":"Team Fortress","app_id":440,"player_count":0,"max_players":24,"Bots":0,"server_type":"Dedicated","server_os":"Linux","password":true,"vac":true,"version":"7757534","steam_id":85568392924742824,"keywords":["nocrits","nodmgspread","payload","uncletopia"],"game_id":440,"stv_port":27036,"stv_name":"Uncletopia | San Francisco | 3 | Stopwatch Beta | STV","players":null},{"server_id":20,"name":"Uncletopia | San Francisco | 4 | Community","name_short":"sfo-4","host":"sfo-1.us.uncletopia.com","port":27045,"enabled":true,"region":"us-west","cc":"us","latitude":37.77397,"longitude":-122.4313,"reserved":0,"last_update":"0001-01-01T00:00:00Z","name_a2s":"Uncletopia | San Francisco | 4 | Community","protocol":17,"map":"workshop/koth_slaughter_rc1.ugc1712845210","folder":"tf","game":"Team Fortress","app_id":440,"player_count":21,"max_players":24,"Bots":0,"server_type":"Dedicated","server_os":"Linux","password":true,"vac":true,"version":"7757534","steam_id":85568392924742826,"keywords":["cp","nocrits","nodmgspread","uncletopia"],"game_id":440,"stv_port":27046,"stv_name":"Uncletopia | San Francisco | 4 | Community | STV","players":[{"user_id":31,"name":"медведь","steam_id":76561198053832401,"connected_time":806000000000,"state":"active","ping":77},{"user_id":32,"name":"aTempo","steam_id":76561198431747942,"connected_time":778000000000,"state":"active","ping":114},{"user_id":39,"name":"Carter Pewterschmidt","steam_id":76561198945661878,"connected_time":423000000000,"state":"active","ping":116},{"user_id":34,"name":"LilLappy217","steam_id":76561198351053740,"connected_time":749000000000,"state":"active","ping":112},{"user_id":35,"name":"kjr :)","steam_id":76561198799443149,"connected_time":739000000000,"state":"active","ping":134},{"user_id":36,"name":"CrowbarNR","steam_id":76561198415489469,"connected_time":704000000000,"state":"active","ping":108},{"user_id":37,"name":"Flipari","steam_id":76561198399012971,"connected_time":636000000000,"state":"active","ping":62},{"user_id":38,"name":"Dr. Klenius Fungi","steam_id":76561198170192105,"connected_time":581000000000,"state":"active","ping":54},{"user_id":40,"name":"hexed player","steam_id":76561198087422193,"connected_time":305000000000,"state":"active","ping":57},{"user_id":41,"name":"Neon-ween gaming","steam_id":76561198831812465,"connected_time":277000000000,"state":"active","ping":194},{"user_id":53,"name":"ImNotZelda","steam_id":76561198866570682,"connected_time":28000000000,"state":"active","ping":76},{"user_id":43,"name":"mmm, that's a spicy meatball","steam_id":76561198851388879,"connected_time":238000000000,"state":"active","ping":57},{"user_id":44,"name":"Pizza Employee","steam_id":76561199073301053,"connected_time":156000000000,"state":"active","ping":70},{"user_id":45,"name":"Taberone","steam_id":76561198032653574,"connected_time":154000000000,"state":"active","ping":58},{"user_id":46,"name":"ChromeOwl","steam_id":76561198953786715,"connected_time":126000000000,"state":"active","ping":119},{"user_id":47,"name":"DAMM BRO","steam_id":76561198984762462,"connected_time":124000000000,"state":"active","ping":50},{"user_id":48,"name":"Dosario","steam_id":76561198298095535,"connected_time":120000000000,"state":"active","ping":81},{"user_id":49,"name":"sagepeacooler","steam_id":76561199119413147,"connected_time":100000000000,"state":"active","ping":88},{"user_id":54,"name":"waymin","steam_id":76561198150914868,"connected_time":17000000000,"state":"spawning","ping":199},{"user_id":51,"name":"Mickmissión","steam_id":76561199133527421,"connected_time":46000000000,"state":"spawning","ping":46},{"user_id":52,"name":"azureglxy","steam_id":76561198861388315,"connected_time":41000000000,"state":"active","ping":46}]},{"server_id":141,"name":"Uncletopia | Sydney | 1 | All Maps","name_short":"syd-1","host":"syd-1.au.uncletopia.com","port":27015,"enabled":true,"region":"au","cc":"au","latitude":-33.865143,"longitude":151.2099,"reserved":0,"last_update":"0001-01-01T00:00:00Z","name_a2s":"Uncletopia | Sydney | 1 | All Maps","protocol":17,"map":"koth_viaduct","folder":"tf","game":"Team Fortress","app_id":440,"player_count":0,"max_players":24,"Bots":0,"server_type":"Dedicated","server_os":"Linux","password":true,"vac":true,"version":"7757534","steam_id":85568392924470001,"keywords":["cp","nocrits","nodmgspread","uncletopia"],"game_id":440,"stv_port":27016,"stv_name":"Uncletopia | Sydney | 1 | All Maps | STV","players":null},{"server_id":123,"name":"Uncletopia | Sydney | 2 | All Maps","name_short":"syd-2","host":"syd-1.au.uncletopia.com","port":27025,"enabled":true,"region":"au","cc":"au","latitude":-33.865143,"longitude":151.2099,"reserved":0,"last_update":"0001-01-01T00:00:00Z","name_a2s":"Uncletopia | Sydney | 2 | All Maps","protocol":17,"map":"pl_snowycoast","folder":"tf","game":"Team Fortress","app_id":440,"player_count":24,"max_players":24,"Bots":0,"server_type":"Dedicated","server_os":"Linux","password":true,"vac":true,"version":"7757534","steam_id":85568392924470002,"keywords":["nocrits","nodmgspread","payload","uncletopia"],"game_id":440,"stv_port":27026,"stv_name":"Uncletopia | Sydney | 2 | All Maps | STV","players":[{"user_id":66,"name":"Lincoln2603","steam_id":76561198170236666,"connected_time":1324000000000,"state":"active","ping":38},{"user_id":23,"name":"I AM THE SNAIL","steam_id":76561198039603964,"connected_time":2905000000000,"state":"active","ping":68},{"user_id":9,"name":"Bob Ross","steam_id":76561198081686896,"connected_time":4137000000000,"state":"active","ping":63},{"user_id":70,"name":"Jdn","steam_id":76561198293079232,"connected_time":924000000000,"state":"active","ping":59},{"user_id":46,"name":"DiscardedBiscuit","steam_id":76561197996894720,"connected_time":2193000000000,"state":"active","ping":95},{"user_id":12,"name":"calculusfish","steam_id":76561198067205959,"connected_time":3964000000000,"state":"active","ping":60},{"user_id":59,"name":"lau","steam_id":76561198045451991,"connected_time":1736000000000,"state":"active","ping":45},{"user_id":69,"name":"JayCatnip","steam_id":76561198125106357,"connected_time":984000000000,"state":"active","ping":72},{"user_id":47,"name":"Pug","steam_id":76561198136794372,"connected_time":2109000000000,"state":"active","ping":54},{"user_id":72,"name":"Marisa Kirisame","steam_id":76561198320489890,"connected_time":781000000000,"state":"active","ping":42},{"user_id":60,"name":"whiteshaq","steam_id":76561198131988811,"connected_time":1730000000000,"state":"active","ping":78},{"user_id":76,"name":"Tsolis","steam_id":76561198013950614,"connected_time":244000000000,"state":"active","ping":57},{"user_id":30,"name":"*akolai","steam_id":76561198075366402,"connected_time":2557000000000,"state":"active","ping":39},{"user_id":27,"name":"The Real MVP","steam_id":76561198046510592,"connected_time":2760000000000,"state":"active","ping":83},{"user_id":51,"name":"Jett","steam_id":76561198969434128,"connected_time":1992000000000,"state":"active","ping":70},{"user_id":33,"name":"cakey","steam_id":76561198173746761,"connected_time":2460000000000,"state":"active","ping":46},{"user_id":52,"name":"tetrx","steam_id":76561197996427098,"connected_time":1979000000000,"state":"active","ping":87},{"user_id":71,"name":"NollReed","steam_id":76561198098501571,"connected_time":911000000000,"state":"active","ping":60},{"user_id":53,"name":"Bailey Chap","steam_id":76561198203316149,"connected_time":1969000000000,"state":"active","ping":95},{"user_id":38,"name":"Doctor Estonia","steam_id":76561198057365089,"connected_time":2374000000000,"state":"active","ping":101},{"user_id":62,"name":"Rags","steam_id":76561198179481430,"connected_time":1676000000000,"state":"active","ping":101},{"user_id":63,"name":"oliver","steam_id":76561198449676152,"connected_time":1669000000000,"state":"active","ping":65},{"user_id":73,"name":"misttry2","steam_id":76561199382679347,"connected_time":730000000000,"state":"active","ping":63},{"user_id":77,"name":"engineer gamin","steam_id":76561199046481213,"connected_time":243000000000,"state":"active","ping":65}]},{"server_id":395,"name":"Uncletopia | Sydney | 3 | All Maps","name_short":"syd-3","host":"syd-1.au.uncletopia.com","port":27035,"enabled":true,"region":"au","cc":"au","latitude":-33.865143,"longitude":151.2099,"reserved":0,"last_update":"0001-01-01T00:00:00Z","name_a2s":"Uncletopia | Sydney | 3 | All Maps","protocol":17,"map":"cp_sunshine","folder":"tf","game":"Team Fortress","app_id":440,"player_count":0,"max_players":24,"Bots":0,"server_type":"Dedicated","server_os":"Linux","password":true,"vac":true,"version":"7757534","steam_id":85568392925194467,"keywords":["cp","nocrits","nodmgspread","uncletopia"],"game_id":440,"stv_port":27036,"stv_name":"Uncletopia | Sydney | 3 | All Maps | STV","players":null},{"server_id":396,"name":"Uncletopia | Sydney | 4 | All Maps","name_short":"syd-4","host":"syd-1.au.uncletopia.com","port":27045,"enabled":true,"region":"au","cc":"au","latitude":-33.865143,"longitude":151.2099,"reserved":0,"last_update":"0001-01-01T00:00:00Z","name_a2s":"Uncletopia | Sydney | 4 | All Maps","protocol":17,"map":"koth_highpass","folder":"tf","game":"Team Fortress","app_id":440,"player_count":0,"max_players":24,"Bots":0,"server_type":"Dedicated","server_os":"Linux","password":true,"vac":true,"version":"7757534","steam_id":85568392925397958,"keywords":["cp","nocrits","nodmgspread","uncletopia"],"game_id":440,"stv_port":27046,"stv_name":"Uncletopia | Sydney | 4 | All Maps | STV","players":null},{"server_id":58,"name":"Uncletopia | Sydney | 5 | Stopwatch Beta","name_short":"syd-5","host":"syd-1.au.uncletopia.com","port":27055,"enabled":true,"region":"au","cc":"au","latitude":-33.865143,"longitude":151.2099,"reserved":0,"last_update":"0001-01-01T00:00:00Z","name_a2s":"Uncletopia | Sydney | 5 | Stopwatch Beta","protocol":17,"map":"koth_cascade","folder":"tf","game":"Team Fortress","app_id":440,"player_count":0,"max_players":24,"Bots":0,"server_type":"Dedicated","server_os":"Linux","password":true,"vac":true,"version":"7757534","steam_id":85568392925397959,"keywords":["cp","nocrits","nodmgspread","uncletopia"],"game_id":440,"stv_port":27056,"stv_name":"Uncletopia | Sydney | 5 | Stopwatch Beta | STV","players":null},{"server_id":59,"name":"Uncletopia | Sydney | 6 | Community","name_short":"syd-6","host":"syd-1.au.uncletopia.com","port":27065,"enabled":true,"region":"au","cc":"au","latitude":-33.865143,"longitude":151.2099,"reserved":0,"last_update":"0001-01-01T00:00:00Z","name_a2s":"Uncletopia | Sydney | 6 | Community","protocol":17,"map":"cp_snakewater_final1","folder":"tf","game":"Team Fortress","app_id":440,"player_count":0,"max_players":24,"Bots":0,"server_type":"Dedicated","server_os":"Linux","password":true,"vac":true,"version":"7757534","steam_id":85568392925397960,"keywords":["cp","nocrits","nodmgspread","uncletopia"],"game_id":440,"stv_port":27066,"stv_name":"Uncletopia | Sydney | 6 | Community | STV","players":null},{"server_id":49,"name":"Uncletopia | Warsaw | 1 | All Maps","name_short":"waw-1","host":"waw-1.pl.uncletopia.com","port":27015,"enabled":true,"region":"eu","cc":"pl","latitude":52.2297,"longitude":21.017532,"reserved":0,"last_update":"0001-01-01T00:00:00Z","name_a2s":"","protocol":0,"map":"","folder":"","game":"","app_id":0,"player_count":0,"max_players":0,"Bots":0,"server_type":"","server_os":"","password":false,"vac":false,"version":"","steam_id":0,"keywords":null,"game_id":0,"stv_port":0,"stv_name":"","players":null},{"server_id":50,"name":"Uncletopia | Warsaw | 2 | All Maps","name_short":"waw-2","host":"waw-1.pl.uncletopia.com","port":27025,"enabled":true,"region":"eu","cc":"pl","latitude":52.2297,"longitude":21.017532,"reserved":0,"last_update":"0001-01-01T00:00:00Z","name_a2s":"Uncletopia | Warsaw | 2 | All Maps","protocol":17,"map":"koth_viaduct","folder":"tf","game":"Team Fortress","app_id":440,"player_count":0,"max_players":24,"Bots":0,"server_type":"Dedicated","server_os":"Linux","password":true,"vac":true,"version":"7757534","steam_id":85568392925397851,"keywords":["cp","nocrits","nodmgspread","uncletopia"],"game_id":440,"stv_port":27026,"stv_name":"Uncletopia | Warsaw | 2 | All Maps | STV","players":null},{"server_id":51,"name":"Uncletopia | Warsaw | 3 | All Maps","name_short":"waw-3","host":"waw-1.pl.uncletopia.com","port":27035,"enabled":true,"region":"eu","cc":"pl","latitude":52.2297,"longitude":21.017532,"reserved":0,"last_update":"0001-01-01T00:00:00Z","name_a2s":"Uncletopia | Warsaw | 3 | All Maps","protocol":17,"map":"koth_lakeside_final","folder":"tf","game":"Team Fortress","app_id":440,"player_count":0,"max_players":24,"Bots":0,"server_type":"Dedicated","server_os":"Linux","password":true,"vac":true,"version":"7757534","steam_id":85568392925397852,"keywords":["cp","nocrits","nodmgspread","uncletopia"],"game_id":440,"stv_port":27036,"stv_name":"Uncletopia | Warsaw | 3 | All Maps | STV","players":null},{"server_id":52,"name":"Uncletopia | Warsaw | 4 | All Maps","name_short":"waw-4","host":"waw-1.pl.uncletopia.com","port":27045,"enabled":true,"region":"eu","cc":"pl","latitude":52.2297,"longitude":21.017532,"reserved":0,"last_update":"0001-01-01T00:00:00Z","name_a2s":"Uncletopia | Warsaw | 4 | All Maps","protocol":17,"map":"koth_lakeside_final","folder":"tf","game":"Team Fortress","app_id":440,"player_count":0,"max_players":24,"Bots":0,"server_type":"Dedicated","server_os":"Linux","password":true,"vac":true,"version":"7757534","steam_id":85568392925397853,"keywords":["cp","nocrits","nodmgspread","uncletopia"],"game_id":440,"stv_port":27046,"stv_name":"Uncletopia | Warsaw | 4 | All Maps | STV","players":null},{"server_id":53,"name":"Uncletopia | Warsaw | 5 | Stopwatch Beta","name_short":"waw-5","host":"waw-1.pl.uncletopia.com","port":27055,"enabled":true,"region":"eu","cc":"pl","latitude":52.2297,"longitude":21.017532,"reserved":0,"last_update":"0001-01-01T00:00:00Z","name_a2s":"Uncletopia | Warsaw | 5 | Stopwatch Beta","protocol":17,"map":"pl_borneo","folder":"tf","game":"Team Fortress","app_id":440,"player_count":0,"max_players":24,"Bots":0,"server_type":"Dedicated","server_os":"Linux","password":true,"vac":true,"version":"7757534","steam_id":85568392925397854,"keywords":["nocrits","nodmgspread","payload","uncletopia"],"game_id":440,"stv_port":27056,"stv_name":"Uncletopia | Warsaw | 5 | Stopwatch Beta | STV","players":null},{"server_id":54,"name":"Uncletopia | Warsaw | 6 | Community","name_short":"waw-6","host":"waw-1.pl.uncletopia.com","port":27065,"enabled":true,"region":"eu","cc":"pl","latitude":52.2297,"longitude":21.017532,"reserved":0,"last_update":"0001-01-01T00:00:00Z","name_a2s":"Uncletopia | Warsaw | 6 | Community","protocol":17,"map":"workshop/koth_kemptown_rc1.ugc767410655","folder":"tf","game":"Team Fortress","app_id":440,"player_count":0,"max_players":24,"Bots":0,"server_type":"Dedicated","server_os":"Linux","password":true,"vac":true,"version":"7757534","steam_id":85568392925397856,"keywords":["cp","nocrits","nodmgspread","uncletopia"],"game_id":440,"stv_port":27066,"stv_name":"Uncletopia | Warsaw | 6 | Community | STV","players":null}]}