{"status":true,"message":"","result":[{"server_id":9,"name":"Uncletopia | Atlanta | 1 | All Maps","name_short":"atl-1","host":"atl-1.us.uncletopia.com","port":27015,"enabled":true,"region":"us-east","cc":"us","latitude":33.753746,"longitude":-84.38633,"reserved":0,"last_update":"0001-01-01T00:00:00Z","name_a2s":"Uncletopia | Atlanta | 1 | All Maps","protocol":17,"map":"pl_borneo","folder":"tf","game":"Team Fortress","app_id":440,"player_count":23,"max_players":24,"Bots":0,"server_type":"Dedicated","server_os":"Linux","password":true,"vac":true,"version":"7882260","steam_id":85568392924469982,"keywords":["nocrits","nodmgspread","payload","uncletopia"],"game_id":440,"stv_port":27016,"stv_name":"Uncletopia | Atlanta | 1 | All Maps | STV","players":[{"user_id":704,"name":"ShadowDragon0125","steam_id":76561198343849022,"connected_time":244000000000,"state":"active","ping":111},{"user_id":691,"name":"Lancer47","steam_id":76561198020481475,"connected_time":1341000000000,"state":"active","ping":75},{"user_id":688,"name":"Metapod","steam_id":76561198008725465,"connected_time":1704000000000,"state":"active","ping":75},{"user_id":705,"name":"jizzreis","steam_id":76561198010019214,"connected_time":236000000000,"state":"active","ping":42},{"user_id":702,"name":"troll","steam_id":76561198040890252,"connected_time":340000000000,"state":"active","ping":54},{"user_id":707,"name":"Florist","steam_id":76561198009121060,"connected_time":78000000000,"state":"active","ping":102},{"user_id":690,"name":"Asrock x370Taichi","steam_id":76561198420319686,"connected_time":1362000000000,"state":"active","ping":64},{"user_id":677,"name":"Ferguson","steam_id":76561198121349387,"connected_time":2373000000000,"state":"active","ping":70},{"user_id":596,"name":"cola","steam_id":76561198374390458,"connected_time":8851000000000,"state":"active","ping":60},{"user_id":701,"name":"jizzawitz","steam_id":76561198042444734,"connected_time":375000000000,"state":"active","ping":56},{"user_id":686,"name":"Morgster","steam_id":76561198131697761,"connected_time":1802000000000,"state":"active","ping":64},{"user_id":661,"name":"DuckMann","steam_id":76561198197058638,"connected_time":4292000000000,"state":"active","ping":49},{"user_id":699,"name":"Bong Rips 4 Jesus","steam_id":76561198062678615,"connected_time":858000000000,"state":"active","ping":73},{"user_id":689,"name":"CoziestGlobe","steam_id":76561198199237735,"connected_time":1653000000000,"state":"active","ping":74},{"user_id":700,"name":"bobbymcbobington","steam_id":76561199089411172,"connected_time":801000000000,"state":"active","ping":90},{"user_id":697,"name":"David De Bergerac","steam_id":76561198010306294,"connected_time":1047000000000,"state":"active","ping":87},{"user_id":684,"name":"junglefan_7066","steam_id":76561199437560148,"connected_time":1942000000000,"state":"active","ping":124},{"user_id":657,"name":"tenshi","steam_id":76561198126358045,"connected_time":4696000000000,"state":"active","ping":62},{"user_id":703,"name":"bobdabuil3er","steam_id":76561199203014888,"connected_time":339000000000,"state":"active","ping":90},{"user_id":643,"name":"Onyx","steam_id":76561198275349640,"connected_time":5186000000000,"state":"active","ping":77},{"user_id":695,"name":"Yoru","steam_id":76561198119698950,"connected_time":1238000000000,"state":"active","ping":119},{"user_id":662,"name":"meownt evewest :3","steam_id":76561198017686306,"connected_time":4291000000000,"state":"active","ping":150},{"user_id":671,"name":"Dr. Twa","steam_id":76561198295529541,"connected_time":3326000000000,"state":"active","ping":72}]},{"server_id":104,"name":"Uncletopia | Atlanta | 2 | All Maps","name_short":"atl-2","host":"atl-1.us.uncletopia.com","port":27025,"enabled":true,"region":"us-east","cc":"us","latitude":33.753746,"longitude":-84.38633,"reserved":0,"last_update":"0001-01-01T00:00:00Z","name_a2s":"Uncletopia | Atlanta | 2 | All Maps","protocol":17,"map":"pl_barnblitz","folder":"tf","game":"Team Fortress","app_id":440,"player_count":24,"max_players":24,"Bots":0,"server_type":"Dedicated","server_os":"Linux","password":true,"vac":true,"version":"7882260","steam_id":85568392924469983,"keywords":["nocrits","nodmgspread","payload","uncletopia"],"game_id":440,"stv_port":27026,"stv_name":"Uncletopia | Atlanta | 2 | All Maps | STV","players":[{"user_id":389,"name":"Jebediah Kerman","steam_id":76561199215798445,"connected_time":321000000000,"state":"active","ping":81},{"user_id":347,"name":"goose","steam_id":76561198367551668,"connected_time":2668000000000,"state":"active","ping":60},{"user_id":327,"name":"gon","steam_id":76561198341171295,"connected_time":3917000000000,"state":"active","ping":93},{"user_id":385,"name":"architect","steam_id":76561198142394470,"connected_time":1013000000000,"state":"active","ping":52},{"user_id":331,"name":"sumerian death metal warrior","steam_id":76561198997380708,"connected_time":3476000000000,"state":"active","ping":110},{"user_id":382,"name":"Freyja","steam_id":76561198207412177,"connected_time":1303000000000,"state":"active","ping":83},{"user_id":388,"name":"BOTBOT","steam_id":76561198271928618,"connected_time":568000000000,"state":"active","ping":82},{"user_id":332,"name":"BANGARANG","steam_id":76561198816597453,"connected_time":3464000000000,"state":"active","ping":84},{"user_id":378,"name":"Charlie","steam_id":76561199098209171,"connected_time":1390000000000,"state":"active","ping":63},{"user_id":376,"name":"sunny","steam_id":76561198069380992,"connected_time":1510000000000,"state":"active","ping":65},{"user_id":309,"name":"Not Guztaf","steam_id":76561198334924763,"connected_time":5136000000000,"state":"active","ping":70},{"user_id":372,"name":"Buckshot","steam_id":76561198312838299,"connected_time":1750000000000,"state":"active","ping":82},{"user_id":390,"name":"thundah!","steam_id":76561199159928133,"connected_time":315000000000,"state":"active","ping":78},{"user_id":370,"name":"drooskie","steam_id":76561198036083886,"connected_time":1793000000000,"state":"active","ping":67},{"user_id":358,"name":"Neophyte","steam_id":76561198027183394,"connected_time":1812000000000,"state":"active","ping":107},{"user_id":374,"name":"Cursed Dog","steam_id":76561198090785078,"connected_time":1641000000000,"state":"active","ping":93},{"user_id":381,"name":"Isilawuli","steam_id":76561198084150503,"connected_time":1350000000000,"state":"active","ping":59},{"user_id":225,"name":"Chhaam","steam_id":76561198058508132,"connected_time":10729000000000,"state":"active","ping":54},{"user_id":349,"name":"FancyBones","steam_id":76561198180198885,"connected_time":2502000000000,"state":"active","ping":68},{"user_id":320,"name":"Sprinklze","steam_id":76561198163562681,"connected_time":4223000000000,"state":"active","ping":48},{"user_id":373,"name":"It's Over!","steam_id":76561198104086771,"connected_time":1746000000000,"state":"active","ping":113},{"user_id":393,"name":"chiswola","steam_id":76561198046920142,"connected_time":43000000000,"state":"active","ping":110},{"user_id":340,"name":"Mathatguy","steam_id":76561198225432188,"connected_time":3362000000000,"state":"active","ping":76},{"user_id":392,"name":"Quietsharp","steam_id":76561198277968438,"connected_time":219000000000,"state":"active","ping":104}]},{"server_id":400,"name":"Uncletopia | Atlanta | 3 | Community","name_short":"atl-3","host":"atl-1.us.uncletopia.com","port":27035,"enabled":true,"region":"us-east","cc":"us","latitude":33.753746,"longitude":-84.38633,"reserved":0,"last_update":"0001-01-01T00:00:00Z","name_a2s":"Uncletopia | Atlanta | 3 | Community","protocol":17,"map":"workshop/cp_logjam_rc12.ugc454812035","folder":"tf","game":"Team Fortress","app_id":440,"player_count":24,"max_players":24,"Bots":0,"server_type":"Dedicated","server_os":"Linux","password":true,"vac":true,"version":"7882260","steam_id":85568392924515187,"keywords":["cp","nocrits","nodmgspread","uncletopia"],"game_id":440,"stv_port":27036,"stv_name":"Uncletopia | Atlanta | 3 | Community | STV","players":[{"user_id":43,"name":"legowizdude","steam_id":76561198086688058,"connected_time":5599000000000,"state":"active","ping":81},{"user_id":42,"name":"Esoteric Death","steam_id":76561198168686614,"connected_time":5631000000000,"state":"active","ping":85},{"user_id":50,"name":"Rottleknocket Whiz","steam_id":76561198811544339,"connected_time":4561000000000,"state":"active","ping":62},{"user_id":94,"name":"23‚Ñ¢","steam_id":76561198314951185,"connected_time":1299000000000,"state":"active","ping":106},{"user_id":88,"name":"AlcoholicDad454","steam_id":76561198157414556,"connected_time":1920000000000,"state":"active","ping":71},{"user_id":90,"name":"‚ù§ pavizi ‚ù§","steam_id":76561198064828655,"connected_time":1641000000000,"state":"active","ping":91},{"user_id":108,"name":"NoExit","steam_id":76561198065725996,"connected_time":322000000000,"state":"active","ping":79},{"user_id":53,"name":"Cheesemelt","steam_id":76561198008221847,"connected_time":4479000000000,"state":"active","ping":75},{"user_id":54,"name":"PootisPowHAHA","steam_id":76561199023536209,"connected_time":4459000000000,"state":"active","ping":71},{"user_id":56,"name":"Punished Shitster","steam_id":76561198150452857,"connected_time":4448000000000,"state":"active","ping":79},{"user_id":91,"name":"Missing Minus","steam_id":76561198120822928,"connected_time":1598000000000,"state":"active","ping":46},{"user_id":104,"name":"FRANKY!!!","steam_id":76561199211305343,"connected_time":687000000000,"state":"active","ping":98},{"user_id":103,"name":"Crack Wizard","steam_id":76561198055463619,"connected_time":730000000000,"state":"active","ping":94},{"user_id":86,"name":"Harold","steam_id":76561198057317770,"connected_time":2223000000000,"state":"active","ping":104},{"user_id":87,"name":"Jesse","steam_id":76561198157305426,"connected_time":1931000000000,"state":"active","ping":49},{"user_id":66,"name":"BluCoffee","steam_id":76561198214995967,"connected_time":4177000000000,"state":"active","ping":88},{"user_id":89,"name":"DAS SCHNITZELSTIEN","steam_id":76561198051137159,"connected_time":1868000000000,"state":"active","ping":118},{"user_id":68,"name":"Comfy Monkey","steam_id":76561197998434936,"connected_time":4132000000000,"state":"active","ping":77},{"user_id":93,"name":"Dr.Holiday","steam_id":76561198353465692,"connected_time":1398000000000,"state":"active","ping":71},{"user_id":109,"name":"Modeus","steam_id":76561199228751836,"connected_time":210000000000,"state":"active","ping":63},{"user_id":102,"name":"ChaiGuy","steam_id":76561198058483106,"connected_time":844000000000,"state":"active","ping":56},{"user_id":110,"name":"austinsmith","steam_id":76561198167838540,"connected_time":168000000000,"state":"active","ping":96},{"user_id":106,"name":"÷Ü…®∆à”Ñ÷Ö ç÷Ö…ñ…õ","steam_id":76561198064668286,"connected_time":626000000000,"state":"active","ping":84},{"user_id":74,"name":"C O M F Y","steam_id":76561198072101210,"connected_time":3940000000000,"state":"active","ping":73}]},{"server_id":401,"name":"Uncletopia | Atlanta | 4 | No Payload","name_short":"atl-4","host":"atl-1.us.uncletopia.com","port":27045,"enabled":true,"region":"us-east","cc":"us","latitude":33.753746,"longitude":-84.38633,"reserved":0,"last_update":"0001-01-01T00:00:00Z","name_a2s":"","protocol":0,"map":"","folder":"","game":"","app_id":0,"player_count":0,"max_players":0,"Bots":0,"server_type":"","server_os":"","password":false,"vac":false,"version":"","steam_id":0,"keywords":null,"game_id":0,"stv_port":0,"stv_name":"","players":null},{"server_id":2,"name":"Uncletopia | Chicago | 1 | All Maps","name_short":"chi-1","host":"chi-1.us.uncletopia.com","port":27015,"enabled":true,"region":"us-central","cc":"us","latitude":41.881832,"longitude":-87.62318,"reserved":0,"last_update":"0001-01-01T00:00:00Z","name_a2s":"Uncletopia | Chicago | 1 | All Maps","protocol":17,"map":"pl_swiftwater_final1","folder":"tf","game":"Team Fortress","app_id":440,"player_count":24,"max_players":24,"Bots":0,"server_type":"Dedicated","server_os":"Linux","password":true,"vac":true,"version":"7882260","steam_id":85568392924469984,"keywords":["nocrits","nodmgspread","payload","uncletopia"],"game_id":440,"stv_port":27016,"stv_name":"Uncletopia | Chicago | 1 | All Maps | STV","players":[{"user_id":782,"name":"pee pee poo poo","steam_id":76561198930017260,"connected_time":1146000000000,"state":"active","ping":136},{"user_id":771,"name":"Coach McFish","steam_id":76561198210456405,"connected_time":1420000000000,"state":"active","ping":74},{"user_id":791,"name":"Rya‚ò∫","steam_id":76561198370128860,"connected_time":287000000000,"state":"active","ping":73},{"user_id":773,"name":"Stanv","steam_id":76561198259530604,"connected_time":1418000000000,"state":"active","ping":62},{"user_id":788,"name":"jorjor wells","steam_id":76561199073429082,"connected_time":563000000000,"state":"active","ping":65},{"user_id":774,"name":"Kip_skunky","steam_id":76561198084721531,"connected_time":1412000000000,"state":"active","ping":49},{"user_id":767,"name":"HOTA","steam_id":76561199002778841,"connected_time":2893000000000,"state":"active","ping":74},{"user_id":768,"name":"The Gronkler","steam_id":76561198019915822,"connected_time":2797000000000,"state":"active","ping":68},{"user_id":770,"name":"Gabinator32","steam_id":76561198872467183,"connected_time":1431000000000,"state":"active","ping":43},{"user_id":787,"name":"StonedGiant","steam_id":76561197984386932,"connected_time":578000000000,"state":"active","ping":61},{"user_id":789,"name":"Toddovan","steam_id":76561198143104883,"connected_time":557000000000,"state":"active","ping":125},{"user_id":784,"name":"Minerva Amadon","steam_id":76561198138543341,"connected_time":904000000000,"state":"active","ping":69},{"user_id":778,"name":"c00kie","steam_id":76561198418178297,"connected_time":1285000000000,"state":"active","ping":41},{"user_id":757,"name":"Your Local Queer Librarian","steam_id":76561198013077080,"connected_time":4001000000000,"state":"active","ping":58},{"user_id":758,"name":"eat Pant","steam_id":76561197974965536,"connected_time":3627000000000,"state":"active","ping":58},{"user_id":763,"name":"Loaf of rabbit","steam_id":76561198248715052,"connected_time":2947000000000,"state":"active","ping":107},{"user_id":764,"name":"Juanseparra564","steam_id":76561198176662903,"connected_time":2937000000000,"state":"active","ping":124},{"user_id":785,"name":"Oli B\u003eQS/BP/Bulk w/ 500+ keys","steam_id":76561198140316312,"connected_time":900000000000,"state":"active","ping":47},{"user_id":792,"name":"i'm washed","steam_id":76561198940368888,"connected_time":245000000000,"state":"active","ping":45},{"user_id":790,"name":" ï‚Ä¢·¥•‚Ä¢ î the bear","steam_id":76561197989591976,"connected_time":547000000000,"state":"active","ping":79},{"user_id":780,"name":"ApertureCity","steam_id":76561198004153607,"connected_time":1253000000000,"state":"active","ping":99},{"user_id":738,"name":"Captain S. Forrest","steam_id":76561198062463029,"connected_time":4856000000000,"state":"active","ping":82},{"user_id":739,"name":"Astoriae!","steam_id":76561199090168858,"connected_time":4856000000000,"state":"active","ping":70},{"user_id":786,"name":"SomeRandomCat","steam_id":76561199107044061,"connected_time":843000000000,"state":"active","ping":68}]},{"server_id":106,"name":"Uncletopia | Chicago | 2 | All Maps","name_short":"chi-2","host":"chi-1.us.uncletopia.com","port":27025,"enabled":true,"region":"us-central","cc":"us","latitude":41.881832,"longitude":-87.62318,"reserved":0,"last_update":"0001-01-01T00:00:00Z","name_a2s":"Uncletopia | Chicago | 2 | All Maps","protocol":17,"map":"pl_frontier_final","folder":"tf","game":"Team Fortress","app_id":440,"player_count":24,"max_players":24,"Bots":0,"server_type":"Dedicated","server_os":"Linux","password":true,"vac":true,"version":"7882260","steam_id":85568392924469985,"keywords":["nocrits","nodmgspread","payload","uncletopia"],"game_id":440,"stv_port":27026,"stv_name":"Uncletopia | Chicago | 2 | All Maps | STV","players":[{"user_id":640,"name":"Big Cheddar","steam_id":76561198332150669,"connected_time":574000000000,"state":"active","ping":62},{"user_id":637,"name":"beeble!","steam_id":76561198219538525,"connected_time":798000000000,"state":"active","ping":77},{"user_id":615,"name":"AveraGeo","steam_id":76561198216949631,"connected_time":1977000000000,"state":"active","ping":56},{"user_id":638,"name":"Robin","steam_id":76561198121165149,"connected_time":776000000000,"state":"active","ping":41},{"user_id":642,"name":"Heinz-Harald Hopeless","steam_id":76561199002203593,"connected_time":70000000000,"state":"active","ping":110},{"user_id":412,"name":"Famelegion","steam_id":76561198958341424,"connected_time":9166000000000,"state":"active","ping":97},{"user_id":636,"name":"perc 10","steam_id":76561198116471653,"connected_time":827000000000,"state":"active","ping":96},{"user_id":611,"name":"Cornelius","steam_id":76561198123447388,"connected_time":2013000000000,"state":"active","ping":53},{"user_id":626,"name":"Mr. Tickle","steam_id":76561198126684647,"connected_time":1520000000000,"state":"active","ping":59},{"user_id":622,"name":"Brumpo Tungus","steam_id":76561198054669779,"connected_time":1746000000000,"state":"active","ping":57},{"user_id":641,"name":"substance","steam_id":76561198050103868,"connected_time":501000000000,"state":"active","ping":106},{"user_id":544,"name":"Treeckogeek","steam_id":76561198453328078,"connected_time":3038000000000,"state":"active","ping":60},{"user_id":618,"name":"stoned jester","steam_id":76561198079609974,"connected_time":1837000000000,"state":"active","ping":118},{"user_id":620,"name":"GavinGaming","steam_id":76561198251462934,"connected_time":1818000000000,"state":"active","ping":62},{"user_id":463,"name":"Bananaramagrams","steam_id":76561198084429090,"connected_time":4945000000000,"state":"active","ping":80},{"user_id":639,"name":"habib_g6ix_God","steam_id":76561198053621664,"connected_time":753000000000,"state":"active","ping":45},{"user_id":601,"name":"Xanadu","steam_id":76561198069642258,"connected_time":2230000000000,"state":"active","ping":76},{"user_id":423,"name":"Walkiing","steam_id":76561198074473413,"connected_time":7853000000000,"state":"active","ping":45},{"user_id":623,"name":"WALKING GOPRO","steam_id":76561198186928885,"connected_time":1702000000000,"state":"active","ping":69},{"user_id":627,"name":"||BassMan||","steam_id":76561198279865229,"connected_time":1435000000000,"state":"active","ping":121},{"user_id":616,"name":"cakgamin","steam_id":76561199088909749,"connected_time":1962000000000,"state":"active","ping":65},{"user_id":629,"name":"Trevorisntdead","steam_id":76561199001421095,"connected_time":1420000000000,"state":"active","ping":77},{"user_id":520,"name":"Veridian","steam_id":76561198096334078,"connected_time":3555000000000,"state":"active","ping":63},{"user_id":630,"name":"Tuba","steam_id":76561198209166329,"connected_time":1301000000000,"state":"active","ping":110}]},{"server_id":402,"name":"Uncletopia | Chicago | 3 | All Maps","name_short":"chi-3","host":"chi-1.us.uncletopia.com","port":27035,"enabled":true,"region":"us-central","cc":"us","latitude":41.881832,"longitude":-87.62318,"reserved":0,"last_update":"0001-01-01T00:00:00Z","name_a2s":"Uncletopia | Chicago | 3 | All Maps","protocol":17,"map":"cp_powerhouse","folder":"tf","game":"Team Fortress","app_id":440,"player_count":23,"max_players":24,"Bots":0,"server_type":"Dedicated","server_os":"Linux","password":true,"vac":true,"version":"7882260","steam_id":85568392924515191,"keywords":["cp","nocrits","nodmgspread","uncletopia"],"game_id":440,"stv_port":27036,"stv_name":"Uncletopia | Chicago | 3 | All Maps | STV","players":[{"user_id":633,"name":"picklejuice dealer","steam_id":76561198031675881,"connected_time":3245000000000,"state":"active","ping":44},{"user_id":614,"name":"Noid","steam_id":76561198227804500,"connected_time":3867000000000,"state":"active","ping":79},{"user_id":656,"name":"HideOnTate","steam_id":76561198209880837,"connected_time":1151000000000,"state":"active","ping":66},{"user_id":673,"name":"tommy_shep","steam_id":76561199224772845,"connected_time":33000000000,"state":"connecting","ping":73},{"user_id":665,"name":"MooseGoose82","steam_id":76561199123118241,"connected_time":706000000000,"state":"active","ping":99},{"user_id":671,"name":"tf2 enjoyer","steam_id":76561198172732375,"connected_time":45000000000,"state":"active","ping":60},{"user_id":658,"name":"slaanesh worshiper","steam_id":76561198017283523,"connected_time":1129000000000,"state":"active","ping":96},{"user_id":619,"name":"Mix","steam_id":76561198835593895,"connected_time":3701000000000,"state":"active","ping":71},{"user_id":662,"name":"DO THE DEVIL CHALLENGE","steam_id":76561198045437723,"connected_time":1038000000000,"state":"active","ping":72},{"user_id":645,"name":"Dr Oshawott","steam_id":76561198042021629,"connected_time":2041000000000,"state":"active","ping":61},{"user_id":668,"name":"SkoranShogun","steam_id":76561198091811218,"connected_time":187000000000,"state":"active","ping":86},{"user_id":635,"name":"OddBread","steam_id":76561198339301792,"connected_time":3207000000000,"state":"active","ping":62},{"user_id":595,"name":"_Lusty_","steam_id":76561198876948142,"connected_time":5624000000000,"state":"active","ping":60},{"user_id":622,"name":"AmBoxReally","steam_id":76561198200640118,"connected_time":3645000000000,"state":"active","ping":59},{"user_id":623,"name":"yaoi 2.0","steam_id":76561198123527383,"connected_time":3642000000000,"state":"active","ping":58},{"user_id":670,"name":"dyl-ee","steam_id":76561198339916330,"connected_time":81000000000,"state":"active","ping":76},{"user_id":664,"name":"feenman","steam_id":76561199383834799,"connected_time":730000000000,"state":"active","ping":99},{"user_id":661,"name":"Hi","steam_id":76561198038247668,"connected_time":1090000000000,"state":"active","ping":66},{"user_id":666,"name":"Smittywerbenjager-manjenson","steam_id":76561198067060742,"connected_time":678000000000,"state":"active","ping":64},{"user_id":606,"name":"Rein","steam_id":76561198300340427,"connected_time":4776000000000,"state":"active","ping":58},{"user_id":643,"name":"2JZ_","steam_id":76561198064027289,"connected_time":2074000000000,"state":"active","ping":79},{"user_id":627,"name":"guac","steam_id":76561198070305720,"connected_time":3591000000000,"state":"active","ping":82},{"user_id":672,"name":"Skoorb673","steam_id":76561199079002400,"connected_time":35000000000,"state":"active","ping":66}]},{"server_id":403,"name":"Uncletopia | Chicago | 4 | All Maps","name_short":"chi-4","host":"chi-1.us.uncletopia.com","port":27045,"enabled":true,"region":"us-central","cc":"us","latitude":41.881832,"longitude":-87.62318,"reserved":0,"last_update":"0001-01-01T00:00:00Z","name_a2s":"Uncletopia | Chicago | 4 | All Maps","protocol":17,"map":"cp_snakewater_final1","folder":"tf","game":"Team Fortress","app_id":440,"player_count":23,"max_players":24,"Bots":0,"server_type":"Dedicated","server_os":"Linux","password":true,"vac":true,"version":"7882260","steam_id":85568392924515193,"keywords":["cp","nocrits","nodmgspread","uncletopia"],"game_id":440,"stv_port":27046,"stv_name":"Uncletopia | Chicago | 4 | All Maps | STV","players":[{"user_id":767,"name":"haxxorman","steam_id":76561199155156400,"connected_time":146000000000,"state":"active","ping":58},{"user_id":725,"name":"MankTKO","steam_id":76561198189421005,"connected_time":3850000000000,"state":"active","ping":47},{"user_id":699,"name":"graggle simpson","steam_id":76561198840210218,"connected_time":6613000000000,"state":"active","ping":114},{"user_id":764,"name":"nox","steam_id":76561198054390505,"connected_time":306000000000,"state":"active","ping":47},{"user_id":753,"name":"Breach","steam_id":76561198045060392,"connected_time":1530000000000,"state":"active","ping":45},{"user_id":754,"name":"Theus117 [ „ÉÅ„É´„Éé‚ë®]","steam_id":76561198108902928,"connected_time":1507000000000,"state":"active","ping":63},{"user_id":407,"name":"WALL-E","steam_id":76561198154701370,"connected_time":30024000000000,"state":"active","ping":84},{"user_id":736,"name":"Tenna","steam_id":76561198052020077,"connected_time":2757000000000,"state":"active","ping":90},{"user_id":762,"name":"Scrux","steam_id":76561198129763115,"connected_time":490000000000,"state":"active","ping":109},{"user_id":756,"name":"hashmap","steam_id":76561198043794014,"connected_time":1455000000000,"state":"active","ping":58},{"user_id":744,"name":"LizardBoyTailFrotting","steam_id":76561199169859135,"connected_time":2620000000000,"state":"active","ping":106},{"user_id":757,"name":"Asanez3","steam_id":76561198037381436,"connected_time":1449000000000,"state":"active","ping":70},{"user_id":758,"name":"The local hobo","steam_id":76561198289650060,"connected_time":1443000000000,"state":"active","ping":82},{"user_id":766,"name":"St. Michael","steam_id":76561198037611052,"connected_time":206000000000,"state":"active","ping":67},{"user_id":760,"name":"CheeseLikeSubstance","steam_id":76561197977170646,"connected_time":1418000000000,"state":"active","ping":49},{"user_id":726,"name":"Castroy","steam_id":76561198108160099,"connected_time":3534000000000,"state":"active","ping":69},{"user_id":745,"name":"[ibb‚Ñ¢]Shadow20X6-ENGI","steam_id":76561198019292755,"connected_time":2613000000000,"state":"active","ping":104},{"user_id":722,"name":"AreYouMyMummy?","steam_id":76561197995101745,"connected_time":4261000000000,"state":"active","ping":63},{"user_id":750,"name":"conner","steam_id":76561198052911241,"connected_time":2342000000000,"state":"active","ping":72},{"user_id":751,"name":"gyozaking","steam_id":76561197972312696,"connected_time":2084000000000,"state":"active","ping":40},{"user_id":763,"name":"shay.wilson","steam_id":76561198005776463,"connected_time":462000000000,"state":"active","ping":133},{"user_id":742,"name":"Orga","steam_id":76561198062321195,"connected_time":2729000000000,"state":"active","ping":79},{"user_id":747,"name":"Malmart_Employee","steam_id":76561198320388704,"connected_time":2613000000000,"state":"active","ping":111}]},{"server_id":36,"name":"Uncletopia | Chicago | 5 | All Maps","name_short":"chi-5","host":"chi-2.us.uncletopia.com","port":27015,"enabled":true,"region":"us-central","cc":"us","latitude":41.881832,"longitude":-87.62318,"reserved":0,"last_update":"0001-01-01T00:00:00Z","name_a2s":"Uncletopia | Chicago | 5 | All Maps","protocol":17,"map":"pl_snowycoast","folder":"tf","game":"Team Fortress","app_id":440,"player_count":23,"max_players":24,"Bots":0,"server_type":"Dedicated","server_os":"Linux","password":true,"vac":true,"version":"7882260","steam_id":85568392924866362,"keywords":["nocrits","nodmgspread","payload","uncletopia"],"game_id":440,"stv_port":27016,"stv_name":"Uncletopia | Chicago | 5 | All Maps | STV","players":[{"user_id":497,"name":"LerN","steam_id":76561198083463877,"connected_time":409000000000,"state":"active","ping":59},{"user_id":498,"name":"EvenNine","steam_id":76561198207745293,"connected_time":400000000000,"state":"active","ping":60},{"user_id":481,"name":"Boter","steam_id":76561198066994093,"connected_time":841000000000,"state":"active","ping":68},{"user_id":499,"name":"Kunata","steam_id":76561198050998975,"connected_time":382000000000,"state":"active","ping":68},{"user_id":496,"name":"Rogurts","steam_id":76561198087665145,"connected_time":415000000000,"state":"active","ping":59},{"user_id":500,"name":"An Unhinged Meat Bicycle","steam_id":76561198358757709,"connected_time":361000000000,"state":"active","ping":96},{"user_id":409,"name":"Fraglin","steam_id":76561198124964000,"connected_time":5834000000000,"state":"active","ping":71},{"user_id":468,"name":"Peachy","steam_id":76561198355191810,"connected_time":1943000000000,"state":"active","ping":65},{"user_id":480,"name":"Stoopnagle","steam_id":76561198011942560,"connected_time":1283000000000,"state":"active","ping":83},{"user_id":501,"name":"I pocket eboys *‚ô•‚Äß‚ÇäÀö","steam_id":76561198048925904,"connected_time":350000000000,"state":"active","ping":114},{"user_id":476,"name":"Jar Jar Kinks","steam_id":76561199087748803,"connected_time":1593000000000,"state":"active","ping":86},{"user_id":502,"name":"Whiteboy Money","steam_id":76561197997233176,"connected_time":315000000000,"state":"active","ping":81},{"user_id":477,"name":"Player Zero","steam_id":76561198208312849,"connected_time":1546000000000,"state":"active","ping":102},{"user_id":482,"name":"raidlps","steam_id":76561199208003679,"connected_time":803000000000,"state":"active","ping":86},{"user_id":472,"name":"Ceej","steam_id":76561198416822503,"connected_time":1801000000000,"state":"active","ping":92},{"user_id":451,"name":"pigfarmer.gov","steam_id":76561199071167548,"connected_time":2542000000000,"state":"active","ping":68},{"user_id":495,"name":"[SOTR]DEV1ATE","steam_id":76561198004960097,"connected_time":551000000000,"state":"active","ping":68},{"user_id":490,"name":"hatsune miku‚ô°","steam_id":76561199445009981,"connected_time":607000000000,"state":"active","ping":101},{"user_id":491,"name":"Bocchi the Cock","steam_id":76561198152455316,"connected_time":602000000000,"state":"active","ping":105},{"user_id":503,"name":"Doppelg√§nger","steam_id":76561198036730436,"connected_time":289000000000,"state":"active","ping":112},{"user_id":485,"name":"Lincs","steam_id":76561198049851872,"connected_time":777000000000,"state":"active","ping":84},{"user_id":494,"name":"SPYChicken427","steam_id":76561198072308602,"connected_time":558000000000,"state":"active","ping":59},{"user_id":478,"name":"awsomeeevee1","steam_id":76561199012905300,"connected_time":1486000000000,"state":"active","ping":106}]},{"server_id":37,"name":"Uncletopia | Chicago | 6 | All Maps","name_short":"chi-6","host":"chi-2.us.uncletopia.com","port":27025,"enabled":true,"region":"us-central","cc":"us","latitude":41.881832,"longitude":-87.62318,"reserved":0,"last_update":"0001-01-01T00:00:00Z","name_a2s":"Uncletopia | Chicago | 6 | All Maps","protocol":17,"map":"pl_swiftwater_final1","folder":"tf","game":"Team Fortress","app_id":440,"player_count":23,"max_players":24,"Bots":0,"server_type":"Dedicated","server_os":"Linux","password":true,"vac":true,"version":"7882260","steam_id":85568392924866363,"keywords":["nocrits","nodmgspread","payload","uncletopia"],"game_id":440,"stv_port":27026,"stv_name":"Uncletopia | Chicago | 6 | All Maps | STV","players":[{"user_id":331,"name":"nelly modelo","steam_id":76561198044875206,"connected_time":571000000000,"state":"active","ping":89},{"user_id":320,"name":"BigDeac","steam_id":76561198091237274,"connected_time":985000000000,"state":"active","ping":63},{"user_id":286,"name":"Owixan","steam_id":76561198074990070,"connected_time":3740000000000,"state":"active","ping":33},{"user_id":322,"name":"schr√∂dinger","steam_id":76561198123475433,"connected_time":869000000000,"state":"active","ping":121},{"user_id":330,"name":"Landrow","steam_id":76561199156068210,"connected_time":593000000000,"state":"active","ping":116},{"user_id":334,"name":"galoomba","steam_id":76561199201917180,"connected_time":485000000000,"state":"active","ping":82},{"user_id":164,"name":"SpecialForce19","steam_id":76561198120974644,"connected_time":10861000000000,"state":"active","ping":72},{"user_id":307,"name":"Doubting Dave","steam_id":76561198066410749,"connected_time":1731000000000,"state":"active","ping":96},{"user_id":335,"name":"cup","steam_id":76561198121245586,"connected_time":450000000000,"state":"active","ping":96},{"user_id":317,"name":"Space Lizard","steam_id":76561198056798193,"connected_time":1316000000000,"state":"active","ping":77},{"user_id":339,"name":"Trusty","steam_id":76561198123441319,"connected_time":336000000000,"state":"active","ping":48},{"user_id":265,"name":"gamer rat","steam_id":76561199278864569,"connected_time":4753000000000,"state":"active","ping":111},{"user_id":342,"name":"Big Dick Swinging","steam_id":76561198053819929,"connected_time":103000000000,"state":"active","ping":79},{"user_id":313,"name":"Yoshi_86","steam_id":76561198942328734,"connected_time":1492000000000,"state":"active","ping":56},{"user_id":343,"name":"AceRepublicRT","steam_id":76561198362676166,"connected_time":73000000000,"state":"active","ping":108},{"user_id":314,"name":"(TTV) The_Astrum_Guardian","steam_id":76561198130134103,"connected_time":1376000000000,"state":"active","ping":57},{"user_id":329,"name":"monsterkill4567","steam_id":76561198272986367,"connected_time":654000000000,"state":"active","ping":108},{"user_id":312,"name":"Asura","steam_id":76561199026590878,"connected_time":1522000000000,"state":"active","ping":56},{"user_id":315,"name":"noah","steam_id":76561198173310157,"connected_time":1360000000000,"state":"active","ping":49},{"user_id":337,"name":"Sunflower Solace","steam_id":76561198041077536,"connected_time":386000000000,"state":"active","ping":133},{"user_id":318,"name":"DoubleTee","steam_id":76561198018980347,"connected_time":1279000000000,"state":"active","ping":81},{"user_id":341,"name":"Noriaki Kakyoin","steam_id":76561199480621798,"connected_time":150000000000,"state":"active","ping":113},{"user_id":332,"name":"PapaRicka","steam_id":76561198156474931,"connected_time":519000000000,"state":"active","ping":67}]},{"server_id":38,"name":"Uncletopia | Chicago | 7 | Stopwatch Beta","name_short":"chi-7","host":"chi-2.us.uncletopia.com","port":27035,"enabled":true,"region":"us-central","cc":"us","latitude":41.881832,"longitude":-87.62318,"reserved":0,"last_update":"0001-01-01T00:00:00Z","name_a2s":"Uncletopia | Chicago | 7 | Stopwatch Beta","protocol":17,"map":"pl_borneo","folder":"tf","game":"Team Fortress","app_id":440,"player_count":0,"max_players":24,"Bots":0,"server_type":"Dedicated","server_os":"Linux","password":true,"vac":true,"version":"7882260","steam_id":85568392924866364,"keywords":["nocrits","nodmgspread","payload","uncletopia"],"game_id":440,"stv_port":27036,"stv_name":"Uncletopia | Chicago | 7 | Stopwatch Beta | STV","players":null},{"server_id":39,"name":"Uncletopia | Chicago | 8 | Community","name_short":"chi-8","host":"chi-2.us.uncletopia.com","port":27045,"enabled":true,"region":"us-central","cc":"us","latitude":41.881832,"longitude":-87.62318,"reserved":0,"last_update":"0001-01-01T00:00:00Z","name_a2s":"Uncletopia | Chicago | 8 | Community","protocol":17,"map":"workshop/koth_synthetic_rc6a.ugc1549817316","folder":"tf","game":"Team Fortress","app_id":440,"player_count":0,"max_players":24,"Bots":0,"server_type":"Dedicated","server_os":"Linux","password":true,"vac":true,"version":"7882260","steam_id":85568392924866365,"keywords":["cp","nocrits","nodmgspread","uncletopia"],"game_id":440,"stv_port":27046,"stv_name":"Uncletopia | Chicago | 8 | Community | STV","players":null},{"server_id":8,"name":"Uncletopia | Dallas | 1 | All Maps","name_short":"dal-1","host":"dal-1.us.uncletopia.com","port":27015,"enabled":true,"region":"us-central","cc":"us","latitude":32.779167,"longitude":-96.80889,"reserved":0,"last_update":"0001-01-01T00:00:00Z","name_a2s":"Uncletopia | Dallas | 1 | All Maps","protocol":17,"map":"pl_pier","folder":"tf","game":"Team Fortress","app_id":440,"player_count":24,"max_players":24,"Bots":0,"server_type":"Dedicated","server_os":"Linux","password":true,"vac":true,"version":"7882260","steam_id":85568392924469986,"keywords":["nocrits","nodmgspread","payload","uncletopia"],"game_id":440,"stv_port":27016,"stv_name":"Uncletopia | Dallas | 1 | All Maps | STV","players":[{"user_id":666,"name":"I am a mooshroom","steam_id":76561198104198295,"connected_time":1858000000000,"state":"active","ping":59},{"user_id":697,"name":"Bogey","steam_id":76561198096227944,"connected_time":205000000000,"state":"active","ping":42},{"user_id":699,"name":"5 whoppers and then 5 more :)","steam_id":76561198231068624,"connected_time":172000000000,"state":"active","ping":70},{"user_id":654,"name":"A Drunken Fedora Salesman","steam_id":76561198056238723,"connected_time":2019000000000,"state":"active","ping":97},{"user_id":700,"name":"Electric 5$ GiftCard","steam_id":76561199252528662,"connected_time":163000000000,"state":"active","ping":170},{"user_id":535,"name":"Xeno808","steam_id":76561198103758081,"connected_time":6313000000000,"state":"active","ping":36},{"user_id":572,"name":"PlugFromBehind","steam_id":76561198143283800,"connected_time":4450000000000,"state":"active","ping":57},{"user_id":701,"name":"spot","steam_id":76561198151135298,"connected_time":152000000000,"state":"active","ping":60},{"user_id":619,"name":"Icarus the legend","steam_id":76561199013250091,"connected_time":2443000000000,"state":"active","ping":43},{"user_id":696,"name":"Mulsanne","steam_id":76561198439612132,"connected_time":323000000000,"state":"active","ping":50},{"user_id":566,"name":"shoxidizer","steam_id":76561198981983698,"connected_time":5093000000000,"state":"active","ping":93},{"user_id":655,"name":"Darth Phrogg","steam_id":76561198150844229,"connected_time":2013000000000,"state":"active","ping":47},{"user_id":531,"name":"Vit","steam_id":76561198044101991,"connected_time":6731000000000,"state":"active","ping":60},{"user_id":707,"name":"Manic","steam_id":76561198128149670,"connected_time":16000000000,"state":"spawning","ping":100},{"user_id":702,"name":"delmar1015","steam_id":76561199441777192,"connected_time":146000000000,"state":"active","ping":193},{"user_id":703,"name":"Marc Antony","steam_id":76561198011366517,"connected_time":145000000000,"state":"active","ping":75},{"user_id":704,"name":"Bungus Stormblessed","steam_id":76561198121357619,"connected_time":117000000000,"state":"active","ping":59},{"user_id":705,"name":"Doggo_Overlord","steam_id":76561198265468015,"connected_time":115000000000,"state":"active","ping":75},{"user_id":685,"name":"Last Friday","steam_id":76561198002309769,"connected_time":1195000000000,"state":"active","ping":53},{"user_id":585,"name":"Dinofire","steam_id":76561198147468271,"connected_time":3843000000000,"state":"active","ping":98},{"user_id":706,"name":"Balerion the Black Dread","steam_id":76561198003728369,"connected_time":85000000000,"state":"active","ping":88},{"user_id":586,"name":"faka","steam_id":76561199093280815,"connected_time":3672000000000,"state":"active","ping":108},{"user_id":695,"name":"BronzeLeagueHero","steam_id":76561198088309711,"connected_time":969000000000,"state":"active","ping":55},{"user_id":588,"name":"FanaticSalt","steam_id":76561199380123059,"connected_time":3042000000000,"state":"active","ping":45}]},{"server_id":108,"name":"Uncletopia | Dallas | 2 | All Maps","name_short":"dal-2","host":"dal-1.us.uncletopia.com","port":27025,"enabled":true,"region":"us-central","cc":"us","latitude":32.779167,"longitude":-96.80889,"reserved":0,"last_update":"0001-01-01T00:00:00Z","name_a2s":"Uncletopia | Dallas | 2 | All Maps","protocol":17,"map":"pl_swiftwater_final1","folder":"tf","game":"Team Fortress","app_id":440,"player_count":24,"max_players":24,"Bots":0,"server_type":"Dedicated","server_os":"Linux","password":true,"vac":true,"version":"7882260","steam_id":85568392924469988,"keywords":["nocrits","nodmgspread","payload","uncletopia"],"game_id":440,"stv_port":27026,"stv_name":"Uncletopia | Dallas | 2 | All Maps | STV","players":[{"user_id":396,"name":"J.G. Klaus","steam_id":76561198001111196,"connected_time":6699000000000,"state":"active","ping":56},{"user_id":450,"name":"jacix3 [gay wolfgirl]{she/it}","steam_id":76561198205004165,"connected_time":1972000000000,"state":"active","ping":115},{"user_id":451,"name":"skeletobro","steam_id":76561198311258358,"connected_time":1962000000000,"state":"active","ping":111},{"user_id":409,"name":"xZackAttack27x","steam_id":76561198035446639,"connected_time":5050000000000,"state":"active","ping":35},{"user_id":454,"name":"WaywardFinn","steam_id":76561198040391296,"connected_time":1890000000000,"state":"active","ping":101},{"user_id":470,"name":"haze","steam_id":76561199484552589,"connected_time":718000000000,"state":"active","ping":87},{"user_id":452,"name":"C0RV3L","steam_id":76561199205094837,"connected_time":1941000000000,"state":"active","ping":97},{"user_id":441,"name":"0x01FE","steam_id":76561198838881917,"connected_time":2492000000000,"state":"active","ping":65},{"user_id":445,"name":"DragonHunter994","steam_id":76561199076203907,"connected_time":2241000000000,"state":"active","ping":65},{"user_id":455,"name":"acidicorn","steam_id":76561199484618071,"connected_time":1878000000000,"state":"active","ping":101},{"user_id":425,"name":"ShapedSilver","steam_id":76561199073305310,"connected_time":3706000000000,"state":"active","ping":70},{"user_id":468,"name":"ryghehn","steam_id":76561198195359229,"connected_time":923000000000,"state":"active","ping":101},{"user_id":434,"name":"Lapisüíõ ","steam_id":76561198009198502,"connected_time":3315000000000,"state":"active","ping":87},{"user_id":419,"name":"meggie","steam_id":76561198038291026,"connected_time":4559000000000,"state":"active","ping":37},{"user_id":456,"name":"PerliousFalcon","steam_id":76561198124801907,"connected_time":1845000000000,"state":"active","ping":96},{"user_id":466,"name":"SadVeggie","steam_id":76561198163430099,"connected_time":1409000000000,"state":"active","ping":98},{"user_id":447,"name":"—Å—á–∏–∑—è—≥","steam_id":76561199182960322,"connected_time":2128000000000,"state":"active","ping":56},{"user_id":471,"name":"Superman123389","steam_id":76561198267472539,"connected_time":680000000000,"state":"active","ping":84},{"user_id":464,"name":"wubber","steam_id":76561198286627157,"connected_time":1612000000000,"state":"active","ping":85},{"user_id":444,"name":"Beantama","steam_id":76561198986811476,"connected_time":2352000000000,"state":"active","ping":61},{"user_id":421,"name":"King Cotton","steam_id":76561198292444376,"connected_time":4123000000000,"state":"active","ping":60},{"user_id":469,"name":"trinqette (she/her)","steam_id":76561198119543621,"connected_time":889000000000,"state":"active","ping":61},{"user_id":462,"name":"sex haver with mother","steam_id":76561199365128399,"connected_time":1680000000000,"state":"active","ping":77},{"user_id":467,"name":"chucknut","steam_id":76561199329553584,"connected_time":1085000000000,"state":"active","ping":124}]},{"server_id":5,"name":"Uncletopia | Frankfurt | 1 | All Maps","name_short":"frk-1","host":"frk-1.de.uncletopia.com","port":27015,"enabled":true,"region":"eu","cc":"de","latitude":50.110924,"longitude":8.682127,"reserved":0,"last_update":"0001-01-01T00:00:00Z","name_a2s":"Uncletopia | Frankfurt | 1 | All Maps","protocol":17,"map":"koth_cascade","folder":"tf","game":"Team Fortress","app_id":440,"player_count":0,"max_players":24,"Bots":0,"server_type":"Dedicated","server_os":"Linux","password":true,"vac":true,"version":"7882260","steam_id":85568392924469989,"keywords":["cp","nocrits","nodmgspread","uncletopia"],"game_id":440,"stv_port":27016,"stv_name":"Uncletopia | Frankfurt | 1 | All Maps | STV","players":null},{"server_id":110,"name":"Uncletopia | Frankfurt | 2 | All Maps","name_short":"frk-2","host":"frk-1.de.uncletopia.com","port":27025,"enabled":true,"region":"eu","cc":"de","latitude":50.110924,"longitude":8.682127,"reserved":0,"last_update":"0001-01-01T00:00:00Z","name_a2s":"Uncletopia | Frankfurt | 2 | All Maps","protocol":17,"map":"pl_frontier_final","folder":"tf","game":"Team Fortress","app_id":440,"player_count":0,"max_players":24,"Bots":0,"server_type":"Dedicated","server_os":"Linux","password":true,"vac":true,"version":"7882260","steam_id":85568392924469990,"keywords":["nocrits","nodmgspread","payload","uncletopia"],"game_id":440,"stv_port":27026,"stv_name":"Uncletopia | Frankfurt | 2 | All Maps | STV","players":null},{"server_id":308,"name":"Uncletopia | Frankfurt | 3 | All Maps","name_short":"frk-3","host":"frk-1.de.uncletopia.com","port":27035,"enabled":true,"region":"eu","cc":"de","latitude":50.110924,"longitude":8.682127,"reserved":0,"last_update":"0001-01-01T00:00:00Z","name_a2s":"Uncletopia | Frankfurt | 3 | All Maps","protocol":17,"map":"koth_viaduct","folder":"tf","game":"Team Fortress","app_id":440,"player_count":0,"max_players":24,"Bots":0,"server_type":"Dedicated","server_os":"Linux","password":true,"vac":true,"version":"7882260","steam_id":85568392924504274,"keywords":["cp","nocrits","nodmgspread","uncletopia"],"game_id":440,"stv_port":27036,"stv_name":"Uncletopia | Frankfurt | 3 | All Maps | STV","players":null},{"server_id":309,"name":"Uncletopia | Frankfurt | 4 | All Maps","name_short":"frk-4","host":"frk-1.de.uncletopia.com","port":27045,"enabled":true,"region":"eu","cc":"de","latitude":50.110924,"longitude":8.682127,"reserved":0,"last_update":"0001-01-01T00:00:00Z","name_a2s":"Uncletopia | Frankfurt | 4 | All Maps","protocol":17,"map":"pl_upward","folder":"tf","game":"Team Fortress","app_id":440,"player_count":0,"max_players":24,"Bots":0,"server_type":"Dedicated","server_os":"Linux","password":true,"vac":true,"version":"7882260","steam_id":85568392924504275,"keywords":["nocrits","nodmgspread","payload","uncletopia"],"game_id":440,"stv_port":27046,"stv_name":"Uncletopia | Frankfurt | 4 | All Maps | STV","players":null},{"server_id":310,"name":"Uncletopia | Frankfurt | 5 | All Maps","name_short":"frk-5","host":"frk-1.de.uncletopia.com","port":27055,"enabled":true,"region":"eu","cc":"de","latitude":50.110924,"longitude":8.682127,"reserved":0,"last_update":"0001-01-01T00:00:00Z","name_a2s":"Uncletopia | Frankfurt | 5 | All Maps","protocol":17,"map":"pl_frontier_final","folder":"tf","game":"Team Fortress","app_id":440,"player_count":0,"max_players":24,"Bots":0,"server_type":"Dedicated","server_os":"Linux","password":true,"vac":true,"version":"7882260","steam_id":85568392924504277,"keywords":["nocrits","nodmgspread","payload","uncletopia"],"game_id":440,"stv_port":27056,"stv_name":"Uncletopia | Frankfurt | 5 | All Maps | STV","players":null},{"server_id":311,"name":"Uncletopia | Frankfurt | 6 | All Maps","name_short":"frk-6","host":"frk-1.de.uncletopia.com","port":27065,"enabled":true,"region":"eu","cc":"de","latitude":50.110924,"longitude":8.682127,"reserved":0,"last_update":"0001-01-01T00:00:00Z","name_a2s":"Uncletopia | Frankfurt | 6 | All Maps","protocol":17,"map":"pl_barnblitz","folder":"tf","game":"Team Fortress","app_id":440,"player_count":0,"max_players":24,"Bots":0,"server_type":"Dedicated","server_os":"Linux","password":true,"vac":true,"version":"7882260","steam_id":85568392924504278,"keywords":["nocrits","nodmgspread","payload","uncletopia"],"game_id":440,"stv_port":27066,"stv_name":"Uncletopia | Frankfurt | 6 | All Maps | STV","players":null},{"server_id":23,"name":"Uncletopia | Frankfurt | 7 | Stopwatch Beta","name_short":"frk-7","host":"frk-1.de.uncletopia.com","port":27075,"enabled":true,"region":"eu","cc":"de","latitude":50.110924,"longitude":8.682127,"reserved":0,"last_update":"0001-01-01T00:00:00Z","name_a2s":"Uncletopia | Frankfurt | 7 | Stopwatch Beta","protocol":17,"map":"workshop/pl_badwater_pro_v12.ugc2142942074","folder":"tf","game":"Team Fortress","app_id":440,"player_count":0,"max_players":24,"Bots":0,"server_type":"Dedicated","server_os":"Linux","password":true,"vac":true,"version":"7882260","steam_id":85568392924742827,"keywords":["nocrits","nodmgspread","payload","uncletopia"],"game_id":440,"stv_port":27076,"stv_name":"Uncletopia | Frankfurt | 7 | Stopwatch Beta | STV","players":null},{"server_id":24,"name":"Uncletopia | Frankfurt | 8 | Community","name_short":"frk-8","host":"frk-1.de.uncletopia.com","port":27085,"enabled":true,"region":"eu","cc":"de","latitude":50.110924,"longitude":8.682127,"reserved":0,"last_update":"0001-01-01T00:00:00Z","name_a2s":"Uncletopia | Frankfurt | 8 | Community","protocol":17,"map":"workshop/koth_trenchfoot_b1a.ugc731436616","folder":"tf","game":"Team Fortress","app_id":440,"player_count":0,"max_players":24,"Bots":0,"server_type":"Dedicated","server_os":"Linux","password":true,"vac":true,"version":"7882260","steam_id":85568392924742828,"keywords":["cp","nocrits","nodmgspread","uncletopia"],"game_id":440,"stv_port":27086,"stv_name":"Uncletopia | Frankfurt | 8 | Community | STV","players":null},{"server_id":202,"name":"Uncletopia | Hong Kong | 1 | All Maps","name_short":"hgk-1","host":"hgk-1.hk.uncletopia.com","port":27015,"enabled":true,"region":"asia","cc":"hk","latitude":22.302711,"longitude":114.177216,"reserved":0,"last_update":"0001-01-01T00:00:00Z","name_a2s":"Uncletopia | Hong Kong | 1 | All Maps","protocol":17,"map":"pl_barnblitz","folder":"tf","game":"Team Fortress","app_id":440,"player_count":0,"max_players":24,"Bots":0,"server_type":"Dedicated","server_os":"Linux","password":true,"vac":true,"version":"7882260","steam_id":85568392924494504,"keywords":["nocrits","nodmgspread","payload","uncletopia"],"game_id":440,"stv_port":27016,"stv_name":"Uncletopia | Hong Kong | 1 | All Maps | STV","players":null},{"server_id":1,"name":"Uncletopia | Los Angeles | 1 | All Maps","name_short":"lax-1","host":"lax-1.us.uncletopia.com","port":27015,"enabled":true,"region":"us-west","cc":"us","latitude":33.94279,"longitude":-118.41004,"reserved":0,"last_update":"0001-01-01T00:00:00Z","name_a2s":"Uncletopia | Los Angeles | 1 | All Maps","protocol":17,"map":"pl_swiftwater_final1","folder":"tf","game":"Team Fortress","app_id":440,"player_count":24,"max_players":24,"Bots":0,"server_type":"Dedicated","server_os":"Linux","password":true,"vac":true,"version":"7882260","steam_id":85568392924469991,"keywords":["nocrits","nodmgspread","payload","uncletopia"],"game_id":440,"stv_port":27016,"stv_name":"Uncletopia | Los Angeles | 1 | All Maps | STV","players":[{"user_id":588,"name":"The_Pacific_gamer","steam_id":76561198089491446,"connected_time":27000000000,"state":"spawning","ping":79},{"user_id":520,"name":"Mom","steam_id":76561198207936000,"connected_time":5008000000000,"state":"active","ping":45},{"user_id":512,"name":"Avem","steam_id":76561198058763710,"connected_time":6196000000000,"state":"active","ping":47},{"user_id":581,"name":"The Dinkle","steam_id":76561198098155041,"connected_time":775000000000,"state":"active","ping":74},{"user_id":521,"name":"LeNoobe","steam_id":76561199092079229,"connected_time":4987000000000,"state":"active","ping":74},{"user_id":587,"name":"bonkers","steam_id":76561199206080182,"connected_time":129000000000,"state":"active","ping":116},{"user_id":575,"name":"LogicalFurret","steam_id":76561198350604657,"connected_time":1358000000000,"state":"active","ping":68},{"user_id":573,"name":"Stocking Anarchy","steam_id":76561199013422135,"connected_time":1437000000000,"state":"active","ping":112},{"user_id":589,"name":"Shamrock Shake Oct.10.2020 @8pm","steam_id":76561198833313201,"connected_time":27000000000,"state":"active","ping":62},{"user_id":590,"name":"Blows","steam_id":76561198065349185,"connected_time":22000000000,"state":"active","ping":53},{"user_id":576,"name":"Thunder","steam_id":76561198097721532,"connected_time":1058000000000,"state":"active","ping":46},{"user_id":586,"name":"Sadistic Dentist","steam_id":76561198103189993,"connected_time":148000000000,"state":"active","ping":75},{"user_id":566,"name":"Laxoloni","steam_id":76561199197045700,"connected_time":2152000000000,"state":"active","ping":72},{"user_id":570,"name":"Peter, what are you doing?","steam_id":76561198066452726,"connected_time":2076000000000,"state":"active","ping":48},{"user_id":562,"name":"‚ù§ Ashley ‚ù§","steam_id":76561198056428303,"connected_time":2699000000000,"state":"active","ping":45},{"user_id":580,"name":"Whisper!","steam_id":76561198119609795,"connected_time":831000000000,"state":"active","ping":54},{"user_id":585,"name":"Schnitz","steam_id":76561198265484253,"connected_time":198000000000,"state":"active","ping":53},{"user_id":584,"name":"Dante","steam_id":76561198999314269,"connected_time":683000000000,"state":"active","ping":109},{"user_id":525,"name":"2 for $3.50 McChickens","steam_id":76561198089908660,"connected_time":4942000000000,"state":"active","ping":47},{"user_id":565,"name":"self sufficient kitten","steam_id":76561197960592612,"connected_time":2393000000000,"state":"active","ping":80},{"user_id":591,"name":"Drilly22","steam_id":76561198068838338,"connected_time":20000000000,"state":"active","ping":103},{"user_id":555,"name":"flo rida","steam_id":76561198226169704,"connected_time":3105000000000,"state":"active","ping":58},{"user_id":571,"name":"Sidekick","steam_id":76561198392740835,"connected_time":1953000000000,"state":"active","ping":73},{"user_id":579,"name":"reverie","steam_id":76561198168158637,"connected_time":1002000000000,"state":"active","ping":74}]},{"server_id":112,"name":"Uncletopia | Los Angeles | 2 | All Maps","name_short":"lax-2","host":"lax-1.us.uncletopia.com","port":27025,"enabled":true,"region":"us-west","cc":"us","latitude":33.94279,"longitude":-118.41004,"reserved":0,"last_update":"0001-01-01T00:00:00Z","name_a2s":"Uncletopia | Los Angeles | 2 | All Maps","protocol":17,"map":"pl_snowycoast","folder":"tf","game":"Team Fortress","app_id":440,"player_count":23,"max_players":24,"Bots":0,"server_type":"Dedicated","server_os":"Linux","password":true,"vac":true,"version":"7882260","steam_id":85568392924469992,"keywords":["nocrits","nodmgspread","payload","uncletopia"],"game_id":440,"stv_port":27026,"stv_name":"Uncletopia | Los Angeles | 2 | All Maps | STV","players":[{"user_id":227,"name":"Skarp129","steam_id":76561198108679057,"connected_time":3834000000000,"state":"active","ping":46},{"user_id":251,"name":"Sol","steam_id":76561198121500201,"connected_time":2521000000000,"state":"active","ping":44},{"user_id":260,"name":"El Super Monkey Ball","steam_id":76561198135634819,"connected_time":1463000000000,"state":"active","ping":61},{"user_id":270,"name":"BigBubble42","steam_id":76561198136286123,"connected_time":764000000000,"state":"active","ping":61},{"user_id":247,"name":"Star","steam_id":76561198187728043,"connected_time":2952000000000,"state":"active","ping":45},{"user_id":252,"name":"John Wick's puppy","steam_id":76561198064662875,"connected_time":2054000000000,"state":"active","ping":48},{"user_id":253,"name":"onisock","steam_id":76561198166589402,"connected_time":1790000000000,"state":"active","ping":52},{"user_id":271,"name":"Bagoool","steam_id":76561198065368286,"connected_time":734000000000,"state":"active","ping":99},{"user_id":262,"name":"2","steam_id":76561198037332418,"connected_time":1441000000000,"state":"active","ping":65},{"user_id":256,"name":"Doombob Slayerpants","steam_id":76561198084786241,"connected_time":1618000000000,"state":"active","ping":113},{"user_id":245,"name":"Manchurian Bandit","steam_id":76561198072410042,"connected_time":3087000000000,"state":"active","ping":49},{"user_id":193,"name":"Knight","steam_id":76561198154529952,"connected_time":5707000000000,"state":"active","ping":143},{"user_id":263,"name":"ChocoCrispChunks","steam_id":76561198881926539,"connected_time":1430000000000,"state":"active","ping":54},{"user_id":272,"name":"lite","steam_id":76561198041535914,"connected_time":722000000000,"state":"active","ping":116},{"user_id":275,"name":"Universe Man","steam_id":76561197997710655,"connected_time":58000000000,"state":"active","ping":113},{"user_id":207,"name":"KonJac","steam_id":76561198027812652,"connected_time":4924000000000,"state":"active","ping":57},{"user_id":268,"name":"[ G R * T T Y ]","steam_id":76561198048986218,"connected_time":1129000000000,"state":"active","ping":56},{"user_id":206,"name":"Ferris Argyle","steam_id":76561198221760000,"connected_time":5031000000000,"state":"active","ping":119},{"user_id":265,"name":"KellyKapoor","steam_id":76561198040828123,"connected_time":1405000000000,"state":"active","ping":72},{"user_id":274,"name":"Hector Salamanca","steam_id":76561199103213955,"connected_time":430000000000,"state":"active","ping":69},{"user_id":250,"name":"DaToasterKing","steam_id":76561199074553021,"connected_time":2585000000000,"state":"active","ping":54},{"user_id":273,"name":"Taco+Taco=Burrito","steam_id":76561198063128663,"connected_time":668000000000,"state":"active","ping":42},{"user_id":225,"name":"stboncho","steam_id":76561198172275301,"connected_time":4120000000000,"state":"active","ping":62}]},{"server_id":324,"name":"Uncletopia | Los Angeles | 3 | All Maps","name_short":"lax-3","host":"lax-1.us.uncletopia.com","port":27035,"enabled":true,"region":"us-west","cc":"us","latitude":33.94279,"longitude":-118.41004,"reserved":0,"last_update":"0001-01-01T00:00:00Z","name_a2s":"Uncletopia | Los Angeles | 3 | All Maps","protocol":17,"map":"pl_snowycoast","folder":"tf","game":"Team Fortress","app_id":440,"player_count":24,"max_players":24,"Bots":0,"server_type":"Dedicated","server_os":"Linux","password":true,"vac":true,"version":"7882260","steam_id":85568392924510198,"keywords":["nocrits","nodmgspread","payload","uncletopia"],"game_id":440,"stv_port":27036,"stv_name":"Uncletopia | Los Angeles | 3 | All Maps | STV","players":[{"user_id":261,"name":"Truffles","steam_id":76561198095868800,"connected_time":55000000000,"state":"spawning","ping":78},{"user_id":229,"name":"MegaBron James","steam_id":76561198066091050,"connected_time":2077000000000,"state":"active","ping":76},{"user_id":206,"name":"Cortana's Package","steam_id":76561198011398519,"connected_time":3445000000000,"state":"active","ping":114},{"user_id":255,"name":"carpet","steam_id":76561198207881077,"connected_time":341000000000,"state":"active","ping":101},{"user_id":262,"name":"Grand","steam_id":76561198290143399,"connected_time":7000000000,"state":"spawning","ping":76},{"user_id":249,"name":"Donkski","steam_id":76561198406895347,"connected_time":819000000000,"state":"active","ping":87},{"user_id":243,"name":"Power Jake","steam_id":76561198051510260,"connected_time":1228000000000,"state":"active","ping":65},{"user_id":250,"name":"ento‚ñ≤","steam_id":76561199189903405,"connected_time":804000000000,"state":"active","ping":95},{"user_id":245,"name":"Balls‚Ñ¢","steam_id":76561198057538549,"connected_time":1130000000000,"state":"active","ping":106},{"user_id":257,"name":"Flashtasm","steam_id":76561198026635660,"connected_time":283000000000,"state":"active","ping":119},{"user_id":258,"name":"Johnson, Navin R.","steam_id":76561197961107982,"connected_time":265000000000,"state":"active","ping":99},{"user_id":252,"name":"I Have A Name","steam_id":76561198011699246,"connected_time":697000000000,"state":"active","ping":75},{"user_id":251,"name":"big car","steam_id":76561198067082350,"connected_time":771000000000,"state":"active","ping":59},{"user_id":238,"name":"bigman1","steam_id":76561198050225055,"connected_time":1533000000000,"state":"active","ping":45},{"user_id":224,"name":"Gr8butnotreally","steam_id":76561198133924450,"connected_time":2093000000000,"state":"active","ping":64},{"user_id":253,"name":"bladees saddest, realest verse","steam_id":76561198098099826,"connected_time":604000000000,"state":"active","ping":59},{"user_id":230,"name":"lol","steam_id":76561198026491738,"connected_time":2070000000000,"state":"active","ping":56},{"user_id":225,"name":"Dragoninventor (He/Him)","steam_id":76561198956224948,"connected_time":2090000000000,"state":"active","ping":96},{"user_id":205,"name":"Big boned","steam_id":76561198046056717,"connected_time":3475000000000,"state":"active","ping":43},{"user_id":239,"name":"otpyt","steam_id":76561198066623259,"connected_time":1481000000000,"state":"active","ping":73},{"user_id":259,"name":"MaDeuce","steam_id":76561198110732835,"connected_time":241000000000,"state":"active","ping":92},{"user_id":241,"name":"b0urbaki7","steam_id":76561198141342345,"connected_time":1366000000000,"state":"active","ping":91},{"user_id":232,"name":"poopfart messiah","steam_id":76561198082551861,"connected_time":2012000000000,"state":"active","ping":88},{"user_id":233,"name":"Grungus","steam_id":76561198047700230,"connected_time":1976000000000,"state":"active","ping":56}]},{"server_id":25,"name":"Uncletopia | Los Angeles | 4 | Stopwatch Beta","name_short":"lax-4","host":"lax-1.us.uncletopia.com","port":27045,"enabled":true,"region":"us-west","cc":"us","latitude":33.94279,"longitude":-118.41004,"reserved":0,"last_update":"0001-01-01T00:00:00Z","name_a2s":"Uncletopia | Los Angeles | 4 | Stopwatch Beta","protocol":17,"map":"koth_lakeside_final","folder":"tf","game":"Team Fortress","app_id":440,"player_count":24,"max_players":24,"Bots":0,"server_type":"Dedicated","server_os":"Linux","password":true,"vac":true,"version":"7882260","steam_id":85568392924510199,"keywords":["cp","nocrits","nodmgspread","uncletopia"],"game_id":440,"stv_port":27046,"stv_name":"Uncletopia | Los Angeles | 4 | Stopwatch Beta | STV","players":[{"user_id":219,"name":"Giselle","steam_id":76561198162593640,"connected_time":264000000000,"state":"active","ping":106},{"user_id":168,"name":"Klip","steam_id":76561198316254429,"connected_time":3160000000000,"state":"active","ping":85},{"user_id":220,"name":"Alf Creepypasta","steam_id":76561198841844093,"connected_time":261000000000,"state":"active","ping":43},{"user_id":145,"name":"Nekro Kitty","steam_id":76561198025054596,"connected_time":4913000000000,"state":"active","ping":96},{"user_id":182,"name":"Overmeme","steam_id":76561199455124144,"connected_time":2324000000000,"state":"active","ping":86},{"user_id":221,"name":"Soothsayer","steam_id":76561198051750641,"connected_time":235000000000,"state":"active","ping":62},{"user_id":222,"name":"nivekuil","steam_id":76561198043892129,"connected_time":190000000000,"state":"active","ping":68},{"user_id":218,"name":"Booger","steam_id":76561198022340366,"connected_time":377000000000,"state":"active","ping":115},{"user_id":208,"name":"Polly Geist","steam_id":76561198271964253,"connected_time":1044000000000,"state":"active","ping":90},{"user_id":191,"name":"Blankrq","steam_id":76561198261030763,"connected_time":1895000000000,"state":"active","ping":60},{"user_id":180,"name":"womenobtainer39","steam_id":76561199236568388,"connected_time":2370000000000,"state":"active","ping":68},{"user_id":209,"name":"BallBreaker","steam_id":76561198237263498,"connected_time":1042000000000,"state":"active","ping":106},{"user_id":143,"name":"Billy McWilly","steam_id":76561198002882318,"connected_time":5001000000000,"state":"active","ping":76},{"user_id":192,"name":"Sir_Cheddar","steam_id":76561198132354554,"connected_time":1880000000000,"state":"active","ping":59},{"user_id":185,"name":"Aequalis747","steam_id":76561199456589841,"connected_time":2309000000000,"state":"active","ping":71},{"user_id":204,"name":"keysopendoors","steam_id":76561198175858151,"connected_time":1398000000000,"state":"active","ping":75},{"user_id":223,"name":"Homura Simp","steam_id":76561198246080762,"connected_time":185000000000,"state":"active","ping":56},{"user_id":213,"name":"LWebb","steam_id":76561199162936929,"connected_time":811000000000,"state":"active","ping":90},{"user_id":214,"name":"Rocky","steam_id":76561198048158539,"connected_time":782000000000,"state":"active","ping":90},{"user_id":224,"name":"WebyWabo","steam_id":76561198849951385,"connected_time":168000000000,"state":"active","ping":73},{"user_id":225,"name":"Master17Gaming","steam_id":76561198145986516,"connected_time":158000000000,"state":"active","ping":118},{"user_id":216,"name":"mizurush","steam_id":76561198039595304,"connected_time":686000000000,"state":"active","ping":113},{"user_id":226,"name":"DaÃµksuki","steam_id":76561198084127751,"connected_time":132000000000,"state":"active","ping":54},{"user_id":211,"name":"not having fun","steam_id":76561198107219183,"connected_time":987000000000,"state":"active","ping":70}]},{"server_id":11,"name":"Uncletopia | London | 1 | All Maps","name_short":"lon-1","host":"lon-1.uk.uncletopia.com","port":27015,"enabled":true,"region":"eu","cc":"gb","latitude":51.509865,"longitude":-0.118092,"reserved":0,"last_update":"0001-01-01T00:00:00Z","name_a2s":"Uncletopia | London | 1 | All Maps","protocol":17,"map":"koth_nucleus","folder":"tf","game":"Team Fortress","app_id":440,"player_count":0,"max_players":24,"Bots":0,"server_type":"Dedicated","server_os":"Linux","password":true,"vac":true,"version":"7882260","steam_id":85568392924367362,"keywords":["cp","nocrits","nodmgspread","uncletopia"],"game_id":440,"stv_port":27016,"stv_name":"Uncletopia | London | 1 | All Maps | STV","players":null},{"server_id":114,"name":"Uncletopia | London | 2 | All Maps","name_short":"lon-2","host":"lon-1.uk.uncletopia.com","port":27025,"enabled":true,"region":"eu","cc":"gb","latitude":51.509865,"longitude":-0.118092,"reserved":0,"last_update":"0001-01-01T00:00:00Z","name_a2s":"Uncletopia | London | 2 | All Maps","protocol":17,"map":"koth_cascade","folder":"tf","game":"Team Fortress","app_id":440,"player_count":0,"max_players":24,"Bots":0,"server_type":"Dedicated","server_os":"Linux","password":true,"vac":true,"version":"7882260","steam_id":85568392924470941,"keywords":["cp","nocrits","nodmgspread","uncletopia"],"game_id":440,"stv_port":27026,"stv_name":"Uncletopia | London | 2 | All Maps | STV","players":null},{"server_id":320,"name":"Uncletopia | London | 3 | All Maps","name_short":"lon-3","host":"lon-1.uk.uncletopia.com","port":27035,"enabled":true,"region":"eu","cc":"gb","latitude":51.509865,"longitude":-0.118092,"reserved":0,"last_update":"0001-01-01T00:00:00Z","name_a2s":"Uncletopia | London | 3 | All Maps","protocol":17,"map":"cp_mountainlab","folder":"tf","game":"Team Fortress","app_id":440,"player_count":0,"max_players":24,"Bots":0,"server_type":"Dedicated","server_os":"Linux","password":true,"vac":true,"version":"7882260","steam_id":85568392924510192,"keywords":["cp","nocrits","nodmgspread","uncletopia"],"game_id":440,"stv_port":27036,"stv_name":"Uncletopia | London | 3 | All Maps | STV","players":null},{"server_id":321,"name":"Uncletopia | London | 4 | All Maps","name_short":"lon-4","host":"lon-1.uk.uncletopia.com","port":27045,"enabled":true,"region":"eu","cc":"gb","latitude":51.509865,"longitude":-0.118092,"reserved":0,"last_update":"0001-01-01T00:00:00Z","name_a2s":"Uncletopia | London | 4 | All Maps","protocol":17,"map":"pl_badwater","folder":"tf","game":"Team Fortress","app_id":440,"player_count":24,"max_players":24,"Bots":0,"server_type":"Dedicated","server_os":"Linux","password":true,"vac":true,"version":"7882260","steam_id":85568392924510193,"keywords":["nocrits","nodmgspread","payload","uncletopia"],"game_id":440,"stv_port":27046,"stv_name":"Uncletopia | London | 4 | All Maps | STV","players":[{"user_id":499,"name":"Bambi","steam_id":76561198166972711,"connected_time":3264000000000,"state":"active","ping":53},{"user_id":522,"name":"‚úß Ghosty ‚úß","steam_id":76561198312022168,"connected_time":1242000000000,"state":"active","ping":51},{"user_id":494,"name":"Controller Gaming","steam_id":76561198134805479,"connected_time":4476000000000,"state":"active","ping":59},{"user_id":512,"name":"wide appreciator","steam_id":76561198083286511,"connected_time":2258000000000,"state":"active","ping":31},{"user_id":484,"name":"Pootis.gov.uk","steam_id":76561197970114051,"connected_time":5123000000000,"state":"active","ping":41},{"user_id":515,"name":"Munshy","steam_id":76561198042537812,"connected_time":2032000000000,"state":"active","ping":71},{"user_id":462,"name":"shits in urinals","steam_id":76561199480942903,"connected_time":6796000000000,"state":"active","ping":75},{"user_id":501,"name":"CumbustiblePunda","steam_id":76561197974274677,"connected_time":3074000000000,"state":"active","ping":59},{"user_id":519,"name":"buried","steam_id":76561198969003413,"connected_time":1522000000000,"state":"active","ping":60},{"user_id":513,"name":"DarkSoulBG24","steam_id":76561198273701478,"connected_time":2246000000000,"state":"active","ping":86},{"user_id":524,"name":"quantumexistenc3","steam_id":76561199379634118,"connected_time":246000000000,"state":"active","ping":62},{"user_id":477,"name":"‚ôõperry the platypus‚ôõ","steam_id":76561199379159771,"connected_time":5975000000000,"state":"active","ping":135},{"user_id":504,"name":"zoinks!","steam_id":76561198068645362,"connected_time":2936000000000,"state":"active","ping":38},{"user_id":517,"name":"rag","steam_id":76561198083505031,"connected_time":1709000000000,"state":"active","ping":42},{"user_id":506,"name":"Fart Goblin","steam_id":76561198072147068,"connected_time":2866000000000,"state":"active","ping":76},{"user_id":469,"name":"Melford","steam_id":76561198319650677,"connected_time":6470000000000,"state":"active","ping":150},{"user_id":520,"name":"pootis sentry","steam_id":76561199225363633,"connected_time":1454000000000,"state":"active","ping":56},{"user_id":521,"name":"Dragon","steam_id":76561198163255365,"connected_time":1333000000000,"state":"active","ping":119},{"user_id":508,"name":"originalakalil","steam_id":76561199481172481,"connected_time":2712000000000,"state":"active","ping":157},{"user_id":525,"name":"shalashashka","steam_id":76561198113661388,"connected_time":137000000000,"state":"active","ping":140},{"user_id":476,"name":"i n n o","steam_id":76561199230689289,"connected_time":6191000000000,"state":"active","ping":76},{"user_id":510,"name":"jonbob","steam_id":76561197963506620,"connected_time":2639000000000,"state":"active","ping":55},{"user_id":495,"name":"–¢—Ä—É–ø –í–æ–ª–æ–¥—è","steam_id":76561198035718457,"connected_time":4092000000000,"state":"active","ping":78},{"user_id":523,"name":"Matsui","steam_id":76561198057463587,"connected_time":800000000000,"state":"active","ping":148}]},{"server_id":21,"name":"Uncletopia | London | 5 | All Maps","name_short":"lon-5","host":"lon-1.uk.uncletopia.com","port":27055,"enabled":true,"region":"eu","cc":"gb","latitude":51.509865,"longitude":-0.118092,"reserved":0,"last_update":"0001-01-01T00:00:00Z","name_a2s":"Uncletopia | London | 5 | All Maps","protocol":17,"map":"koth_lakeside_final","folder":"tf","game":"Team Fortress","app_id":440,"player_count":0,"max_players":24,"Bots":0,"server_type":"Dedicated","server_os":"Linux","password":true,"vac":true,"version":"7882260","steam_id":85568392924742829,"keywords":["cp","nocrits","nodmgspread","uncletopia"],"game_id":440,"stv_port":27056,"stv_name":"Uncletopia | London | 5 | All Maps | STV","players":null},{"server_id":22,"name":"Uncletopia | London | 6 | All Maps","name_short":"lon-6","host":"lon-1.uk.uncletopia.com","port":27065,"enabled":true,"region":"eu","cc":"gb","latitude":51.509865,"longitude":-0.118092,"reserved":0,"last_update":"0001-01-01T00:00:00Z","name_a2s":"Uncletopia | London | 6 | All Maps","protocol":17,"map":"koth_harvest_final","folder":"tf","game":"Team Fortress","app_id":440,"player_count":0,"max_players":24,"Bots":0,"server_type":"Dedicated","server_os":"Linux","password":true,"vac":true,"version":"7882260","steam_id":85568392924742830,"keywords":["cp","nocrits","nodmgspread","uncletopia"],"game_id":440,"stv_port":27066,"stv_name":"Uncletopia | London | 6 | All Maps | STV","players":null},{"server_id":40,"name":"Uncletopia | London | 7 | No Payload","name_short":"lon-7","host":"lon-1.uk.uncletopia.com","port":27075,"enabled":true,"region":"eu","cc":"gb","latitude":51.509865,"longitude":-0.118092,"reserved":0,"last_update":"0001-01-01T00:00:00Z","name_a2s":"Uncletopia | London | 7 | No Payload","protocol":17,"map":"koth_viaduct","folder":"tf","game":"Team Fortress","app_id":440,"player_count":0,"max_players":24,"Bots":0,"server_type":"Dedicated","server_os":"Linux","password":true,"vac":true,"version":"7882260","steam_id":85568392924964314,"keywords":["cp","nocrits","nodmgspread","uncletopia"],"game_id":440,"stv_port":27076,"stv_name":"Uncletopia | London | 7 | No Payload | STV","players":null},{"server_id":41,"name":"Uncletopia | London | 8 | Community","name_short":"lon-8","host":"lon-1.uk.uncletopia.com","port":27085,"enabled":true,"region":"eu","cc":"gb","latitude":51.509865,"longitude":-0.118092,"reserved":0,"last_update":"0001-01-01T00:00:00Z","name_a2s":"Uncletopia | London | 8 | Community","protocol":17,"map":"workshop/koth_kemptown_rc1.ugc767410655","folder":"tf","game":"Team Fortress","app_id":440,"player_count":0,"max_players":24,"Bots":0,"server_type":"Dedicated","server_os":"Linux","password":true,"vac":true,"version":"7882260","steam_id":85568392924964315,"keywords":["cp","nocrits","nodmgspread","uncletopia"],"game_id":440,"stv_port":27086,"stv_name":"Uncletopia | London | 8 | Community | STV","players":null},{"server_id":300,"name":"Uncletopia | Montr√©al | 1 | All Maps","name_short":"mtl-1","host":"mtl-1.ca.uncletopia.com","port":27015,"enabled":true,"region":"us-east","cc":"ca","latitude":45.50889,"longitude":-73.56167,"reserved":0,"last_update":"0001-01-01T00:00:00Z","name_a2s":"Uncletopia | Montr√©al | 1 | All Maps","protocol":17,"map":"cp_snakewater_final1","folder":"tf","game":"Team Fortress","app_id":440,"player_count":0,"max_players":24,"Bots":0,"server_type":"Dedicated","server_os":"Linux","password":true,"vac":true,"version":"7882260","steam_id":85568392924500087,"keywords":["cp","nocrits","nodmgspread","uncletopia"],"game_id":440,"stv_port":27016,"stv_name":"Uncletopia | Montr√©al | 1 | All Maps | STV","players":null},{"server_id":301,"name":"Uncletopia | Montr√©al | 2 | All Maps","name_short":"mtl-2","host":"mtl-1.ca.uncletopia.com","port":27025,"enabled":true,"region":"us-east","cc":"ca","latitude":45.50889,"longitude":-73.56167,"reserved":0,"last_update":"0001-01-01T00:00:00Z","name_a2s":"Uncletopia | Montr√©al | 2 | All Maps","protocol":17,"map":"ctf_2fort","folder":"tf","game":"Team Fortress","app_id":440,"player_count":1,"max_players":24,"Bots":0,"server_type":"Dedicated","server_os":"Linux","password":true,"vac":true,"version":"7882260","steam_id":85568392924500088,"keywords":["ctf","nocrits","nodmgspread","uncletopia"],"game_id":440,"stv_port":27026,"stv_name":"Uncletopia | Montr√©al | 2 | All Maps | STV","players":[{"user_id":261,"name":"Challenger Charles","steam_id":76561198005576553,"connected_time":84000000000,"state":"active","ping":57}]},{"server_id":302,"name":"Uncletopia | Montr√©al | 3 | All Maps","name_short":"mtl-3","host":"mtl-1.ca.uncletopia.com","port":27035,"enabled":true,"region":"us-east","cc":"ca","latitude":45.50889,"longitude":-73.56167,"reserved":0,"last_update":"0001-01-01T00:00:00Z","name_a2s":"Uncletopia | Montr√©al | 3 | All Maps","protocol":17,"map":"cp_sunshine","folder":"tf","game":"Team Fortress","app_id":440,"player_count":24,"max_players":24,"Bots":0,"server_type":"Dedicated","server_os":"Linux","password":true,"vac":true,"version":"7882260","steam_id":85568392924500089,"keywords":["cp","nocrits","nodmgspread","uncletopia"],"game_id":440,"stv_port":27036,"stv_name":"Uncletopia | Montr√©al | 3 | All Maps | STV","players":[{"user_id":49,"name":"neon bug","steam_id":76561198969875709,"connected_time":1062000000000,"state":"active","ping":157},{"user_id":15,"name":"Rukir","steam_id":76561198275743642,"connected_time":4340000000000,"state":"active","ping":86},{"user_id":59,"name":"leumas","steam_id":76561198240408540,"connected_time":414000000000,"state":"active","ping":48},{"user_id":17,"name":"REPL1C4TE","steam_id":76561198799184324,"connected_time":4302000000000,"state":"active","ping":112},{"user_id":47,"name":"Heavy Main","steam_id":76561198333746778,"connected_time":1467000000000,"state":"active","ping":117},{"user_id":60,"name":"vorboyvo zoo","steam_id":76561198152690088,"connected_time":392000000000,"state":"active","ping":51},{"user_id":61,"name":"[S]Mr. X [No Monitor]","steam_id":76561197963746035,"connected_time":346000000000,"state":"active","ping":132},{"user_id":21,"name":"RokkitFrog","steam_id":76561198046465850,"connected_time":3951000000000,"state":"active","ping":97},{"user_id":51,"name":"ARGON Soulidity","steam_id":76561198429603550,"connected_time":696000000000,"state":"active","ping":74},{"user_id":52,"name":"JustLooking","steam_id":76561198207877387,"connected_time":632000000000,"state":"active","ping":60},{"user_id":27,"name":"beefmachine","steam_id":76561198001196512,"connected_time":3156000000000,"state":"active","ping":95},{"user_id":62,"name":"fartabsorber","steam_id":76561198127211709,"connected_time":336000000000,"state":"active","ping":77},{"user_id":67,"name":"Pizza","steam_id":76561198118748364,"connected_time":86000000000,"state":"active","ping":75},{"user_id":41,"name":"Dorothy Haze","steam_id":76561198113750223,"connected_time":1766000000000,"state":"active","ping":72},{"user_id":66,"name":"kree","steam_id":76561197979960008,"connected_time":185000000000,"state":"active","ping":39},{"user_id":43,"name":"Mr_Stevie16","steam_id":76561198414959954,"connected_time":1741000000000,"state":"active","ping":134},{"user_id":45,"name":"GojoPreto","steam_id":76561198979348045,"connected_time":1655000000000,"state":"active","ping":97},{"user_id":54,"name":"Spoon Salesman","steam_id":76561199281974488,"connected_time":519000000000,"state":"active","ping":129},{"user_id":63,"name":"Golden","steam_id":76561198408792544,"connected_time":304000000000,"state":"active","ping":129},{"user_id":56,"name":"SKYRRUNNER","steam_id":76561199275648928,"connected_time":515000000000,"state":"active","ping":91},{"user_id":57,"name":"TheCoolStinko","steam_id":76561198208975096,"connected_time":443000000000,"state":"active","ping":86},{"user_id":64,"name":"Winston","steam_id":76561198050204475,"connected_time":292000000000,"state":"active","ping":75},{"user_id":65,"name":"Marshall","steam_id":76561198042570322,"connected_time":287000000000,"state":"active","ping":90}]},{"server_id":303,"name":"Uncletopia | Montr√©al | 4 | No Payload","name_short":"mtl-4","host":"mtl-1.ca.uncletopia.com","port":27045,"enabled":true,"region":"us-east","cc":"ca","latitude":45.50889,"longitude":-73.56167,"reserved":0,"last_update":"0001-01-01T00:00:00Z","name_a2s":"Uncletopia | Montr√©al | 4 | No Payload","protocol":17,"map":"cp_altitude","folder":"tf","game":"Team Fortress","app_id":440,"player_count":0,"max_players":24,"Bots":0,"server_type":"Dedicated","server_os":"Linux","password":true,"vac":true,"version":"7882260","steam_id":85568392924500090,"keywords":["cp","nocrits","nodmgspread","uncletopia"],"game_id":440,"stv_port":27046,"stv_name":"Uncletopia | Montr√©al | 4 | No Payload | STV","players":null},{"server_id":13,"name":"Uncletopia | New York City | 1 | All Maps","name_short":"nyc-1","host":"nyc-1.us.uncletopia.com","port":27015,"enabled":true,"region":"us-east","cc":"us","latitude":40.73061,"longitude":-73.93524,"reserved":0,"last_update":"0001-01-01T00:00:00Z","name_a2s":"Uncletopia | New York City | 1 | All Maps","protocol":17,"map":"pl_upward","folder":"tf","game":"Team Fortress","app_id":440,"player_count":24,"max_players":24,"Bots":0,"server_type":"Dedicated","server_os":"Linux","password":true,"vac":true,"version":"7882260","steam_id":85568392924469993,"keywords":["nocrits","nodmgspread","payload","uncletopia"],"game_id":440,"stv_port":27016,"stv_name":"Uncletopia | New York City | 1 | All Maps | STV","players":[{"user_id":391,"name":"agentdaffy007","steam_id":76561198000283251,"connected_time":1613000000000,"state":"active","ping":57},{"user_id":374,"name":"Samitch","steam_id":76561198038247982,"connected_time":2918000000000,"state":"active","ping":74},{"user_id":353,"name":"‚ô°Alyx‚ô°","steam_id":76561198024303978,"connected_time":5205000000000,"state":"active","ping":50},{"user_id":389,"name":"Glass Joe","steam_id":76561198317365741,"connected_time":2356000000000,"state":"active","ping":66},{"user_id":308,"name":"Wique","steam_id":76561198071217597,"connected_time":7745000000000,"state":"active","ping":73},{"user_id":392,"name":"capybara","steam_id":76561198182288455,"connected_time":1551000000000,"state":"active","ping":85},{"user_id":390,"name":"a table","steam_id":76561198158461279,"connected_time":1629000000000,"state":"active","ping":70},{"user_id":393,"name":"SneakySneak","steam_id":76561198064847921,"connected_time":1546000000000,"state":"active","ping":70},{"user_id":380,"name":"Goat","steam_id":76561198068447650,"connected_time":2867000000000,"state":"active","ping":99},{"user_id":395,"name":"Resident Catboy","steam_id":76561198386404089,"connected_time":1511000000000,"state":"active","ping":71},{"user_id":405,"name":"notpaul","steam_id":76561199122494395,"connected_time":252000000000,"state":"active","ping":65},{"user_id":406,"name":"Caterpillar Friend","steam_id":76561198044298346,"connected_time":247000000000,"state":"active","ping":97},{"user_id":364,"name":"Battery Acid Slurper","steam_id":76561198439793697,"connected_time":3901000000000,"state":"active","ping":84},{"user_id":351,"name":"stink","steam_id":76561198099318923,"connected_time":5415000000000,"state":"active","ping":68},{"user_id":400,"name":"Centipede on a Game Boy","steam_id":76561199016285746,"connected_time":1065000000000,"state":"active","ping":98},{"user_id":403,"name":"Lore","steam_id":76561198098407538,"connected_time":764000000000,"state":"active","ping":69},{"user_id":407,"name":"heritage","steam_id":76561198108685037,"connected_time":203000000000,"state":"active","ping":92},{"user_id":397,"name":"Sully","steam_id":76561198055418425,"connected_time":1387000000000,"state":"active","ping":77},{"user_id":355,"name":"Crystron","steam_id":76561198880437428,"connected_time":4877000000000,"state":"active","ping":90},{"user_id":398,"name":"codswallopslurp","steam_id":76561197972601902,"connected_time":1254000000000,"state":"active","ping":106},{"user_id":408,"name":"2L84U","steam_id":76561198079176017,"connected_time":153000000000,"state":"active","ping":99},{"user_id":409,"name":"NewerCoke","steam_id":76561198042911847,"connected_time":138000000000,"state":"active","ping":74},{"user_id":375,"name":"PenguinJack","steam_id":76561198120680312,"connected_time":2918000000000,"state":"active","ping":72},{"user_id":386,"name":"Mage","steam_id":76561198285026879,"connected_time":2783000000000,"state":"active","ping":70}]},{"server_id":14,"name":"Uncletopia | New York City | 2 | All Maps","name_short":"nyc-2","host":"nyc-1.us.uncletopia.com","port":27025,"enabled":true,"region":"us-east","cc":"us","latitude":40.73061,"longitude":-73.93524,"reserved":0,"last_update":"0001-01-01T00:00:00Z","name_a2s":"Uncletopia | New York City | 2 | All Maps","protocol":17,"map":"pl_frontier_final","folder":"tf","game":"Team Fortress","app_id":440,"player_count":22,"max_players":24,"Bots":0,"server_type":"Dedicated","server_os":"Linux","password":true,"vac":true,"version":"7882260","steam_id":85568392924469994,"keywords":["nocrits","nodmgspread","payload","uncletopia"],"game_id":440,"stv_port":27026,"stv_name":"Uncletopia | New York City | 2 | All Maps | STV","players":[{"user_id":262,"name":"The Poop Dealer","steam_id":76561198141198352,"connected_time":936000000000,"state":"active","ping":61},{"user_id":279,"name":"Vic Vinegar","steam_id":76561198106704927,"connected_time":222000000000,"state":"active","ping":85},{"user_id":276,"name":"Duds","steam_id":76561199231052134,"connected_time":327000000000,"state":"active","ping":125},{"user_id":200,"name":"SnareString","steam_id":76561199082119457,"connected_time":5491000000000,"state":"active","ping":124},{"user_id":266,"name":"VexT","steam_id":76561199471734115,"connected_time":697000000000,"state":"active","ping":99},{"user_id":280,"name":"Peepster","steam_id":76561198297854733,"connected_time":126000000000,"state":"active","ping":84},{"user_id":254,"name":"ShofaX","steam_id":76561198199768014,"connected_time":1376000000000,"state":"active","ping":54},{"user_id":281,"name":"veryscaryreaper","steam_id":76561198380018244,"connected_time":118000000000,"state":"active","ping":98},{"user_id":282,"name":"snip","steam_id":76561198439138800,"connected_time":95000000000,"state":"active","ping":56},{"user_id":255,"name":"Person","steam_id":76561198093244204,"connected_time":1376000000000,"state":"active","ping":60},{"user_id":267,"name":"Gr4yy„ÉÉ","steam_id":76561198126936736,"connected_time":682000000000,"state":"active","ping":70},{"user_id":283,"name":"Fuzion of Flames","steam_id":76561198954533678,"connected_time":73000000000,"state":"active","ping":127},{"user_id":284,"name":"king dedede","steam_id":76561198965562679,"connected_time":20000000000,"state":"spawning","ping":147},{"user_id":278,"name":"Chechens Spotted","steam_id":76561199028910893,"connected_time":301000000000,"state":"active","ping":71},{"user_id":159,"name":"riSygneD","steam_id":76561198331618687,"connected_time":7962000000000,"state":"active","ping":105},{"user_id":261,"name":"Rivi","steam_id":76561198086635699,"connected_time":1058000000000,"state":"active","ping":80},{"user_id":230,"name":"Mythical Lag","steam_id":76561198347031281,"connected_time":4127000000000,"state":"active","ping":82},{"user_id":285,"name":"Jester","steam_id":76561199203898660,"connected_time":13000000000,"state":"spawning","ping":188},{"user_id":256,"name":"Smooth - Santana ft. Rob Thomas","steam_id":76561198145283389,"connected_time":1364000000000,"state":"active","ping":54},{"user_id":275,"name":"Bee","steam_id":76561198074681324,"connected_time":452000000000,"state":"active","ping":44},{"user_id":273,"name":"BakerTheDavid","steam_id":76561198801177078,"connected_time":559000000000,"state":"active","ping":99},{"user_id":198,"name":"b4rry","steam_id":76561198365887154,"connected_time":6094000000000,"state":"active","ping":60}]},{"server_id":15,"name":"Uncletopia | New York City | 3 | Stopwatch Beta","name_short":"nyc-3","host":"nyc-1.us.uncletopia.com","port":27035,"enabled":true,"region":"us-east","cc":"us","latitude":40.73061,"longitude":-73.93524,"reserved":0,"last_update":"0001-01-01T00:00:00Z","name_a2s":"Uncletopia | New York City | 3 | Stopwatch Beta","protocol":17,"map":"workshop/cp_reckoner_rc6.ugc674719999","folder":"tf","game":"Team Fortress","app_id":440,"player_count":0,"max_players":24,"Bots":0,"server_type":"Dedicated","server_os":"Linux","password":true,"vac":true,"version":"7882260","steam_id":85568392924742820,"keywords":["cp","nocrits","nodmgspread","uncletopia"],"game_id":440,"stv_port":27036,"stv_name":"Uncletopia | New York City | 3 | Stopwatch Beta | STV","players":null},{"server_id":16,"name":"Uncletopia | New York City | 4 | Community","name_short":"nyc-4","host":"nyc-1.us.uncletopia.com","port":27045,"enabled":true,"region":"us-east","cc":"us","latitude":40.73061,"longitude":-73.93524,"reserved":0,"last_update":"0001-01-01T00:00:00Z","name_a2s":"Uncletopia | New York City | 4 | Community","protocol":17,"map":"workshop/pl_boundary_final1.ugc456799153","folder":"tf","game":"Team Fortress","app_id":440,"player_count":10,"max_players":24,"Bots":0,"server_type":"Dedicated","server_os":"Linux","password":true,"vac":true,"version":"7882260","steam_id":85568392924742821,"keywords":["nocrits","nodmgspread","payload","uncletopia"],"game_id":440,"stv_port":27046,"stv_name":"Uncletopia | New York City | 4 | Community | STV","players":[{"user_id":256,"name":"Neko9000","steam_id":76561198054278268,"connected_time":720000000000,"state":"active","ping":87},{"user_id":255,"name":"BopGnollEbon","steam_id":76561199013359318,"connected_time":807000000000,"state":"active","ping":78},{"user_id":265,"name":"Peppino Spaghetti","steam_id":76561198090353077,"connected_time":317000000000,"state":"active","ping":97},{"user_id":216,"name":"GuyGoom","steam_id":76561198254522178,"connected_time":4287000000000,"state":"active","ping":85},{"user_id":259,"name":"Corpus Christi","steam_id":76561198417999443,"connected_time":462000000000,"state":"active","ping":177},{"user_id":266,"name":"Ukes","steam_id":76561198055508999,"connected_time":203000000000,"state":"active","ping":66},{"user_id":267,"name":"Over","steam_id":76561198180917349,"connected_time":169000000000,"state":"active","ping":127},{"user_id":268,"name":"nocham","steam_id":76561198097674181,"connected_time":156000000000,"state":"active","ping":45},{"user_id":231,"name":"Goofball","steam_id":76561198061211537,"connected_time":3620000000000,"state":"active","ping":74},{"user_id":244,"name":"Luke","steam_id":76561198090671431,"connected_time":2241000000000,"state":"active","ping":86}]},{"server_id":142,"name":"Uncletopia | S√£o Paulo | 1 | All Maps","name_short":"sao-1","host":"sao-1.br.uncletopia.com","port":27015,"enabled":true,"region":"sa","cc":"br","latitude":-23.533773,"longitude":-46.62529,"reserved":0,"last_update":"0001-01-01T00:00:00Z","name_a2s":"Uncletopia | S√£o Paulo | 1 | All Maps","protocol":17,"map":"koth_viaduct","folder":"tf","game":"Team Fortress","app_id":440,"player_count":0,"max_players":24,"Bots":0,"server_type":"Dedicated","server_os":"Linux","password":true,"vac":true,"version":"7882260","steam_id":85568392924469996,"keywords":["cp","nocrits","nodmgspread","uncletopia"],"game_id":440,"stv_port":27016,"stv_name":"Uncletopia | S√£o Paulo | 1 | All Maps | STV","players":null},{"server_id":143,"name":"Uncletopia | S√£o Paulo | 2 | All Maps","name_short":"sao-2","host":"sao-2.br.uncletopia.com","port":27015,"enabled":true,"region":"sa","cc":"br","latitude":-23.533773,"longitude":-46.62529,"reserved":0,"last_update":"0001-01-01T00:00:00Z","name_a2s":"Uncletopia | S√£o Paulo | 2 | All Maps","protocol":17,"map":"koth_highpass","folder":"tf","game":"Team Fortress","app_id":440,"player_count":2,"max_players":24,"Bots":0,"server_type":"Dedicated","server_os":"Linux","password":true,"vac":true,"version":"7882260","steam_id":85568392924485349,"keywords":["cp","nocrits","nodmgspread","uncletopia"],"game_id":440,"stv_port":27016,"stv_name":"Uncletopia | S√£o Paulo | 2 | All Maps | STV","players":[{"user_id":253,"name":"Ambassadress Wolfina","steam_id":76561198067075413,"connected_time":4030000000000,"state":"active","ping":180},{"user_id":195,"name":"Kakaroto 286","steam_id":76561199006539437,"connected_time":8366000000000,"state":"active","ping":50}]},{"server_id":7,"name":"Uncletopia | Seattle | 1 | All Maps","name_short":"sea-1","host":"sea-1.us.uncletopia.com","port":27015,"enabled":true,"region":"us-west","cc":"us","latitude":47.608013,"longitude":-122.33517,"reserved":0,"last_update":"0001-01-01T00:00:00Z","name_a2s":"Uncletopia | Seattle | 1 | All Maps","protocol":17,"map":"pl_borneo","folder":"tf","game":"Team Fortress","app_id":440,"player_count":24,"max_players":24,"Bots":0,"server_type":"Dedicated","server_os":"Linux","password":true,"vac":true,"version":"7882260","steam_id":85568392924469997,"keywords":["nocrits","nodmgspread","payload","uncletopia"],"game_id":440,"stv_port":27016,"stv_name":"Uncletopia | Seattle | 1 | All Maps | STV","players":[{"user_id":587,"name":"SvicidalBug","steam_id":76561198221390504,"connected_time":949000000000,"state":"active","ping":66},{"user_id":573,"name":"Keamy","steam_id":76561199471434875,"connected_time":2768000000000,"state":"active","ping":42},{"user_id":564,"name":"Luca","steam_id":76561198125087140,"connected_time":3302000000000,"state":"active","ping":47},{"user_id":586,"name":"toes","steam_id":76561198221151676,"connected_time":1063000000000,"state":"active","ping":55},{"user_id":575,"name":"oil","steam_id":76561198099980149,"connected_time":2059000000000,"state":"active","ping":85},{"user_id":581,"name":"Yack Skag","steam_id":76561198068251493,"connected_time":1478000000000,"state":"active","ping":69},{"user_id":551,"name":"[DEEP] Danmar33","steam_id":76561198056453091,"connected_time":4769000000000,"state":"active","ping":93},{"user_id":578,"name":"tweakseason","steam_id":76561198169755734,"connected_time":1553000000000,"state":"active","ping":62},{"user_id":577,"name":"Ducks","steam_id":76561198130038345,"connected_time":1832000000000,"state":"active","ping":69},{"user_id":585,"name":"Tungsten","steam_id":76561198312854342,"connected_time":1410000000000,"state":"active","ping":68},{"user_id":497,"name":"Strikerbolt","steam_id":76561199095622897,"connected_time":10207000000000,"state":"active","ping":78},{"user_id":569,"name":"jayeskae","steam_id":76561198144220801,"connected_time":3117000000000,"state":"active","ping":52},{"user_id":529,"name":"HiFivr","steam_id":76561198285190162,"connected_time":6559000000000,"state":"active","ping":66},{"user_id":566,"name":"Induce Salt","steam_id":76561198116645978,"connected_time":3292000000000,"state":"active","ping":99},{"user_id":514,"name":"PopcornBucketGames","steam_id":76561199089562026,"connected_time":8255000000000,"state":"active","ping":54},{"user_id":571,"name":"gorlab","steam_id":76561198025089694,"connected_time":2890000000000,"state":"active","ping":62},{"user_id":574,"name":"roryisonamobilehotspot","steam_id":76561198065825165,"connected_time":2074000000000,"state":"active","ping":112},{"user_id":579,"name":"Hassium","steam_id":76561198162541373,"connected_time":1501000000000,"state":"active","ping":59},{"user_id":561,"name":"An Old Lady","steam_id":76561198047480318,"connected_time":4003000000000,"state":"active","ping":82},{"user_id":563,"name":"evilOlive","steam_id":76561198106222025,"connected_time":3668000000000,"state":"active","ping":84},{"user_id":589,"name":"Haydob13","steam_id":76561198110378191,"connected_time":826000000000,"state":"active","ping":53},{"user_id":546,"name":"Username","steam_id":76561199033122306,"connected_time":5058000000000,"state":"active","ping":168},{"user_id":539,"name":"[DEEP] Roz257","steam_id":76561198842844532,"connected_time":5572000000000,"state":"active","ping":137},{"user_id":580,"name":"Peppy","steam_id":76561198866629645,"connected_time":1501000000000,"state":"active","ping":61}]},{"server_id":119,"name":"Uncletopia | Seattle | 2 | All Maps","name_short":"sea-2","host":"sea-1.us.uncletopia.com","port":27025,"enabled":true,"region":"us-west","cc":"us","latitude":47.608013,"longitude":-122.33517,"reserved":0,"last_update":"0001-01-01T00:00:00Z","name_a2s":"Uncletopia | Seattle | 2 | All Maps","protocol":17,"map":"pl_badwater","folder":"tf","game":"Team Fortress","app_id":440,"player_count":24,"max_players":24,"Bots":0,"server_type":"Dedicated","server_os":"Linux","password":true,"vac":true,"version":"7882260","steam_id":85568392924469998,"keywords":["nocrits","nodmgspread","payload","uncletopia"],"game_id":440,"stv_port":27026,"stv_name":"Uncletopia | Seattle | 2 | All Maps | STV","players":[{"user_id":523,"name":"wmjledger","steam_id":76561198443046861,"connected_time":1192000000000,"state":"active","ping":57},{"user_id":525,"name":"Blitzy","steam_id":76561198149472890,"connected_time":971000000000,"state":"active","ping":63},{"user_id":538,"name":"Dimple #TF2Center","steam_id":76561198980324190,"connected_time":767000000000,"state":"active","ping":46},{"user_id":524,"name":"posting fail","steam_id":76561198066619792,"connected_time":996000000000,"state":"active","ping":75},{"user_id":550,"name":"NoodleGoose01","steam_id":76561199081634658,"connected_time":41000000000,"state":"active","ping":73},{"user_id":498,"name":"Jacobzeba01","steam_id":76561198131808718,"connected_time":3107000000000,"state":"active","ping":63},{"user_id":531,"name":"Yuri Blade'n","steam_id":76561198051300322,"connected_time":858000000000,"state":"active","ping":67},{"user_id":549,"name":"Robert E.T.","steam_id":76561197986439371,"connected_time":69000000000,"state":"active","ping":44},{"user_id":500,"name":"MantisToboggan","steam_id":76561197969447887,"connected_time":3038000000000,"state":"active","ping":62},{"user_id":546,"name":"Tibetan Pop Star","steam_id":76561198844903984,"connected_time":290000000000,"state":"active","ping":76},{"user_id":541,"name":"The King of Piss World","steam_id":76561198082806956,"connected_time":428000000000,"state":"active","ping":118},{"user_id":520,"name":"Lorne Malvo","steam_id":76561198067611037,"connected_time":1294000000000,"state":"active","ping":97},{"user_id":528,"name":"stoopid a$$ tree DickHead","steam_id":76561198396572923,"connected_time":938000000000,"state":"active","ping":82},{"user_id":547,"name":"BlazedBunny","steam_id":76561198243610560,"connected_time":180000000000,"state":"active","ping":70},{"user_id":529,"name":"Frank","steam_id":76561198126681511,"connected_time":895000000000,"state":"active","ping":73},{"user_id":551,"name":"OmniMoto","steam_id":76561198091298557,"connected_time":32000000000,"state":"active","ping":80},{"user_id":517,"name":"Dongus","steam_id":76561197979056451,"connected_time":1728000000000,"state":"active","ping":52},{"user_id":542,"name":"keithykeithers","steam_id":76561197995552615,"connected_time":378000000000,"state":"active","ping":47},{"user_id":530,"name":"level 7 firemancer","steam_id":76561198209571677,"connected_time":885000000000,"state":"active","ping":119},{"user_id":533,"name":"J O S H¬≥¬≤","steam_id":76561198122603779,"connected_time":853000000000,"state":"active","ping":80},{"user_id":552,"name":"Michael Fettuccine","steam_id":76561198056953903,"connected_time":20000000000,"state":"active","ping":66},{"user_id":554,"name":"Worst Scenario","steam_id":76561199052130229,"connected_time":5000000000,"state":"spawning","ping":103},{"user_id":518,"name":"The Combine's Dumbest Soldier","steam_id":76561198272109903,"connected_time":1694000000000,"state":"active","ping":71},{"user_id":493,"name":"dougrocks421","steam_id":76561198165063918,"connected_time":4115000000000,"state":"active","ping":43}]},{"server_id":406,"name":"Uncletopia | Seattle | 3 | Stopwatch Beta","name_short":"sea-3","host":"sea-1.us.uncletopia.com","port":27035,"enabled":true,"region":"us-west","cc":"us","latitude":47.608013,"longitude":-122.33517,"reserved":0,"last_update":"0001-01-01T00:00:00Z","name_a2s":"Uncletopia | Seattle | 3 | Stopwatch Beta","protocol":17,"map":"cp_process_final","folder":"tf","game":"Team Fortress","app_id":440,"player_count":4,"max_players":24,"Bots":0,"server_type":"Dedicated","server_os":"Linux","password":true,"vac":true,"version":"7882260","steam_id":85568392924515217,"keywords":["cp","nocrits","nodmgspread","uncletopia"],"game_id":440,"stv_port":27036,"stv_name":"Uncletopia | Seattle | 3 | Stopwatch Beta | STV","players":[{"user_id":38,"name":"xX_ClownHunter_Xx","steam_id":76561198081250078,"connected_time":583000000000,"state":"active","ping":49},{"user_id":39,"name":"Clown Boy","steam_id":76561198068279245,"connected_time":522000000000,"state":"active","ping":53},{"user_id":40,"name":"autumnal.messenger","steam_id":76561199345816635,"connected_time":481000000000,"state":"active","ping":47},{"user_id":42,"name":"johnman gooberguy","steam_id":76561199014859764,"connected_time":365000000000,"state":"active","ping":90}]},{"server_id":17,"name":"Uncletopia | San Francisco | 1 | All Maps","name_short":"sfo-1","host":"sfo-1.us.uncletopia.com","port":27015,"enabled":true,"region":"us-west","cc":"us","latitude":37.77397,"longitude":-122.4313,"reserved":0,"last_update":"0001-01-01T00:00:00Z","name_a2s":"Uncletopia | San Francisco | 1 | All Maps","protocol":17,"map":"cp_process_final","folder":"tf","game":"Team Fortress","app_id":440,"player_count":0,"max_players":24,"Bots":0,"server_type":"Dedicated","server_os":"Linux","password":true,"vac":true,"version":"7757534","steam_id":85568392924469999,"keywords":["cp","nocrits","nodmgspread","uncletopia"],"game_id":440,"stv_port":27016,"stv_name":"Uncletopia | San Francisco | 1 | All Maps | STV","players":null},{"server_id":18,"name":"Uncletopia | San Francisco | 2 | All Maps","name_short":"sfo-2","host":"sfo-1.us.uncletopia.com","port":27025,"enabled":true,"region":"us-west","cc":"us","latitude":37.77397,"longitude":-122.4313,"reserved":0,"last_update":"0001-01-01T00:00:00Z","name_a2s":"Uncletopia | San Francisco | 2 | All Maps","protocol":17,"map":"koth_highpass","folder":"tf","game":"Team Fortress","app_id":440,"player_count":0,"max_players":24,"Bots":0,"server_type":"Dedicated","server_os":"Linux","password":true,"vac":true,"version":"7757534","steam_id":85568392924470000,"keywords":["cp","nocrits","nodmgspread","uncletopia"],"game_id":440,"stv_port":27026,"stv_name":"Uncletopia | San Francisco | 2 | All Maps | STV","players":null},{"server_id":19,"name":"Uncletopia | San Francisco | 3 | Stopwatch Beta","name_short":"sfo-3","host":"sfo-1.us.uncletopia.com","port":27035,"enabled":true,"region":"us-west","cc":"us","latitude":37.77397,"longitude":-122.4313,"reserved":0,"last_update":"0001-01-01T00:00:00Z","name_a2s":"Uncletopia | San Francisco | 3 | Stopwatch Beta","protocol":17,"map":"koth_lakeside_final","folder":"tf","game":"Team Fortress","app_id":440,"player_count":0,"max_players":24,"Bots":0,"server_type":"Dedicated","server_os":"Linux","password":true,"vac":true,"version":"7757534","steam_id":85568392924742824,"keywords":["cp","nocrits","nodmgspread","uncletopia"],"game_id":440,"stv_port":27036,"stv_name":"Uncletopia | San Francisco | 3 | Stopwatch Beta | STV","players":null},{"server_id":20,"name":"Uncletopia | San Francisco | 4 | Community","name_short":"sfo-4","host":"sfo-1.us.uncletopia.com","port":27045,"enabled":true,"region":"us-west","cc":"us","latitude":37.77397,"longitude":-122.4313,"reserved":0,"last_update":"0001-01-01T00:00:00Z","name_a2s":"Uncletopia | San Francisco | 4 | Community","protocol":17,"map":"cp_altitude","folder":"tf","game":"Team Fortress","app_id":440,"player_count":0,"max_players":24,"Bots":0,"server_type":"Dedicated","server_os":"Linux","password":true,"vac":true,"version":"7757534","steam_id":85568392924742826,"keywords":["cp","nocrits","nodmgspread","uncletopia"],"game_id":440,"stv_port":27046,"stv_name":"Uncletopia | San Francisco | 4 | Community | STV","players":null},{"server_id":141,"name":"Uncletopia | Sydney | 1 | All Maps","name_short":"syd-1","host":"syd-1.au.uncletopia.com","port":27015,"enabled":true,"region":"au","cc":"au","latitude":-33.865143,"longitude":151.2099,"reserved":0,"last_update":"0001-01-01T00:00:00Z","name_a2s":"Uncletopia | Sydney | 1 | All Maps","protocol":17,"map":"pl_swiftwater_final1","folder":"tf","game":"Team Fortress","app_id":440,"player_count":24,"max_players":24,"Bots":0,"server_type":"Dedicated","server_os":"Linux","password":true,"vac":true,"version":"7882260","steam_id":85568392924470001,"keywords":["nocrits","nodmgspread","payload","uncletopia"],"game_id":440,"stv_port":27016,"stv_name":"Uncletopia | Sydney | 1 | All Maps | STV","players":[{"user_id":62,"name":"the presence","steam_id":76561198025099660,"connected_time":3600000000000,"state":"active","ping":37},{"user_id":63,"name":"absolute schmeater","steam_id":76561198048064049,"connected_time":3591000000000,"state":"active","ping":84},{"user_id":64,"name":"garnish master","steam_id":76561197996551827,"connected_time":3584000000000,"state":"active","ping":47},{"user_id":65,"name":"saudi ambassador messi","steam_id":76561198031293430,"connected_time":2752000000000,"state":"active","ping":89},{"user_id":66,"name":"Blink L780","steam_id":76561198029493215,"connected_time":2679000000000,"state":"active","ping":103},{"user_id":98,"name":"Nawor","steam_id":76561198087419337,"connected_time":386000000000,"state":"active","ping":52},{"user_id":70,"name":"E","steam_id":76561199173781370,"connected_time":2342000000000,"state":"active","ping":161},{"user_id":82,"name":"Yeat","steam_id":76561198202555552,"connected_time":1483000000000,"state":"active","ping":44},{"user_id":101,"name":"TheNeutrality","steam_id":76561199017954062,"connected_time":160000000000,"state":"active","ping":177},{"user_id":92,"name":"Rashid Of The Dank Memes","steam_id":76561198281398078,"connected_time":798000000000,"state":"active","ping":60},{"user_id":74,"name":"Sooka Phatwan","steam_id":76561198053796020,"connected_time":2088000000000,"state":"active","ping":42},{"user_id":86,"name":"sav","steam_id":76561198058760041,"connected_time":1178000000000,"state":"active","ping":64},{"user_id":76,"name":"miyamoto is daddy","steam_id":76561199483818230,"connected_time":1908000000000,"state":"active","ping":71},{"user_id":87,"name":"Pann","steam_id":76561198242391410,"connected_time":1144000000000,"state":"active","ping":60},{"user_id":78,"name":"the triangle of trade","steam_id":76561198061532381,"connected_time":1841000000000,"state":"active","ping":57},{"user_id":79,"name":"Branko","steam_id":76561199262196710,"connected_time":1784000000000,"state":"active","ping":39},{"user_id":99,"name":"RAINY BIG BRAINY","steam_id":76561198009848533,"connected_time":342000000000,"state":"active","ping":54},{"user_id":102,"name":"Zort","steam_id":76561198056414289,"connected_time":35000000000,"state":"active","ping":63},{"user_id":85,"name":"Mr Doctor","steam_id":76561198081415999,"connected_time":1317000000000,"state":"active","ping":69},{"user_id":84,"name":"Shadow Puppeteer","steam_id":76561198151121997,"connected_time":1473000000000,"state":"active","ping":71},{"user_id":90,"name":"uwotm8","steam_id":76561198152215695,"connected_time":971000000000,"state":"active","ping":75},{"user_id":95,"name":"jim :)","steam_id":76561198127508905,"connected_time":633000000000,"state":"active","ping":36},{"user_id":103,"name":"Motormouth","steam_id":76561197980851839,"connected_time":15000000000,"state":"spawning","ping":73},{"user_id":97,"name":"tism","steam_id":76561197993246009,"connected_time":604000000000,"state":"active","ping":70}]},{"server_id":123,"name":"Uncletopia | Sydney | 2 | All Maps","name_short":"syd-2","host":"syd-1.au.uncletopia.com","port":27025,"enabled":true,"region":"au","cc":"au","latitude":-33.865143,"longitude":151.2099,"reserved":0,"last_update":"0001-01-01T00:00:00Z","name_a2s":"Uncletopia | Sydney | 2 | All Maps","protocol":17,"map":"koth_viaduct","folder":"tf","game":"Team Fortress","app_id":440,"player_count":0,"max_players":24,"Bots":0,"server_type":"Dedicated","server_os":"Linux","password":true,"vac":true,"version":"7882260","steam_id":85568392924470002,"keywords":["cp","nocrits","nodmgspread","uncletopia"],"game_id":440,"stv_port":27026,"stv_name":"Uncletopia | Sydney | 2 | All Maps | STV","players":null},{"server_id":395,"name":"Uncletopia | Sydney | 3 | All Maps","name_short":"syd-3","host":"syd-1.au.uncletopia.com","port":27035,"enabled":true,"region":"au","cc":"au","latitude":-33.865143,"longitude":151.2099,"reserved":0,"last_update":"0001-01-01T00:00:00Z","name_a2s":"Uncletopia | Sydney | 3 | All Maps","protocol":17,"map":"pl_badwater","folder":"tf","game":"Team Fortress","app_id":440,"player_count":0,"max_players":24,"Bots":0,"server_type":"Dedicated","server_os":"Linux","password":true,"vac":true,"version":"7882260","steam_id":85568392925194467,"keywords":["nocrits","nodmgspread","payload","uncletopia"],"game_id":440,"stv_port":27036,"stv_name":"Uncletopia | Sydney | 3 | All Maps | STV","players":null},{"server_id":396,"name":"Uncletopia | Sydney | 4 | All Maps","name_short":"syd-4","host":"syd-1.au.uncletopia.com","port":27045,"enabled":true,"region":"au","cc":"au","latitude":-33.865143,"longitude":151.2099,"reserved":0,"last_update":"0001-01-01T00:00:00Z","name_a2s":"Uncletopia | Sydney | 4 | All Maps","protocol":17,"map":"cp_dustbowl","folder":"tf","game":"Team Fortress","app_id":440,"player_count":0,"max_players":24,"Bots":0,"server_type":"Dedicated","server_os":"Linux","password":true,"vac":true,"version":"7882260","steam_id":85568392925397958,"keywords":["cp","nocrits","nodmgspread","uncletopia"],"game_id":440,"stv_port":27046,"stv_name":"Uncletopia | Sydney | 4 | All Maps | STV","players":null},{"server_id":58,"name":"Uncletopia | Sydney | 5 | Stopwatch Beta","name_short":"syd-5","host":"syd-1.au.uncletopia.com","port":27055,"enabled":true,"region":"au","cc":"au","latitude":-33.865143,"longitude":151.2099,"reserved":0,"last_update":"0001-01-01T00:00:00Z","name_a2s":"Uncletopia | Sydney | 5 | Stopwatch Beta","protocol":17,"map":"cp_snakewater_final1","folder":"tf","game":"Team Fortress","app_id":440,"player_count":0,"max_players":24,"Bots":0,"server_type":"Dedicated","server_os":"Linux","password":true,"vac":true,"version":"7882260","steam_id":85568392925397959,"keywords":["cp","nocrits","nodmgspread","uncletopia"],"game_id":440,"stv_port":27056,"stv_name":"Uncletopia | Sydney | 5 | Stopwatch Beta | STV","players":null},{"server_id":59,"name":"Uncletopia | Sydney | 6 | Community","name_short":"syd-6","host":"syd-1.au.uncletopia.com","port":27065,"enabled":true,"region":"au","cc":"au","latitude":-33.865143,"longitude":151.2099,"reserved":0,"last_update":"0001-01-01T00:00:00Z","name_a2s":"Uncletopia | Sydney | 6 | Community","protocol":17,"map":"workshop/koth_ramjam_rc1.ugc459778887","folder":"tf","game":"Team Fortress","app_id":440,"player_count":0,"max_players":24,"Bots":0,"server_type":"Dedicated","server_os":"Linux","password":true,"vac":true,"version":"7882260","steam_id":85568392925397960,"keywords":["cp","nocrits","nodmgspread","uncletopia"],"game_id":440,"stv_port":27066,"stv_name":"Uncletopia | Sydney | 6 | Community | STV","players":null},{"server_id":49,"name":"Uncletopia | Warsaw | 1 | All Maps","name_short":"waw-1","host":"waw-1.pl.uncletopia.com","port":27015,"enabled":true,"region":"eu","cc":"pl","latitude":52.2297,"longitude":21.017532,"reserved":0,"last_update":"0001-01-01T00:00:00Z","name_a2s":"","protocol":0,"map":"","folder":"","game":"","app_id":0,"player_count":0,"max_players":0,"Bots":0,"server_type":"","server_os":"","password":false,"vac":false,"version":"","steam_id":0,"keywords":null,"game_id":0,"stv_port":0,"stv_name":"","players":null},{"server_id":50,"name":"Uncletopia | Warsaw | 2 | All Maps","name_short":"waw-2","host":"waw-1.pl.uncletopia.com","port":27025,"enabled":true,"region":"eu","cc":"pl","latitude":52.2297,"longitude":21.017532,"reserved":0,"last_update":"0001-01-01T00:00:00Z","name_a2s":"Uncletopia | Warsaw | 2 | All Maps","protocol":17,"map":"cp_snakewater_final1","folder":"tf","game":"Team Fortress","app_id":440,"player_count":0,"max_players":24,"Bots":0,"server_type":"Dedicated","server_os":"Linux","password":true,"vac":true,"version":"7882260","steam_id":85568392925397851,"keywords":["cp","nocrits","nodmgspread","uncletopia"],"game_id":440,"stv_port":27026,"stv_name":"Uncletopia | Warsaw | 2 | All Maps | STV","players":null},{"server_id":51,"name":"Uncletopia | Warsaw | 3 | All Maps","name_short":"waw-3","host":"waw-1.pl.uncletopia.com","port":27035,"enabled":true,"region":"eu","cc":"pl","latitude":52.2297,"longitude":21.017532,"reserved":0,"last_update":"0001-01-01T00:00:00Z","name_a2s":"Uncletopia | Warsaw | 3 | All Maps","protocol":17,"map":"koth_lakeside_final","folder":"tf","game":"Team Fortress","app_id":440,"player_count":0,"max_players":24,"Bots":0,"server_type":"Dedicated","server_os":"Linux","password":true,"vac":true,"version":"7882260","steam_id":85568392925397852,"keywords":["cp","nocrits","nodmgspread","uncletopia"],"game_id":440,"stv_port":27036,"stv_name":"Uncletopia | Warsaw | 3 | All Maps | STV","players":null},{"server_id":52,"name":"Uncletopia | Warsaw | 4 | All Maps","name_short":"waw-4","host":"waw-1.pl.uncletopia.com","port":27045,"enabled":true,"region":"eu","cc":"pl","latitude":52.2297,"longitude":21.017532,"reserved":0,"last_update":"0001-01-01T00:00:00Z","name_a2s":"Uncletopia | Warsaw | 4 | All Maps","protocol":17,"map":"koth_highpass","folder":"tf","game":"Team Fortress","app_id":440,"player_count":0,"max_players":24,"Bots":0,"server_type":"Dedicated","server_os":"Linux","password":true,"vac":true,"version":"7882260","steam_id":85568392925397853,"keywords":["cp","nocrits","nodmgspread","uncletopia"],"game_id":440,"stv_port":27046,"stv_name":"Uncletopia | Warsaw | 4 | All Maps | STV","players":null},{"server_id":53,"name":"Uncletopia | Warsaw | 5 | Stopwatch Beta","name_short":"waw-5","host":"waw-1.pl.uncletopia.com","port":27055,"enabled":true,"region":"eu","cc":"pl","latitude":52.2297,"longitude":21.017532,"reserved":0,"last_update":"0001-01-01T00:00:00Z","name_a2s":"Uncletopia | Warsaw | 5 | Stopwatch Beta","protocol":17,"map":"cp_mountainlab","folder":"tf","game":"Team Fortress","app_id":440,"player_count":0,"max_players":24,"Bots":0,"server_type":"Dedicated","server_os":"Linux","password":true,"vac":true,"version":"7882260","steam_id":85568392925397854,"keywords":["cp","nocrits","nodmgspread","uncletopia"],"game_id":440,"stv_port":27056,"stv_name":"Uncletopia | Warsaw | 5 | Stopwatch Beta | STV","players":null},{"server_id":54,"name":"Uncletopia | Warsaw | 6 | Community","name_short":"waw-6","host":"waw-1.pl.uncletopia.com","port":27065,"enabled":true,"region":"eu","cc":"pl","latitude":52.2297,"longitude":21.017532,"reserved":0,"last_update":"0001-01-01T00:00:00Z","name_a2s":"Uncletopia | Warsaw | 6 | Community","protocol":17,"map":"workshop/cp_villa_b19.ugc2113052569","folder":"tf","game":"Team Fortress","app_id":440,"player_count":0,"max_players":24,"Bots":0,"server_type":"Dedicated","server_os":"Linux","password":true,"vac":true,"version":"7882260","steam_id":85568392925397856,"keywords":["cp","nocrits","nodmgspread","uncletopia"],"game_id":440,"stv_port":27066,"stv_name":"Uncletopia | Warsaw | 6 | Community | STV","players":null}]}