{"status":true,"message":"","result":[{"server_id":9,"name":"Uncletopia | Atlanta | 1 | All Maps","name_short":"atl-1","host":"atl-1.us.uncletopia.com","port":27015,"enabled":true,"region":"us-east","cc":"us","latitude":33.753746,"longitude":-84.38633,"reserved":0,"last_update":"0001-01-01T00:00:00Z","name_a2s":"Uncletopia | Atlanta | 1 | All Maps","protocol":17,"map":"koth_cascade","folder":"tf","game":"Team Fortress","app_id":440,"player_count":0,"max_players":24,"Bots":0,"server_type":"Dedicated","server_os":"Linux","password":true,"vac":true,"version":"7757534","steam_id":85568392924469982,"keywords":["cp","nocrits","nodmgspread","uncletopia"],"game_id":440,"stv_port":27016,"stv_name":"Uncletopia | Atlanta | 1 | All Maps | STV","players":null},{"server_id":104,"name":"Uncletopia | Atlanta | 2 | All Maps","name_short":"atl-2","host":"atl-1.us.uncletopia.com","port":27025,"enabled":true,"region":"us-east","cc":"us","latitude":33.753746,"longitude":-84.38633,"reserved":0,"last_update":"0001-01-01T00:00:00Z","name_a2s":"Uncletopia | Atlanta | 2 | All Maps","protocol":17,"map":"pl_swiftwater_final1","folder":"tf","game":"Team Fortress","app_id":440,"player_count":0,"max_players":24,"Bots":0,"server_type":"Dedicated","server_os":"Linux","password":true,"vac":true,"version":"7757534","steam_id":85568392924469983,"keywords":["nocrits","nodmgspread","payload","uncletopia"],"game_id":440,"stv_port":27026,"stv_name":"Uncletopia | Atlanta | 2 | All Maps | STV","players":null},{"server_id":400,"name":"Uncletopia | Atlanta | 3 | Community","name_short":"atl-3","host":"atl-1.us.uncletopia.com","port":27035,"enabled":true,"region":"us-east","cc":"us","latitude":33.753746,"longitude":-84.38633,"reserved":0,"last_update":"0001-01-01T00:00:00Z","name_a2s":"Uncletopia | Atlanta | 3 | Community","protocol":17,"map":"cp_snakewater_final1","folder":"tf","game":"Team Fortress","app_id":440,"player_count":0,"max_players":24,"Bots":0,"server_type":"Dedicated","server_os":"Linux","password":true,"vac":true,"version":"7757534","steam_id":85568392924515187,"keywords":["cp","nocrits","nodmgspread","uncletopia"],"game_id":440,"stv_port":27036,"stv_name":"Uncletopia | Atlanta | 3 | Community | STV","players":null},{"server_id":401,"name":"Uncletopia | Atlanta | 4 | No Payload","name_short":"atl-4","host":"atl-1.us.uncletopia.com","port":27045,"enabled":true,"region":"us-east","cc":"us","latitude":33.753746,"longitude":-84.38633,"reserved":0,"last_update":"0001-01-01T00:00:00Z","name_a2s":"","protocol":0,"map":"","folder":"","game":"","app_id":0,"player_count":0,"max_players":0,"Bots":0,"server_type":"","server_os":"","password":false,"vac":false,"version":"","steam_id":0,"keywords":null,"game_id":0,"stv_port":0,"stv_name":"","players":null},{"server_id":2,"name":"Uncletopia | Chicago | 1 | All Maps","name_short":"chi-1","host":"chi-1.us.uncletopia.com","port":27015,"enabled":true,"region":"us-central","cc":"us","latitude":41.881832,"longitude":-87.62318,"reserved":0,"last_update":"0001-01-01T00:00:00Z","name_a2s":"Uncletopia | Chicago | 1 | All Maps","protocol":17,"map":"koth_badlands","folder":"tf","game":"Team Fortress","app_id":440,"player_count":24,"max_players":24,"Bots":0,"server_type":"Dedicated","server_os":"Linux","password":true,"vac":true,"version":"7757534","steam_id":85568392924469984,"keywords":["cp","nocrits","nodmgspread","uncletopia"],"game_id":440,"stv_port":27016,"stv_name":"Uncletopia | Chicago | 1 | All Maps | STV","players":[{"user_id":187,"name":"shake","steam_id":76561199064204750,"connected_time":602000000000,"state":"active","ping":82},{"user_id":184,"name":"marguerite","steam_id":76561198170873495,"connected_time":685000000000,"state":"active","ping":49},{"user_id":197,"name":"GREG","steam_id":76561198073021168,"connected_time":142000000000,"state":"active","ping":65},{"user_id":57,"name":"Cephus Clementine","steam_id":76561198051616613,"connected_time":6343000000000,"state":"active","ping":80},{"user_id":116,"name":"TATARA","steam_id":76561199098759517,"connected_time":2129000000000,"state":"active","ping":135},{"user_id":40,"name":"DualiTea","steam_id":76561198081733870,"connected_time":7600000000000,"state":"active","ping":50},{"user_id":170,"name":"Your neighborhood Himbo","steam_id":76561198431446386,"connected_time":984000000000,"state":"active","ping":70},{"user_id":188,"name":"carrot cake","steam_id":76561198055174915,"connected_time":497000000000,"state":"active","ping":68},{"user_id":162,"name":"JoJo","steam_id":76561198063687796,"connected_time":1187000000000,"state":"active","ping":96},{"user_id":137,"name":"mkl","steam_id":76561197986401685,"connected_time":1700000000000,"state":"active","ping":75},{"user_id":190,"name":"TeeTree","steam_id":76561198862307874,"connected_time":440000000000,"state":"active","ping":60},{"user_id":193,"name":"Dr. Enforcicle (real)","steam_id":76561198964471859,"connected_time":289000000000,"state":"active","ping":75},{"user_id":189,"name":"≈ç","steam_id":76561198328109873,"connected_time":489000000000,"state":"active","ping":72},{"user_id":108,"name":"PaP√° Soulzune„ÉÖ","steam_id":76561198139615052,"connected_time":2631000000000,"state":"active","ping":102},{"user_id":196,"name":"stungoperation","steam_id":76561199162409918,"connected_time":155000000000,"state":"active","ping":101},{"user_id":192,"name":"HOTA","steam_id":76561199002778841,"connected_time":335000000000,"state":"active","ping":79},{"user_id":194,"name":"Cooksandcleans‚Ñ¢","steam_id":76561198049696128,"connected_time":275000000000,"state":"active","ping":70},{"user_id":94,"name":"TeamWorkOPVolvoleaseNerf","steam_id":76561198135906446,"connected_time":3292000000000,"state":"active","ping":125},{"user_id":195,"name":"Eevee2334","steam_id":76561199095479336,"connected_time":274000000000,"state":"active","ping":77},{"user_id":122,"name":"grahamcrunchycracker","steam_id":76561199037569525,"connected_time":1982000000000,"state":"active","ping":76},{"user_id":104,"name":"FT","steam_id":76561198010452388,"connected_time":2830000000000,"state":"active","ping":72},{"user_id":148,"name":"Chief Diggery K.","steam_id":76561198066629137,"connected_time":1531000000000,"state":"active","ping":102},{"user_id":106,"name":"‚ãÜ‚ú∞ùíÆùìÉùí∂ùíæùìÅùìà","steam_id":76561198102045762,"connected_time":2768000000000,"state":"active","ping":74},{"user_id":161,"name":"Doctor Skeltal","steam_id":76561198120450240,"connected_time":1269000000000,"state":"active","ping":75}]},{"server_id":106,"name":"Uncletopia | Chicago | 2 | All Maps","name_short":"chi-2","host":"chi-1.us.uncletopia.com","port":27025,"enabled":true,"region":"us-central","cc":"us","latitude":41.881832,"longitude":-87.62318,"reserved":0,"last_update":"0001-01-01T00:00:00Z","name_a2s":"Uncletopia | Chicago | 2 | All Maps","protocol":17,"map":"cp_mountainlab","folder":"tf","game":"Team Fortress","app_id":440,"player_count":0,"max_players":24,"Bots":0,"server_type":"Dedicated","server_os":"Linux","password":true,"vac":true,"version":"7757534","steam_id":85568392924469985,"keywords":["cp","nocrits","nodmgspread","uncletopia"],"game_id":440,"stv_port":27026,"stv_name":"Uncletopia | Chicago | 2 | All Maps | STV","players":null},{"server_id":402,"name":"Uncletopia | Chicago | 3 | All Maps","name_short":"chi-3","host":"chi-1.us.uncletopia.com","port":27035,"enabled":true,"region":"us-central","cc":"us","latitude":41.881832,"longitude":-87.62318,"reserved":0,"last_update":"0001-01-01T00:00:00Z","name_a2s":"Uncletopia | Chicago | 3 | All Maps","protocol":17,"map":"koth_cascade","folder":"tf","game":"Team Fortress","app_id":440,"player_count":0,"max_players":24,"Bots":0,"server_type":"Dedicated","server_os":"Linux","password":true,"vac":true,"version":"7757534","steam_id":85568392924515191,"keywords":["cp","nocrits","nodmgspread","uncletopia"],"game_id":440,"stv_port":27036,"stv_name":"Uncletopia | Chicago | 3 | All Maps | STV","players":null},{"server_id":403,"name":"Uncletopia | Chicago | 4 | All Maps","name_short":"chi-4","host":"chi-1.us.uncletopia.com","port":27045,"enabled":true,"region":"us-central","cc":"us","latitude":41.881832,"longitude":-87.62318,"reserved":0,"last_update":"0001-01-01T00:00:00Z","name_a2s":"Uncletopia | Chicago | 4 | All Maps","protocol":17,"map":"koth_lakeside_final","folder":"tf","game":"Team Fortress","app_id":440,"player_count":5,"max_players":24,"Bots":0,"server_type":"Dedicated","server_os":"Linux","password":true,"vac":true,"version":"7757534","steam_id":85568392924515193,"keywords":["cp","nocrits","nodmgspread","uncletopia"],"game_id":440,"stv_port":27046,"stv_name":"Uncletopia | Chicago | 4 | All Maps | STV","players":[{"user_id":3,"name":"SoundslikeJustice","steam_id":76561198963640645,"connected_time":1734000000000,"state":"active","ping":75},{"user_id":13,"name":"Sputnuts","steam_id":76561198236857310,"connected_time":0,"state":"spawning","ping":33},{"user_id":6,"name":"Solaris","steam_id":76561198073166053,"connected_time":1209000000000,"state":"active","ping":68},{"user_id":7,"name":"ECCO","steam_id":76561198002821513,"connected_time":1203000000000,"state":"active","ping":56},{"user_id":9,"name":"Gh0stKnight","steam_id":76561198426370628,"connected_time":907000000000,"state":"active","ping":74}]},{"server_id":36,"name":"Uncletopia | Chicago | 5 | All Maps","name_short":"chi-5","host":"chi-2.us.uncletopia.com","port":27015,"enabled":true,"region":"us-central","cc":"us","latitude":41.881832,"longitude":-87.62318,"reserved":0,"last_update":"0001-01-01T00:00:00Z","name_a2s":"Uncletopia | Chicago | 5 | All Maps","protocol":17,"map":"koth_cascade","folder":"tf","game":"Team Fortress","app_id":440,"player_count":0,"max_players":24,"Bots":0,"server_type":"Dedicated","server_os":"Linux","password":true,"vac":true,"version":"7757534","steam_id":85568392924866362,"keywords":["cp","nocrits","nodmgspread","uncletopia"],"game_id":440,"stv_port":27016,"stv_name":"Uncletopia | Chicago | 5 | All Maps | STV","players":null},{"server_id":37,"name":"Uncletopia | Chicago | 6 | All Maps","name_short":"chi-6","host":"chi-2.us.uncletopia.com","port":27025,"enabled":true,"region":"us-central","cc":"us","latitude":41.881832,"longitude":-87.62318,"reserved":0,"last_update":"0001-01-01T00:00:00Z","name_a2s":"Uncletopia | Chicago | 6 | All Maps","protocol":17,"map":"pl_frontier_final","folder":"tf","game":"Team Fortress","app_id":440,"player_count":0,"max_players":24,"Bots":0,"server_type":"Dedicated","server_os":"Linux","password":true,"vac":true,"version":"7757534","steam_id":85568392924866363,"keywords":["nocrits","nodmgspread","payload","uncletopia"],"game_id":440,"stv_port":27026,"stv_name":"Uncletopia | Chicago | 6 | All Maps | STV","players":null},{"server_id":38,"name":"Uncletopia | Chicago | 7 | Stopwatch Beta","name_short":"chi-7","host":"chi-2.us.uncletopia.com","port":27035,"enabled":true,"region":"us-central","cc":"us","latitude":41.881832,"longitude":-87.62318,"reserved":0,"last_update":"0001-01-01T00:00:00Z","name_a2s":"Uncletopia | Chicago | 7 | Stopwatch Beta","protocol":17,"map":"pl_barnblitz","folder":"tf","game":"Team Fortress","app_id":440,"player_count":0,"max_players":24,"Bots":0,"server_type":"Dedicated","server_os":"Linux","password":true,"vac":true,"version":"7757534","steam_id":85568392924866364,"keywords":["nocrits","nodmgspread","payload","uncletopia"],"game_id":440,"stv_port":27036,"stv_name":"Uncletopia | Chicago | 7 | Stopwatch Beta | STV","players":null},{"server_id":39,"name":"Uncletopia | Chicago | 8 | Community","name_short":"chi-8","host":"chi-2.us.uncletopia.com","port":27045,"enabled":true,"region":"us-central","cc":"us","latitude":41.881832,"longitude":-87.62318,"reserved":0,"last_update":"0001-01-01T00:00:00Z","name_a2s":"Uncletopia | Chicago | 8 | Community","protocol":17,"map":"koth_cascade","folder":"tf","game":"Team Fortress","app_id":440,"player_count":0,"max_players":24,"Bots":0,"server_type":"Dedicated","server_os":"Linux","password":true,"vac":true,"version":"7757534","steam_id":85568392924866365,"keywords":["cp","nocrits","nodmgspread","uncletopia"],"game_id":440,"stv_port":27046,"stv_name":"Uncletopia | Chicago | 8 | Community | STV","players":null},{"server_id":8,"name":"Uncletopia | Dallas | 1 | All Maps","name_short":"dal-1","host":"dal-1.us.uncletopia.com","port":27015,"enabled":true,"region":"us-central","cc":"us","latitude":32.779167,"longitude":-96.80889,"reserved":0,"last_update":"0001-01-01T00:00:00Z","name_a2s":"Uncletopia | Dallas | 1 | All Maps","protocol":17,"map":"koth_cascade","folder":"tf","game":"Team Fortress","app_id":440,"player_count":0,"max_players":24,"Bots":0,"server_type":"Dedicated","server_os":"Linux","password":true,"vac":true,"version":"7757534","steam_id":85568392924469986,"keywords":["cp","nocrits","nodmgspread","uncletopia"],"game_id":440,"stv_port":27016,"stv_name":"Uncletopia | Dallas | 1 | All Maps | STV","players":null},{"server_id":108,"name":"Uncletopia | Dallas | 2 | All Maps","name_short":"dal-2","host":"dal-1.us.uncletopia.com","port":27025,"enabled":true,"region":"us-central","cc":"us","latitude":32.779167,"longitude":-96.80889,"reserved":0,"last_update":"0001-01-01T00:00:00Z","name_a2s":"Uncletopia | Dallas | 2 | All Maps","protocol":17,"map":"pl_upward","folder":"tf","game":"Team Fortress","app_id":440,"player_count":1,"max_players":24,"Bots":0,"server_type":"Dedicated","server_os":"Linux","password":true,"vac":true,"version":"7757534","steam_id":85568392924469988,"keywords":["nocrits","nodmgspread","payload","uncletopia"],"game_id":440,"stv_port":27026,"stv_name":"Uncletopia | Dallas | 2 | All Maps | STV","players":[{"user_id":4,"name":"dicksnip","steam_id":76561198356515396,"connected_time":25000000000,"state":"active","ping":44}]},{"server_id":5,"name":"Uncletopia | Frankfurt | 1 | All Maps","name_short":"frk-1","host":"frk-1.de.uncletopia.com","port":27015,"enabled":true,"region":"eu","cc":"de","latitude":50.110924,"longitude":8.682127,"reserved":0,"last_update":"0001-01-01T00:00:00Z","name_a2s":"Uncletopia | Frankfurt | 1 | All Maps","protocol":17,"map":"pl_snowycoast","folder":"tf","game":"Team Fortress","app_id":440,"player_count":24,"max_players":24,"Bots":0,"server_type":"Dedicated","server_os":"Linux","password":true,"vac":true,"version":"7757534","steam_id":85568392924469989,"keywords":["nocrits","nodmgspread","payload","uncletopia"],"game_id":440,"stv_port":27016,"stv_name":"Uncletopia | Frankfurt | 1 | All Maps | STV","players":[{"user_id":276,"name":"T_G_G","steam_id":76561199114568070,"connected_time":418000000000,"state":"active","ping":78},{"user_id":254,"name":"EagleFire","steam_id":76561198352938403,"connected_time":2641000000000,"state":"active","ping":53},{"user_id":280,"name":"lvl. 50 honkler","steam_id":76561198061688660,"connected_time":241000000000,"state":"active","ping":101},{"user_id":261,"name":"transgender e-girl","steam_id":76561198168589809,"connected_time":895000000000,"state":"active","ping":47},{"user_id":265,"name":"franta lopata oklam","steam_id":76561198857396812,"connected_time":612000000000,"state":"active","ping":39},{"user_id":257,"name":"N00BCSF","steam_id":76561198035530934,"connected_time":1878000000000,"state":"active","ping":75},{"user_id":281,"name":"Shinyeyes","steam_id":76561198140748440,"connected_time":237000000000,"state":"active","ping":77},{"user_id":279,"name":"Darko","steam_id":76561198318825528,"connected_time":319000000000,"state":"active","ping":60},{"user_id":263,"name":"s","steam_id":76561198257383813,"connected_time":620000000000,"state":"active","ping":47},{"user_id":275,"name":"Testicular torsion","steam_id":76561198119547399,"connected_time":448000000000,"state":"active","ping":58},{"user_id":248,"name":"murderwow","steam_id":76561198024566944,"connected_time":3089000000000,"state":"active","ping":102},{"user_id":262,"name":"Ash","steam_id":76561198110133179,"connected_time":628000000000,"state":"active","ping":70},{"user_id":277,"name":"Gio'sMonkey","steam_id":76561198892432223,"connected_time":409000000000,"state":"active","ping":83},{"user_id":259,"name":"Kepucz","steam_id":76561197977634244,"connected_time":1661000000000,"state":"active","ping":58},{"user_id":282,"name":"Denialman (Muted)","steam_id":76561198309182092,"connected_time":144000000000,"state":"active","ping":58},{"user_id":283,"name":"2 Bugatti Richh","steam_id":76561198122416996,"connected_time":67000000000,"state":"active","ping":58},{"user_id":278,"name":"7-Zip","steam_id":76561198099726966,"connected_time":396000000000,"state":"active","ping":100},{"user_id":269,"name":"Seal","steam_id":76561198093461170,"connected_time":570000000000,"state":"active","ping":59},{"user_id":284,"name":"iIMOFIi","steam_id":76561199000483925,"connected_time":62000000000,"state":"active","ping":196},{"user_id":258,"name":"Rui","steam_id":76561198263735498,"connected_time":1867000000000,"state":"active","ping":79},{"user_id":236,"name":"Poppy Stingray","steam_id":76561198049673783,"connected_time":3960000000000,"state":"active","ping":75},{"user_id":241,"name":"howabe","steam_id":76561197996486818,"connected_time":3740000000000,"state":"active","ping":57},{"user_id":285,"name":"hud_saytext_time 0","steam_id":76561198010327228,"connected_time":24000000000,"state":"active","ping":64},{"user_id":271,"name":"axl#pizdaaim","steam_id":76561198991661832,"connected_time":567000000000,"state":"active","ping":104}]},{"server_id":110,"name":"Uncletopia | Frankfurt | 2 | All Maps","name_short":"frk-2","host":"frk-1.de.uncletopia.com","port":27025,"enabled":true,"region":"eu","cc":"de","latitude":50.110924,"longitude":8.682127,"reserved":0,"last_update":"0001-01-01T00:00:00Z","name_a2s":"Uncletopia | Frankfurt | 2 | All Maps","protocol":17,"map":"pl_barnblitz","folder":"tf","game":"Team Fortress","app_id":440,"player_count":24,"max_players":24,"Bots":0,"server_type":"Dedicated","server_os":"Linux","password":true,"vac":true,"version":"7757534","steam_id":85568392924469990,"keywords":["nocrits","nodmgspread","payload","uncletopia"],"game_id":440,"stv_port":27026,"stv_name":"Uncletopia | Frankfurt | 2 | All Maps | STV","players":[{"user_id":174,"name":"Drekad√≥ttir","steam_id":76561198119979169,"connected_time":1732000000000,"state":"active","ping":70},{"user_id":195,"name":"Small Mouse","steam_id":76561198286085100,"connected_time":297000000000,"state":"active","ping":79},{"user_id":161,"name":"mark","steam_id":76561198309246388,"connected_time":2610000000000,"state":"active","ping":53},{"user_id":154,"name":"static","steam_id":76561198836825741,"connected_time":3376000000000,"state":"active","ping":59},{"user_id":165,"name":"punk rock loser","steam_id":76561199117720299,"connected_time":2174000000000,"state":"active","ping":60},{"user_id":189,"name":"Fish 'n' Chips","steam_id":76561198033476886,"connected_time":936000000000,"state":"active","ping":45},{"user_id":176,"name":"Jonathan","steam_id":76561198087988880,"connected_time":1657000000000,"state":"active","ping":46},{"user_id":197,"name":"NotFionn","steam_id":76561198890525176,"connected_time":116000000000,"state":"active","ping":89},{"user_id":80,"name":"Fat Pigeon","steam_id":76561198817940142,"connected_time":7747000000000,"state":"active","ping":59},{"user_id":169,"name":"Raivo","steam_id":76561198388750592,"connected_time":1944000000000,"state":"active","ping":61},{"user_id":196,"name":"TheFlames","steam_id":76561198179314694,"connected_time":199000000000,"state":"active","ping":48},{"user_id":191,"name":"jawA","steam_id":76561198070341774,"connected_time":740000000000,"state":"active","ping":76},{"user_id":173,"name":"Lobster Overlord","steam_id":76561198144692530,"connected_time":1799000000000,"state":"active","ping":44},{"user_id":178,"name":"noodlehairronaldoprime","steam_id":76561199471954402,"connected_time":1607000000000,"state":"active","ping":66},{"user_id":190,"name":"outlaw","steam_id":76561198323805289,"connected_time":864000000000,"state":"active","ping":50},{"user_id":121,"name":"Mowelic","steam_id":76561198873641222,"connected_time":5327000000000,"state":"active","ping":86},{"user_id":194,"name":"--","steam_id":76561198062247888,"connected_time":415000000000,"state":"active","ping":76},{"user_id":93,"name":"player","steam_id":76561198054474684,"connected_time":7081000000000,"state":"active","ping":75},{"user_id":180,"name":"Lm","steam_id":76561198836754631,"connected_time":1379000000000,"state":"active","ping":59},{"user_id":162,"name":"X-tis","steam_id":76561198043837480,"connected_time":2595000000000,"state":"active","ping":72},{"user_id":198,"name":"Pancakes","steam_id":76561198196259989,"connected_time":94000000000,"state":"active","ping":64},{"user_id":182,"name":"Urman Nurman Umar Nurmagomedov","steam_id":76561198872928244,"connected_time":1296000000000,"state":"active","ping":51},{"user_id":159,"name":"SocialistBacon","steam_id":76561198055872267,"connected_time":2732000000000,"state":"active","ping":76},{"user_id":193,"name":"pepe","steam_id":76561198161426581,"connected_time":606000000000,"state":"active","ping":46}]},{"server_id":308,"name":"Uncletopia | Frankfurt | 3 | All Maps","name_short":"frk-3","host":"frk-1.de.uncletopia.com","port":27035,"enabled":true,"region":"eu","cc":"de","latitude":50.110924,"longitude":8.682127,"reserved":0,"last_update":"0001-01-01T00:00:00Z","name_a2s":"Uncletopia | Frankfurt | 3 | All Maps","protocol":17,"map":"cp_granary","folder":"tf","game":"Team Fortress","app_id":440,"player_count":21,"max_players":24,"Bots":0,"server_type":"Dedicated","server_os":"Linux","password":true,"vac":true,"version":"7757534","steam_id":85568392924504274,"keywords":["cp","nocrits","nodmgspread","uncletopia"],"game_id":440,"stv_port":27036,"stv_name":"Uncletopia | Frankfurt | 3 | All Maps | STV","players":[{"user_id":264,"name":"Hussite","steam_id":76561199293036742,"connected_time":411000000000,"state":"active","ping":46},{"user_id":263,"name":"Ducky[WADZ]üê§","steam_id":76561198060341245,"connected_time":431000000000,"state":"active","ping":57},{"user_id":222,"name":"dollar foot long","steam_id":76561199250808808,"connected_time":2940000000000,"state":"active","ping":74},{"user_id":248,"name":"sush","steam_id":76561198377672176,"connected_time":1681000000000,"state":"active","ping":66},{"user_id":257,"name":"REN","steam_id":76561198000596385,"connected_time":498000000000,"state":"active","ping":69},{"user_id":258,"name":"sPork","steam_id":76561198056880331,"connected_time":450000000000,"state":"active","ping":74},{"user_id":266,"name":"filip pilic","steam_id":76561199147666336,"connected_time":372000000000,"state":"active","ping":78},{"user_id":202,"name":"I-I","steam_id":76561198267969436,"connected_time":4098000000000,"state":"active","ping":62},{"user_id":249,"name":"Bingus","steam_id":76561198085837630,"connected_time":1679000000000,"state":"active","ping":91},{"user_id":255,"name":"Vischan but worse","steam_id":76561199371650805,"connected_time":723000000000,"state":"active","ping":94},{"user_id":226,"name":"Robbie","steam_id":76561198017504503,"connected_time":2630000000000,"state":"active","ping":68},{"user_id":245,"name":"coree","steam_id":76561199082156030,"connected_time":1860000000000,"state":"active","ping":85},{"user_id":261,"name":"skill","steam_id":76561198106012909,"connected_time":447000000000,"state":"active","ping":66},{"user_id":262,"name":"jabar7","steam_id":76561198055137986,"connected_time":437000000000,"state":"active","ping":55},{"user_id":265,"name":"Lag","steam_id":76561198159360376,"connected_time":403000000000,"state":"active","ping":63},{"user_id":269,"name":"Elfie","steam_id":76561198206802255,"connected_time":213000000000,"state":"active","ping":61},{"user_id":246,"name":"ANDROMEDA","steam_id":76561199213073534,"connected_time":1848000000000,"state":"active","ping":74},{"user_id":243,"name":"David \"Crash\" Murphy","steam_id":76561198292845505,"connected_time":1885000000000,"state":"active","ping":84},{"user_id":182,"name":"nyanezt","steam_id":76561198253734265,"connected_time":5213000000000,"state":"active","ping":101},{"user_id":252,"name":"Tyzemol","steam_id":76561198282089607,"connected_time":1585000000000,"state":"active","ping":125},{"user_id":267,"name":"TheMightyOppressor","steam_id":76561198047461974,"connected_time":352000000000,"state":"active","ping":59}]},{"server_id":309,"name":"Uncletopia | Frankfurt | 4 | All Maps","name_short":"frk-4","host":"frk-1.de.uncletopia.com","port":27045,"enabled":true,"region":"eu","cc":"de","latitude":50.110924,"longitude":8.682127,"reserved":0,"last_update":"0001-01-01T00:00:00Z","name_a2s":"Uncletopia | Frankfurt | 4 | All Maps","protocol":17,"map":"pl_pier","folder":"tf","game":"Team Fortress","app_id":440,"player_count":24,"max_players":24,"Bots":0,"server_type":"Dedicated","server_os":"Linux","password":true,"vac":true,"version":"7757534","steam_id":85568392924504275,"keywords":["nocrits","nodmgspread","payload","uncletopia"],"game_id":440,"stv_port":27046,"stv_name":"Uncletopia | Frankfurt | 4 | All Maps | STV","players":[{"user_id":121,"name":"Vashontrash99","steam_id":76561199250946319,"connected_time":2809000000000,"state":"active","ping":120},{"user_id":122,"name":"Ela?","steam_id":76561198382598509,"connected_time":2793000000000,"state":"active","ping":74},{"user_id":127,"name":"Kneh","steam_id":76561198121744739,"connected_time":2527000000000,"state":"active","ping":65},{"user_id":124,"name":"theman12","steam_id":76561198318979147,"connected_time":2772000000000,"state":"active","ping":168},{"user_id":158,"name":"WAPtrick star","steam_id":76561198133532980,"connected_time":579000000000,"state":"active","ping":59},{"user_id":159,"name":"panakid","steam_id":76561198364121077,"connected_time":513000000000,"state":"active","ping":99},{"user_id":160,"name":"I'm past the point of insanity","steam_id":76561198800954471,"connected_time":325000000000,"state":"active","ping":79},{"user_id":130,"name":"Palettenbrett","steam_id":76561198124162943,"connected_time":2498000000000,"state":"active","ping":71},{"user_id":131,"name":"Greenmaker","steam_id":76561198060466591,"connected_time":2485000000000,"state":"active","ping":75},{"user_id":152,"name":"Laki","steam_id":76561198126078953,"connected_time":1278000000000,"state":"active","ping":105},{"user_id":155,"name":"bigwish | bmod.tf","steam_id":76561197997859723,"connected_time":1022000000000,"state":"active","ping":73},{"user_id":134,"name":"Kick gibus-engineers","steam_id":76561198046368451,"connected_time":2410000000000,"state":"active","ping":94},{"user_id":135,"name":"ArikMor","steam_id":76561199124472513,"connected_time":2404000000000,"state":"active","ping":132},{"user_id":136,"name":"LOBZIK","steam_id":76561198114830120,"connected_time":2398000000000,"state":"active","ping":83},{"user_id":156,"name":"pntn","steam_id":76561198011012772,"connected_time":926000000000,"state":"active","ping":76},{"user_id":138,"name":"Wardruna96","steam_id":76561199057083828,"connected_time":2281000000000,"state":"active","ping":89},{"user_id":139,"name":"Quinso","steam_id":76561198004920104,"connected_time":2263000000000,"state":"active","ping":112},{"user_id":162,"name":"John Noob","steam_id":76561197999170026,"connected_time":232000000000,"state":"active","ping":97},{"user_id":161,"name":"Nil's.","steam_id":76561198043216053,"connected_time":314000000000,"state":"active","ping":75},{"user_id":149,"name":"griba64","steam_id":76561198008120424,"connected_time":1674000000000,"state":"active","ping":97},{"user_id":143,"name":"√ÉNVS DR√ÉNVS","steam_id":76561198138733015,"connected_time":2219000000000,"state":"active","ping":116},{"user_id":165,"name":"tree goblin","steam_id":76561199176610938,"connected_time":63000000000,"state":"active","ping":72},{"user_id":154,"name":"DING DONG","steam_id":76561198111847899,"connected_time":1236000000000,"state":"active","ping":65},{"user_id":164,"name":"Amon Gus","steam_id":76561199094540960,"connected_time":175000000000,"state":"active","ping":71}]},{"server_id":310,"name":"Uncletopia | Frankfurt | 5 | All Maps","name_short":"frk-5","host":"frk-1.de.uncletopia.com","port":27055,"enabled":true,"region":"eu","cc":"de","latitude":50.110924,"longitude":8.682127,"reserved":0,"last_update":"0001-01-01T00:00:00Z","name_a2s":"Uncletopia | Frankfurt | 5 | All Maps","protocol":17,"map":"pl_pier","folder":"tf","game":"Team Fortress","app_id":440,"player_count":24,"max_players":24,"Bots":0,"server_type":"Dedicated","server_os":"Linux","password":true,"vac":true,"version":"7757534","steam_id":85568392924504277,"keywords":["nocrits","nodmgspread","payload","uncletopia"],"game_id":440,"stv_port":27056,"stv_name":"Uncletopia | Frankfurt | 5 | All Maps | STV","players":[{"user_id":169,"name":"Walter Griffin","steam_id":76561199415989636,"connected_time":1108000000000,"state":"active","ping":105},{"user_id":199,"name":"Tywhip","steam_id":76561199207545191,"connected_time":84000000000,"state":"active","ping":56},{"user_id":132,"name":"Warlord Zira","steam_id":76561198044174757,"connected_time":4381000000000,"state":"active","ping":85},{"user_id":176,"name":"TarekInnit","steam_id":76561198298618127,"connected_time":973000000000,"state":"active","ping":51},{"user_id":182,"name":"We are in a world of magic","steam_id":76561198104745492,"connected_time":854000000000,"state":"active","ping":69},{"user_id":178,"name":"The.Real.Genesis","steam_id":76561198999652040,"connected_time":898000000000,"state":"active","ping":44},{"user_id":175,"name":"Utkunator","steam_id":76561198967463151,"connected_time":990000000000,"state":"active","ping":87},{"user_id":198,"name":"Aregularhuman","steam_id":76561198343319848,"connected_time":89000000000,"state":"active","ping":43},{"user_id":195,"name":"KGiorgios_Bully","steam_id":76561198825392728,"connected_time":277000000000,"state":"active","ping":107},{"user_id":180,"name":"Squash Banana","steam_id":76561198055480280,"connected_time":874000000000,"state":"active","ping":94},{"user_id":181,"name":"Oyu","steam_id":76561198113997772,"connected_time":872000000000,"state":"active","ping":74},{"user_id":197,"name":"the babadook","steam_id":76561198040168682,"connected_time":114000000000,"state":"active","ping":59},{"user_id":183,"name":"trolley","steam_id":76561199089765404,"connected_time":844000000000,"state":"active","ping":65},{"user_id":168,"name":"JSX #savetf2","steam_id":76561198039097662,"connected_time":1719000000000,"state":"active","ping":70},{"user_id":164,"name":"Anti_Dragon","steam_id":76561198969060607,"connected_time":2003000000000,"state":"active","ping":105},{"user_id":185,"name":"nachtraaf","steam_id":76561197960473205,"connected_time":795000000000,"state":"active","ping":60},{"user_id":186,"name":"Ziemniaczki z koperkiem","steam_id":76561198829123464,"connected_time":777000000000,"state":"active","ping":74},{"user_id":187,"name":"powej","steam_id":76561198056381418,"connected_time":773000000000,"state":"active","ping":49},{"user_id":188,"name":"heavy sings (real)","steam_id":76561199023804405,"connected_time":768000000000,"state":"active","ping":83},{"user_id":189,"name":"Endi","steam_id":76561198914938199,"connected_time":764000000000,"state":"active","ping":89},{"user_id":190,"name":"TJ1212","steam_id":76561199013575313,"connected_time":754000000000,"state":"active","ping":63},{"user_id":191,"name":"jill valentine","steam_id":76561198075068529,"connected_time":745000000000,"state":"active","ping":59},{"user_id":193,"name":"Pan W","steam_id":76561198384111099,"connected_time":682000000000,"state":"active","ping":63},{"user_id":111,"name":"Mr.Fosty","steam_id":76561198045212783,"connected_time":5552000000000,"state":"active","ping":79}]},{"server_id":311,"name":"Uncletopia | Frankfurt | 6 | All Maps","name_short":"frk-6","host":"frk-1.de.uncletopia.com","port":27065,"enabled":true,"region":"eu","cc":"de","latitude":50.110924,"longitude":8.682127,"reserved":0,"last_update":"0001-01-01T00:00:00Z","name_a2s":"Uncletopia | Frankfurt | 6 | All Maps","protocol":17,"map":"koth_cascade","folder":"tf","game":"Team Fortress","app_id":440,"player_count":2,"max_players":24,"Bots":0,"server_type":"Dedicated","server_os":"Linux","password":true,"vac":true,"version":"7757534","steam_id":85568392924504278,"keywords":["cp","nocrits","nodmgspread","uncletopia"],"game_id":440,"stv_port":27066,"stv_name":"Uncletopia | Frankfurt | 6 | All Maps | STV","players":[{"user_id":22,"name":"Erkijokko","steam_id":76561198215204517,"connected_time":308000000000,"state":"active","ping":68},{"user_id":23,"name":"Dor_atar","steam_id":76561198973980542,"connected_time":206000000000,"state":"active","ping":68}]},{"server_id":23,"name":"Uncletopia | Frankfurt | 7 | Stopwatch Beta","name_short":"frk-7","host":"frk-1.de.uncletopia.com","port":27075,"enabled":true,"region":"eu","cc":"de","latitude":50.110924,"longitude":8.682127,"reserved":0,"last_update":"0001-01-01T00:00:00Z","name_a2s":"Uncletopia | Frankfurt | 7 | Stopwatch Beta","protocol":17,"map":"workshop/koth_clearcut_b15.ugc2107050255","folder":"tf","game":"Team Fortress","app_id":440,"player_count":0,"max_players":24,"Bots":0,"server_type":"Dedicated","server_os":"Linux","password":true,"vac":true,"version":"7757534","steam_id":85568392924742827,"keywords":["cp","nocrits","nodmgspread","uncletopia"],"game_id":440,"stv_port":27076,"stv_name":"Uncletopia | Frankfurt | 7 | Stopwatch Beta | STV","players":null},{"server_id":24,"name":"Uncletopia | Frankfurt | 8 | Community","name_short":"frk-8","host":"frk-1.de.uncletopia.com","port":27085,"enabled":true,"region":"eu","cc":"de","latitude":50.110924,"longitude":8.682127,"reserved":0,"last_update":"0001-01-01T00:00:00Z","name_a2s":"Uncletopia | Frankfurt | 8 | Community","protocol":17,"map":"workshop/cp_sulfur_rc2.ugc619869471","folder":"tf","game":"Team Fortress","app_id":440,"player_count":24,"max_players":24,"Bots":0,"server_type":"Dedicated","server_os":"Linux","password":true,"vac":true,"version":"7757534","steam_id":85568392924742828,"keywords":["cp","nocrits","nodmgspread","uncletopia"],"game_id":440,"stv_port":27086,"stv_name":"Uncletopia | Frankfurt | 8 | Community | STV","players":[{"user_id":121,"name":"Yaire","steam_id":76561198017343510,"connected_time":2451000000000,"state":"active","ping":67},{"user_id":135,"name":"Sharkplut","steam_id":76561198973649647,"connected_time":1620000000000,"state":"active","ping":57},{"user_id":75,"name":"Spazmatic","steam_id":76561198060956170,"connected_time":5158000000000,"state":"active","ping":122},{"user_id":24,"name":"all quirked up fr","steam_id":76561198062688142,"connected_time":8191000000000,"state":"active","ping":47},{"user_id":146,"name":"SRMIGUEL","steam_id":76561198991944373,"connected_time":964000000000,"state":"active","ping":74},{"user_id":77,"name":"THE TUNNEL IS INCOMPLETE","steam_id":76561198183949987,"connected_time":5034000000000,"state":"active","ping":64},{"user_id":120,"name":"KristiƒÅns GarkrƒÅns #bigdickli","steam_id":76561199168663034,"connected_time":2656000000000,"state":"active","ping":61},{"user_id":136,"name":"Teamtrevien","steam_id":76561198085513932,"connected_time":1501000000000,"state":"active","ping":61},{"user_id":137,"name":"cat","steam_id":76561198832231975,"connected_time":1496000000000,"state":"active","ping":87},{"user_id":149,"name":"LIGHTWEIGHT BABY","steam_id":76561198002761980,"connected_time":578000000000,"state":"active","ping":60},{"user_id":148,"name":"Ander Escobar","steam_id":76561198335366902,"connected_time":645000000000,"state":"active","ping":99},{"user_id":143,"name":"theres a bomb in my tea","steam_id":76561199134149296,"connected_time":1409000000000,"state":"active","ping":98},{"user_id":124,"name":"^1Carson Cockpit","steam_id":76561198440909486,"connected_time":2342000000000,"state":"active","ping":126},{"user_id":133,"name":"godmodule","steam_id":76561198165995444,"connected_time":1762000000000,"state":"active","ping":64},{"user_id":150,"name":"sapper (frost)","steam_id":76561198196853610,"connected_time":431000000000,"state":"active","ping":55},{"user_id":114,"name":"benifis163","steam_id":76561198420973492,"connected_time":3318000000000,"state":"active","ping":104},{"user_id":147,"name":"modesttoast","steam_id":76561199056833187,"connected_time":831000000000,"state":"active","ping":85},{"user_id":139,"name":"Beans","steam_id":76561199277021796,"connected_time":1463000000000,"state":"active","ping":94},{"user_id":111,"name":"Tzujko","steam_id":76561198414707694,"connected_time":3452000000000,"state":"active","ping":80},{"user_id":151,"name":"Zero (Orbital Gear Mastermind)","steam_id":76561198017416816,"connected_time":248000000000,"state":"active","ping":59},{"user_id":134,"name":"I.C. Wiener","steam_id":76561197999912254,"connected_time":1762000000000,"state":"active","ping":87},{"user_id":152,"name":"HarMala","steam_id":76561198055298143,"connected_time":177000000000,"state":"active","ping":87},{"user_id":86,"name":"Rowan Atkinson","steam_id":76561199378865926,"connected_time":4902000000000,"state":"active","ping":99},{"user_id":101,"name":"look at this guy","steam_id":76561198163244605,"connected_time":3788000000000,"state":"active","ping":62}]},{"server_id":202,"name":"Uncletopia | Hong Kong | 1 | All Maps","name_short":"hgk-1","host":"hgk-1.hk.uncletopia.com","port":27015,"enabled":true,"region":"asia","cc":"hk","latitude":22.302711,"longitude":114.177216,"reserved":0,"last_update":"0001-01-01T00:00:00Z","name_a2s":"Uncletopia | Hong Kong | 1 | All Maps","protocol":17,"map":"pl_barnblitz","folder":"tf","game":"Team Fortress","app_id":440,"player_count":24,"max_players":24,"Bots":0,"server_type":"Dedicated","server_os":"Linux","password":true,"vac":true,"version":"7757534","steam_id":85568392924494504,"keywords":["nocrits","nodmgspread","payload","uncletopia"],"game_id":440,"stv_port":27016,"stv_name":"Uncletopia | Hong Kong | 1 | All Maps | STV","players":[{"user_id":442,"name":"mutwo","steam_id":76561198077043500,"connected_time":3768000000000,"state":"active","ping":79},{"user_id":512,"name":"justaguyinariver","steam_id":76561199150967531,"connected_time":347000000000,"state":"active","ping":68},{"user_id":498,"name":"Fis1cA","steam_id":76561199273824817,"connected_time":1599000000000,"state":"active","ping":91},{"user_id":479,"name":"Rudy","steam_id":76561198089227368,"connected_time":2576000000000,"state":"active","ping":141},{"user_id":481,"name":"protons","steam_id":76561198008307645,"connected_time":2545000000000,"state":"active","ping":115},{"user_id":491,"name":"MyuriK","steam_id":76561199156341643,"connected_time":1955000000000,"state":"active","ping":112},{"user_id":500,"name":"üß°486üß°","steam_id":76561198954326760,"connected_time":1418000000000,"state":"active","ping":105},{"user_id":435,"name":"Slim3rs","steam_id":76561199088010585,"connected_time":4710000000000,"state":"active","ping":171},{"user_id":451,"name":"WoChao","steam_id":76561198234487088,"connected_time":3171000000000,"state":"active","ping":78},{"user_id":421,"name":"Ïø†ÌÇ§","steam_id":76561197997220367,"connected_time":5640000000000,"state":"active","ping":52},{"user_id":426,"name":"ÊØç„ÅÆËÇâÂõ£Â≠ê@hao123.com","steam_id":76561198069561896,"connected_time":5087000000000,"state":"active","ping":44},{"user_id":475,"name":"xirena","steam_id":76561199474092971,"connected_time":2711000000000,"state":"active","ping":99},{"user_id":489,"name":"Samsung Galaxy","steam_id":76561199418137152,"connected_time":2074000000000,"state":"active","ping":54},{"user_id":506,"name":"Newbie.(cant chat)","steam_id":76561199131526926,"connected_time":1005000000000,"state":"active","ping":78},{"user_id":513,"name":"cool person","steam_id":76561198981233510,"connected_time":339000000000,"state":"active","ping":55},{"user_id":486,"name":"Othopeus","steam_id":76561198283534382,"connected_time":2313000000000,"state":"active","ping":65},{"user_id":359,"name":"Nahida Gaming","steam_id":76561198074181339,"connected_time":9367000000000,"state":"active","ping":116},{"user_id":415,"name":"Azi","steam_id":76561198147872523,"connected_time":5908000000000,"state":"active","ping":72},{"user_id":465,"name":"505","steam_id":76561198400698408,"connected_time":2873000000000,"state":"active","ping":98},{"user_id":507,"name":"smith johnson","steam_id":76561198889862851,"connected_time":987000000000,"state":"active","ping":43},{"user_id":493,"name":"Leo Chung","steam_id":76561198044007777,"connected_time":1778000000000,"state":"active","ping":62},{"user_id":508,"name":"Mr.Pump_Kin","steam_id":76561198060984277,"connected_time":856000000000,"state":"active","ping":161},{"user_id":385,"name":"Tyxant","steam_id":76561198091066056,"connected_time":7987000000000,"state":"active","ping":95},{"user_id":510,"name":"Jaysong","steam_id":76561198828599078,"connected_time":734000000000,"state":"active","ping":65}]},{"server_id":1,"name":"Uncletopia | Los Angeles | 1 | All Maps","name_short":"lax-1","host":"lax-1.us.uncletopia.com","port":27015,"enabled":true,"region":"us-west","cc":"us","latitude":33.94279,"longitude":-118.41004,"reserved":0,"last_update":"0001-01-01T00:00:00Z","name_a2s":"Uncletopia | Los Angeles | 1 | All Maps","protocol":17,"map":"koth_lakeside_final","folder":"tf","game":"Team Fortress","app_id":440,"player_count":0,"max_players":24,"Bots":0,"server_type":"Dedicated","server_os":"Linux","password":true,"vac":true,"version":"7757534","steam_id":85568392924469991,"keywords":["cp","nocrits","nodmgspread","uncletopia"],"game_id":440,"stv_port":27016,"stv_name":"Uncletopia | Los Angeles | 1 | All Maps | STV","players":null},{"server_id":112,"name":"Uncletopia | Los Angeles | 2 | All Maps","name_short":"lax-2","host":"lax-1.us.uncletopia.com","port":27025,"enabled":true,"region":"us-west","cc":"us","latitude":33.94279,"longitude":-118.41004,"reserved":0,"last_update":"0001-01-01T00:00:00Z","name_a2s":"Uncletopia | Los Angeles | 2 | All Maps","protocol":17,"map":"pl_badwater","folder":"tf","game":"Team Fortress","app_id":440,"player_count":0,"max_players":24,"Bots":0,"server_type":"Dedicated","server_os":"Linux","password":true,"vac":true,"version":"7757534","steam_id":85568392924469992,"keywords":["nocrits","nodmgspread","payload","uncletopia"],"game_id":440,"stv_port":27026,"stv_name":"Uncletopia | Los Angeles | 2 | All Maps | STV","players":null},{"server_id":324,"name":"Uncletopia | Los Angeles | 3 | All Maps","name_short":"lax-3","host":"lax-1.us.uncletopia.com","port":27035,"enabled":true,"region":"us-west","cc":"us","latitude":33.94279,"longitude":-118.41004,"reserved":0,"last_update":"0001-01-01T00:00:00Z","name_a2s":"Uncletopia | Los Angeles | 3 | All Maps","protocol":17,"map":"pl_barnblitz","folder":"tf","game":"Team Fortress","app_id":440,"player_count":0,"max_players":24,"Bots":0,"server_type":"Dedicated","server_os":"Linux","password":true,"vac":true,"version":"7757534","steam_id":85568392924510198,"keywords":["nocrits","nodmgspread","payload","uncletopia"],"game_id":440,"stv_port":27036,"stv_name":"Uncletopia | Los Angeles | 3 | All Maps | STV","players":null},{"server_id":25,"name":"Uncletopia | Los Angeles | 4 | Stopwatch Beta","name_short":"lax-4","host":"lax-1.us.uncletopia.com","port":27045,"enabled":true,"region":"us-west","cc":"us","latitude":33.94279,"longitude":-118.41004,"reserved":0,"last_update":"0001-01-01T00:00:00Z","name_a2s":"Uncletopia | Los Angeles | 4 | Stopwatch Beta","protocol":17,"map":"pl_swiftwater_final1","folder":"tf","game":"Team Fortress","app_id":440,"player_count":0,"max_players":24,"Bots":0,"server_type":"Dedicated","server_os":"Linux","password":true,"vac":true,"version":"7757534","steam_id":85568392924510199,"keywords":["nocrits","nodmgspread","payload","uncletopia"],"game_id":440,"stv_port":27046,"stv_name":"Uncletopia | Los Angeles | 4 | Stopwatch Beta | STV","players":null},{"server_id":11,"name":"Uncletopia | London | 1 | All Maps","name_short":"lon-1","host":"lon-1.uk.uncletopia.com","port":27015,"enabled":true,"region":"eu","cc":"gb","latitude":51.509865,"longitude":-0.118092,"reserved":0,"last_update":"0001-01-01T00:00:00Z","name_a2s":"Uncletopia | London | 1 | All Maps","protocol":17,"map":"pl_frontier_final","folder":"tf","game":"Team Fortress","app_id":440,"player_count":22,"max_players":24,"Bots":0,"server_type":"Dedicated","server_os":"Linux","password":true,"vac":true,"version":"7757534","steam_id":85568392924367362,"keywords":["nocrits","nodmgspread","payload","uncletopia"],"game_id":440,"stv_port":27016,"stv_name":"Uncletopia | London | 1 | All Maps | STV","players":[{"user_id":436,"name":"Dr. Funkenstein","steam_id":76561197977816210,"connected_time":517000000000,"state":"active","ping":53},{"user_id":437,"name":"‚Ä† RUBENEITOR ‚Ä†","steam_id":76561198017805714,"connected_time":245000000000,"state":"active","ping":60},{"user_id":439,"name":"Ross from F.R.I.E.N.D.S.","steam_id":76561198008511665,"connected_time":147000000000,"state":"active","ping":52},{"user_id":346,"name":"JOHN GAMING (depressed)","steam_id":76561199085822219,"connected_time":4508000000000,"state":"active","ping":87},{"user_id":408,"name":"KAZAM | Tervez","steam_id":76561198045459068,"connected_time":2527000000000,"state":"active","ping":83},{"user_id":440,"name":"Jokudami","steam_id":76561198346604154,"connected_time":76000000000,"state":"active","ping":48},{"user_id":331,"name":"deepsheet","steam_id":76561198245761116,"connected_time":4878000000000,"state":"active","ping":77},{"user_id":438,"name":"Spy Gaming","steam_id":76561198257225296,"connected_time":177000000000,"state":"connecting","ping":113},{"user_id":423,"name":"wide appreciator","steam_id":76561198083286511,"connected_time":1693000000000,"state":"active","ping":116},{"user_id":441,"name":"quack","steam_id":76561198440620067,"connected_time":36000000000,"state":"active","ping":63},{"user_id":420,"name":"your ex","steam_id":76561198210179771,"connected_time":1751000000000,"state":"active","ping":68},{"user_id":356,"name":"Yuzu","steam_id":76561198121694613,"connected_time":4170000000000,"state":"active","ping":52},{"user_id":442,"name":"karma chameleon","steam_id":76561198031573426,"connected_time":28000000000,"state":"active","ping":71},{"user_id":429,"name":"Sara","steam_id":76561198065287954,"connected_time":1426000000000,"state":"active","ping":85},{"user_id":431,"name":"M. Hulot","steam_id":76561197994284798,"connected_time":1205000000000,"state":"active","ping":64},{"user_id":425,"name":"poshtoo @_@","steam_id":76561198106182078,"connected_time":1659000000000,"state":"active","ping":108},{"user_id":415,"name":"Cypher","steam_id":76561199023619899,"connected_time":1919000000000,"state":"active","ping":57},{"user_id":374,"name":"Charles Darwin","steam_id":76561197973496139,"connected_time":3852000000000,"state":"active","ping":61},{"user_id":443,"name":"6mn14","steam_id":76561199255341865,"connected_time":25000000000,"state":"active","ping":75},{"user_id":444,"name":"Ivy","steam_id":76561198008514071,"connected_time":20000000000,"state":"spawning","ping":50},{"user_id":416,"name":"dorak","steam_id":76561198818037965,"connected_time":1896000000000,"state":"active","ping":105},{"user_id":445,"name":"Bamo Comics","steam_id":76561198092498764,"connected_time":13000000000,"state":"spawning","ping":125}]},{"server_id":114,"name":"Uncletopia | London | 2 | All Maps","name_short":"lon-2","host":"lon-1.uk.uncletopia.com","port":27025,"enabled":true,"region":"eu","cc":"gb","latitude":51.509865,"longitude":-0.118092,"reserved":0,"last_update":"0001-01-01T00:00:00Z","name_a2s":"Uncletopia | London | 2 | All Maps","protocol":17,"map":"pl_frontier_final","folder":"tf","game":"Team Fortress","app_id":440,"player_count":24,"max_players":24,"Bots":0,"server_type":"Dedicated","server_os":"Linux","password":true,"vac":true,"version":"7757534","steam_id":85568392924470941,"keywords":["nocrits","nodmgspread","payload","uncletopia"],"game_id":440,"stv_port":27026,"stv_name":"Uncletopia | London | 2 | All Maps | STV","players":[{"user_id":156,"name":"yv.wallapop","steam_id":76561199228993903,"connected_time":300000000000,"state":"active","ping":81},{"user_id":157,"name":"I am inside your mother","steam_id":76561198173218318,"connected_time":288000000000,"state":"active","ping":46},{"user_id":160,"name":"Regan","steam_id":76561198100631086,"connected_time":254000000000,"state":"active","ping":59},{"user_id":122,"name":"hipster_doofus","steam_id":76561197970902697,"connected_time":2737000000000,"state":"active","ping":59},{"user_id":149,"name":"MRLOLENO","steam_id":76561198450911838,"connected_time":695000000000,"state":"active","ping":67},{"user_id":142,"name":"I like apple","steam_id":76561198108115790,"connected_time":1328000000000,"state":"active","ping":47},{"user_id":146,"name":"grim reaper god","steam_id":76561199394194512,"connected_time":1252000000000,"state":"active","ping":62},{"user_id":123,"name":"Aztek","steam_id":76561197980496357,"connected_time":2428000000000,"state":"active","ping":56},{"user_id":161,"name":"wibbyiseepy","steam_id":76561199110686673,"connected_time":210000000000,"state":"active","ping":93},{"user_id":151,"name":"e36 1.8","steam_id":76561198134203031,"connected_time":654000000000,"state":"active","ping":65},{"user_id":158,"name":"Butt Hurling","steam_id":76561198093229786,"connected_time":280000000000,"state":"active","ping":85},{"user_id":116,"name":"SIN","steam_id":76561197999598422,"connected_time":3373000000000,"state":"active","ping":83},{"user_id":163,"name":"Palex","steam_id":76561198093219465,"connected_time":204000000000,"state":"active","ping":44},{"user_id":153,"name":"Prism","steam_id":76561198075538312,"connected_time":590000000000,"state":"active","ping":45},{"user_id":147,"name":"Beni ü¶ßüçå","steam_id":76561198011340227,"connected_time":1084000000000,"state":"active","ping":60},{"user_id":159,"name":"PedroEscoberry","steam_id":76561198207687992,"connected_time":278000000000,"state":"active","ping":87},{"user_id":107,"name":"Pintarolas","steam_id":76561198124839451,"connected_time":3655000000000,"state":"active","ping":101},{"user_id":164,"name":"Nope.avi","steam_id":76561198396687651,"connected_time":202000000000,"state":"active","ping":96},{"user_id":154,"name":"Mato","steam_id":76561198267114673,"connected_time":473000000000,"state":"active","ping":66},{"user_id":152,"name":"Boris","steam_id":76561198032893399,"connected_time":649000000000,"state":"active","ping":96},{"user_id":165,"name":"arcSolver","steam_id":76561198212013944,"connected_time":187000000000,"state":"active","ping":37},{"user_id":150,"name":"Kaboob","steam_id":76561199121870665,"connected_time":668000000000,"state":"active","ping":133},{"user_id":166,"name":"Sn0wie","steam_id":76561198119641489,"connected_time":133000000000,"state":"active","ping":108},{"user_id":145,"name":"medium rare chicken enjoyer","steam_id":76561198050214002,"connected_time":1275000000000,"state":"active","ping":63}]},{"server_id":320,"name":"Uncletopia | London | 3 | All Maps","name_short":"lon-3","host":"lon-1.uk.uncletopia.com","port":27035,"enabled":true,"region":"eu","cc":"gb","latitude":51.509865,"longitude":-0.118092,"reserved":0,"last_update":"0001-01-01T00:00:00Z","name_a2s":"Uncletopia | London | 3 | All Maps","protocol":17,"map":"pl_swiftwater_final1","folder":"tf","game":"Team Fortress","app_id":440,"player_count":23,"max_players":24,"Bots":0,"server_type":"Dedicated","server_os":"Linux","password":true,"vac":true,"version":"7757534","steam_id":85568392924510192,"keywords":["nocrits","nodmgspread","payload","uncletopia"],"game_id":440,"stv_port":27036,"stv_name":"Uncletopia | London | 3 | All Maps | STV","players":[{"user_id":297,"name":"r06u3 #SummerUpdate_Coming","steam_id":76561198254099253,"connected_time":1119000000000,"state":"active","ping":172},{"user_id":181,"name":"franor960","steam_id":76561198902577400,"connected_time":8814000000000,"state":"active","ping":80},{"user_id":292,"name":"NukePigg","steam_id":76561198131324143,"connected_time":1146000000000,"state":"active","ping":50},{"user_id":183,"name":"bird","steam_id":76561198072166743,"connected_time":8744000000000,"state":"active","ping":155},{"user_id":302,"name":"jaime8D","steam_id":76561197980590671,"connected_time":292000000000,"state":"active","ping":76},{"user_id":298,"name":"L√∂ss√∂","steam_id":76561197994254413,"connected_time":1044000000000,"state":"active","ping":79},{"user_id":287,"name":"Relix18144","steam_id":76561199202454318,"connected_time":1554000000000,"state":"active","ping":101},{"user_id":250,"name":"Spaenny","steam_id":76561198035850165,"connected_time":4276000000000,"state":"active","ping":67},{"user_id":290,"name":"limbicsystem","steam_id":76561198025612680,"connected_time":1218000000000,"state":"active","ping":55},{"user_id":291,"name":"Yggdrasill","steam_id":76561198304162236,"connected_time":1160000000000,"state":"active","ping":106},{"user_id":300,"name":"Zogg","steam_id":76561198352683491,"connected_time":512000000000,"state":"active","ping":56},{"user_id":253,"name":"GamliRaudur1","steam_id":76561199179181105,"connected_time":4260000000000,"state":"active","ping":85},{"user_id":188,"name":"Bulyto","steam_id":76561198043205202,"connected_time":8542000000000,"state":"active","ping":65},{"user_id":303,"name":"Brick Samson","steam_id":76561198019076104,"connected_time":56000000000,"state":"active","ping":103},{"user_id":218,"name":"‚ú™ qua ‚ú™","steam_id":76561198066408333,"connected_time":7058000000000,"state":"active","ping":76},{"user_id":299,"name":"Bigguysal","steam_id":76561198171204223,"connected_time":522000000000,"state":"active","ping":60},{"user_id":256,"name":"El Goblino","steam_id":76561198232877396,"connected_time":4206000000000,"state":"active","ping":92},{"user_id":275,"name":"Brainfart08","steam_id":76561198170156079,"connected_time":2958000000000,"state":"active","ping":84},{"user_id":229,"name":"koko","steam_id":76561198903997529,"connected_time":5832000000000,"state":"active","ping":91},{"user_id":301,"name":"ultimatech","steam_id":76561198165843922,"connected_time":309000000000,"state":"active","ping":80},{"user_id":254,"name":"Halapatra","steam_id":76561199004923871,"connected_time":4254000000000,"state":"active","ping":92},{"user_id":286,"name":"wwwruff...barkbark rwraf","steam_id":76561199013720188,"connected_time":1570000000000,"state":"active","ping":82},{"user_id":296,"name":"B4R10N","steam_id":76561198047167954,"connected_time":1122000000000,"state":"active","ping":38}]},{"server_id":321,"name":"Uncletopia | London | 4 | All Maps","name_short":"lon-4","host":"lon-1.uk.uncletopia.com","port":27045,"enabled":true,"region":"eu","cc":"gb","latitude":51.509865,"longitude":-0.118092,"reserved":0,"last_update":"0001-01-01T00:00:00Z","name_a2s":"Uncletopia | London | 4 | All Maps","protocol":17,"map":"pl_borneo","folder":"tf","game":"Team Fortress","app_id":440,"player_count":24,"max_players":24,"Bots":0,"server_type":"Dedicated","server_os":"Linux","password":true,"vac":true,"version":"7757534","steam_id":85568392924510193,"keywords":["nocrits","nodmgspread","payload","uncletopia"],"game_id":440,"stv_port":27046,"stv_name":"Uncletopia | London | 4 | All Maps | STV","players":[{"user_id":46,"name":"lofimonkeyjazz","steam_id":76561198117059662,"connected_time":920000000000,"state":"active","ping":85},{"user_id":51,"name":"shenanigan","steam_id":76561198043452925,"connected_time":768000000000,"state":"active","ping":96},{"user_id":52,"name":"mista white","steam_id":76561199387233667,"connected_time":655000000000,"state":"active","ping":58},{"user_id":36,"name":"Healix","steam_id":76561198130270161,"connected_time":1156000000000,"state":"active","ping":59},{"user_id":57,"name":"Mr.Dies a lot","steam_id":76561199061602946,"connected_time":138000000000,"state":"active","ping":88},{"user_id":28,"name":"Meth","steam_id":76561199300394949,"connected_time":1294000000000,"state":"active","ping":60},{"user_id":25,"name":"Executor Odrin","steam_id":76561198125252876,"connected_time":1374000000000,"state":"active","ping":79},{"user_id":29,"name":"Shark Petter","steam_id":76561198358801819,"connected_time":1239000000000,"state":"active","ping":74},{"user_id":30,"name":"Arkainiel Silver","steam_id":76561198188302519,"connected_time":1237000000000,"state":"active","ping":68},{"user_id":50,"name":"Weenie Hut Jr's","steam_id":76561198050515739,"connected_time":829000000000,"state":"active","ping":45},{"user_id":55,"name":"bILLY","steam_id":76561198196939855,"connected_time":382000000000,"state":"active","ping":70},{"user_id":33,"name":"Dehydrated lft","steam_id":76561198970587989,"connected_time":1188000000000,"state":"active","ping":86},{"user_id":35,"name":"PierraNova","steam_id":76561198145686102,"connected_time":1169000000000,"state":"active","ping":57},{"user_id":38,"name":"the","steam_id":76561198079277466,"connected_time":1075000000000,"state":"active","ping":74},{"user_id":39,"name":"Ben UFO","steam_id":76561198001648348,"connected_time":1058000000000,"state":"active","ping":51},{"user_id":54,"name":"ex-prime minister David Cameron","steam_id":76561199290135932,"connected_time":532000000000,"state":"active","ping":56},{"user_id":41,"name":"jmp","steam_id":76561198168283286,"connected_time":1027000000000,"state":"active","ping":84},{"user_id":42,"name":"germinator","steam_id":76561199387893648,"connected_time":1001000000000,"state":"active","ping":100},{"user_id":43,"name":"Jeeworth","steam_id":76561198797972504,"connected_time":980000000000,"state":"active","ping":84},{"user_id":44,"name":"bruh","steam_id":76561198109262927,"connected_time":966000000000,"state":"active","ping":75},{"user_id":45,"name":"Albert Einstein","steam_id":76561198351190006,"connected_time":958000000000,"state":"active","ping":92},{"user_id":53,"name":"makiverem","steam_id":76561198425866216,"connected_time":540000000000,"state":"active","ping":82},{"user_id":56,"name":"Rain_hero","steam_id":76561198425145581,"connected_time":379000000000,"state":"active","ping":99},{"user_id":49,"name":"Joro","steam_id":76561197960425543,"connected_time":888000000000,"state":"active","ping":74}]},{"server_id":21,"name":"Uncletopia | London | 5 | All Maps","name_short":"lon-5","host":"lon-1.uk.uncletopia.com","port":27055,"enabled":true,"region":"eu","cc":"gb","latitude":51.509865,"longitude":-0.118092,"reserved":0,"last_update":"0001-01-01T00:00:00Z","name_a2s":"Uncletopia | London | 5 | All Maps","protocol":17,"map":"pl_badwater","folder":"tf","game":"Team Fortress","app_id":440,"player_count":0,"max_players":24,"Bots":0,"server_type":"Dedicated","server_os":"Linux","password":true,"vac":true,"version":"7757534","steam_id":85568392924742829,"keywords":["nocrits","nodmgspread","payload","uncletopia"],"game_id":440,"stv_port":27056,"stv_name":"Uncletopia | London | 5 | All Maps | STV","players":null},{"server_id":22,"name":"Uncletopia | London | 6 | All Maps","name_short":"lon-6","host":"lon-1.uk.uncletopia.com","port":27065,"enabled":true,"region":"eu","cc":"gb","latitude":51.509865,"longitude":-0.118092,"reserved":0,"last_update":"0001-01-01T00:00:00Z","name_a2s":"Uncletopia | London | 6 | All Maps","protocol":17,"map":"pl_upward","folder":"tf","game":"Team Fortress","app_id":440,"player_count":0,"max_players":24,"Bots":0,"server_type":"Dedicated","server_os":"Linux","password":true,"vac":true,"version":"7757534","steam_id":85568392924742830,"keywords":["nocrits","nodmgspread","payload","uncletopia"],"game_id":440,"stv_port":27066,"stv_name":"Uncletopia | London | 6 | All Maps | STV","players":null},{"server_id":40,"name":"Uncletopia | London | 7 | No Payload","name_short":"lon-7","host":"lon-1.uk.uncletopia.com","port":27075,"enabled":true,"region":"eu","cc":"gb","latitude":51.509865,"longitude":-0.118092,"reserved":0,"last_update":"0001-01-01T00:00:00Z","name_a2s":"Uncletopia | London | 7 | No Payload","protocol":17,"map":"cp_mountainlab","folder":"tf","game":"Team Fortress","app_id":440,"player_count":0,"max_players":24,"Bots":0,"server_type":"Dedicated","server_os":"Linux","password":true,"vac":true,"version":"7757534","steam_id":85568392924964314,"keywords":["cp","nocrits","nodmgspread","uncletopia"],"game_id":440,"stv_port":27076,"stv_name":"Uncletopia | London | 7 | No Payload | STV","players":null},{"server_id":41,"name":"Uncletopia | London | 8 | Community","name_short":"lon-8","host":"lon-1.uk.uncletopia.com","port":27085,"enabled":true,"region":"eu","cc":"gb","latitude":51.509865,"longitude":-0.118092,"reserved":0,"last_update":"0001-01-01T00:00:00Z","name_a2s":"Uncletopia | London | 8 | Community","protocol":17,"map":"workshop/koth_bagel_rc6.ugc2514036946","folder":"tf","game":"Team Fortress","app_id":440,"player_count":0,"max_players":24,"Bots":0,"server_type":"Dedicated","server_os":"Linux","password":true,"vac":true,"version":"7757534","steam_id":85568392924964315,"keywords":["cp","nocrits","nodmgspread","uncletopia"],"game_id":440,"stv_port":27086,"stv_name":"Uncletopia | London | 8 | Community | STV","players":null},{"server_id":300,"name":"Uncletopia | Montr√©al | 1 | All Maps","name_short":"mtl-1","host":"mtl-1.ca.uncletopia.com","port":27015,"enabled":true,"region":"us-east","cc":"ca","latitude":45.50889,"longitude":-73.56167,"reserved":0,"last_update":"0001-01-01T00:00:00Z","name_a2s":"Uncletopia | Montr√©al | 1 | All Maps","protocol":17,"map":"pl_upward","folder":"tf","game":"Team Fortress","app_id":440,"player_count":0,"max_players":24,"Bots":0,"server_type":"Dedicated","server_os":"Linux","password":true,"vac":true,"version":"7757534","steam_id":85568392924500087,"keywords":["nocrits","nodmgspread","payload","uncletopia"],"game_id":440,"stv_port":27016,"stv_name":"Uncletopia | Montr√©al | 1 | All Maps | STV","players":null},{"server_id":301,"name":"Uncletopia | Montr√©al | 2 | All Maps","name_short":"mtl-2","host":"mtl-1.ca.uncletopia.com","port":27025,"enabled":true,"region":"us-east","cc":"ca","latitude":45.50889,"longitude":-73.56167,"reserved":0,"last_update":"0001-01-01T00:00:00Z","name_a2s":"Uncletopia | Montr√©al | 2 | All Maps","protocol":17,"map":"pl_snowycoast","folder":"tf","game":"Team Fortress","app_id":440,"player_count":0,"max_players":24,"Bots":0,"server_type":"Dedicated","server_os":"Linux","password":true,"vac":true,"version":"7757534","steam_id":85568392924500088,"keywords":["nocrits","nodmgspread","payload","uncletopia"],"game_id":440,"stv_port":27026,"stv_name":"Uncletopia | Montr√©al | 2 | All Maps | STV","players":null},{"server_id":302,"name":"Uncletopia | Montr√©al | 3 | All Maps","name_short":"mtl-3","host":"mtl-1.ca.uncletopia.com","port":27035,"enabled":true,"region":"us-east","cc":"ca","latitude":45.50889,"longitude":-73.56167,"reserved":0,"last_update":"0001-01-01T00:00:00Z","name_a2s":"Uncletopia | Montr√©al | 3 | All Maps","protocol":17,"map":"pl_swiftwater_final1","folder":"tf","game":"Team Fortress","app_id":440,"player_count":0,"max_players":24,"Bots":0,"server_type":"Dedicated","server_os":"Linux","password":true,"vac":true,"version":"7757534","steam_id":85568392924500089,"keywords":["nocrits","nodmgspread","payload","uncletopia"],"game_id":440,"stv_port":27036,"stv_name":"Uncletopia | Montr√©al | 3 | All Maps | STV","players":null},{"server_id":303,"name":"Uncletopia | Montr√©al | 4 | No Payload","name_short":"mtl-4","host":"mtl-1.ca.uncletopia.com","port":27045,"enabled":true,"region":"us-east","cc":"ca","latitude":45.50889,"longitude":-73.56167,"reserved":0,"last_update":"0001-01-01T00:00:00Z","name_a2s":"Uncletopia | Montr√©al | 4 | No Payload","protocol":17,"map":"pl_pier","folder":"tf","game":"Team Fortress","app_id":440,"player_count":0,"max_players":24,"Bots":0,"server_type":"Dedicated","server_os":"Linux","password":true,"vac":true,"version":"7757534","steam_id":85568392924500090,"keywords":["nocrits","nodmgspread","payload","uncletopia"],"game_id":440,"stv_port":27046,"stv_name":"Uncletopia | Montr√©al | 4 | No Payload | STV","players":null},{"server_id":13,"name":"Uncletopia | New York City | 1 | All Maps","name_short":"nyc-1","host":"nyc-1.us.uncletopia.com","port":27015,"enabled":true,"region":"us-east","cc":"us","latitude":40.73061,"longitude":-73.93524,"reserved":0,"last_update":"0001-01-01T00:00:00Z","name_a2s":"Uncletopia | New York City | 1 | All Maps","protocol":17,"map":"cp_dustbowl","folder":"tf","game":"Team Fortress","app_id":440,"player_count":4,"max_players":24,"Bots":0,"server_type":"Dedicated","server_os":"Linux","password":true,"vac":true,"version":"7757534","steam_id":85568392924469993,"keywords":["cp","nocrits","nodmgspread","uncletopia"],"game_id":440,"stv_port":27016,"stv_name":"Uncletopia | New York City | 1 | All Maps | STV","players":[{"user_id":23,"name":"Lawlessbacon","steam_id":76561198829997780,"connected_time":7000000000,"state":"spawning","ping":64},{"user_id":19,"name":"Cookie of Seduction","steam_id":76561198120329707,"connected_time":686000000000,"state":"active","ping":61},{"user_id":15,"name":"babyface","steam_id":76561199440933687,"connected_time":1149000000000,"state":"active","ping":68},{"user_id":20,"name":"dinoboyadventures18","steam_id":76561199003266117,"connected_time":570000000000,"state":"active","ping":75}]},{"server_id":14,"name":"Uncletopia | New York City | 2 | All Maps","name_short":"nyc-2","host":"nyc-1.us.uncletopia.com","port":27025,"enabled":true,"region":"us-east","cc":"us","latitude":40.73061,"longitude":-73.93524,"reserved":0,"last_update":"0001-01-01T00:00:00Z","name_a2s":"Uncletopia | New York City | 2 | All Maps","protocol":17,"map":"pl_borneo","folder":"tf","game":"Team Fortress","app_id":440,"player_count":23,"max_players":24,"Bots":0,"server_type":"Dedicated","server_os":"Linux","password":true,"vac":true,"version":"7757534","steam_id":85568392924469994,"keywords":["nocrits","nodmgspread","payload","uncletopia"],"game_id":440,"stv_port":27026,"stv_name":"Uncletopia | New York City | 2 | All Maps | STV","players":[{"user_id":86,"name":"PuppyPlays","steam_id":76561198435749216,"connected_time":677000000000,"state":"active","ping":60},{"user_id":84,"name":"The Paladin","steam_id":76561199110579692,"connected_time":1051000000000,"state":"active","ping":69},{"user_id":44,"name":"Argo","steam_id":76561198353725622,"connected_time":3293000000000,"state":"active","ping":60},{"user_id":29,"name":"bob","steam_id":76561198261060542,"connected_time":4042000000000,"state":"active","ping":57},{"user_id":15,"name":"BEES MAKE HONEY","steam_id":76561198295775711,"connected_time":4967000000000,"state":"active","ping":60},{"user_id":61,"name":"Ekohtwo","steam_id":76561198067994868,"connected_time":2252000000000,"state":"active","ping":79},{"user_id":19,"name":"Kyzer","steam_id":76561198048034600,"connected_time":4444000000000,"state":"active","ping":75},{"user_id":62,"name":"kris736","steam_id":76561198038208255,"connected_time":2226000000000,"state":"active","ping":68},{"user_id":85,"name":"\\|)=|_|=(|/","steam_id":76561198171491110,"connected_time":750000000000,"state":"active","ping":45},{"user_id":82,"name":"Lost","steam_id":76561198093713427,"connected_time":1212000000000,"state":"active","ping":75},{"user_id":89,"name":"Kaluka","steam_id":76561198036861445,"connected_time":416000000000,"state":"active","ping":51},{"user_id":70,"name":"Redkiller","steam_id":76561199453655288,"connected_time":1887000000000,"state":"active","ping":67},{"user_id":90,"name":"seductive smell of oreos","steam_id":76561198032791567,"connected_time":405000000000,"state":"active","ping":100},{"user_id":66,"name":"BananaMan90014","steam_id":76561198057690010,"connected_time":2018000000000,"state":"active","ping":29},{"user_id":88,"name":"20 miles for a Quaalude","steam_id":76561198042579477,"connected_time":576000000000,"state":"active","ping":45},{"user_id":50,"name":"blobb","steam_id":76561198950448488,"connected_time":3020000000000,"state":"active","ping":67},{"user_id":47,"name":"Wimpen","steam_id":76561198168324226,"connected_time":3226000000000,"state":"active","ping":154},{"user_id":91,"name":"Chip Chipperson","steam_id":76561198008915041,"connected_time":366000000000,"state":"active","ping":55},{"user_id":80,"name":"Happy Tree Friends","steam_id":76561198110694072,"connected_time":1244000000000,"state":"active","ping":67},{"user_id":57,"name":"Nerkan","steam_id":76561198961323410,"connected_time":2473000000000,"state":"active","ping":158},{"user_id":59,"name":"COKEISBAD","steam_id":76561198443746507,"connected_time":2401000000000,"state":"active","ping":86},{"user_id":76,"name":"Kurayami","steam_id":76561198089630547,"connected_time":1741000000000,"state":"active","ping":92},{"user_id":78,"name":"gghfgfgfg","steam_id":76561198064823861,"connected_time":1716000000000,"state":"active","ping":52}]},{"server_id":15,"name":"Uncletopia | New York City | 3 | Stopwatch Beta","name_short":"nyc-3","host":"nyc-1.us.uncletopia.com","port":27035,"enabled":true,"region":"us-east","cc":"us","latitude":40.73061,"longitude":-73.93524,"reserved":0,"last_update":"0001-01-01T00:00:00Z","name_a2s":"Uncletopia | New York City | 3 | Stopwatch Beta","protocol":17,"map":"workshop/koth_bagel_rc6.ugc2514036946","folder":"tf","game":"Team Fortress","app_id":440,"player_count":0,"max_players":24,"Bots":0,"server_type":"Dedicated","server_os":"Linux","password":true,"vac":true,"version":"7757534","steam_id":85568392924742820,"keywords":["cp","nocrits","nodmgspread","uncletopia"],"game_id":440,"stv_port":27036,"stv_name":"Uncletopia | New York City | 3 | Stopwatch Beta | STV","players":null},{"server_id":16,"name":"Uncletopia | New York City | 4 | Community","name_short":"nyc-4","host":"nyc-1.us.uncletopia.com","port":27045,"enabled":true,"region":"us-east","cc":"us","latitude":40.73061,"longitude":-73.93524,"reserved":0,"last_update":"0001-01-01T00:00:00Z","name_a2s":"Uncletopia | New York City | 4 | Community","protocol":17,"map":"workshop/cp_fulgur_rc2a.ugc2068252300","folder":"tf","game":"Team Fortress","app_id":440,"player_count":0,"max_players":24,"Bots":0,"server_type":"Dedicated","server_os":"Linux","password":true,"vac":true,"version":"7757534","steam_id":85568392924742821,"keywords":["cp","nocrits","nodmgspread","uncletopia"],"game_id":440,"stv_port":27046,"stv_name":"Uncletopia | New York City | 4 | Community | STV","players":null},{"server_id":142,"name":"Uncletopia | S√£o Paulo | 1 | All Maps","name_short":"sao-1","host":"sao-1.br.uncletopia.com","port":27015,"enabled":true,"region":"sa","cc":"br","latitude":-23.533773,"longitude":-46.62529,"reserved":0,"last_update":"0001-01-01T00:00:00Z","name_a2s":"Uncletopia | S√£o Paulo | 1 | All Maps","protocol":17,"map":"koth_lakeside_final","folder":"tf","game":"Team Fortress","app_id":440,"player_count":0,"max_players":24,"Bots":0,"server_type":"Dedicated","server_os":"Linux","password":true,"vac":true,"version":"7757534","steam_id":85568392924469996,"keywords":["cp","nocrits","nodmgspread","uncletopia"],"game_id":440,"stv_port":27016,"stv_name":"Uncletopia | S√£o Paulo | 1 | All Maps | STV","players":null},{"server_id":143,"name":"Uncletopia | S√£o Paulo | 2 | All Maps","name_short":"sao-2","host":"sao-2.br.uncletopia.com","port":27015,"enabled":true,"region":"sa","cc":"br","latitude":-23.533773,"longitude":-46.62529,"reserved":0,"last_update":"0001-01-01T00:00:00Z","name_a2s":"Uncletopia | S√£o Paulo | 2 | All Maps","protocol":17,"map":"pl_borneo","folder":"tf","game":"Team Fortress","app_id":440,"player_count":0,"max_players":24,"Bots":0,"server_type":"Dedicated","server_os":"Linux","password":true,"vac":true,"version":"7757534","steam_id":85568392924485349,"keywords":["nocrits","nodmgspread","payload","uncletopia"],"game_id":440,"stv_port":27016,"stv_name":"Uncletopia | S√£o Paulo | 2 | All Maps | STV","players":null},{"server_id":7,"name":"Uncletopia | Seattle | 1 | All Maps","name_short":"sea-1","host":"sea-1.us.uncletopia.com","port":27015,"enabled":true,"region":"us-west","cc":"us","latitude":47.608013,"longitude":-122.33517,"reserved":0,"last_update":"0001-01-01T00:00:00Z","name_a2s":"Uncletopia | Seattle | 1 | All Maps","protocol":17,"map":"cp_badlands","folder":"tf","game":"Team Fortress","app_id":440,"player_count":24,"max_players":24,"Bots":0,"server_type":"Dedicated","server_os":"Linux","password":true,"vac":true,"version":"7757534","steam_id":85568392924469997,"keywords":["cp","nocrits","nodmgspread","uncletopia"],"game_id":440,"stv_port":27016,"stv_name":"Uncletopia | Seattle | 1 | All Maps | STV","players":[{"user_id":3,"name":"NASA PEEPO","steam_id":76561198024982267,"connected_time":2539000000000,"state":"active","ping":74},{"user_id":4,"name":"Zetta","steam_id":76561198045710113,"connected_time":2538000000000,"state":"active","ping":99},{"user_id":5,"name":"fountain Mann","steam_id":76561198834350355,"connected_time":2533000000000,"state":"active","ping":67},{"user_id":37,"name":"Red/Blue Weezer CD#35","steam_id":76561199008044410,"connected_time":1293000000000,"state":"active","ping":141},{"user_id":7,"name":"https://en.wikipedia.org/","steam_id":76561198261326806,"connected_time":2522000000000,"state":"active","ping":69},{"user_id":46,"name":"gfart6","steam_id":76561198888874222,"connected_time":884000000000,"state":"active","ping":120},{"user_id":12,"name":"Honey Boo Boo","steam_id":76561198119340886,"connected_time":2409000000000,"state":"active","ping":66},{"user_id":10,"name":"Bloom","steam_id":76561199065581662,"connected_time":2480000000000,"state":"active","ping":105},{"user_id":47,"name":"Sakisano","steam_id":76561198245814880,"connected_time":796000000000,"state":"active","ping":75},{"user_id":14,"name":"Love Being an Owl","steam_id":76561198293422282,"connected_time":2069000000000,"state":"active","ping":117},{"user_id":49,"name":"Bloody","steam_id":76561198005754592,"connected_time":441000000000,"state":"active","ping":188},{"user_id":32,"name":"manbearswineflu","steam_id":76561198083945137,"connected_time":1399000000000,"state":"active","ping":104},{"user_id":48,"name":"checkswing","steam_id":76561198999816132,"connected_time":612000000000,"state":"active","ping":105},{"user_id":39,"name":"no","steam_id":76561198943235072,"connected_time":1184000000000,"state":"active","ping":173},{"user_id":36,"name":"Zymiren","steam_id":76561198054985471,"connected_time":1301000000000,"state":"active","ping":143},{"user_id":23,"name":"ScarletDream","steam_id":76561198277797713,"connected_time":1685000000000,"state":"active","ping":76},{"user_id":45,"name":"ScreamCram","steam_id":76561199114068524,"connected_time":899000000000,"state":"active","ping":132},{"user_id":24,"name":"they","steam_id":76561198261007627,"connected_time":1670000000000,"state":"active","ping":132},{"user_id":25,"name":"Lucinice","steam_id":76561197990851481,"connected_time":1667000000000,"state":"active","ping":124},{"user_id":38,"name":"Xuey","steam_id":76561199120960187,"connected_time":1293000000000,"state":"active","ping":111},{"user_id":50,"name":"zpalmtree","steam_id":76561198134307620,"connected_time":360000000000,"state":"active","ping":118},{"user_id":31,"name":"Roseblade115","steam_id":76561198120797483,"connected_time":1403000000000,"state":"active","ping":47},{"user_id":33,"name":"fumblom","steam_id":76561199389283507,"connected_time":1387000000000,"state":"active","ping":123},{"user_id":51,"name":"Average Carpincho enjoyer","steam_id":76561198813538132,"connected_time":238000000000,"state":"active","ping":112}]},{"server_id":119,"name":"Uncletopia | Seattle | 2 | All Maps","name_short":"sea-2","host":"sea-1.us.uncletopia.com","port":27025,"enabled":true,"region":"us-west","cc":"us","latitude":47.608013,"longitude":-122.33517,"reserved":0,"last_update":"0001-01-01T00:00:00Z","name_a2s":"Uncletopia | Seattle | 2 | All Maps","protocol":17,"map":"pl_badwater","folder":"tf","game":"Team Fortress","app_id":440,"player_count":0,"max_players":24,"Bots":0,"server_type":"Dedicated","server_os":"Linux","password":true,"vac":true,"version":"7757534","steam_id":85568392924469998,"keywords":["nocrits","nodmgspread","payload","uncletopia"],"game_id":440,"stv_port":27026,"stv_name":"Uncletopia | Seattle | 2 | All Maps | STV","players":null},{"server_id":406,"name":"Uncletopia | Seattle | 3 | Stopwatch Beta","name_short":"sea-3","host":"sea-1.us.uncletopia.com","port":27035,"enabled":true,"region":"us-west","cc":"us","latitude":47.608013,"longitude":-122.33517,"reserved":0,"last_update":"0001-01-01T00:00:00Z","name_a2s":"Uncletopia | Seattle | 3 | Stopwatch Beta","protocol":17,"map":"cp_dustbowl","folder":"tf","game":"Team Fortress","app_id":440,"player_count":0,"max_players":24,"Bots":0,"server_type":"Dedicated","server_os":"Linux","password":true,"vac":true,"version":"7757534","steam_id":85568392924515217,"keywords":["cp","nocrits","nodmgspread","uncletopia"],"game_id":440,"stv_port":27036,"stv_name":"Uncletopia | Seattle | 3 | Stopwatch Beta | STV","players":null},{"server_id":17,"name":"Uncletopia | San Francisco | 1 | All Maps","name_short":"sfo-1","host":"sfo-1.us.uncletopia.com","port":27015,"enabled":true,"region":"us-west","cc":"us","latitude":37.77397,"longitude":-122.4313,"reserved":0,"last_update":"0001-01-01T00:00:00Z","name_a2s":"Uncletopia | San Francisco | 1 | All Maps","protocol":17,"map":"pl_snowycoast","folder":"tf","game":"Team Fortress","app_id":440,"player_count":11,"max_players":24,"Bots":0,"server_type":"Dedicated","server_os":"Linux","password":true,"vac":true,"version":"7757534","steam_id":85568392924469999,"keywords":["nocrits","nodmgspread","payload","uncletopia"],"game_id":440,"stv_port":27016,"stv_name":"Uncletopia | San Francisco | 1 | All Maps | STV","players":[{"user_id":14,"name":"Space of Pud","steam_id":76561198400468740,"connected_time":1906000000000,"state":"active","ping":91},{"user_id":27,"name":"Mr. Mane T.S.H.A.","steam_id":76561198056728986,"connected_time":181000000000,"state":"active","ping":94},{"user_id":5,"name":"Rick Assley","steam_id":76561198365019199,"connected_time":2539000000000,"state":"active","ping":116},{"user_id":12,"name":"Kopenich","steam_id":76561198066205245,"connected_time":2271000000000,"state":"active","ping":55},{"user_id":28,"name":"‚ô°a femboy‚ô°","steam_id":76561199212971864,"connected_time":120000000000,"state":"active","ping":119},{"user_id":26,"name":"ArmoredScout","steam_id":76561197995178931,"connected_time":411000000000,"state":"active","ping":116},{"user_id":16,"name":"Pud of Mud","steam_id":76561198268004351,"connected_time":1609000000000,"state":"active","ping":90},{"user_id":29,"name":"Dayfal","steam_id":76561198217610719,"connected_time":75000000000,"state":"active","ping":223},{"user_id":30,"name":"andyiscolorless","steam_id":76561199239870921,"connected_time":17000000000,"state":"spawning","ping":169},{"user_id":23,"name":"INCOMPETENT","steam_id":76561198079401635,"connected_time":1053000000000,"state":"active","ping":118},{"user_id":24,"name":"jamesgsaunders7","steam_id":76561199367822763,"connected_time":1049000000000,"state":"active","ping":381}]},{"server_id":18,"name":"Uncletopia | San Francisco | 2 | All Maps","name_short":"sfo-2","host":"sfo-1.us.uncletopia.com","port":27025,"enabled":true,"region":"us-west","cc":"us","latitude":37.77397,"longitude":-122.4313,"reserved":0,"last_update":"0001-01-01T00:00:00Z","name_a2s":"Uncletopia | San Francisco | 2 | All Maps","protocol":17,"map":"koth_highpass","folder":"tf","game":"Team Fortress","app_id":440,"player_count":0,"max_players":24,"Bots":0,"server_type":"Dedicated","server_os":"Linux","password":true,"vac":true,"version":"7757534","steam_id":85568392924470000,"keywords":["cp","nocrits","nodmgspread","uncletopia"],"game_id":440,"stv_port":27026,"stv_name":"Uncletopia | San Francisco | 2 | All Maps | STV","players":null},{"server_id":19,"name":"Uncletopia | San Francisco | 3 | Stopwatch Beta","name_short":"sfo-3","host":"sfo-1.us.uncletopia.com","port":27035,"enabled":true,"region":"us-west","cc":"us","latitude":37.77397,"longitude":-122.4313,"reserved":0,"last_update":"0001-01-01T00:00:00Z","name_a2s":"Uncletopia | San Francisco | 3 | Stopwatch Beta","protocol":17,"map":"koth_lakeside_final","folder":"tf","game":"Team Fortress","app_id":440,"player_count":0,"max_players":24,"Bots":0,"server_type":"Dedicated","server_os":"Linux","password":true,"vac":true,"version":"7757534","steam_id":85568392924742824,"keywords":["cp","nocrits","nodmgspread","uncletopia"],"game_id":440,"stv_port":27036,"stv_name":"Uncletopia | San Francisco | 3 | Stopwatch Beta | STV","players":null},{"server_id":20,"name":"Uncletopia | San Francisco | 4 | Community","name_short":"sfo-4","host":"sfo-1.us.uncletopia.com","port":27045,"enabled":true,"region":"us-west","cc":"us","latitude":37.77397,"longitude":-122.4313,"reserved":0,"last_update":"0001-01-01T00:00:00Z","name_a2s":"Uncletopia | San Francisco | 4 | Community","protocol":17,"map":"cp_altitude","folder":"tf","game":"Team Fortress","app_id":440,"player_count":0,"max_players":24,"Bots":0,"server_type":"Dedicated","server_os":"Linux","password":true,"vac":true,"version":"7757534","steam_id":85568392924742826,"keywords":["cp","nocrits","nodmgspread","uncletopia"],"game_id":440,"stv_port":27046,"stv_name":"Uncletopia | San Francisco | 4 | Community | STV","players":null},{"server_id":141,"name":"Uncletopia | Sydney | 1 | All Maps","name_short":"syd-1","host":"syd-1.au.uncletopia.com","port":27015,"enabled":true,"region":"au","cc":"au","latitude":-33.865143,"longitude":151.2099,"reserved":0,"last_update":"0001-01-01T00:00:00Z","name_a2s":"Uncletopia | Sydney | 1 | All Maps","protocol":17,"map":"pl_barnblitz","folder":"tf","game":"Team Fortress","app_id":440,"player_count":24,"max_players":24,"Bots":0,"server_type":"Dedicated","server_os":"Linux","password":true,"vac":true,"version":"7757534","steam_id":85568392924470001,"keywords":["nocrits","nodmgspread","payload","uncletopia"],"game_id":440,"stv_port":27016,"stv_name":"Uncletopia | Sydney | 1 | All Maps | STV","players":[{"user_id":648,"name":"Tux","steam_id":76561198039000791,"connected_time":5683000000000,"state":"active","ping":60},{"user_id":711,"name":" ∞·µâÀ°·µñ","steam_id":76561199015579760,"connected_time":174000000000,"state":"active","ping":78},{"user_id":707,"name":"moon rising","steam_id":76561198442198135,"connected_time":675000000000,"state":"active","ping":48},{"user_id":705,"name":"fiend","steam_id":76561198099047622,"connected_time":977000000000,"state":"active","ping":73},{"user_id":670,"name":"monnickev","steam_id":76561198252587162,"connected_time":2959000000000,"state":"active","ping":44},{"user_id":669,"name":"little raw meat boy","steam_id":76561199248254676,"connected_time":3157000000000,"state":"active","ping":59},{"user_id":708,"name":"Bunstie","steam_id":76561198420572723,"connected_time":388000000000,"state":"active","ping":70},{"user_id":646,"name":"noobar","steam_id":76561198042991153,"connected_time":5771000000000,"state":"active","ping":56},{"user_id":700,"name":"Yassle","steam_id":76561198329102247,"connected_time":1232000000000,"state":"active","ping":99},{"user_id":688,"name":"Hyak","steam_id":76561198175700625,"connected_time":1961000000000,"state":"active","ping":89},{"user_id":712,"name":"Penguin105 „Ç´„Éº„Éì„Ç£","steam_id":76561198096235032,"connected_time":156000000000,"state":"active","ping":66},{"user_id":603,"name":"hive","steam_id":76561199099744527,"connected_time":8659000000000,"state":"active","ping":45},{"user_id":656,"name":"Gnat","steam_id":76561198109747863,"connected_time":4684000000000,"state":"active","ping":110},{"user_id":690,"name":"Viktor Reznov","steam_id":76561199248074873,"connected_time":1937000000000,"state":"active","ping":61},{"user_id":691,"name":"¬øeTheRealMe?","steam_id":76561198033297147,"connected_time":1882000000000,"state":"active","ping":90},{"user_id":677,"name":"A threat unbeknownst","steam_id":76561198293776102,"connected_time":2553000000000,"state":"active","ping":49},{"user_id":666,"name":"ms. pauling bong fiend","steam_id":76561198086751156,"connected_time":3824000000000,"state":"active","ping":59},{"user_id":709,"name":"AzureFox","steam_id":76561198108179408,"connected_time":388000000000,"state":"active","ping":80},{"user_id":699,"name":"Morterkai","steam_id":76561198048247068,"connected_time":1318000000000,"state":"active","ping":57},{"user_id":661,"name":"Captain Canadia","steam_id":76561198167967735,"connected_time":4384000000000,"state":"active","ping":51},{"user_id":701,"name":"PoorCat","steam_id":76561198002600639,"connected_time":1209000000000,"state":"active","ping":52},{"user_id":713,"name":"_Mr_Yaroslav_","steam_id":76561199023347754,"connected_time":81000000000,"state":"active","ping":534},{"user_id":706,"name":"Bayonet Enthusiast","steam_id":76561198088904161,"connected_time":969000000000,"state":"active","ping":59},{"user_id":649,"name":"üò≥üò≥üíïX3 ‚úû—Å–≤—è—Ç–æ–π ","steam_id":76561198038652405,"connected_time":5683000000000,"state":"active","ping":42}]},{"server_id":123,"name":"Uncletopia | Sydney | 2 | All Maps","name_short":"syd-2","host":"syd-1.au.uncletopia.com","port":27025,"enabled":true,"region":"au","cc":"au","latitude":-33.865143,"longitude":151.2099,"reserved":0,"last_update":"0001-01-01T00:00:00Z","name_a2s":"Uncletopia | Sydney | 2 | All Maps","protocol":17,"map":"koth_highpass","folder":"tf","game":"Team Fortress","app_id":440,"player_count":2,"max_players":24,"Bots":0,"server_type":"Dedicated","server_os":"Linux","password":true,"vac":true,"version":"7757534","steam_id":85568392924470002,"keywords":["cp","nocrits","nodmgspread","uncletopia"],"game_id":440,"stv_port":27026,"stv_name":"Uncletopia | Sydney | 2 | All Maps | STV","players":[{"user_id":443,"name":"CrazyUncleEngineer","steam_id":76561199258212958,"connected_time":3214000000000,"state":"active","ping":89},{"user_id":460,"name":"Multigrain Bread","steam_id":76561199182026732,"connected_time":1619000000000,"state":"active","ping":67}]},{"server_id":395,"name":"Uncletopia | Sydney | 3 | All Maps","name_short":"syd-3","host":"syd-1.au.uncletopia.com","port":27035,"enabled":true,"region":"au","cc":"au","latitude":-33.865143,"longitude":151.2099,"reserved":0,"last_update":"0001-01-01T00:00:00Z","name_a2s":"Uncletopia | Sydney | 3 | All Maps","protocol":17,"map":"pl_borneo","folder":"tf","game":"Team Fortress","app_id":440,"player_count":0,"max_players":24,"Bots":0,"server_type":"Dedicated","server_os":"Linux","password":true,"vac":true,"version":"7757534","steam_id":85568392925194467,"keywords":["nocrits","nodmgspread","payload","uncletopia"],"game_id":440,"stv_port":27036,"stv_name":"Uncletopia | Sydney | 3 | All Maps | STV","players":null},{"server_id":396,"name":"Uncletopia | Sydney | 4 | All Maps","name_short":"syd-4","host":"syd-1.au.uncletopia.com","port":27045,"enabled":true,"region":"au","cc":"au","latitude":-33.865143,"longitude":151.2099,"reserved":0,"last_update":"0001-01-01T00:00:00Z","name_a2s":"Uncletopia | Sydney | 4 | All Maps","protocol":17,"map":"cp_snakewater_final1","folder":"tf","game":"Team Fortress","app_id":440,"player_count":0,"max_players":24,"Bots":0,"server_type":"Dedicated","server_os":"Linux","password":true,"vac":true,"version":"7757534","steam_id":85568392925397958,"keywords":["cp","nocrits","nodmgspread","uncletopia"],"game_id":440,"stv_port":27046,"stv_name":"Uncletopia | Sydney | 4 | All Maps | STV","players":null},{"server_id":58,"name":"Uncletopia | Sydney | 5 | Stopwatch Beta","name_short":"syd-5","host":"syd-1.au.uncletopia.com","port":27055,"enabled":true,"region":"au","cc":"au","latitude":-33.865143,"longitude":151.2099,"reserved":0,"last_update":"0001-01-01T00:00:00Z","name_a2s":"Uncletopia | Sydney | 5 | Stopwatch Beta","protocol":17,"map":"pl_upward","folder":"tf","game":"Team Fortress","app_id":440,"player_count":0,"max_players":24,"Bots":0,"server_type":"Dedicated","server_os":"Linux","password":true,"vac":true,"version":"7757534","steam_id":85568392925397959,"keywords":["nocrits","nodmgspread","payload","uncletopia"],"game_id":440,"stv_port":27056,"stv_name":"Uncletopia | Sydney | 5 | Stopwatch Beta | STV","players":null},{"server_id":59,"name":"Uncletopia | Sydney | 6 | Community","name_short":"syd-6","host":"syd-1.au.uncletopia.com","port":27065,"enabled":true,"region":"au","cc":"au","latitude":-33.865143,"longitude":151.2099,"reserved":0,"last_update":"0001-01-01T00:00:00Z","name_a2s":"Uncletopia | Sydney | 6 | Community","protocol":17,"map":"workshop/pl_badwater_pro_v12.ugc2142942074","folder":"tf","game":"Team Fortress","app_id":440,"player_count":0,"max_players":24,"Bots":0,"server_type":"Dedicated","server_os":"Linux","password":true,"vac":true,"version":"7757534","steam_id":85568392925397960,"keywords":["nocrits","nodmgspread","payload","uncletopia"],"game_id":440,"stv_port":27066,"stv_name":"Uncletopia | Sydney | 6 | Community | STV","players":null},{"server_id":49,"name":"Uncletopia | Warsaw | 1 | All Maps","name_short":"waw-1","host":"waw-1.pl.uncletopia.com","port":27015,"enabled":true,"region":"eu","cc":"pl","latitude":52.2297,"longitude":21.017532,"reserved":0,"last_update":"0001-01-01T00:00:00Z","name_a2s":"","protocol":0,"map":"","folder":"","game":"","app_id":0,"player_count":0,"max_players":0,"Bots":0,"server_type":"","server_os":"","password":false,"vac":false,"version":"","steam_id":0,"keywords":null,"game_id":0,"stv_port":0,"stv_name":"","players":null},{"server_id":50,"name":"Uncletopia | Warsaw | 2 | All Maps","name_short":"waw-2","host":"waw-1.pl.uncletopia.com","port":27025,"enabled":true,"region":"eu","cc":"pl","latitude":52.2297,"longitude":21.017532,"reserved":0,"last_update":"0001-01-01T00:00:00Z","name_a2s":"Uncletopia | Warsaw | 2 | All Maps","protocol":17,"map":"koth_viaduct","folder":"tf","game":"Team Fortress","app_id":440,"player_count":0,"max_players":24,"Bots":0,"server_type":"Dedicated","server_os":"Linux","password":true,"vac":true,"version":"7757534","steam_id":85568392925397851,"keywords":["cp","nocrits","nodmgspread","uncletopia"],"game_id":440,"stv_port":27026,"stv_name":"Uncletopia | Warsaw | 2 | All Maps | STV","players":null},{"server_id":51,"name":"Uncletopia | Warsaw | 3 | All Maps","name_short":"waw-3","host":"waw-1.pl.uncletopia.com","port":27035,"enabled":true,"region":"eu","cc":"pl","latitude":52.2297,"longitude":21.017532,"reserved":0,"last_update":"0001-01-01T00:00:00Z","name_a2s":"Uncletopia | Warsaw | 3 | All Maps","protocol":17,"map":"pl_snowycoast","folder":"tf","game":"Team Fortress","app_id":440,"player_count":0,"max_players":24,"Bots":0,"server_type":"Dedicated","server_os":"Linux","password":true,"vac":true,"version":"7757534","steam_id":85568392925397852,"keywords":["nocrits","nodmgspread","payload","uncletopia"],"game_id":440,"stv_port":27036,"stv_name":"Uncletopia | Warsaw | 3 | All Maps | STV","players":null},{"server_id":52,"name":"Uncletopia | Warsaw | 4 | All Maps","name_short":"waw-4","host":"waw-1.pl.uncletopia.com","port":27045,"enabled":true,"region":"eu","cc":"pl","latitude":52.2297,"longitude":21.017532,"reserved":0,"last_update":"0001-01-01T00:00:00Z","name_a2s":"Uncletopia | Warsaw | 4 | All Maps","protocol":17,"map":"koth_lakeside_final","folder":"tf","game":"Team Fortress","app_id":440,"player_count":0,"max_players":24,"Bots":0,"server_type":"Dedicated","server_os":"Linux","password":true,"vac":true,"version":"7757534","steam_id":85568392925397853,"keywords":["cp","nocrits","nodmgspread","uncletopia"],"game_id":440,"stv_port":27046,"stv_name":"Uncletopia | Warsaw | 4 | All Maps | STV","players":null},{"server_id":53,"name":"Uncletopia | Warsaw | 5 | Stopwatch Beta","name_short":"waw-5","host":"waw-1.pl.uncletopia.com","port":27055,"enabled":true,"region":"eu","cc":"pl","latitude":52.2297,"longitude":21.017532,"reserved":0,"last_update":"0001-01-01T00:00:00Z","name_a2s":"Uncletopia | Warsaw | 5 | Stopwatch Beta","protocol":17,"map":"pl_borneo","folder":"tf","game":"Team Fortress","app_id":440,"player_count":0,"max_players":24,"Bots":0,"server_type":"Dedicated","server_os":"Linux","password":true,"vac":true,"version":"7757534","steam_id":85568392925397854,"keywords":["nocrits","nodmgspread","payload","uncletopia"],"game_id":440,"stv_port":27056,"stv_name":"Uncletopia | Warsaw | 5 | Stopwatch Beta | STV","players":null},{"server_id":54,"name":"Uncletopia | Warsaw | 6 | Community","name_short":"waw-6","host":"waw-1.pl.uncletopia.com","port":27065,"enabled":true,"region":"eu","cc":"pl","latitude":52.2297,"longitude":21.017532,"reserved":0,"last_update":"0001-01-01T00:00:00Z","name_a2s":"Uncletopia | Warsaw | 6 | Community","protocol":17,"map":"workshop/koth_trenchfoot_b1a.ugc731436616","folder":"tf","game":"Team Fortress","app_id":440,"player_count":0,"max_players":24,"Bots":0,"server_type":"Dedicated","server_os":"Linux","password":true,"vac":true,"version":"7757534","steam_id":85568392925397856,"keywords":["cp","nocrits","nodmgspread","uncletopia"],"game_id":440,"stv_port":27066,"stv_name":"Uncletopia | Warsaw | 6 | Community | STV","players":null}]}