{"status":true,"message":"","result":[{"server_id":9,"name":"Uncletopia | Atlanta | 1 | All Maps","name_short":"atl-1","host":"atl-1.us.uncletopia.com","port":27015,"enabled":true,"region":"us-east","cc":"us","latitude":33.753746,"longitude":-84.38633,"reserved":0,"last_update":"0001-01-01T00:00:00Z","name_a2s":"Uncletopia | Atlanta | 1 | All Maps","protocol":17,"map":"cp_steel","folder":"tf","game":"Team Fortress","app_id":440,"player_count":24,"max_players":24,"Bots":0,"server_type":"Dedicated","server_os":"Linux","password":true,"vac":true,"version":"7708610","steam_id":85568392924469982,"keywords":["cp","nocrits","nodmgspread","uncletopia"],"game_id":440,"stv_port":27016,"stv_name":"Uncletopia | Atlanta | 1 | All Maps | STV","players":[{"user_id":455,"name":"Psychosis","steam_id":76561198078659070,"connected_time":2435000000000,"state":"active","ping":61},{"user_id":447,"name":"wiwi","steam_id":76561198094220383,"connected_time":2921000000000,"state":"active","ping":60},{"user_id":483,"name":"Meowmington II","steam_id":76561198167050831,"connected_time":162000000000,"state":"active","ping":71},{"user_id":467,"name":"bingle","steam_id":76561198359413453,"connected_time":1234000000000,"state":"active","ping":71},{"user_id":460,"name":"fudge lord","steam_id":76561198118318422,"connected_time":2165000000000,"state":"active","ping":62},{"user_id":457,"name":"Cogsmon","steam_id":76561198044977767,"connected_time":2378000000000,"state":"active","ping":80},{"user_id":468,"name":"amish hater","steam_id":76561199105606956,"connected_time":1137000000000,"state":"active","ping":73},{"user_id":479,"name":"The Potato Romancer","steam_id":76561198204197648,"connected_time":827000000000,"state":"active","ping":99},{"user_id":481,"name":"ATL1 | merryy","steam_id":76561198968001329,"connected_time":758000000000,"state":"active","ping":47},{"user_id":463,"name":"Veilos","steam_id":76561198071897172,"connected_time":1866000000000,"state":"active","ping":76},{"user_id":454,"name":"ATL1 | Mayhem","steam_id":76561199246637881,"connected_time":2449000000000,"state":"active","ping":57},{"user_id":471,"name":"Sapphireblitz","steam_id":76561198272635379,"connected_time":1056000000000,"state":"active","ping":80},{"user_id":448,"name":"dan","steam_id":76561198061589465,"connected_time":2830000000000,"state":"active","ping":62},{"user_id":443,"name":"Jin Gulilo","steam_id":76561198065151242,"connected_time":3060000000000,"state":"active","ping":70},{"user_id":435,"name":"Shuual","steam_id":76561198004395256,"connected_time":3538000000000,"state":"active","ping":60},{"user_id":452,"name":"groda_spel","steam_id":76561198121349387,"connected_time":2509000000000,"state":"active","ping":63},{"user_id":429,"name":"ATL1 | Sunny004","steam_id":76561198105397410,"connected_time":4306000000000,"state":"active","ping":60},{"user_id":472,"name":"Bogey","steam_id":76561198096227944,"connected_time":1052000000000,"state":"active","ping":68},{"user_id":482,"name":"amberkleurig","steam_id":76561198394582460,"connected_time":352000000000,"state":"active","ping":153},{"user_id":475,"name":"paypur -rng","steam_id":76561198214370515,"connected_time":978000000000,"state":"active","ping":73},{"user_id":476,"name":"Passive-Aggressive Land Whale","steam_id":76561198058057999,"connected_time":973000000000,"state":"active","ping":56},{"user_id":450,"name":"Quiggles","steam_id":76561199177247655,"connected_time":2697000000000,"state":"active","ping":57},{"user_id":480,"name":"moe","steam_id":76561198929586245,"connected_time":826000000000,"state":"active","ping":111},{"user_id":478,"name":"techno","steam_id":76561198072206913,"connected_time":913000000000,"state":"active","ping":75}]},{"server_id":400,"name":"Uncletopia | Atlanta | 3 | All Maps","name_short":"atl-3","host":"atl-1.us.uncletopia.com","port":27035,"enabled":true,"region":"us-east","cc":"us","latitude":33.753746,"longitude":-84.38633,"reserved":0,"last_update":"0001-01-01T00:00:00Z","name_a2s":"Uncletopia | Atlanta | 3 | All Maps","protocol":17,"map":"koth_lakeside_final","folder":"tf","game":"Team Fortress","app_id":440,"player_count":3,"max_players":24,"Bots":0,"server_type":"Dedicated","server_os":"Linux","password":true,"vac":true,"version":"7708610","steam_id":85568392924515187,"keywords":["cp","nocrits","nodmgspread","uncletopia"],"game_id":440,"stv_port":27036,"stv_name":"Uncletopia | Atlanta | 3 | All Maps | STV","players":[{"user_id":355,"name":"KiroTheBoi","steam_id":76561199111194754,"connected_time":2183000000000,"state":"active","ping":60},{"user_id":359,"name":"sunsetluver12","steam_id":76561199158175355,"connected_time":1244000000000,"state":"active","ping":64},{"user_id":360,"name":"Fausto Murillo","steam_id":76561198936120487,"connected_time":1213000000000,"state":"active","ping":118}]},{"server_id":401,"name":"Uncletopia | Atlanta | 4 | No Payload","name_short":"atl-4","host":"atl-1.us.uncletopia.com","port":27045,"enabled":true,"region":"us-east","cc":"us","latitude":33.753746,"longitude":-84.38633,"reserved":0,"last_update":"0001-01-01T00:00:00Z","name_a2s":"Uncletopia | Atlanta | 4 | No Payload","protocol":17,"map":"plr_bananabay","folder":"tf","game":"Team Fortress","app_id":440,"player_count":0,"max_players":24,"Bots":0,"server_type":"Dedicated","server_os":"Linux","password":true,"vac":true,"version":"7708610","steam_id":85568392924515188,"keywords":["nocrits","nodmgspread","payload","uncletopia"],"game_id":440,"stv_port":27046,"stv_name":"Uncletopia | Atlanta | 4 | No Payload | STV","players":null},{"server_id":2,"name":"Uncletopia | Chicago | 1 | All Maps","name_short":"chi-1","host":"chi-1.us.uncletopia.com","port":27015,"enabled":true,"region":"us-central","cc":"us","latitude":41.881832,"longitude":-87.62318,"reserved":0,"last_update":"0001-01-01T00:00:00Z","name_a2s":"Uncletopia | Chicago | 1 | All Maps","protocol":17,"map":"pl_borneo","folder":"tf","game":"Team Fortress","app_id":440,"player_count":22,"max_players":24,"Bots":0,"server_type":"Dedicated","server_os":"Linux","password":true,"vac":true,"version":"7708610","steam_id":85568392924469984,"keywords":["nocrits","nodmgspread","payload","uncletopia"],"game_id":440,"stv_port":27016,"stv_name":"Uncletopia | Chicago | 1 | All Maps | STV","players":[{"user_id":309,"name":"BlueCrue","steam_id":76561198066698869,"connected_time":506000000000,"state":"active","ping":66},{"user_id":318,"name":"Octanoip","steam_id":76561199057752358,"connected_time":0,"state":"spawning","ping":0},{"user_id":290,"name":"VX Ghost (Holiday)","steam_id":76561198072541436,"connected_time":1634000000000,"state":"active","ping":44},{"user_id":189,"name":"Trogdor","steam_id":76561198121353181,"connected_time":8959000000000,"state":"active","ping":96},{"user_id":314,"name":"NotSoMewwo","steam_id":76561198130067099,"connected_time":174000000000,"state":"active","ping":77},{"user_id":297,"name":"njbryk","steam_id":76561199132494548,"connected_time":1234000000000,"state":"active","ping":49},{"user_id":285,"name":"DuckKey","steam_id":76561198904477889,"connected_time":2150000000000,"state":"active","ping":56},{"user_id":304,"name":"Among Us Booster Pack","steam_id":76561198068538473,"connected_time":922000000000,"state":"active","ping":75},{"user_id":306,"name":"cappy_blappy","steam_id":76561198339229316,"connected_time":908000000000,"state":"active","ping":81},{"user_id":317,"name":"JimboMcJimmy","steam_id":76561198030656209,"connected_time":6000000000,"state":"spawning","ping":156},{"user_id":298,"name":"AmirKhaan","steam_id":76561198992403254,"connected_time":1224000000000,"state":"active","ping":60},{"user_id":271,"name":"blob","steam_id":76561198122375328,"connected_time":3034000000000,"state":"active","ping":60},{"user_id":243,"name":"Medic","steam_id":76561198067869016,"connected_time":5135000000000,"state":"active","ping":44},{"user_id":299,"name":"Sneetch [sRb]","steam_id":76561197996693506,"connected_time":1151000000000,"state":"active","ping":79},{"user_id":229,"name":"Hey","steam_id":76561198447517893,"connected_time":6280000000000,"state":"active","ping":71},{"user_id":135,"name":"Ras","steam_id":76561198123546775,"connected_time":13101000000000,"state":"active","ping":61},{"user_id":315,"name":"rare","steam_id":76561198161403931,"connected_time":173000000000,"state":"active","ping":60},{"user_id":292,"name":"A tree","steam_id":76561198309065247,"connected_time":1392000000000,"state":"active","ping":60},{"user_id":307,"name":"Among Us VR Booster Pack","steam_id":76561198352909489,"connected_time":818000000000,"state":"active","ping":140},{"user_id":316,"name":"brad","steam_id":76561198817573493,"connected_time":148000000000,"state":"active","ping":63},{"user_id":263,"name":"sweaterfan","steam_id":76561199389567214,"connected_time":3769000000000,"state":"active","ping":67},{"user_id":311,"name":"Lil' Urban Achiever","steam_id":76561197970450546,"connected_time":314000000000,"state":"active","ping":106}]},{"server_id":106,"name":"Uncletopia | Chicago | 2 | All Maps","name_short":"chi-2","host":"chi-1.us.uncletopia.com","port":27025,"enabled":true,"region":"us-central","cc":"us","latitude":41.881832,"longitude":-87.62318,"reserved":0,"last_update":"0001-01-01T00:00:00Z","name_a2s":"Uncletopia | Chicago | 2 | All Maps","protocol":17,"map":"cp_altitude","folder":"tf","game":"Team Fortress","app_id":440,"player_count":24,"max_players":24,"Bots":0,"server_type":"Dedicated","server_os":"Linux","password":true,"vac":true,"version":"7708610","steam_id":85568392924469985,"keywords":["cp","nocrits","nodmgspread","uncletopia"],"game_id":440,"stv_port":27026,"stv_name":"Uncletopia | Chicago | 2 | All Maps | STV","players":[{"user_id":252,"name":"Pee Sniffing Chimp","steam_id":76561198203573212,"connected_time":935000000000,"state":"active","ping":78},{"user_id":234,"name":"i should go","steam_id":76561198194614289,"connected_time":1666000000000,"state":"active","ping":84},{"user_id":243,"name":"I am a mooshroom","steam_id":76561198104198295,"connected_time":1192000000000,"state":"active","ping":93},{"user_id":258,"name":"aisu","steam_id":76561198043768507,"connected_time":190000000000,"state":"active","ping":61},{"user_id":257,"name":"SeamPunker39","steam_id":76561198118387256,"connected_time":219000000000,"state":"active","ping":46},{"user_id":244,"name":"Seico Bass","steam_id":76561198123498500,"connected_time":1172000000000,"state":"active","ping":80},{"user_id":255,"name":"sonnovasmurf","steam_id":76561199092251434,"connected_time":448000000000,"state":"active","ping":74},{"user_id":226,"name":"Pork Tenderloin","steam_id":76561198138663842,"connected_time":2210000000000,"state":"active","ping":56},{"user_id":245,"name":"GOATC mahik","steam_id":76561198012270322,"connected_time":1159000000000,"state":"active","ping":72},{"user_id":246,"name":"a baby","steam_id":76561198008662184,"connected_time":1129000000000,"state":"active","ping":60},{"user_id":225,"name":"groond","steam_id":76561198309426720,"connected_time":2212000000000,"state":"active","ping":61},{"user_id":256,"name":"KissMyAxe","steam_id":76561199202589902,"connected_time":438000000000,"state":"active","ping":85},{"user_id":248,"name":"gelo","steam_id":76561198170682901,"connected_time":1061000000000,"state":"active","ping":64},{"user_id":249,"name":"Partaker of Sex","steam_id":76561198137880777,"connected_time":987000000000,"state":"active","ping":64},{"user_id":259,"name":"dimble","steam_id":76561198084699691,"connected_time":160000000000,"state":"active","ping":77},{"user_id":261,"name":"clumpofblankets","steam_id":76561199223085255,"connected_time":86000000000,"state":"active","ping":81},{"user_id":260,"name":"ParkerTheCuber","steam_id":76561199207264629,"connected_time":148000000000,"state":"active","ping":58},{"user_id":221,"name":"Bandit","steam_id":76561198328421159,"connected_time":2855000000000,"state":"active","ping":66},{"user_id":207,"name":"holymoly1645 TWITCH","steam_id":76561198079009899,"connected_time":3765000000000,"state":"active","ping":96},{"user_id":250,"name":"Van","steam_id":76561198073518712,"connected_time":986000000000,"state":"active","ping":72},{"user_id":251,"name":"Chucknoraz","steam_id":76561198801789990,"connected_time":983000000000,"state":"active","ping":60},{"user_id":242,"name":"Zhenaj","steam_id":76561199209016136,"connected_time":1367000000000,"state":"active","ping":57},{"user_id":254,"name":"u/unhinged_person","steam_id":76561198085839920,"connected_time":714000000000,"state":"active","ping":66},{"user_id":214,"name":"Rukks","steam_id":76561197993918954,"connected_time":3014000000000,"state":"active","ping":61}]},{"server_id":402,"name":"Uncletopia | Chicago | 3 | All Maps","name_short":"chi-3","host":"chi-1.us.uncletopia.com","port":27035,"enabled":true,"region":"us-central","cc":"us","latitude":41.881832,"longitude":-87.62318,"reserved":0,"last_update":"0001-01-01T00:00:00Z","name_a2s":"Uncletopia | Chicago | 3 | All Maps","protocol":17,"map":"koth_harvest_final","folder":"tf","game":"Team Fortress","app_id":440,"player_count":17,"max_players":24,"Bots":0,"server_type":"Dedicated","server_os":"Linux","password":true,"vac":true,"version":"7708610","steam_id":85568392924515191,"keywords":["cp","nocrits","nodmgspread","uncletopia"],"game_id":440,"stv_port":27036,"stv_name":"Uncletopia | Chicago | 3 | All Maps | STV","players":[{"user_id":21,"name":"Shrake","steam_id":76561198114379995,"connected_time":2850000000000,"state":"active","ping":31},{"user_id":32,"name":"scrumpy","steam_id":76561199078477854,"connected_time":1325000000000,"state":"active","ping":102},{"user_id":29,"name":"CJspellsfish","steam_id":76561198277342368,"connected_time":1599000000000,"state":"active","ping":71},{"user_id":26,"name":"KevCraft","steam_id":76561199000622939,"connected_time":2034000000000,"state":"active","ping":79},{"user_id":46,"name":"PleaseBeNiceToMe","steam_id":76561198079419701,"connected_time":455000000000,"state":"active","ping":97},{"user_id":28,"name":"LooseJuice","steam_id":76561198042181014,"connected_time":1805000000000,"state":"active","ping":120},{"user_id":37,"name":"Strawberry","steam_id":76561198973740497,"connected_time":1068000000000,"state":"active","ping":90},{"user_id":43,"name":"wandermelon","steam_id":76561198158198738,"connected_time":531000000000,"state":"active","ping":103},{"user_id":44,"name":"pilked rat","steam_id":76561198799403828,"connected_time":494000000000,"state":"active","ping":52},{"user_id":45,"name":"Spearit5464","steam_id":76561199241807676,"connected_time":473000000000,"state":"active","ping":90},{"user_id":47,"name":"polarbub","steam_id":76561198991022799,"connected_time":338000000000,"state":"active","ping":58},{"user_id":48,"name":"extinct111","steam_id":76561199013696367,"connected_time":321000000000,"state":"active","ping":58},{"user_id":49,"name":"Vapor","steam_id":76561198850475407,"connected_time":298000000000,"state":"active","ping":58},{"user_id":50,"name":"scout.tf2","steam_id":76561199262262606,"connected_time":271000000000,"state":"active","ping":90},{"user_id":52,"name":"Shame","steam_id":76561198100490994,"connected_time":250000000000,"state":"active","ping":79},{"user_id":53,"name":"meth","steam_id":76561198118715586,"connected_time":182000000000,"state":"active","ping":97},{"user_id":55,"name":"Hanselpup","steam_id":76561198165480226,"connected_time":41000000000,"state":"active","ping":77}]},{"server_id":403,"name":"Uncletopia | Chicago | 4 | All Maps","name_short":"chi-4","host":"chi-1.us.uncletopia.com","port":27045,"enabled":true,"region":"us-central","cc":"us","latitude":41.881832,"longitude":-87.62318,"reserved":0,"last_update":"0001-01-01T00:00:00Z","name_a2s":"Uncletopia | Chicago | 4 | All Maps","protocol":17,"map":"pl_barnblitz","folder":"tf","game":"Team Fortress","app_id":440,"player_count":24,"max_players":24,"Bots":0,"server_type":"Dedicated","server_os":"Linux","password":true,"vac":true,"version":"7708610","steam_id":85568392924515193,"keywords":["nocrits","nodmgspread","payload","uncletopia"],"game_id":440,"stv_port":27046,"stv_name":"Uncletopia | Chicago | 4 | All Maps | STV","players":[{"user_id":198,"name":"Rusted Cake","steam_id":76561198209755931,"connected_time":1079000000000,"state":"active","ping":92},{"user_id":202,"name":"Gian","steam_id":76561198041434512,"connected_time":582000000000,"state":"active","ping":108},{"user_id":207,"name":"free_azr","steam_id":76561198147746558,"connected_time":10000000000,"state":"spawning","ping":66},{"user_id":205,"name":"SoZetta","steam_id":76561198058964330,"connected_time":229000000000,"state":"active","ping":114},{"user_id":190,"name":"Thessalonians 5:26","steam_id":76561199236719411,"connected_time":1540000000000,"state":"active","ping":75},{"user_id":204,"name":"Tpoyo","steam_id":76561198049951724,"connected_time":286000000000,"state":"active","ping":62},{"user_id":192,"name":"trobin120","steam_id":76561199122420273,"connected_time":1493000000000,"state":"active","ping":62},{"user_id":147,"name":"Liquid Snake","steam_id":76561198045447553,"connected_time":5139000000000,"state":"active","ping":90},{"user_id":167,"name":"▲▼▲ Paul Atreideeznuts","steam_id":76561198015714075,"connected_time":3443000000000,"state":"active","ping":66},{"user_id":146,"name":"just pog this time","steam_id":76561198000111057,"connected_time":5146000000000,"state":"active","ping":56},{"user_id":177,"name":"Ford Truck Gaming","steam_id":76561199042674833,"connected_time":2566000000000,"state":"active","ping":86},{"user_id":203,"name":"Lord of the Moon","steam_id":76561198014115769,"connected_time":433000000000,"state":"active","ping":56},{"user_id":201,"name":"13£","steam_id":76561198425726464,"connected_time":637000000000,"state":"active","ping":66},{"user_id":175,"name":"Xuey","steam_id":76561199120960187,"connected_time":3037000000000,"state":"active","ping":56},{"user_id":148,"name":"Miner2495","steam_id":76561198445904523,"connected_time":5133000000000,"state":"active","ping":50},{"user_id":127,"name":"Wolbey","steam_id":76561198042148095,"connected_time":6303000000000,"state":"active","ping":37},{"user_id":194,"name":"gordyggordy","steam_id":76561198014299453,"connected_time":1425000000000,"state":"active","ping":55},{"user_id":162,"name":"garfield","steam_id":76561198114119308,"connected_time":3961000000000,"state":"active","ping":61},{"user_id":174,"name":"Discourse","steam_id":76561198984286678,"connected_time":3162000000000,"state":"active","ping":42},{"user_id":206,"name":"zuero †","steam_id":76561198158363931,"connected_time":215000000000,"state":"active","ping":65},{"user_id":179,"name":"Nic","steam_id":76561198333983754,"connected_time":2425000000000,"state":"active","ping":75},{"user_id":183,"name":"brn","steam_id":76561198118211523,"connected_time":2005000000000,"state":"active","ping":68},{"user_id":199,"name":"tingle shitmouth","steam_id":76561198055109192,"connected_time":738000000000,"state":"active","ping":73},{"user_id":200,"name":"Billy Bong Thorton","steam_id":76561198075779335,"connected_time":738000000000,"state":"active","ping":99}]},{"server_id":36,"name":"Uncletopia | Chicago | 5 | All Maps","name_short":"chi-5","host":"chi-2.us.uncletopia.com","port":27015,"enabled":true,"region":"us-central","cc":"us","latitude":41.881832,"longitude":-87.62318,"reserved":0,"last_update":"0001-01-01T00:00:00Z","name_a2s":"Uncletopia | Chicago | 5 | All Maps","protocol":17,"map":"pl_swiftwater_final1","folder":"tf","game":"Team Fortress","app_id":440,"player_count":4,"max_players":24,"Bots":0,"server_type":"Dedicated","server_os":"Linux","password":true,"vac":true,"version":"7708610","steam_id":85568392924866362,"keywords":["nocrits","nodmgspread","payload","uncletopia"],"game_id":440,"stv_port":27016,"stv_name":"Uncletopia | Chicago | 5 | All Maps | STV","players":[{"user_id":3,"name":"Texas Style Man","steam_id":76561198930293262,"connected_time":350000000000,"state":"active","ping":88},{"user_id":4,"name":"The Crungo","steam_id":76561199141492981,"connected_time":341000000000,"state":"active","ping":60},{"user_id":5,"name":"Ratintosh","steam_id":76561198242196024,"connected_time":333000000000,"state":"active","ping":46},{"user_id":6,"name":"FrogyBogy","steam_id":76561199022277859,"connected_time":302000000000,"state":"active","ping":62}]},{"server_id":37,"name":"Uncletopia | Chicago | 6 | All Maps","name_short":"chi-6","host":"chi-2.us.uncletopia.com","port":27025,"enabled":true,"region":"us-central","cc":"us","latitude":41.881832,"longitude":-87.62318,"reserved":0,"last_update":"0001-01-01T00:00:00Z","name_a2s":"Uncletopia | Chicago | 6 | All Maps","protocol":17,"map":"koth_cascade","folder":"tf","game":"Team Fortress","app_id":440,"player_count":2,"max_players":24,"Bots":0,"server_type":"Dedicated","server_os":"Linux","password":true,"vac":true,"version":"7708610","steam_id":85568392924866363,"keywords":["cp","nocrits","nodmgspread","uncletopia"],"game_id":440,"stv_port":0,"stv_name":"","players":[{"user_id":12,"name":"ggman02","steam_id":76561198883354910,"connected_time":479000000000,"state":"active","ping":50},{"user_id":13,"name":"SpawnOfSatan","steam_id":76561198979715607,"connected_time":410000000000,"state":"active","ping":51}]},{"server_id":38,"name":"Uncletopia | Chicago | 7 | No Payload","name_short":"chi-7","host":"chi-2.us.uncletopia.com","port":27035,"enabled":true,"region":"us-central","cc":"us","latitude":41.881832,"longitude":-87.62318,"reserved":0,"last_update":"0001-01-01T00:00:00Z","name_a2s":"Uncletopia | Chicago | 7 | No Payload","protocol":17,"map":"koth_viaduct","folder":"tf","game":"Team Fortress","app_id":440,"player_count":0,"max_players":24,"Bots":0,"server_type":"Dedicated","server_os":"Linux","password":true,"vac":true,"version":"7708610","steam_id":85568392924866364,"keywords":["cp","nocrits","nodmgspread","uncletopia"],"game_id":440,"stv_port":0,"stv_name":"","players":null},{"server_id":39,"name":"Uncletopia | Chicago | 8 | Community","name_short":"chi-8","host":"chi-2.us.uncletopia.com","port":27045,"enabled":true,"region":"us-central","cc":"us","latitude":41.881832,"longitude":-87.62318,"reserved":0,"last_update":"0001-01-01T00:00:00Z","name_a2s":"Uncletopia | Chicago | 8 | Community","protocol":17,"map":"workshop/koth_bagel_rc5.ugc2514036946","folder":"tf","game":"Team Fortress","app_id":440,"player_count":0,"max_players":24,"Bots":0,"server_type":"Dedicated","server_os":"Linux","password":true,"vac":true,"version":"7708610","steam_id":85568392924866365,"keywords":["cp","nocrits","nodmgspread","uncletopia"],"game_id":440,"stv_port":27046,"stv_name":"Uncletopia | Chicago | 8 | Community | STV","players":null},{"server_id":8,"name":"Uncletopia | Dallas | 1 | All Maps","name_short":"dal-1","host":"dal-1.us.uncletopia.com","port":27015,"enabled":true,"region":"us-central","cc":"us","latitude":32.779167,"longitude":-96.80889,"reserved":0,"last_update":"0001-01-01T00:00:00Z","name_a2s":"Uncletopia | Dallas | 1 | All Maps","protocol":17,"map":"cp_sunshine","folder":"tf","game":"Team Fortress","app_id":440,"player_count":24,"max_players":24,"Bots":0,"server_type":"Dedicated","server_os":"Linux","password":true,"vac":true,"version":"7708610","steam_id":85568392924469986,"keywords":["cp","nocrits","nodmgspread","uncletopia"],"game_id":440,"stv_port":27016,"stv_name":"Uncletopia | Dallas | 1 | All Maps | STV","players":[{"user_id":379,"name":"FoamyPirate.h","steam_id":76561197970312151,"connected_time":1384000000000,"state":"active","ping":97},{"user_id":385,"name":"An00bissmas","steam_id":76561198044084508,"connected_time":970000000000,"state":"active","ping":73},{"user_id":402,"name":"vcx","steam_id":76561198139371143,"connected_time":449000000000,"state":"active","ping":57},{"user_id":382,"name":"Melnuts","steam_id":76561198053001758,"connected_time":1328000000000,"state":"active","ping":89},{"user_id":405,"name":"yeetus meatus","steam_id":76561199204369282,"connected_time":348000000000,"state":"active","ping":87},{"user_id":386,"name":"Halohunter408","steam_id":76561198396612932,"connected_time":964000000000,"state":"active","ping":84},{"user_id":351,"name":"dearender","steam_id":76561199427644498,"connected_time":3909000000000,"state":"active","ping":97},{"user_id":387,"name":"Horizons","steam_id":76561198106417594,"connected_time":954000000000,"state":"active","ping":49},{"user_id":372,"name":"Ccpop123a","steam_id":76561198883889729,"connected_time":1999000000000,"state":"active","ping":61},{"user_id":363,"name":"no vc no c","steam_id":76561197989503095,"connected_time":3471000000000,"state":"active","ping":175},{"user_id":388,"name":"MrLeftTurn","steam_id":76561198856743969,"connected_time":941000000000,"state":"active","ping":126},{"user_id":373,"name":"Gengoron","steam_id":76561197994829919,"connected_time":1980000000000,"state":"active","ping":102},{"user_id":407,"name":"Quietsharp","steam_id":76561198277968438,"connected_time":278000000000,"state":"active","ping":77},{"user_id":390,"name":"RuTr0wRaGgy","steam_id":76561198986964560,"connected_time":876000000000,"state":"active","ping":83},{"user_id":374,"name":"El Camino","steam_id":76561197992848313,"connected_time":1873000000000,"state":"active","ping":81},{"user_id":401,"name":"Boingo","steam_id":76561199086931535,"connected_time":626000000000,"state":"active","ping":49},{"user_id":392,"name":"Todouw","steam_id":76561199197628378,"connected_time":855000000000,"state":"active","ping":139},{"user_id":393,"name":"BXS","steam_id":76561197968425418,"connected_time":852000000000,"state":"active","ping":81},{"user_id":403,"name":"MarioManz","steam_id":76561198123454475,"connected_time":369000000000,"state":"active","ping":60},{"user_id":399,"name":"TentoBlue","steam_id":76561198113104036,"connected_time":763000000000,"state":"active","ping":46},{"user_id":408,"name":"Brison","steam_id":76561197993377761,"connected_time":259000000000,"state":"active","ping":88},{"user_id":400,"name":"LogicalFurret","steam_id":76561198350604657,"connected_time":758000000000,"state":"active","ping":79},{"user_id":362,"name":"Jousty","steam_id":76561199162677853,"connected_time":3481000000000,"state":"active","ping":107},{"user_id":396,"name":"Bob","steam_id":76561198834350355,"connected_time":848000000000,"state":"active","ping":124}]},{"server_id":108,"name":"Uncletopia | Dallas | 2 | All Maps","name_short":"dal-2","host":"dal-1.us.uncletopia.com","port":27025,"enabled":true,"region":"us-central","cc":"us","latitude":32.779167,"longitude":-96.80889,"reserved":0,"last_update":"0001-01-01T00:00:00Z","name_a2s":"Uncletopia | Dallas | 2 | All Maps","protocol":17,"map":"pl_pier","folder":"tf","game":"Team Fortress","app_id":440,"player_count":0,"max_players":24,"Bots":0,"server_type":"Dedicated","server_os":"Linux","password":true,"vac":true,"version":"7708610","steam_id":85568392924469988,"keywords":["nocrits","nodmgspread","payload","uncletopia"],"game_id":440,"stv_port":27026,"stv_name":"Uncletopia | Dallas | 2 | All Maps | STV","players":null},{"server_id":5,"name":"Uncletopia | Frankfurt | 1 | All Maps","name_short":"frk-1","host":"frk-1.de.uncletopia.com","port":27015,"enabled":true,"region":"eu","cc":"de","latitude":50.110924,"longitude":8.682127,"reserved":0,"last_update":"0001-01-01T00:00:00Z","name_a2s":"Uncletopia | Frankfurt | 1 | All Maps","protocol":17,"map":"pl_badwater","folder":"tf","game":"Team Fortress","app_id":440,"player_count":24,"max_players":24,"Bots":0,"server_type":"Dedicated","server_os":"Linux","password":true,"vac":true,"version":"7708610","steam_id":85568392924469989,"keywords":["nocrits","nodmgspread","payload","uncletopia"],"game_id":440,"stv_port":27016,"stv_name":"Uncletopia | Frankfurt | 1 | All Maps | STV","players":[{"user_id":589,"name":"cheriberry","steam_id":76561198093577036,"connected_time":5484000000000,"state":"active","ping":54},{"user_id":646,"name":"Zinney","steam_id":76561198170997706,"connected_time":1511000000000,"state":"active","ping":52},{"user_id":662,"name":"Alfred2.2","steam_id":76561198339314744,"connected_time":832000000000,"state":"active","ping":49},{"user_id":668,"name":"bigmax0258","steam_id":76561198085012722,"connected_time":705000000000,"state":"active","ping":160},{"user_id":630,"name":"MATLAB R2021b","steam_id":76561198053440695,"connected_time":2770000000000,"state":"active","ping":55},{"user_id":663,"name":"manure merchant","steam_id":76561198010109316,"connected_time":823000000000,"state":"active","ping":51},{"user_id":664,"name":"Sivik","steam_id":76561198370329466,"connected_time":804000000000,"state":"active","ping":57},{"user_id":644,"name":"ghost","steam_id":76561198189940229,"connected_time":1575000000000,"state":"active","ping":58},{"user_id":674,"name":"QuantumSleeper","steam_id":76561198082347638,"connected_time":113000000000,"state":"active","ping":66},{"user_id":639,"name":"Fales","steam_id":76561198126124929,"connected_time":2211000000000,"state":"active","ping":70},{"user_id":595,"name":"Carl","steam_id":76561198045638738,"connected_time":5254000000000,"state":"active","ping":71},{"user_id":604,"name":"ThePootisGuy","steam_id":76561198127426807,"connected_time":4535000000000,"state":"active","ping":47},{"user_id":669,"name":"Fuming a fischion","steam_id":76561198133085347,"connected_time":660000000000,"state":"active","ping":54},{"user_id":636,"name":"NiNYÃ","steam_id":76561197995685294,"connected_time":2594000000000,"state":"active","ping":60},{"user_id":665,"name":"=OKB= P4NTH3R","steam_id":76561197999204603,"connected_time":792000000000,"state":"active","ping":58},{"user_id":661,"name":"Cirox","steam_id":76561198383142404,"connected_time":918000000000,"state":"active","ping":101},{"user_id":666,"name":"France\u003eezgland","steam_id":76561198173218318,"connected_time":776000000000,"state":"active","ping":55},{"user_id":670,"name":"5678","steam_id":76561198125635351,"connected_time":660000000000,"state":"active","ping":68},{"user_id":671,"name":"tukata","steam_id":76561198861013993,"connected_time":656000000000,"state":"active","ping":62},{"user_id":634,"name":"name","steam_id":76561198152620745,"connected_time":2707000000000,"state":"active","ping":69},{"user_id":648,"name":"breedable","steam_id":76561198010300032,"connected_time":1449000000000,"state":"active","ping":60},{"user_id":672,"name":"Adrenaline","steam_id":76561197970852048,"connected_time":636000000000,"state":"active","ping":59},{"user_id":640,"name":"Oceanic | tuesday maybe","steam_id":76561197979741827,"connected_time":2041000000000,"state":"active","ping":60},{"user_id":659,"name":"Octis","steam_id":76561198015536917,"connected_time":1142000000000,"state":"active","ping":75}]},{"server_id":110,"name":"Uncletopia | Frankfurt | 2 | All Maps","name_short":"frk-2","host":"frk-1.de.uncletopia.com","port":27025,"enabled":true,"region":"eu","cc":"de","latitude":50.110924,"longitude":8.682127,"reserved":0,"last_update":"0001-01-01T00:00:00Z","name_a2s":"Uncletopia | Frankfurt | 2 | All Maps","protocol":17,"map":"pl_borneo","folder":"tf","game":"Team Fortress","app_id":440,"player_count":0,"max_players":24,"Bots":0,"server_type":"Dedicated","server_os":"Linux","password":true,"vac":true,"version":"7708610","steam_id":85568392924469990,"keywords":["nocrits","nodmgspread","payload","uncletopia"],"game_id":440,"stv_port":27026,"stv_name":"Uncletopia | Frankfurt | 2 | All Maps | STV","players":null},{"server_id":308,"name":"Uncletopia | Frankfurt | 3 | All Maps","name_short":"frk-3","host":"frk-1.de.uncletopia.com","port":27035,"enabled":true,"region":"eu","cc":"de","latitude":50.110924,"longitude":8.682127,"reserved":0,"last_update":"0001-01-01T00:00:00Z","name_a2s":"Uncletopia | Frankfurt | 3 | All Maps","protocol":17,"map":"koth_viaduct","folder":"tf","game":"Team Fortress","app_id":440,"player_count":0,"max_players":24,"Bots":0,"server_type":"Dedicated","server_os":"Linux","password":true,"vac":true,"version":"7708610","steam_id":85568392924504274,"keywords":["cp","nocrits","nodmgspread","uncletopia"],"game_id":440,"stv_port":27036,"stv_name":"Uncletopia | Frankfurt | 3 | All Maps | STV","players":null},{"server_id":309,"name":"Uncletopia | Frankfurt | 4 | All Maps","name_short":"frk-4","host":"frk-1.de.uncletopia.com","port":27045,"enabled":true,"region":"eu","cc":"de","latitude":50.110924,"longitude":8.682127,"reserved":0,"last_update":"0001-01-01T00:00:00Z","name_a2s":"Uncletopia | Frankfurt | 4 | All Maps","protocol":17,"map":"cp_process_final","folder":"tf","game":"Team Fortress","app_id":440,"player_count":3,"max_players":24,"Bots":0,"server_type":"Dedicated","server_os":"Linux","password":true,"vac":true,"version":"7708610","steam_id":85568392924504275,"keywords":["cp","nocrits","nodmgspread","uncletopia"],"game_id":440,"stv_port":27046,"stv_name":"Uncletopia | Frankfurt | 4 | All Maps | STV","players":[{"user_id":689,"name":"Isleman","steam_id":76561198113610300,"connected_time":2046000000000,"state":"active","ping":67},{"user_id":681,"name":"Archie","steam_id":76561199061232100,"connected_time":3365000000000,"state":"active","ping":64},{"user_id":695,"name":"furry uwu gf","steam_id":76561199229766865,"connected_time":908000000000,"state":"active","ping":88}]},{"server_id":310,"name":"Uncletopia | Frankfurt | 5 | All Maps","name_short":"frk-5","host":"frk-1.de.uncletopia.com","port":27055,"enabled":true,"region":"eu","cc":"de","latitude":50.110924,"longitude":8.682127,"reserved":0,"last_update":"0001-01-01T00:00:00Z","name_a2s":"Uncletopia | Frankfurt | 5 | All Maps","protocol":17,"map":"pl_upward","folder":"tf","game":"Team Fortress","app_id":440,"player_count":24,"max_players":24,"Bots":0,"server_type":"Dedicated","server_os":"Linux","password":true,"vac":true,"version":"7708610","steam_id":85568392924504277,"keywords":["nocrits","nodmgspread","payload","uncletopia"],"game_id":440,"stv_port":27056,"stv_name":"Uncletopia | Frankfurt | 5 | All Maps | STV","players":[{"user_id":715,"name":"jeff","steam_id":76561198272815746,"connected_time":59000000000,"state":"active","ping":57},{"user_id":666,"name":"dustee","steam_id":76561198023486582,"connected_time":3216000000000,"state":"active","ping":74},{"user_id":709,"name":"\u003cinsert name here\u003e","steam_id":76561198040352646,"connected_time":271000000000,"state":"active","ping":61},{"user_id":685,"name":"chris","steam_id":76561198069723264,"connected_time":2230000000000,"state":"active","ping":65},{"user_id":710,"name":"lupe.-","steam_id":76561198079813788,"connected_time":260000000000,"state":"active","ping":60},{"user_id":704,"name":"Luo Lang","steam_id":76561197988802856,"connected_time":1182000000000,"state":"active","ping":57},{"user_id":705,"name":"Drommar","steam_id":76561199219654706,"connected_time":1179000000000,"state":"active","ping":75},{"user_id":689,"name":"Princess Fuzz","steam_id":76561198025783000,"connected_time":2037000000000,"state":"active","ping":53},{"user_id":678,"name":"Economic crisis","steam_id":76561198063562843,"connected_time":2687000000000,"state":"active","ping":54},{"user_id":711,"name":"Trytard","steam_id":76561198094507220,"connected_time":196000000000,"state":"active","ping":66},{"user_id":700,"name":"jspf","steam_id":76561197961127850,"connected_time":1654000000000,"state":"active","ping":73},{"user_id":712,"name":"Dwapking","steam_id":76561198039583834,"connected_time":143000000000,"state":"active","ping":59},{"user_id":651,"name":"tm`","steam_id":76561197993580412,"connected_time":4024000000000,"state":"active","ping":56},{"user_id":681,"name":"mohemmedmokhter2005","steam_id":76561199197650506,"connected_time":2408000000000,"state":"active","ping":108},{"user_id":701,"name":"ZRD83[FR]","steam_id":76561198411341922,"connected_time":1654000000000,"state":"active","ping":61},{"user_id":713,"name":"Emotional Reassurance Pyro","steam_id":76561198213498127,"connected_time":106000000000,"state":"active","ping":102},{"user_id":702,"name":"braindead?","steam_id":76561198878444299,"connected_time":1591000000000,"state":"active","ping":147},{"user_id":670,"name":"Beans on toast","steam_id":76561198007308717,"connected_time":3166000000000,"state":"active","ping":78},{"user_id":694,"name":"help","steam_id":76561199056338917,"connected_time":1963000000000,"state":"active","ping":169},{"user_id":642,"name":"Zateske","steam_id":76561198047446276,"connected_time":4716000000000,"state":"active","ping":63},{"user_id":684,"name":"Peaced.old","steam_id":76561197993682469,"connected_time":2304000000000,"state":"active","ping":61},{"user_id":714,"name":"Wymonso","steam_id":76561198018654071,"connected_time":96000000000,"state":"active","ping":188},{"user_id":683,"name":"ubrs","steam_id":76561198054870921,"connected_time":2398000000000,"state":"active","ping":60},{"user_id":698,"name":"Treep","steam_id":76561198038711185,"connected_time":1717000000000,"state":"active","ping":78}]},{"server_id":311,"name":"Uncletopia | Frankfurt | 6 | All Maps","name_short":"frk-6","host":"frk-1.de.uncletopia.com","port":27065,"enabled":true,"region":"eu","cc":"de","latitude":50.110924,"longitude":8.682127,"reserved":0,"last_update":"0001-01-01T00:00:00Z","name_a2s":"Uncletopia | Frankfurt | 6 | All Maps","protocol":17,"map":"pl_swiftwater_final1","folder":"tf","game":"Team Fortress","app_id":440,"player_count":24,"max_players":24,"Bots":0,"server_type":"Dedicated","server_os":"Linux","password":true,"vac":true,"version":"7708610","steam_id":85568392924504278,"keywords":["nocrits","nodmgspread","payload","uncletopia"],"game_id":440,"stv_port":27066,"stv_name":"Uncletopia | Frankfurt | 6 | All Maps | STV","players":[{"user_id":227,"name":"★ Luxe","steam_id":76561198866691839,"connected_time":5381000000000,"state":"active","ping":59},{"user_id":275,"name":"-rikeOo-","steam_id":76561198303995379,"connected_time":978000000000,"state":"active","ping":69},{"user_id":247,"name":"torn","steam_id":76561198223003236,"connected_time":1722000000000,"state":"active","ping":55},{"user_id":273,"name":"Vertebrate","steam_id":76561198147205843,"connected_time":1134000000000,"state":"active","ping":77},{"user_id":274,"name":"xSamyaza","steam_id":76561198058447257,"connected_time":1071000000000,"state":"active","ping":55},{"user_id":281,"name":"Alvarez","steam_id":76561198075520849,"connected_time":273000000000,"state":"active","ping":63},{"user_id":266,"name":"DM_Tiz","steam_id":76561198061478257,"connected_time":1333000000000,"state":"active","ping":46},{"user_id":280,"name":"Qatuk","steam_id":76561198857696199,"connected_time":749000000000,"state":"active","ping":69},{"user_id":244,"name":"Zerfesh","steam_id":76561198117534358,"connected_time":1798000000000,"state":"active","ping":92},{"user_id":248,"name":"waffle toaster","steam_id":76561198799089628,"connected_time":1717000000000,"state":"active","ping":62},{"user_id":267,"name":"playersunknown339","steam_id":76561199065232810,"connected_time":1311000000000,"state":"active","ping":56},{"user_id":282,"name":"Dill Killem","steam_id":76561199071571354,"connected_time":271000000000,"state":"active","ping":70},{"user_id":271,"name":"SpilledMilk","steam_id":76561198174123971,"connected_time":1241000000000,"state":"active","ping":54},{"user_id":268,"name":"I Don't Know","steam_id":76561198841011430,"connected_time":1307000000000,"state":"active","ping":62},{"user_id":269,"name":"Arscin","steam_id":76561198262193529,"connected_time":1302000000000,"state":"active","ping":63},{"user_id":283,"name":"Mr. Sandman","steam_id":76561198281209867,"connected_time":225000000000,"state":"active","ping":59},{"user_id":257,"name":"Valoxi","steam_id":76561197995042938,"connected_time":1536000000000,"state":"active","ping":58},{"user_id":258,"name":"Kurage","steam_id":76561198021221288,"connected_time":1536000000000,"state":"active","ping":65},{"user_id":259,"name":"Moebius","steam_id":76561198045069988,"connected_time":1518000000000,"state":"active","ping":55},{"user_id":260,"name":"Krabs","steam_id":76561198161679477,"connected_time":1508000000000,"state":"active","ping":54},{"user_id":261,"name":"Kylul_","steam_id":76561198042981061,"connected_time":1493000000000,"state":"active","ping":58},{"user_id":262,"name":"Blastimus","steam_id":76561198040070927,"connected_time":1492000000000,"state":"active","ping":86},{"user_id":263,"name":"the caberest caber","steam_id":76561198368091695,"connected_time":1486000000000,"state":"active","ping":134},{"user_id":264,"name":"DarkFloy | Hrvatska is in semif","steam_id":76561198070650206,"connected_time":1478000000000,"state":"active","ping":88}]},{"server_id":23,"name":"Uncletopia | Frankfurt | 7 | No Payload","name_short":"frk-7","host":"frk-1.de.uncletopia.com","port":27075,"enabled":true,"region":"eu","cc":"de","latitude":50.110924,"longitude":8.682127,"reserved":0,"last_update":"0001-01-01T00:00:00Z","name_a2s":"Uncletopia | Frankfurt | 7 | No Payload","protocol":17,"map":"ctf_turbine","folder":"tf","game":"Team Fortress","app_id":440,"player_count":16,"max_players":24,"Bots":0,"server_type":"Dedicated","server_os":"Linux","password":true,"vac":true,"version":"7708610","steam_id":85568392924742827,"keywords":["ctf","nocrits","nodmgspread","uncletopia"],"game_id":440,"stv_port":27076,"stv_name":"Uncletopia | Frankfurt | 7 | No Payload | STV","players":[{"user_id":204,"name":"heisenburger","steam_id":76561198284589853,"connected_time":2402000000000,"state":"active","ping":100},{"user_id":226,"name":"Hexahead","steam_id":76561199043740497,"connected_time":828000000000,"state":"active","ping":57},{"user_id":227,"name":"₪ F4.exe","steam_id":76561197997909480,"connected_time":820000000000,"state":"active","ping":67},{"user_id":235,"name":"relaxtionfuel","steam_id":76561198868673990,"connected_time":166000000000,"state":"active","ping":161},{"user_id":228,"name":"F4.exe","steam_id":76561198278822807,"connected_time":754000000000,"state":"active","ping":55},{"user_id":237,"name":"BinaryTrees","steam_id":76561198046819746,"connected_time":70000000000,"state":"active","ping":42},{"user_id":236,"name":"РСЗО \"Град\"","steam_id":76561198925647075,"connected_time":148000000000,"state":"active","ping":108},{"user_id":238,"name":"IL CACCIATORE DI TEPPISTI HD SD","steam_id":76561199075826786,"connected_time":27000000000,"state":"active","ping":90},{"user_id":231,"name":"Gandalf","steam_id":76561199072668363,"connected_time":368000000000,"state":"active","ping":69},{"user_id":232,"name":"ArcherP","steam_id":76561198971371717,"connected_time":350000000000,"state":"active","ping":96},{"user_id":194,"name":"Warpzel65","steam_id":76561198799303596,"connected_time":2770000000000,"state":"active","ping":100},{"user_id":234,"name":"Cuppa_J0E","steam_id":76561199189864374,"connected_time":312000000000,"state":"active","ping":63},{"user_id":178,"name":"Midoriaga","steam_id":76561198010699090,"connected_time":3975000000000,"state":"active","ping":46},{"user_id":223,"name":"63756d","steam_id":76561198808699024,"connected_time":1244000000000,"state":"active","ping":55},{"user_id":212,"name":"Taylor","steam_id":76561198088268573,"connected_time":2178000000000,"state":"active","ping":57},{"user_id":214,"name":"san fierro","steam_id":76561198067159902,"connected_time":2101000000000,"state":"active","ping":116}]},{"server_id":24,"name":"Uncletopia | Frankfurt | 8 | Community","name_short":"frk-8","host":"frk-1.de.uncletopia.com","port":27085,"enabled":true,"region":"eu","cc":"de","latitude":50.110924,"longitude":8.682127,"reserved":0,"last_update":"0001-01-01T00:00:00Z","name_a2s":"Uncletopia | Frankfurt | 8 | Community","protocol":17,"map":"workshop/koth_slaughter_rc1.ugc1712845210","folder":"tf","game":"Team Fortress","app_id":440,"player_count":0,"max_players":24,"Bots":0,"server_type":"Dedicated","server_os":"Linux","password":true,"vac":true,"version":"7708610","steam_id":85568392924742828,"keywords":["cp","nocrits","nodmgspread","uncletopia"],"game_id":440,"stv_port":27086,"stv_name":"Uncletopia | Frankfurt | 8 | Community | STV","players":null},{"server_id":202,"name":"Uncletopia | Hong Kong | 1 | All Maps","name_short":"hgk-1","host":"hgk-1.hk.uncletopia.com","port":27015,"enabled":true,"region":"asia","cc":"hk","latitude":22.302711,"longitude":114.177216,"reserved":0,"last_update":"0001-01-01T00:00:00Z","name_a2s":"Uncletopia | Hong Kong | 1 | All Maps","protocol":17,"map":"pl_upward","folder":"tf","game":"Team Fortress","app_id":440,"player_count":0,"max_players":24,"Bots":0,"server_type":"Dedicated","server_os":"Linux","password":true,"vac":true,"version":"7708610","steam_id":85568392924494504,"keywords":["nocrits","nodmgspread","payload","uncletopia"],"game_id":440,"stv_port":0,"stv_name":"","players":null},{"server_id":1,"name":"Uncletopia | Los Angeles | 1 | All Maps","name_short":"lax-1","host":"lax-1.us.uncletopia.com","port":27015,"enabled":true,"region":"us-west","cc":"us","latitude":33.94279,"longitude":-118.41004,"reserved":0,"last_update":"0001-01-01T00:00:00Z","name_a2s":"Uncletopia | Los Angeles | 1 | All Maps","protocol":17,"map":"pl_frontier_final","folder":"tf","game":"Team Fortress","app_id":440,"player_count":0,"max_players":24,"Bots":0,"server_type":"Dedicated","server_os":"Linux","password":true,"vac":true,"version":"7708610","steam_id":85568392924469991,"keywords":["nocrits","nodmgspread","payload","uncletopia"],"game_id":440,"stv_port":27016,"stv_name":"Uncletopia | Los Angeles | 1 | All Maps | STV","players":null},{"server_id":112,"name":"Uncletopia | Los Angeles | 2 | All Maps","name_short":"lax-2","host":"lax-1.us.uncletopia.com","port":27025,"enabled":true,"region":"us-west","cc":"us","latitude":33.94279,"longitude":-118.41004,"reserved":0,"last_update":"0001-01-01T00:00:00Z","name_a2s":"Uncletopia | Los Angeles | 2 | All Maps","protocol":17,"map":"cp_dustbowl","folder":"tf","game":"Team Fortress","app_id":440,"player_count":0,"max_players":24,"Bots":0,"server_type":"Dedicated","server_os":"Linux","password":true,"vac":true,"version":"7708610","steam_id":85568392924469992,"keywords":["cp","nocrits","nodmgspread","uncletopia"],"game_id":440,"stv_port":27026,"stv_name":"Uncletopia | Los Angeles | 2 | All Maps | STV","players":null},{"server_id":324,"name":"Uncletopia | Los Angeles | 3 | All Maps","name_short":"lax-3","host":"lax-1.us.uncletopia.com","port":27035,"enabled":true,"region":"us-west","cc":"us","latitude":33.94279,"longitude":-118.41004,"reserved":0,"last_update":"0001-01-01T00:00:00Z","name_a2s":"Uncletopia | Los Angeles | 3 | All Maps","protocol":17,"map":"pl_badwater","folder":"tf","game":"Team Fortress","app_id":440,"player_count":16,"max_players":24,"Bots":0,"server_type":"Dedicated","server_os":"Linux","password":true,"vac":true,"version":"7708610","steam_id":85568392924510198,"keywords":["nocrits","nodmgspread","payload","uncletopia"],"game_id":440,"stv_port":27036,"stv_name":"Uncletopia | Los Angeles | 3 | All Maps | STV","players":[{"user_id":93,"name":"Interrobang","steam_id":76561198385044529,"connected_time":16000000000,"state":"active","ping":94},{"user_id":64,"name":"Klip","steam_id":76561198316254429,"connected_time":685000000000,"state":"active","ping":84},{"user_id":63,"name":"Styil","steam_id":76561198075555802,"connected_time":841000000000,"state":"active","ping":33},{"user_id":21,"name":"FatCuddlyBear","steam_id":76561198133613253,"connected_time":2158000000000,"state":"active","ping":99},{"user_id":62,"name":"plutonium isotope","steam_id":76561198319442494,"connected_time":908000000000,"state":"active","ping":48},{"user_id":23,"name":"DeanoBravo","steam_id":76561199205459446,"connected_time":2090000000000,"state":"active","ping":102},{"user_id":39,"name":"Ghost Lord","steam_id":76561198088956723,"connected_time":1377000000000,"state":"active","ping":130},{"user_id":31,"name":"saum22222222","steam_id":76561198880569323,"connected_time":1811000000000,"state":"active","ping":87},{"user_id":27,"name":"doomguy93","steam_id":76561198046624628,"connected_time":2047000000000,"state":"active","ping":90},{"user_id":34,"name":"[❤]tonyantonio","steam_id":76561198063521748,"connected_time":1748000000000,"state":"active","ping":43},{"user_id":36,"name":"♥LET'S♥GET♥PHYSICAL♥","steam_id":76561197961107982,"connected_time":1672000000000,"state":"active","ping":101},{"user_id":41,"name":"Quantum Blueberry","steam_id":76561198288719298,"connected_time":1296000000000,"state":"active","ping":50},{"user_id":91,"name":"Bobby Ray","steam_id":76561198044131188,"connected_time":69000000000,"state":"active","ping":75},{"user_id":43,"name":"CherryYeti","steam_id":76561199221441151,"connected_time":1274000000000,"state":"active","ping":46},{"user_id":92,"name":"Wise Guy","steam_id":76561198134657114,"connected_time":66000000000,"state":"active","ping":42},{"user_id":45,"name":"iceball3","steam_id":76561198012040375,"connected_time":1248000000000,"state":"active","ping":80}]},{"server_id":25,"name":"Uncletopia | Los Angeles | 4 | No Payload","name_short":"lax-4","host":"lax-1.us.uncletopia.com","port":27045,"enabled":true,"region":"us-west","cc":"us","latitude":33.94279,"longitude":-118.41004,"reserved":0,"last_update":"0001-01-01T00:00:00Z","name_a2s":"Uncletopia | Los Angeles | 4 | No Payload","protocol":17,"map":"cp_freight_final1","folder":"tf","game":"Team Fortress","app_id":440,"player_count":0,"max_players":24,"Bots":0,"server_type":"Dedicated","server_os":"Linux","password":true,"vac":true,"version":"7708610","steam_id":85568392924510199,"keywords":["cp","nocrits","nodmgspread","uncletopia"],"game_id":440,"stv_port":27046,"stv_name":"Uncletopia | Los Angeles | 4 | No Payload | STV","players":null},{"server_id":11,"name":"Uncletopia | London | 1 | All Maps","name_short":"lon-1","host":"lon-1.uk.uncletopia.com","port":27015,"enabled":true,"region":"eu","cc":"gb","latitude":51.509865,"longitude":-0.118092,"reserved":0,"last_update":"0001-01-01T00:00:00Z","name_a2s":"Uncletopia | London | 1 | All Maps","protocol":17,"map":"cp_sunshine","folder":"tf","game":"Team Fortress","app_id":440,"player_count":24,"max_players":24,"Bots":0,"server_type":"Dedicated","server_os":"Linux","password":true,"vac":true,"version":"7708610","steam_id":85568392924367362,"keywords":["cp","nocrits","nodmgspread","uncletopia"],"game_id":440,"stv_port":27016,"stv_name":"Uncletopia | London | 1 | All Maps | STV","players":[{"user_id":481,"name":"BreadBaubbles","steam_id":76561198174332826,"connected_time":4245000000000,"state":"active","ping":55},{"user_id":501,"name":"BEAST MODE 24/7","steam_id":76561198089227864,"connected_time":1657000000000,"state":"active","ping":45},{"user_id":418,"name":"( ]KROAN[ )","steam_id":76561198022840710,"connected_time":10446000000000,"state":"active","ping":75},{"user_id":476,"name":"vi","steam_id":76561198303147966,"connected_time":4784000000000,"state":"active","ping":45},{"user_id":468,"name":"Ponto-Cho","steam_id":76561198859709451,"connected_time":5306000000000,"state":"active","ping":45},{"user_id":487,"name":"Kahvi","steam_id":76561198723244199,"connected_time":2899000000000,"state":"active","ping":85},{"user_id":453,"name":"Mango","steam_id":76561198139555709,"connected_time":7221000000000,"state":"active","ping":54},{"user_id":505,"name":"Cum-pkin ❤","steam_id":76561199273774208,"connected_time":1516000000000,"state":"active","ping":75},{"user_id":508,"name":"Mankor","steam_id":76561198020439322,"connected_time":1368000000000,"state":"active","ping":59},{"user_id":510,"name":"merry beebo","steam_id":76561199120277007,"connected_time":1040000000000,"state":"active","ping":49},{"user_id":491,"name":"Jingleboob's Elf","steam_id":76561198067204908,"connected_time":2641000000000,"state":"active","ping":60},{"user_id":498,"name":"player","steam_id":76561198054474684,"connected_time":1997000000000,"state":"active","ping":81},{"user_id":504,"name":"Savunya64","steam_id":76561199071756176,"connected_time":1529000000000,"state":"active","ping":120},{"user_id":506,"name":"Megamain","steam_id":76561198923772036,"connected_time":1454000000000,"state":"active","ping":48},{"user_id":500,"name":"yodie land","steam_id":76561198127441800,"connected_time":1691000000000,"state":"active","ping":61},{"user_id":483,"name":"jingleboob","steam_id":76561198097507847,"connected_time":3877000000000,"state":"active","ping":80},{"user_id":502,"name":"upisfree","steam_id":76561198064037857,"connected_time":1543000000000,"state":"active","ping":91},{"user_id":437,"name":"\u003e:T","steam_id":76561198198984282,"connected_time":9348000000000,"state":"active","ping":123},{"user_id":511,"name":"Festive Yuletart","steam_id":76561198023918830,"connected_time":383000000000,"state":"active","ping":45},{"user_id":513,"name":"Jonathan","steam_id":76561198087988880,"connected_time":83000000000,"state":"active","ping":71},{"user_id":507,"name":"tralalaOuiOui","steam_id":76561197963471507,"connected_time":1450000000000,"state":"active","ping":46},{"user_id":488,"name":"gnarly business","steam_id":76561198832688767,"connected_time":2804000000000,"state":"active","ping":55},{"user_id":514,"name":"Sad Slut","steam_id":76561198838277022,"connected_time":82000000000,"state":"active","ping":76},{"user_id":475,"name":"KPhii","steam_id":76561198970587061,"connected_time":4812000000000,"state":"active","ping":58}]},{"server_id":114,"name":"Uncletopia | London | 2 | All Maps","name_short":"lon-2","host":"lon-1.uk.uncletopia.com","port":27025,"enabled":true,"region":"eu","cc":"gb","latitude":51.509865,"longitude":-0.118092,"reserved":0,"last_update":"0001-01-01T00:00:00Z","name_a2s":"Uncletopia | London | 2 | All Maps","protocol":17,"map":"pl_snowycoast","folder":"tf","game":"Team Fortress","app_id":440,"player_count":24,"max_players":24,"Bots":0,"server_type":"Dedicated","server_os":"Linux","password":true,"vac":true,"version":"7708610","steam_id":85568392924470941,"keywords":["nocrits","nodmgspread","payload","uncletopia"],"game_id":440,"stv_port":27026,"stv_name":"Uncletopia | London | 2 | All Maps | STV","players":[{"user_id":346,"name":"simn","steam_id":76561198159182269,"connected_time":688000000000,"state":"active","ping":59},{"user_id":269,"name":"tshirt","steam_id":76561198040757844,"connected_time":6547000000000,"state":"active","ping":75},{"user_id":350,"name":"Čika Kure","steam_id":76561199002244505,"connected_time":121000000000,"state":"active","ping":62},{"user_id":328,"name":"president stone marsh melone","steam_id":76561198348934961,"connected_time":3143000000000,"state":"active","ping":49},{"user_id":351,"name":"Jofiah/TTV","steam_id":76561197977233962,"connected_time":111000000000,"state":"active","ping":37},{"user_id":335,"name":"dunduu","steam_id":76561198875240717,"connected_time":2416000000000,"state":"active","ping":78},{"user_id":331,"name":"Dangerousbros","steam_id":76561198088952519,"connected_time":2783000000000,"state":"active","ping":44},{"user_id":316,"name":"swallowed 10 pennies please hel","steam_id":76561198055816412,"connected_time":3738000000000,"state":"active","ping":53},{"user_id":289,"name":"SpartanOne22","steam_id":76561199006361788,"connected_time":5203000000000,"state":"active","ping":138},{"user_id":306,"name":"The Noose is Loose","steam_id":76561198126081318,"connected_time":4299000000000,"state":"active","ping":84},{"user_id":290,"name":"random_player691","steam_id":76561199209946306,"connected_time":5153000000000,"state":"active","ping":54},{"user_id":341,"name":"FatGuySandwich","steam_id":76561198126078799,"connected_time":984000000000,"state":"active","ping":60},{"user_id":339,"name":"gobavec","steam_id":76561198264510914,"connected_time":1358000000000,"state":"active","ping":66},{"user_id":330,"name":"Scarlet","steam_id":76561198075966579,"connected_time":2815000000000,"state":"active","ping":40},{"user_id":319,"name":"Bobo","steam_id":76561198052308399,"connected_time":3567000000000,"state":"active","ping":60},{"user_id":340,"name":"Loudladdy","steam_id":76561198095271834,"connected_time":1334000000000,"state":"active","ping":44},{"user_id":310,"name":"KillerQueen (he/they/she)","steam_id":76561199019399725,"connected_time":4124000000000,"state":"active","ping":49},{"user_id":332,"name":"IanCliff","steam_id":76561198217056368,"connected_time":2781000000000,"state":"active","ping":54},{"user_id":293,"name":"order66.exe","steam_id":76561198057558449,"connected_time":5066000000000,"state":"active","ping":48},{"user_id":324,"name":"Naga","steam_id":76561198133196222,"connected_time":3318000000000,"state":"active","ping":51},{"user_id":347,"name":"Tell me why","steam_id":76561198132080983,"connected_time":676000000000,"state":"active","ping":103},{"user_id":336,"name":"GamerTag54","steam_id":76561198135447714,"connected_time":1408000000000,"state":"active","ping":41},{"user_id":344,"name":"Hies","steam_id":76561198246324242,"connected_time":892000000000,"state":"active","ping":99},{"user_id":326,"name":"Blacksheep","steam_id":76561198019621063,"connected_time":3277000000000,"state":"active","ping":45}]},{"server_id":320,"name":"Uncletopia | London | 3 | All Maps","name_short":"lon-3","host":"lon-1.uk.uncletopia.com","port":27035,"enabled":true,"region":"eu","cc":"gb","latitude":51.509865,"longitude":-0.118092,"reserved":0,"last_update":"0001-01-01T00:00:00Z","name_a2s":"Uncletopia | London | 3 | All Maps","protocol":17,"map":"pl_pier","folder":"tf","game":"Team Fortress","app_id":440,"player_count":24,"max_players":24,"Bots":0,"server_type":"Dedicated","server_os":"Linux","password":true,"vac":true,"version":"7708610","steam_id":85568392924510192,"keywords":["nocrits","nodmgspread","payload","uncletopia"],"game_id":440,"stv_port":27036,"stv_name":"Uncletopia | London | 3 | All Maps | STV","players":[{"user_id":400,"name":"Naeso","steam_id":76561198068602498,"connected_time":1937000000000,"state":"active","ping":45},{"user_id":418,"name":"Dr Sex","steam_id":76561198029044617,"connected_time":712000000000,"state":"active","ping":50},{"user_id":386,"name":"nuclear winter","steam_id":76561198189686075,"connected_time":2965000000000,"state":"active","ping":46},{"user_id":388,"name":"PWizard","steam_id":76561198026458489,"connected_time":2685000000000,"state":"active","ping":76},{"user_id":424,"name":"Nikola","steam_id":76561197993300020,"connected_time":380000000000,"state":"active","ping":75},{"user_id":433,"name":"rummy","steam_id":76561197997573379,"connected_time":259000000000,"state":"active","ping":39},{"user_id":425,"name":"SpagBolChomper","steam_id":76561198129347464,"connected_time":322000000000,"state":"active","ping":40},{"user_id":422,"name":"Humm","steam_id":76561198077768823,"connected_time":540000000000,"state":"active","ping":94},{"user_id":415,"name":"JohkupohkuXD","steam_id":76561198391108762,"connected_time":1033000000000,"state":"active","ping":87},{"user_id":409,"name":"Dolphin2011","steam_id":76561197997323419,"connected_time":1744000000000,"state":"active","ping":88},{"user_id":434,"name":"Its_Cally","steam_id":76561198351850972,"connected_time":153000000000,"state":"active","ping":57},{"user_id":427,"name":"the fly on your wall","steam_id":76561198796671468,"connected_time":302000000000,"state":"active","ping":138},{"user_id":414,"name":"YeMarshes","steam_id":76561199057934377,"connected_time":1107000000000,"state":"active","ping":51},{"user_id":372,"name":"до смерть","steam_id":76561199042470246,"connected_time":3924000000000,"state":"active","ping":73},{"user_id":423,"name":"Mr. Huntsman","steam_id":76561197981910397,"connected_time":444000000000,"state":"active","ping":60},{"user_id":428,"name":"Femboy Lilli","steam_id":76561198090146457,"connected_time":287000000000,"state":"active","ping":46},{"user_id":429,"name":"Cryo","steam_id":76561198324132940,"connected_time":278000000000,"state":"active","ping":55},{"user_id":421,"name":"DEMURE","steam_id":76561198263299590,"connected_time":597000000000,"state":"active","ping":76},{"user_id":430,"name":"BONA FIDE PISS","steam_id":76561198130020929,"connected_time":272000000000,"state":"active","ping":44},{"user_id":403,"name":"hi guys","steam_id":76561198139303045,"connected_time":1925000000000,"state":"active","ping":90},{"user_id":435,"name":"big pipe","steam_id":76561199012488416,"connected_time":76000000000,"state":"active","ping":101},{"user_id":432,"name":"ethan","steam_id":76561198119495513,"connected_time":261000000000,"state":"active","ping":44},{"user_id":407,"name":"100 IQ gaming","steam_id":76561198948719596,"connected_time":1806000000000,"state":"active","ping":44},{"user_id":417,"name":"pablo.gonzalez.2005","steam_id":76561198971389390,"connected_time":1001000000000,"state":"active","ping":67}]},{"server_id":321,"name":"Uncletopia | London | 4 | All Maps","name_short":"lon-4","host":"lon-1.uk.uncletopia.com","port":27045,"enabled":true,"region":"eu","cc":"gb","latitude":51.509865,"longitude":-0.118092,"reserved":0,"last_update":"0001-01-01T00:00:00Z","name_a2s":"Uncletopia | London | 4 | All Maps","protocol":17,"map":"pl_thundermountain","folder":"tf","game":"Team Fortress","app_id":440,"player_count":24,"max_players":24,"Bots":0,"server_type":"Dedicated","server_os":"Linux","password":true,"vac":true,"version":"7708610","steam_id":85568392924510193,"keywords":["nocrits","nodmgspread","payload","uncletopia"],"game_id":440,"stv_port":27046,"stv_name":"Uncletopia | London | 4 | All Maps | STV","players":[{"user_id":733,"name":"TheBeardedM1G","steam_id":76561198040208946,"connected_time":1641000000000,"state":"active","ping":45},{"user_id":638,"name":"Proto-arc","steam_id":76561198012776747,"connected_time":10041000000000,"state":"active","ping":57},{"user_id":699,"name":"AlexLovesYou","steam_id":76561199163263543,"connected_time":4333000000000,"state":"active","ping":141},{"user_id":725,"name":"Turtle","steam_id":76561198262110064,"connected_time":2185000000000,"state":"active","ping":169},{"user_id":742,"name":"gamer man","steam_id":76561198436817109,"connected_time":291000000000,"state":"active","ping":46},{"user_id":700,"name":"X-tis","steam_id":76561198043837480,"connected_time":4196000000000,"state":"active","ping":63},{"user_id":740,"name":"Shadow the Hedgehog","steam_id":76561198032936750,"connected_time":1069000000000,"state":"active","ping":105},{"user_id":744,"name":"Hkitchen","steam_id":76561198194779526,"connected_time":287000000000,"state":"active","ping":40},{"user_id":721,"name":"Ferore","steam_id":76561198152824336,"connected_time":2314000000000,"state":"active","ping":51},{"user_id":745,"name":"Dakkafex","steam_id":76561198020254869,"connected_time":271000000000,"state":"active","ping":45},{"user_id":748,"name":"deez","steam_id":76561198831476915,"connected_time":75000000000,"state":"active","ping":53},{"user_id":741,"name":"salatkas","steam_id":76561198033237090,"connected_time":572000000000,"state":"active","ping":56},{"user_id":752,"name":"El Lobo","steam_id":76561198107978481,"connected_time":12000000000,"state":"spawning","ping":87},{"user_id":753,"name":"dredomilicete","steam_id":76561199135216928,"connected_time":9000000000,"state":"spawning","ping":87},{"user_id":707,"name":"Nyanzey","steam_id":76561198872362188,"connected_time":3729000000000,"state":"active","ping":56},{"user_id":747,"name":"RockFrenzy","steam_id":76561198005428050,"connected_time":116000000000,"state":"active","ping":66},{"user_id":750,"name":"Wattsits","steam_id":76561198089346879,"connected_time":55000000000,"state":"active","ping":84},{"user_id":724,"name":"Lods of Emone","steam_id":76561198188642265,"connected_time":2223000000000,"state":"active","ping":53},{"user_id":751,"name":"Jeff","steam_id":76561198949174773,"connected_time":33000000000,"state":"active","ping":78},{"user_id":712,"name":"nedilya","steam_id":76561198039692077,"connected_time":3355000000000,"state":"active","ping":62},{"user_id":735,"name":"Masquerade queen","steam_id":76561198218299273,"connected_time":1620000000000,"state":"active","ping":103},{"user_id":690,"name":"Fat Pigeon","steam_id":76561198817940142,"connected_time":5851000000000,"state":"active","ping":48},{"user_id":754,"name":"the roaming demo","steam_id":76561198798428909,"connected_time":8000000000,"state":"spawning","ping":125},{"user_id":719,"name":"Pablo.Fortnite.2011","steam_id":76561198259034983,"connected_time":2825000000000,"state":"active","ping":73}]},{"server_id":21,"name":"Uncletopia | London | 5 | All Maps","name_short":"lon-5","host":"lon-1.uk.uncletopia.com","port":27055,"enabled":true,"region":"eu","cc":"gb","latitude":51.509865,"longitude":-0.118092,"reserved":0,"last_update":"0001-01-01T00:00:00Z","name_a2s":"Uncletopia | London | 5 | All Maps","protocol":17,"map":"plr_hightower","folder":"tf","game":"Team Fortress","app_id":440,"player_count":24,"max_players":24,"Bots":0,"server_type":"Dedicated","server_os":"Linux","password":true,"vac":true,"version":"7708610","steam_id":85568392924742829,"keywords":["nocrits","nodmgspread","payload","uncletopia"],"game_id":440,"stv_port":27056,"stv_name":"Uncletopia | London | 5 | All Maps | STV","players":[{"user_id":56,"name":"Pack of Marlboro Reds","steam_id":76561198207551311,"connected_time":1951000000000,"state":"active","ping":51},{"user_id":62,"name":"R8N - Obismal","steam_id":76561198007482714,"connected_time":1656000000000,"state":"active","ping":73},{"user_id":46,"name":"󠀡󠀡","steam_id":76561198406469995,"connected_time":2472000000000,"state":"active","ping":71},{"user_id":84,"name":"i love my ball","steam_id":76561198206177349,"connected_time":272000000000,"state":"active","ping":54},{"user_id":43,"name":"cheese goblin","steam_id":76561198307531628,"connected_time":2713000000000,"state":"active","ping":47},{"user_id":58,"name":"canidmarsh","steam_id":76561198049637089,"connected_time":1936000000000,"state":"active","ping":113},{"user_id":63,"name":"Cloudtrotter","steam_id":76561198141975528,"connected_time":1655000000000,"state":"active","ping":160},{"user_id":64,"name":"Scutee","steam_id":76561198214340673,"connected_time":1614000000000,"state":"active","ping":124},{"user_id":66,"name":"Minimi","steam_id":76561198873850443,"connected_time":1371000000000,"state":"active","ping":42},{"user_id":67,"name":"Le Chevalier Pingouin","steam_id":76561198221355000,"connected_time":1310000000000,"state":"active","ping":41},{"user_id":68,"name":"Berkay The Flareon","steam_id":76561198970251211,"connected_time":1098000000000,"state":"active","ping":84},{"user_id":72,"name":"Spirit","steam_id":76561198827402149,"connected_time":875000000000,"state":"active","ping":86},{"user_id":85,"name":"zeppa114","steam_id":76561198065192734,"connected_time":267000000000,"state":"active","ping":55},{"user_id":73,"name":"s0onvd","steam_id":76561199336670995,"connected_time":660000000000,"state":"active","ping":171},{"user_id":74,"name":"KarlRanzeier","steam_id":76561198066281337,"connected_time":584000000000,"state":"active","ping":60},{"user_id":75,"name":"mindblowinMelzer","steam_id":76561198031891199,"connected_time":569000000000,"state":"active","ping":63},{"user_id":76,"name":"starer","steam_id":76561199229966290,"connected_time":567000000000,"state":"active","ping":140},{"user_id":77,"name":"gorfxx","steam_id":76561198182926015,"connected_time":555000000000,"state":"active","ping":90},{"user_id":78,"name":"Yaire","steam_id":76561198017343510,"connected_time":522000000000,"state":"active","ping":55},{"user_id":79,"name":"Snus aus Preußen","steam_id":76561197992185747,"connected_time":462000000000,"state":"active","ping":41},{"user_id":80,"name":"Kokas","steam_id":76561197996786353,"connected_time":447000000000,"state":"active","ping":73},{"user_id":81,"name":"TheGGMan","steam_id":76561197967976677,"connected_time":436000000000,"state":"active","ping":34},{"user_id":82,"name":"Mr.O the ENTP demoman","steam_id":76561198039567498,"connected_time":420000000000,"state":"active","ping":66},{"user_id":83,"name":"Proofmean","steam_id":76561198878552103,"connected_time":375000000000,"state":"active","ping":52}]},{"server_id":22,"name":"Uncletopia | London | 6 | All Maps","name_short":"lon-6","host":"lon-1.uk.uncletopia.com","port":27065,"enabled":true,"region":"eu","cc":"gb","latitude":51.509865,"longitude":-0.118092,"reserved":0,"last_update":"0001-01-01T00:00:00Z","name_a2s":"Uncletopia | London | 6 | All Maps","protocol":17,"map":"koth_viaduct","folder":"tf","game":"Team Fortress","app_id":440,"player_count":2,"max_players":24,"Bots":0,"server_type":"Dedicated","server_os":"Linux","password":true,"vac":true,"version":"7708610","steam_id":85568392924742830,"keywords":["cp","nocrits","nodmgspread","uncletopia"],"game_id":440,"stv_port":27066,"stv_name":"Uncletopia | London | 6 | All Maps | STV","players":[{"user_id":388,"name":"Kiwi #savetf2","steam_id":76561198825965947,"connected_time":3281000000000,"state":"active","ping":52},{"user_id":389,"name":"Geneva Convention Violation","steam_id":76561198368050051,"connected_time":3196000000000,"state":"active","ping":116}]},{"server_id":40,"name":"Uncletopia | London | 7 | No Payload","name_short":"lon-7","host":"lon-1.uk.uncletopia.com","port":27075,"enabled":true,"region":"eu","cc":"gb","latitude":51.509865,"longitude":-0.118092,"reserved":0,"last_update":"0001-01-01T00:00:00Z","name_a2s":"Uncletopia | London | 7 | No Payload","protocol":17,"map":"koth_cascade","folder":"tf","game":"Team Fortress","app_id":440,"player_count":0,"max_players":24,"Bots":0,"server_type":"Dedicated","server_os":"Linux","password":true,"vac":true,"version":"7708610","steam_id":85568392924964314,"keywords":["cp","nocrits","nodmgspread","uncletopia"],"game_id":440,"stv_port":27076,"stv_name":"Uncletopia | London | 7 | No Payload | STV","players":null},{"server_id":41,"name":"Uncletopia | London | 8 | Community","name_short":"lon-8","host":"lon-1.uk.uncletopia.com","port":27085,"enabled":true,"region":"eu","cc":"gb","latitude":51.509865,"longitude":-0.118092,"reserved":0,"last_update":"0001-01-01T00:00:00Z","name_a2s":"Uncletopia | London | 8 | Community","protocol":17,"map":"workshop/pl_vigil_rc9.ugc1266210012","folder":"tf","game":"Team Fortress","app_id":440,"player_count":0,"max_players":24,"Bots":0,"server_type":"Dedicated","server_os":"Linux","password":true,"vac":true,"version":"7708610","steam_id":85568392924964315,"keywords":["nocrits","nodmgspread","payload","uncletopia"],"game_id":440,"stv_port":27086,"stv_name":"Uncletopia | London | 8 | Community | STV","players":null},{"server_id":300,"name":"Uncletopia | Montréal | 1 | All Maps","name_short":"mtl-1","host":"mtl-1.ca.uncletopia.com","port":27015,"enabled":true,"region":"us-east","cc":"ca","latitude":45.50889,"longitude":-73.56167,"reserved":0,"last_update":"0001-01-01T00:00:00Z","name_a2s":"Uncletopia | Montréal | 1 | All Maps","protocol":17,"map":"cp_altitude","folder":"tf","game":"Team Fortress","app_id":440,"player_count":0,"max_players":24,"Bots":0,"server_type":"Dedicated","server_os":"Linux","password":true,"vac":true,"version":"7708610","steam_id":85568392924500087,"keywords":["cp","nocrits","nodmgspread","uncletopia"],"game_id":440,"stv_port":27016,"stv_name":"Uncletopia | Montréal | 1 | All Maps | STV","players":null},{"server_id":301,"name":"Uncletopia | Montréal | 2 | All Maps","name_short":"mtl-2","host":"mtl-1.ca.uncletopia.com","port":27025,"enabled":true,"region":"us-east","cc":"ca","latitude":45.50889,"longitude":-73.56167,"reserved":0,"last_update":"0001-01-01T00:00:00Z","name_a2s":"Uncletopia | Montréal | 2 | All Maps","protocol":17,"map":"koth_lakeside_final","folder":"tf","game":"Team Fortress","app_id":440,"player_count":0,"max_players":24,"Bots":0,"server_type":"Dedicated","server_os":"Linux","password":true,"vac":true,"version":"7708610","steam_id":85568392924500088,"keywords":["cp","nocrits","nodmgspread","uncletopia"],"game_id":440,"stv_port":27026,"stv_name":"Uncletopia | Montréal | 2 | All Maps | STV","players":null},{"server_id":302,"name":"Uncletopia | Montréal | 3 | All Maps","name_short":"mtl-3","host":"mtl-1.ca.uncletopia.com","port":27035,"enabled":true,"region":"us-east","cc":"ca","latitude":45.50889,"longitude":-73.56167,"reserved":0,"last_update":"0001-01-01T00:00:00Z","name_a2s":"Uncletopia | Montréal | 3 | All Maps","protocol":17,"map":"cp_sunshine","folder":"tf","game":"Team Fortress","app_id":440,"player_count":0,"max_players":24,"Bots":0,"server_type":"Dedicated","server_os":"Linux","password":true,"vac":true,"version":"7708610","steam_id":85568392924500089,"keywords":["cp","nocrits","nodmgspread","uncletopia"],"game_id":440,"stv_port":27036,"stv_name":"Uncletopia | Montréal | 3 | All Maps | STV","players":null},{"server_id":303,"name":"Uncletopia | Montréal | 4 | No Payload","name_short":"mtl-4","host":"mtl-1.ca.uncletopia.com","port":27045,"enabled":true,"region":"us-east","cc":"ca","latitude":45.50889,"longitude":-73.56167,"reserved":0,"last_update":"0001-01-01T00:00:00Z","name_a2s":"Uncletopia | Montréal | 4 | No Payload","protocol":17,"map":"pl_frontier_final","folder":"tf","game":"Team Fortress","app_id":440,"player_count":0,"max_players":24,"Bots":0,"server_type":"Dedicated","server_os":"Linux","password":true,"vac":true,"version":"7708610","steam_id":85568392924500090,"keywords":["nocrits","nodmgspread","payload","uncletopia"],"game_id":440,"stv_port":0,"stv_name":"","players":null},{"server_id":13,"name":"Uncletopia | New York City | 1 | All Maps","name_short":"nyc-1","host":"nyc-1.us.uncletopia.com","port":27015,"enabled":true,"region":"us-east","cc":"us","latitude":40.73061,"longitude":-73.93524,"reserved":0,"last_update":"0001-01-01T00:00:00Z","name_a2s":"Uncletopia | New York City | 1 | All Maps","protocol":17,"map":"pl_pier","folder":"tf","game":"Team Fortress","app_id":440,"player_count":24,"max_players":24,"Bots":0,"server_type":"Dedicated","server_os":"Linux","password":true,"vac":true,"version":"7708610","steam_id":85568392924469993,"keywords":["nocrits","nodmgspread","payload","uncletopia"],"game_id":440,"stv_port":27016,"stv_name":"Uncletopia | New York City | 1 | All Maps | STV","players":[{"user_id":357,"name":"Sorbet Shark Cookie","steam_id":76561198133082665,"connected_time":1267000000000,"state":"active","ping":48},{"user_id":322,"name":"catgirl","steam_id":76561198020736672,"connected_time":3319000000000,"state":"active","ping":59},{"user_id":329,"name":"pablo.gonzales.2004","steam_id":76561199217620385,"connected_time":2591000000000,"state":"active","ping":58},{"user_id":365,"name":"Huntsman Legend","steam_id":76561199122670387,"connected_time":563000000000,"state":"active","ping":83},{"user_id":372,"name":"PrinceGrotle","steam_id":76561198206131603,"connected_time":177000000000,"state":"active","ping":53},{"user_id":335,"name":"Flacco Throat GOAT","steam_id":76561198057374871,"connected_time":2459000000000,"state":"active","ping":75},{"user_id":307,"name":"Flarelo","steam_id":76561198086024407,"connected_time":4380000000000,"state":"active","ping":75},{"user_id":370,"name":"Demengies","steam_id":76561198060414484,"connected_time":310000000000,"state":"active","ping":109},{"user_id":331,"name":"if watermelons were human","steam_id":76561199044624946,"connected_time":2499000000000,"state":"active","ping":45},{"user_id":373,"name":"Stupid","steam_id":76561198127348089,"connected_time":166000000000,"state":"active","ping":56},{"user_id":356,"name":"big dog","steam_id":76561198243918128,"connected_time":1647000000000,"state":"active","ping":75},{"user_id":371,"name":"Mister","steam_id":76561198097164652,"connected_time":240000000000,"state":"active","ping":60},{"user_id":358,"name":"e0e0","steam_id":76561198293839750,"connected_time":1126000000000,"state":"active","ping":51},{"user_id":333,"name":"best of gaslighting","steam_id":76561198410957728,"connected_time":2492000000000,"state":"active","ping":60},{"user_id":369,"name":"Koala Bear","steam_id":76561198118025990,"connected_time":346000000000,"state":"active","ping":80},{"user_id":364,"name":"Coop","steam_id":76561198042839356,"connected_time":633000000000,"state":"active","ping":62},{"user_id":363,"name":"Billi -MY NUTS!- McNight","steam_id":76561197993924771,"connected_time":759000000000,"state":"active","ping":101},{"user_id":374,"name":"Len","steam_id":76561199141913673,"connected_time":128000000000,"state":"active","ping":103},{"user_id":346,"name":"Xavibite","steam_id":76561198209380493,"connected_time":2059000000000,"state":"active","ping":45},{"user_id":367,"name":"franklin","steam_id":76561198394182430,"connected_time":522000000000,"state":"active","ping":65},{"user_id":375,"name":"crankshaft","steam_id":76561197992798282,"connected_time":122000000000,"state":"active","ping":109},{"user_id":368,"name":"NT9V","steam_id":76561198047118166,"connected_time":425000000000,"state":"active","ping":43},{"user_id":321,"name":"ailee","steam_id":76561198284326069,"connected_time":3501000000000,"state":"active","ping":56},{"user_id":376,"name":"Regal","steam_id":76561198092422621,"connected_time":117000000000,"state":"active","ping":57}]},{"server_id":14,"name":"Uncletopia | New York City | 2 | All Maps","name_short":"nyc-2","host":"nyc-1.us.uncletopia.com","port":27025,"enabled":true,"region":"us-east","cc":"us","latitude":40.73061,"longitude":-73.93524,"reserved":0,"last_update":"0001-01-01T00:00:00Z","name_a2s":"Uncletopia | New York City | 2 | All Maps","protocol":17,"map":"cp_granary","folder":"tf","game":"Team Fortress","app_id":440,"player_count":23,"max_players":24,"Bots":0,"server_type":"Dedicated","server_os":"Linux","password":true,"vac":true,"version":"7708610","steam_id":85568392924469994,"keywords":["cp","nocrits","nodmgspread","uncletopia"],"game_id":440,"stv_port":27026,"stv_name":"Uncletopia | New York City | 2 | All Maps | STV","players":[{"user_id":263,"name":"confused","steam_id":76561198018654093,"connected_time":725000000000,"state":"active","ping":51},{"user_id":249,"name":"dirty dank","steam_id":76561198360904432,"connected_time":1706000000000,"state":"active","ping":53},{"user_id":210,"name":"Anti-Hero","steam_id":76561198042570322,"connected_time":4450000000000,"state":"active","ping":73},{"user_id":259,"name":"Lola","steam_id":76561199056279254,"connected_time":1318000000000,"state":"active","ping":140},{"user_id":260,"name":"Space Cops","steam_id":76561198032414253,"connected_time":1162000000000,"state":"active","ping":45},{"user_id":255,"name":"Average Reagan Youth Fan","steam_id":76561198355754259,"connected_time":1545000000000,"state":"active","ping":65},{"user_id":267,"name":"ZeeerZowowowBwow","steam_id":76561198018404265,"connected_time":217000000000,"state":"active","ping":117},{"user_id":266,"name":"parangatang","steam_id":76561198050311948,"connected_time":434000000000,"state":"active","ping":125},{"user_id":238,"name":"robbob","steam_id":76561198137375391,"connected_time":3142000000000,"state":"active","ping":147},{"user_id":228,"name":"Bysig_ttv #savetf2","steam_id":76561198086422663,"connected_time":3357000000000,"state":"active","ping":98},{"user_id":251,"name":"ferdy","steam_id":76561198140926729,"connected_time":1631000000000,"state":"active","ping":61},{"user_id":262,"name":"Goku™ From Disney©","steam_id":76561198015327152,"connected_time":764000000000,"state":"active","ping":32},{"user_id":268,"name":"Radical Centrist","steam_id":76561198071883643,"connected_time":149000000000,"state":"active","ping":66},{"user_id":257,"name":"cereal with water","steam_id":76561198091332884,"connected_time":1512000000000,"state":"active","ping":55},{"user_id":146,"name":"Pizza","steam_id":76561198118748364,"connected_time":9276000000000,"state":"active","ping":68},{"user_id":151,"name":"LameNameJame","steam_id":76561198164714852,"connected_time":8624000000000,"state":"active","ping":81},{"user_id":256,"name":"crippling fumo addiction","steam_id":76561198115874625,"connected_time":1534000000000,"state":"active","ping":51},{"user_id":212,"name":"akirajimbo","steam_id":76561197979960008,"connected_time":4404000000000,"state":"active","ping":43},{"user_id":244,"name":"TheChickenChuck","steam_id":76561199192686708,"connected_time":1888000000000,"state":"active","ping":116},{"user_id":245,"name":"Sicko Mode (Chris Pratt Cover)","steam_id":76561198315786174,"connected_time":1787000000000,"state":"active","ping":52},{"user_id":247,"name":"Quansen","steam_id":76561198151594550,"connected_time":1771000000000,"state":"active","ping":68},{"user_id":269,"name":"Danitom","steam_id":76561198000717813,"connected_time":146000000000,"state":"active","ping":87},{"user_id":265,"name":"URINATE!!","steam_id":76561198380824431,"connected_time":495000000000,"state":"active","ping":160}]},{"server_id":15,"name":"Uncletopia | New York City | 3 | All Maps","name_short":"nyc-3","host":"nyc-1.us.uncletopia.com","port":27035,"enabled":true,"region":"us-east","cc":"us","latitude":40.73061,"longitude":-73.93524,"reserved":0,"last_update":"0001-01-01T00:00:00Z","name_a2s":"Uncletopia | New York City | 3 | All Maps","protocol":17,"map":"cp_altitude","folder":"tf","game":"Team Fortress","app_id":440,"player_count":0,"max_players":24,"Bots":0,"server_type":"Dedicated","server_os":"Linux","password":true,"vac":true,"version":"7708610","steam_id":85568392924742820,"keywords":["cp","nocrits","nodmgspread","uncletopia"],"game_id":440,"stv_port":27036,"stv_name":"Uncletopia | New York City | 3 | All Maps | STV","players":null},{"server_id":16,"name":"Uncletopia | New York City | 4 | Community","name_short":"nyc-4","host":"nyc-1.us.uncletopia.com","port":27045,"enabled":true,"region":"us-east","cc":"us","latitude":40.73061,"longitude":-73.93524,"reserved":0,"last_update":"0001-01-01T00:00:00Z","name_a2s":"Uncletopia | New York City | 4 | Community","protocol":17,"map":"workshop/cp_overgrown_rc7b.ugc503939302","folder":"tf","game":"Team Fortress","app_id":440,"player_count":0,"max_players":24,"Bots":0,"server_type":"Dedicated","server_os":"Linux","password":true,"vac":true,"version":"7708610","steam_id":85568392924742821,"keywords":["cp","nocrits","nodmgspread","uncletopia"],"game_id":440,"stv_port":27046,"stv_name":"Uncletopia | New York City | 4 | Community | STV","players":null},{"server_id":142,"name":"Uncletopia | São Paulo | 1 | All Maps","name_short":"sao-1","host":"sao-1.br.uncletopia.com","port":27015,"enabled":true,"region":"sa","cc":"br","latitude":-23.533773,"longitude":-46.62529,"reserved":0,"last_update":"0001-01-01T00:00:00Z","name_a2s":"Uncletopia | São Paulo | 1 | All Maps","protocol":17,"map":"pl_badwater","folder":"tf","game":"Team Fortress","app_id":440,"player_count":23,"max_players":24,"Bots":0,"server_type":"Dedicated","server_os":"Linux","password":true,"vac":true,"version":"7708610","steam_id":85568392924469996,"keywords":["nocrits","nodmgspread","payload","uncletopia"],"game_id":440,"stv_port":27016,"stv_name":"Uncletopia | São Paulo | 1 | All Maps | STV","players":[{"user_id":301,"name":"rafxv","steam_id":76561198083321227,"connected_time":567000000000,"state":"active","ping":71},{"user_id":300,"name":"Regu","steam_id":76561198853470760,"connected_time":772000000000,"state":"active","ping":76},{"user_id":303,"name":"james o artista de circo","steam_id":76561198361425040,"connected_time":486000000000,"state":"active","ping":76},{"user_id":298,"name":"Pr通りの伝説","steam_id":76561198976110673,"connected_time":1119000000000,"state":"active","ping":58},{"user_id":207,"name":"mimimito","steam_id":76561198002565927,"connected_time":9290000000000,"state":"active","ping":43},{"user_id":294,"name":"Daelm","steam_id":76561198063381258,"connected_time":1360000000000,"state":"active","ping":43},{"user_id":282,"name":"SPYRYTTS","steam_id":76561197983312920,"connected_time":2342000000000,"state":"active","ping":60},{"user_id":210,"name":"Cherry Cupcake","steam_id":76561198012448942,"connected_time":9197000000000,"state":"active","ping":45},{"user_id":277,"name":"CATS","steam_id":76561198103172108,"connected_time":3020000000000,"state":"active","ping":67},{"user_id":254,"name":"Zoom!","steam_id":76561198289562649,"connected_time":4845000000000,"state":"active","ping":45},{"user_id":257,"name":"asdadsadasdasda","steam_id":76561198415484497,"connected_time":4775000000000,"state":"active","ping":60},{"user_id":297,"name":"frenam593","steam_id":76561199428564822,"connected_time":1190000000000,"state":"active","ping":66},{"user_id":266,"name":"Death_Pow","steam_id":76561198312958718,"connected_time":3886000000000,"state":"active","ping":55},{"user_id":299,"name":"RedStar","steam_id":76561198100495977,"connected_time":1008000000000,"state":"active","ping":68},{"user_id":290,"name":"Pathetic","steam_id":76561198051056987,"connected_time":1587000000000,"state":"active","ping":65},{"user_id":302,"name":"kritik","steam_id":76561198075216115,"connected_time":514000000000,"state":"active","ping":83},{"user_id":308,"name":"Kilgorx","steam_id":76561198032251231,"connected_time":225000000000,"state":"active","ping":72},{"user_id":288,"name":"colvara","steam_id":76561198096847607,"connected_time":1641000000000,"state":"active","ping":59},{"user_id":304,"name":"ayumi","steam_id":76561197977365746,"connected_time":485000000000,"state":"active","ping":49},{"user_id":240,"name":"Derretimento Geral 2017","steam_id":76561198194300069,"connected_time":6397000000000,"state":"active","ping":58},{"user_id":252,"name":"delta","steam_id":76561198288966901,"connected_time":4860000000000,"state":"active","ping":57},{"user_id":305,"name":"VENDO PALIO 2013","steam_id":76561198082714419,"connected_time":479000000000,"state":"active","ping":38},{"user_id":307,"name":"padero","steam_id":76561198097431370,"connected_time":328000000000,"state":"active","ping":90}]},{"server_id":143,"name":"Uncletopia | São Paulo | 2 | All Maps","name_short":"sao-2","host":"sao-2.br.uncletopia.com","port":27015,"enabled":true,"region":"sa","cc":"br","latitude":-23.533773,"longitude":-46.62529,"reserved":0,"last_update":"0001-01-01T00:00:00Z","name_a2s":"Uncletopia | São Paulo | 2 | All Maps","protocol":17,"map":"koth_cascade","folder":"tf","game":"Team Fortress","app_id":440,"player_count":0,"max_players":24,"Bots":0,"server_type":"Dedicated","server_os":"Linux","password":true,"vac":true,"version":"7708610","steam_id":85568392924485349,"keywords":["cp","nocrits","nodmgspread","uncletopia"],"game_id":440,"stv_port":27016,"stv_name":"Uncletopia | São Paulo | 2 | All Maps | STV","players":null},{"server_id":7,"name":"Uncletopia | Seattle | 1 | All Maps","name_short":"sea-1","host":"sea-1.us.uncletopia.com","port":27015,"enabled":true,"region":"us-west","cc":"us","latitude":47.608013,"longitude":-122.33517,"reserved":0,"last_update":"0001-01-01T00:00:00Z","name_a2s":"Uncletopia | Seattle | 1 | All Maps","protocol":17,"map":"pl_borneo","folder":"tf","game":"Team Fortress","app_id":440,"player_count":21,"max_players":24,"Bots":0,"server_type":"Dedicated","server_os":"Linux","password":true,"vac":true,"version":"7708610","steam_id":85568392924469997,"keywords":["nocrits","nodmgspread","payload","uncletopia"],"game_id":440,"stv_port":27016,"stv_name":"Uncletopia | Seattle | 1 | All Maps | STV","players":[{"user_id":215,"name":"slurpeur de bite","steam_id":76561199174579733,"connected_time":497000000000,"state":"active","ping":126},{"user_id":196,"name":"Synergy","steam_id":76561198098630198,"connected_time":1600000000000,"state":"active","ping":42},{"user_id":168,"name":"tumn","steam_id":76561199241694808,"connected_time":3338000000000,"state":"active","ping":90},{"user_id":191,"name":"Dimple","steam_id":76561198980324190,"connected_time":2692000000000,"state":"active","ping":49},{"user_id":193,"name":"Seriously Bruh","steam_id":76561198070408485,"connected_time":1676000000000,"state":"active","ping":47},{"user_id":197,"name":"Yoshimelon","steam_id":76561198253054325,"connected_time":1599000000000,"state":"active","ping":90},{"user_id":198,"name":"oo","steam_id":76561198119626492,"connected_time":1578000000000,"state":"active","ping":87},{"user_id":194,"name":"MazapanCabon28","steam_id":76561199243339919,"connected_time":1655000000000,"state":"active","ping":78},{"user_id":216,"name":"poogoblin49","steam_id":76561198124866303,"connected_time":462000000000,"state":"active","ping":140},{"user_id":154,"name":"Big Smoke","steam_id":76561198278375987,"connected_time":5765000000000,"state":"active","ping":108},{"user_id":217,"name":"Megadesk","steam_id":76561198078219641,"connected_time":454000000000,"state":"active","ping":123},{"user_id":177,"name":"rainingmudkips","steam_id":76561198018010854,"connected_time":3139000000000,"state":"active","ping":115},{"user_id":209,"name":"ChefMike","steam_id":76561198414034069,"connected_time":1009000000000,"state":"active","ping":108},{"user_id":219,"name":"Grandpa Owl  #TF2SP","steam_id":76561198061445083,"connected_time":323000000000,"state":"active","ping":48},{"user_id":221,"name":"Gooby","steam_id":76561198063582381,"connected_time":98000000000,"state":"active","ping":73},{"user_id":202,"name":"ASCII | Dr.keinmann","steam_id":76561198360305514,"connected_time":1444000000000,"state":"active","ping":53},{"user_id":210,"name":"zinnk","steam_id":76561198092081825,"connected_time":898000000000,"state":"active","ping":78},{"user_id":213,"name":"im trying my best","steam_id":76561198919095185,"connected_time":571000000000,"state":"active","ping":114},{"user_id":214,"name":"Bea","steam_id":76561199096485663,"connected_time":569000000000,"state":"active","ping":108},{"user_id":218,"name":"Frongus","steam_id":76561197979056451,"connected_time":452000000000,"state":"active","ping":46},{"user_id":220,"name":"Can of Oranges (Festive)","steam_id":76561199121813529,"connected_time":208000000000,"state":"active","ping":41}]},{"server_id":119,"name":"Uncletopia | Seattle | 2 | All Maps","name_short":"sea-2","host":"sea-1.us.uncletopia.com","port":27025,"enabled":true,"region":"us-west","cc":"us","latitude":47.608013,"longitude":-122.33517,"reserved":0,"last_update":"0001-01-01T00:00:00Z","name_a2s":"Uncletopia | Seattle | 2 | All Maps","protocol":17,"map":"pl_frontier_final","folder":"tf","game":"Team Fortress","app_id":440,"player_count":22,"max_players":24,"Bots":0,"server_type":"Dedicated","server_os":"Linux","password":true,"vac":true,"version":"7708610","steam_id":85568392924469998,"keywords":["nocrits","nodmgspread","payload","uncletopia"],"game_id":440,"stv_port":27026,"stv_name":"Uncletopia | Seattle | 2 | All Maps | STV","players":[{"user_id":130,"name":"Grill Skills","steam_id":76561198053575147,"connected_time":797000000000,"state":"active","ping":51},{"user_id":136,"name":"Altruisticailuridae","steam_id":76561198335295596,"connected_time":222000000000,"state":"active","ping":80},{"user_id":137,"name":"DJHyper777","steam_id":76561198304548526,"connected_time":208000000000,"state":"active","ping":68},{"user_id":9,"name":"Goofy Goober","steam_id":76561198128299594,"connected_time":9823000000000,"state":"active","ping":83},{"user_id":96,"name":"Micah","steam_id":76561198006837982,"connected_time":2652000000000,"state":"active","ping":125},{"user_id":93,"name":"bitmappu","steam_id":76561199000786530,"connected_time":2712000000000,"state":"active","ping":83},{"user_id":138,"name":"Charcoal","steam_id":76561198039308140,"connected_time":165000000000,"state":"active","ping":51},{"user_id":135,"name":"shkum #killtf2","steam_id":76561198135274720,"connected_time":260000000000,"state":"active","ping":66},{"user_id":121,"name":"Master Of Whales","steam_id":76561198349104889,"connected_time":1169000000000,"state":"active","ping":73},{"user_id":115,"name":"KingTinkerer","steam_id":76561198226856548,"connected_time":1383000000000,"state":"active","ping":63},{"user_id":88,"name":"Greskrendtregk","steam_id":76561197969553142,"connected_time":2773000000000,"state":"active","ping":52},{"user_id":85,"name":"Klone","steam_id":76561198854485605,"connected_time":3355000000000,"state":"active","ping":76},{"user_id":139,"name":"tkeati","steam_id":76561198056356574,"connected_time":136000000000,"state":"active","ping":47},{"user_id":140,"name":"Kzjytsugn","steam_id":76561198130241974,"connected_time":135000000000,"state":"active","ping":38},{"user_id":116,"name":"Danger Noodle","steam_id":76561198130841014,"connected_time":1374000000000,"state":"active","ping":57},{"user_id":119,"name":"Lawnmower","steam_id":76561198186680197,"connected_time":1178000000000,"state":"active","ping":57},{"user_id":103,"name":"Grognak","steam_id":76561198044710527,"connected_time":2458000000000,"state":"active","ping":44},{"user_id":72,"name":"Nugget","steam_id":76561199033722785,"connected_time":4792000000000,"state":"active","ping":67},{"user_id":107,"name":"the old","steam_id":76561198353322890,"connected_time":2264000000000,"state":"active","ping":56},{"user_id":132,"name":"ED","steam_id":76561198441715445,"connected_time":689000000000,"state":"active","ping":115},{"user_id":54,"name":"im actually gaming","steam_id":76561198128736669,"connected_time":6239000000000,"state":"active","ping":63},{"user_id":133,"name":"Japanese Pizza Girlfriend","steam_id":76561198044855147,"connected_time":681000000000,"state":"active","ping":45}]},{"server_id":17,"name":"Uncletopia | San Francisco | 1 | All Maps","name_short":"sfo-1","host":"sfo-1.us.uncletopia.com","port":27015,"enabled":true,"region":"us-west","cc":"us","latitude":37.77397,"longitude":-122.4313,"reserved":0,"last_update":"0001-01-01T00:00:00Z","name_a2s":"Uncletopia | San Francisco | 1 | All Maps","protocol":17,"map":"pl_borneo","folder":"tf","game":"Team Fortress","app_id":440,"player_count":0,"max_players":24,"Bots":0,"server_type":"Dedicated","server_os":"Linux","password":true,"vac":true,"version":"7708610","steam_id":85568392924469999,"keywords":["nocrits","nodmgspread","payload","uncletopia"],"game_id":440,"stv_port":27016,"stv_name":"Uncletopia | San Francisco | 1 | All Maps | STV","players":null},{"server_id":18,"name":"Uncletopia | San Francisco | 2 | All Maps","name_short":"sfo-2","host":"sfo-1.us.uncletopia.com","port":27025,"enabled":true,"region":"us-west","cc":"us","latitude":37.77397,"longitude":-122.4313,"reserved":0,"last_update":"0001-01-01T00:00:00Z","name_a2s":"Uncletopia | San Francisco | 2 | All Maps","protocol":17,"map":"koth_cascade","folder":"tf","game":"Team Fortress","app_id":440,"player_count":0,"max_players":24,"Bots":0,"server_type":"Dedicated","server_os":"Linux","password":true,"vac":true,"version":"7708610","steam_id":85568392924470000,"keywords":["cp","nocrits","nodmgspread","uncletopia"],"game_id":440,"stv_port":0,"stv_name":"","players":null},{"server_id":19,"name":"Uncletopia | San Francisco | 3 | No Payload","name_short":"sfo-3","host":"sfo-1.us.uncletopia.com","port":27035,"enabled":true,"region":"us-west","cc":"us","latitude":37.77397,"longitude":-122.4313,"reserved":0,"last_update":"0001-01-01T00:00:00Z","name_a2s":"Uncletopia | San Francisco | 3 | No Payload","protocol":17,"map":"plr_hightower","folder":"tf","game":"Team Fortress","app_id":440,"player_count":0,"max_players":24,"Bots":0,"server_type":"Dedicated","server_os":"Linux","password":true,"vac":true,"version":"7708610","steam_id":85568392924742824,"keywords":["nocrits","nodmgspread","payload","uncletopia"],"game_id":440,"stv_port":27036,"stv_name":"Uncletopia | San Francisco | 3 | No Payload | STV","players":null},{"server_id":20,"name":"Uncletopia | San Francisco | 4 | Community","name_short":"sfo-4","host":"sfo-1.us.uncletopia.com","port":27045,"enabled":true,"region":"us-west","cc":"us","latitude":37.77397,"longitude":-122.4313,"reserved":0,"last_update":"0001-01-01T00:00:00Z","name_a2s":"Uncletopia | San Francisco | 4 | Community","protocol":17,"map":"pl_barnblitz","folder":"tf","game":"Team Fortress","app_id":440,"player_count":0,"max_players":24,"Bots":0,"server_type":"Dedicated","server_os":"Linux","password":true,"vac":true,"version":"7708610","steam_id":85568392924742826,"keywords":["nocrits","nodmgspread","payload","uncletopia"],"game_id":440,"stv_port":0,"stv_name":"","players":null},{"server_id":141,"name":"Uncletopia | Sydney | 1 | All Maps","name_short":"syd-1","host":"syd-1.au.uncletopia.com","port":27015,"enabled":true,"region":"au","cc":"au","latitude":-33.865143,"longitude":151.2099,"reserved":0,"last_update":"0001-01-01T00:00:00Z","name_a2s":"Uncletopia | Sydney | 1 | All Maps","protocol":17,"map":"pl_upward","folder":"tf","game":"Team Fortress","app_id":440,"player_count":2,"max_players":24,"Bots":0,"server_type":"Dedicated","server_os":"Linux","password":true,"vac":true,"version":"7708610","steam_id":85568392924470001,"keywords":["nocrits","nodmgspread","payload","uncletopia"],"game_id":440,"stv_port":27016,"stv_name":"Uncletopia | Sydney | 1 | All Maps | STV","players":[{"user_id":4,"name":"Winky","steam_id":76561199059450243,"connected_time":523000000000,"state":"active","ping":48},{"user_id":5,"name":"ree boy","steam_id":76561199024189820,"connected_time":501000000000,"state":"active","ping":78}]},{"server_id":123,"name":"Uncletopia | Sydney | 2 | All Maps","name_short":"syd-2","host":"syd-1.au.uncletopia.com","port":27025,"enabled":true,"region":"au","cc":"au","latitude":-33.865143,"longitude":151.2099,"reserved":0,"last_update":"0001-01-01T00:00:00Z","name_a2s":"Uncletopia | Sydney | 2 | All Maps","protocol":17,"map":"pl_snowycoast","folder":"tf","game":"Team Fortress","app_id":440,"player_count":0,"max_players":24,"Bots":0,"server_type":"Dedicated","server_os":"Linux","password":true,"vac":true,"version":"7708610","steam_id":85568392924470002,"keywords":["nocrits","nodmgspread","payload","uncletopia"],"game_id":440,"stv_port":0,"stv_name":"","players":null},{"server_id":395,"name":"Uncletopia | Sydney | 3 | All Maps","name_short":"syd-3","host":"syd-1.au.uncletopia.com","port":27035,"enabled":true,"region":"au","cc":"au","latitude":-33.865143,"longitude":151.2099,"reserved":0,"last_update":"0001-01-01T00:00:00Z","name_a2s":"Uncletopia | Sydney | 3 | All Maps","protocol":17,"map":"pl_badwater","folder":"tf","game":"Team Fortress","app_id":440,"player_count":0,"max_players":24,"Bots":0,"server_type":"Dedicated","server_os":"Linux","password":true,"vac":true,"version":"7708610","steam_id":85568392925194467,"keywords":["nocrits","nodmgspread","payload","uncletopia"],"game_id":440,"stv_port":0,"stv_name":"","players":null},{"server_id":396,"name":"Uncletopia | Sydney | 4 | All Maps","name_short":"syd-4","host":"syd-1.au.uncletopia.com","port":27045,"enabled":true,"region":"au","cc":"au","latitude":-33.865143,"longitude":151.2099,"reserved":0,"last_update":"0001-01-01T00:00:00Z","name_a2s":"Uncletopia | Sydney | 4 | All Maps","protocol":17,"map":"koth_lakeside_final","folder":"tf","game":"Team Fortress","app_id":440,"player_count":0,"max_players":24,"Bots":0,"server_type":"Dedicated","server_os":"Linux","password":true,"vac":true,"version":"7708610","steam_id":85568392925397958,"keywords":["cp","nocrits","nodmgspread","uncletopia"],"game_id":440,"stv_port":0,"stv_name":"","players":null},{"server_id":58,"name":"Uncletopia | Sydney | 5 | No Payload","name_short":"syd-5","host":"syd-1.au.uncletopia.com","port":27055,"enabled":true,"region":"au","cc":"au","latitude":-33.865143,"longitude":151.2099,"reserved":0,"last_update":"0001-01-01T00:00:00Z","name_a2s":"Uncletopia | Sydney | 5 | No Payload","protocol":17,"map":"koth_cascade","folder":"tf","game":"Team Fortress","app_id":440,"player_count":0,"max_players":24,"Bots":0,"server_type":"Dedicated","server_os":"Linux","password":true,"vac":true,"version":"7708610","steam_id":85568392925397959,"keywords":["cp","nocrits","nodmgspread","uncletopia"],"game_id":440,"stv_port":0,"stv_name":"","players":null},{"server_id":59,"name":"Uncletopia | Sydney | 6 | Community","name_short":"syd-6","host":"syd-1.au.uncletopia.com","port":27065,"enabled":true,"region":"au","cc":"au","latitude":-33.865143,"longitude":151.2099,"reserved":0,"last_update":"0001-01-01T00:00:00Z","name_a2s":"Uncletopia | Sydney | 6 | Community","protocol":17,"map":"pl_borneo","folder":"tf","game":"Team Fortress","app_id":440,"player_count":0,"max_players":24,"Bots":0,"server_type":"Dedicated","server_os":"Linux","password":true,"vac":true,"version":"7708610","steam_id":85568392925397960,"keywords":["nocrits","nodmgspread","payload","uncletopia"],"game_id":440,"stv_port":0,"stv_name":"","players":null},{"server_id":49,"name":"Uncletopia | Warsaw | 1 | All Maps","name_short":"waw-1","host":"waw-1.pl.uncletopia.com","port":27015,"enabled":true,"region":"eu","cc":"pl","latitude":52.2297,"longitude":21.017532,"reserved":0,"last_update":"0001-01-01T00:00:00Z","name_a2s":"Uncletopia | Warsaw | 1 | All Maps","protocol":17,"map":"cp_process_final","folder":"tf","game":"Team Fortress","app_id":440,"player_count":0,"max_players":24,"Bots":0,"server_type":"Dedicated","server_os":"Linux","password":true,"vac":true,"version":"7708610","steam_id":85568392925397850,"keywords":["cp","nocrits","nodmgspread","uncletopia"],"game_id":440,"stv_port":27016,"stv_name":"Uncletopia | Warsaw | 1 | All Maps | STV","players":null},{"server_id":50,"name":"Uncletopia | Warsaw | 2 | All Maps","name_short":"waw-2","host":"waw-1.pl.uncletopia.com","port":27025,"enabled":true,"region":"eu","cc":"pl","latitude":52.2297,"longitude":21.017532,"reserved":0,"last_update":"0001-01-01T00:00:00Z","name_a2s":"Uncletopia | Warsaw | 2 | All Maps","protocol":17,"map":"koth_highpass","folder":"tf","game":"Team Fortress","app_id":440,"player_count":0,"max_players":24,"Bots":0,"server_type":"Dedicated","server_os":"Linux","password":true,"vac":true,"version":"7708610","steam_id":85568392925397851,"keywords":["cp","nocrits","nodmgspread","uncletopia"],"game_id":440,"stv_port":27026,"stv_name":"Uncletopia | Warsaw | 2 | All Maps | STV","players":null},{"server_id":51,"name":"Uncletopia | Warsaw | 3 | All Maps","name_short":"waw-3","host":"waw-1.pl.uncletopia.com","port":27035,"enabled":true,"region":"eu","cc":"pl","latitude":52.2297,"longitude":21.017532,"reserved":0,"last_update":"0001-01-01T00:00:00Z","name_a2s":"Uncletopia | Warsaw | 3 | All Maps","protocol":17,"map":"koth_cascade","folder":"tf","game":"Team Fortress","app_id":440,"player_count":0,"max_players":24,"Bots":0,"server_type":"Dedicated","server_os":"Linux","password":true,"vac":true,"version":"7708610","steam_id":85568392925397852,"keywords":["cp","nocrits","nodmgspread","uncletopia"],"game_id":440,"stv_port":0,"stv_name":"","players":null},{"server_id":52,"name":"Uncletopia | Warsaw | 4 | All Maps","name_short":"waw-4","host":"waw-1.pl.uncletopia.com","port":27045,"enabled":true,"region":"eu","cc":"pl","latitude":52.2297,"longitude":21.017532,"reserved":0,"last_update":"0001-01-01T00:00:00Z","name_a2s":"Uncletopia | Warsaw | 4 | All Maps","protocol":17,"map":"cp_process_final","folder":"tf","game":"Team Fortress","app_id":440,"player_count":0,"max_players":24,"Bots":0,"server_type":"Dedicated","server_os":"Linux","password":true,"vac":true,"version":"7708610","steam_id":85568392925397853,"keywords":["cp","nocrits","nodmgspread","uncletopia"],"game_id":440,"stv_port":27046,"stv_name":"Uncletopia | Warsaw | 4 | All Maps | STV","players":null},{"server_id":53,"name":"Uncletopia | Warsaw | 5 | No Payload","name_short":"waw-5","host":"waw-1.pl.uncletopia.com","port":27055,"enabled":true,"region":"eu","cc":"pl","latitude":52.2297,"longitude":21.017532,"reserved":0,"last_update":"0001-01-01T00:00:00Z","name_a2s":"Uncletopia | Warsaw | 5 | No Payload","protocol":17,"map":"cp_steel","folder":"tf","game":"Team Fortress","app_id":440,"player_count":0,"max_players":24,"Bots":0,"server_type":"Dedicated","server_os":"Linux","password":true,"vac":true,"version":"7708610","steam_id":85568392925397854,"keywords":["cp","nocrits","nodmgspread","uncletopia"],"game_id":440,"stv_port":27056,"stv_name":"Uncletopia | Warsaw | 5 | No Payload | STV","players":null},{"server_id":54,"name":"Uncletopia | Warsaw | 6 | Community","name_short":"waw-6","host":"waw-1.pl.uncletopia.com","port":27065,"enabled":true,"region":"eu","cc":"pl","latitude":52.2297,"longitude":21.017532,"reserved":0,"last_update":"0001-01-01T00:00:00Z","name_a2s":"Uncletopia | Warsaw | 6 | Community","protocol":17,"map":"workshop/koth_bagel_rc5.ugc2514036946","folder":"tf","game":"Team Fortress","app_id":440,"player_count":3,"max_players":24,"Bots":0,"server_type":"Dedicated","server_os":"Linux","password":true,"vac":true,"version":"7708610","steam_id":85568392925397856,"keywords":["cp","nocrits","nodmgspread","uncletopia"],"game_id":440,"stv_port":27066,"stv_name":"Uncletopia | Warsaw | 6 | Community | STV","players":[{"user_id":6,"name":"Filipczak","steam_id":76561198168045256,"connected_time":3343000000000,"state":"active","ping":54},{"user_id":7,"name":"SuchyByq55","steam_id":76561198296304020,"connected_time":3089000000000,"state":"active","ping":82},{"user_id":8,"name":"adrijan123","steam_id":76561198361815731,"connected_time":2593000000000,"state":"active","ping":88}]}]}