{"status":true,"message":"","result":[{"server_id":9,"name":"Uncletopia | Atlanta | 1 | All Maps","name_short":"atl-1","host":"atl-1.us.uncletopia.com","port":27015,"enabled":true,"region":"us-east","cc":"us","latitude":33.753746,"longitude":-84.38633,"reserved":0,"last_update":"0001-01-01T00:00:00Z","name_a2s":"Uncletopia | Atlanta | 1 | All Maps","protocol":17,"map":"pl_frontier_final","folder":"tf","game":"Team Fortress","app_id":440,"player_count":24,"max_players":24,"Bots":0,"server_type":"Dedicated","server_os":"Linux","password":true,"vac":true,"version":"7961495","steam_id":85568392924469982,"keywords":["nocrits","nodmgspread","payload","uncletopia"],"game_id":440,"stv_port":27016,"stv_name":"Uncletopia | Atlanta | 1 | All Maps | STV","players":[{"user_id":459,"name":"DuckKey","steam_id":76561198904477889,"connected_time":526000000000,"state":"active","ping":59},{"user_id":467,"name":"Shrebbie","steam_id":76561198875230824,"connected_time":173000000000,"state":"active","ping":60},{"user_id":464,"name":"FaZe Tim Allen","steam_id":76561198358434883,"connected_time":264000000000,"state":"active","ping":54},{"user_id":450,"name":"loot","steam_id":76561198069954956,"connected_time":852000000000,"state":"active","ping":56},{"user_id":437,"name":"101_the_Robot","steam_id":76561198331039848,"connected_time":2100000000000,"state":"active","ping":98},{"user_id":438,"name":"_Ya_Boy_Alpha_","steam_id":76561198835295433,"connected_time":2094000000000,"state":"active","ping":117},{"user_id":411,"name":"neun_o2","steam_id":76561198795862574,"connected_time":4558000000000,"state":"active","ping":81},{"user_id":453,"name":"Luciâ˜…Fer","steam_id":76561199030343810,"connected_time":694000000000,"state":"active","ping":46},{"user_id":313,"name":"CoffeeZombee","steam_id":76561198172708053,"connected_time":12128000000000,"state":"active","ping":67},{"user_id":461,"name":"HanaRose","steam_id":76561198261328591,"connected_time":474000000000,"state":"active","ping":97},{"user_id":377,"name":"The CEO of cement","steam_id":76561199107177460,"connected_time":7857000000000,"state":"active","ping":113},{"user_id":425,"name":"Squigly","steam_id":76561198084811625,"connected_time":3345000000000,"state":"active","ping":94},{"user_id":455,"name":"salami girl","steam_id":76561198817968375,"connected_time":602000000000,"state":"active","ping":106},{"user_id":466,"name":"Krissy","steam_id":76561197960848174,"connected_time":226000000000,"state":"active","ping":64},{"user_id":460,"name":"Lilith","steam_id":76561198125102885,"connected_time":522000000000,"state":"active","ping":62},{"user_id":432,"name":"why","steam_id":76561199059732212,"connected_time":2249000000000,"state":"active","ping":59},{"user_id":456,"name":"Gravemind","steam_id":76561198247744018,"connected_time":596000000000,"state":"active","ping":91},{"user_id":462,"name":"yes daddy","steam_id":76561198166100997,"connected_time":410000000000,"state":"active","ping":62},{"user_id":465,"name":"t.tv/ibbKitty  âˆ‘:3","steam_id":76561198110858518,"connected_time":244000000000,"state":"active","ping":90},{"user_id":409,"name":"reis","steam_id":76561199232952016,"connected_time":4835000000000,"state":"active","ping":165},{"user_id":442,"name":"Blippity Blop","steam_id":76561198830927973,"connected_time":1833000000000,"state":"active","ping":100},{"user_id":451,"name":"Shame","steam_id":76561198100490994,"connected_time":848000000000,"state":"active","ping":60},{"user_id":444,"name":"-=Bits=-Dinkleberg","steam_id":76561198080367616,"connected_time":1636000000000,"state":"active","ping":65},{"user_id":426,"name":"he suckin on my rick til i mort","steam_id":76561198310711692,"connected_time":3345000000000,"state":"active","ping":167}]},{"server_id":104,"name":"Uncletopia | Atlanta | 2 | All Maps","name_short":"atl-2","host":"atl-1.us.uncletopia.com","port":27025,"enabled":true,"region":"us-east","cc":"us","latitude":33.753746,"longitude":-84.38633,"reserved":0,"last_update":"0001-01-01T00:00:00Z","name_a2s":"Uncletopia | Atlanta | 2 | All Maps","protocol":17,"map":"koth_cascade","folder":"tf","game":"Team Fortress","app_id":440,"player_count":0,"max_players":24,"Bots":0,"server_type":"Dedicated","server_os":"Linux","password":true,"vac":true,"version":"7961495","steam_id":85568392924469983,"keywords":["cp","nocrits","nodmgspread","uncletopia"],"game_id":440,"stv_port":27026,"stv_name":"Uncletopia | Atlanta | 2 | All Maps | STV","players":null},{"server_id":400,"name":"Uncletopia | Atlanta | 3 | Stopwatch","name_short":"atl-3","host":"atl-1.us.uncletopia.com","port":27035,"enabled":true,"region":"us-east","cc":"us","latitude":33.753746,"longitude":-84.38633,"reserved":0,"last_update":"0001-01-01T00:00:00Z","name_a2s":"Uncletopia | Atlanta | 3 | Stopwatch","protocol":17,"map":"pl_swiftwater_final1","folder":"tf","game":"Team Fortress","app_id":440,"player_count":22,"max_players":24,"Bots":0,"server_type":"Dedicated","server_os":"Linux","password":true,"vac":true,"version":"7961495","steam_id":85568392924515187,"keywords":["nocrits","nodmgspread","payload","uncletopia"],"game_id":440,"stv_port":27036,"stv_name":"Uncletopia | Atlanta | 3 | Stopwatch | STV","players":[{"user_id":149,"name":"fffffffffffffffffffffffffffffff","steam_id":76561199168680069,"connected_time":296000000000,"state":"active","ping":60},{"user_id":118,"name":"A-Side","steam_id":76561199188699397,"connected_time":2079000000000,"state":"active","ping":73},{"user_id":129,"name":"Whimsical Bruh","steam_id":76561199069973423,"connected_time":1310000000000,"state":"active","ping":44},{"user_id":130,"name":"a boxâ„¢","steam_id":76561198159275352,"connected_time":1302000000000,"state":"active","ping":41},{"user_id":131,"name":"leek","steam_id":76561198144731384,"connected_time":1277000000000,"state":"active","ping":42},{"user_id":132,"name":"ark","steam_id":76561198041066271,"connected_time":1180000000000,"state":"active","ping":87},{"user_id":133,"name":"speaker","steam_id":76561198016067244,"connected_time":1158000000000,"state":"active","ping":52},{"user_id":89,"name":"GrandpaÂ´s Last Drop of Cum","steam_id":76561198079516696,"connected_time":2945000000000,"state":"active","ping":90},{"user_id":137,"name":"Humanbean37","steam_id":76561199232932739,"connected_time":742000000000,"state":"active","ping":79},{"user_id":125,"name":"nav","steam_id":76561198872608266,"connected_time":1407000000000,"state":"active","ping":68},{"user_id":106,"name":"TF2C | fac","steam_id":76561198009818412,"connected_time":2428000000000,"state":"active","ping":72},{"user_id":107,"name":"á¹½â§‰ cookie","steam_id":76561197998884823,"connected_time":2407000000000,"state":"active","ping":87},{"user_id":109,"name":"retard man from retard land","steam_id":76561198984228021,"connected_time":2356000000000,"state":"active","ping":65},{"user_id":146,"name":"Mettalpillow","steam_id":76561198799092828,"connected_time":440000000000,"state":"active","ping":89},{"user_id":140,"name":"Tupac Shakur","steam_id":76561198247651486,"connected_time":607000000000,"state":"active","ping":59},{"user_id":141,"name":"garf","steam_id":76561198451939128,"connected_time":593000000000,"state":"active","ping":71},{"user_id":142,"name":"SoCal Kaizer","steam_id":76561198334361081,"connected_time":555000000000,"state":"active","ping":135},{"user_id":153,"name":"BoyWithTheBeanie","steam_id":76561199435079308,"connected_time":27000000000,"state":"spawning","ping":124},{"user_id":147,"name":"gerf.","steam_id":76561198811706201,"connected_time":438000000000,"state":"active","ping":44},{"user_id":145,"name":"Biggy Bean","steam_id":76561198207038208,"connected_time":456000000000,"state":"active","ping":91},{"user_id":120,"name":"Yoshimelon","steam_id":76561198253054325,"connected_time":1906000000000,"state":"active","ping":60},{"user_id":148,"name":"LAZURQUEST","steam_id":76561198866469243,"connected_time":425000000000,"state":"active","ping":73}]},{"server_id":401,"name":"Uncletopia | Atlanta | 4 | Community","name_short":"atl-4","host":"atl-1.us.uncletopia.com","port":27045,"enabled":true,"region":"us-east","cc":"us","latitude":33.753746,"longitude":-84.38633,"reserved":0,"last_update":"0001-01-01T00:00:00Z","name_a2s":"Uncletopia | Atlanta | 4 | Community","protocol":17,"map":"workshop/koth_ashville_final.ugc2130459942","folder":"tf","game":"Team Fortress","app_id":440,"player_count":0,"max_players":24,"Bots":0,"server_type":"Dedicated","server_os":"Linux","password":true,"vac":true,"version":"7961495","steam_id":85568392924515188,"keywords":["cp","nocrits","nodmgspread","uncletopia"],"game_id":440,"stv_port":27046,"stv_name":"Uncletopia | Atlanta | 4 | Community | STV","players":null},{"server_id":2,"name":"Uncletopia | Chicago | 1 | All Maps","name_short":"chi-1","host":"chi-1.us.uncletopia.com","port":27015,"enabled":true,"region":"us-central","cc":"us","latitude":41.881832,"longitude":-87.62318,"reserved":0,"last_update":"0001-01-01T00:00:00Z","name_a2s":"Uncletopia | Chicago | 1 | All Maps","protocol":17,"map":"pl_pier","folder":"tf","game":"Team Fortress","app_id":440,"player_count":20,"max_players":24,"Bots":0,"server_type":"Dedicated","server_os":"Linux","password":true,"vac":true,"version":"7961495","steam_id":85568392924469984,"keywords":["nocrits","nodmgspread","payload","uncletopia"],"game_id":440,"stv_port":27016,"stv_name":"Uncletopia | Chicago | 1 | All Maps | STV","players":[{"user_id":347,"name":"awesome medic","steam_id":76561199089730744,"connected_time":3000000000,"state":"spawning","ping":100},{"user_id":332,"name":"Nestor","steam_id":76561198070782619,"connected_time":1039000000000,"state":"active","ping":61},{"user_id":327,"name":"SoundKitKiller","steam_id":76561198053535873,"connected_time":1606000000000,"state":"active","ping":102},{"user_id":345,"name":"jade","steam_id":76561198055611029,"connected_time":106000000000,"state":"active","ping":59},{"user_id":339,"name":"Saul Goodman","steam_id":76561199184839884,"connected_time":709000000000,"state":"active","ping":78},{"user_id":346,"name":"Johnny Lawrence #JohnnyMaxxing","steam_id":76561199367141671,"connected_time":65000000000,"state":"active","ping":60},{"user_id":287,"name":"Robogineer","steam_id":76561198026994739,"connected_time":3773000000000,"state":"active","ping":108},{"user_id":331,"name":"Siz","steam_id":76561198072962154,"connected_time":1140000000000,"state":"active","ping":63},{"user_id":338,"name":"The Tokester","steam_id":76561198879961615,"connected_time":845000000000,"state":"active","ping":67},{"user_id":334,"name":"Not_Douglas","steam_id":76561199024184136,"connected_time":1004000000000,"state":"active","ping":65},{"user_id":318,"name":"JOOOOOOOOOOOOO!!!!!!","steam_id":76561199101638460,"connected_time":1998000000000,"state":"active","ping":76},{"user_id":274,"name":"fried rice","steam_id":76561198928939100,"connected_time":4571000000000,"state":"active","ping":89},{"user_id":335,"name":"the observer","steam_id":76561198966609490,"connected_time":990000000000,"state":"active","ping":85},{"user_id":328,"name":"Catgirl Inbreastigator","steam_id":76561198037289982,"connected_time":1395000000000,"state":"active","ping":95},{"user_id":341,"name":"Comrade","steam_id":76561199056721863,"connected_time":371000000000,"state":"active","ping":84},{"user_id":323,"name":"Rulers Reach fan","steam_id":76561198367340750,"connected_time":1872000000000,"state":"active","ping":59},{"user_id":340,"name":"Shrim","steam_id":76561198068455981,"connected_time":411000000000,"state":"active","ping":69},{"user_id":265,"name":"DanO Tron ex","steam_id":76561198380959442,"connected_time":5696000000000,"state":"active","ping":88},{"user_id":344,"name":"TheSnipersHat","steam_id":76561198057684066,"connected_time":246000000000,"state":"spawning","ping":40},{"user_id":330,"name":"Black Rose Oncore","steam_id":76561198040489960,"connected_time":1177000000000,"state":"active","ping":111}]},{"server_id":106,"name":"Uncletopia | Chicago | 2 | All Maps","name_short":"chi-2","host":"chi-1.us.uncletopia.com","port":27025,"enabled":true,"region":"us-central","cc":"us","latitude":41.881832,"longitude":-87.62318,"reserved":0,"last_update":"0001-01-01T00:00:00Z","name_a2s":"Uncletopia | Chicago | 2 | All Maps","protocol":17,"map":"pl_upward","folder":"tf","game":"Team Fortress","app_id":440,"player_count":24,"max_players":24,"Bots":0,"server_type":"Dedicated","server_os":"Linux","password":true,"vac":true,"version":"7961495","steam_id":85568392924469985,"keywords":["nocrits","nodmgspread","payload","uncletopia"],"game_id":440,"stv_port":27026,"stv_name":"Uncletopia | Chicago | 2 | All Maps | STV","players":[{"user_id":275,"name":"Sir Iasis","steam_id":76561198035666760,"connected_time":159000000000,"state":"active","ping":57},{"user_id":261,"name":"floofy","steam_id":76561198389769098,"connected_time":1069000000000,"state":"active","ping":75},{"user_id":192,"name":"Dosario","steam_id":76561198298095535,"connected_time":5064000000000,"state":"active","ping":104},{"user_id":252,"name":"RoFrogle","steam_id":76561199078941377,"connected_time":1382000000000,"state":"active","ping":64},{"user_id":251,"name":"Spirit","steam_id":76561198286792807,"connected_time":1428000000000,"state":"active","ping":176},{"user_id":273,"name":"czarchasm","steam_id":76561198055712749,"connected_time":237000000000,"state":"active","ping":75},{"user_id":219,"name":"I Must Frag","steam_id":76561198909415646,"connected_time":4207000000000,"state":"active","ping":79},{"user_id":218,"name":"AUSTIN THEORY","steam_id":76561198288743767,"connected_time":4229000000000,"state":"active","ping":108},{"user_id":263,"name":"woooflet","steam_id":76561199208387179,"connected_time":980000000000,"state":"active","ping":74},{"user_id":195,"name":"Scoot the Burbs","steam_id":76561198079507179,"connected_time":5036000000000,"state":"active","ping":74},{"user_id":254,"name":"D","steam_id":76561198292908619,"connected_time":1360000000000,"state":"active","ping":68},{"user_id":277,"name":"Hamlindigo Blueâ„¢","steam_id":76561198116337540,"connected_time":127000000000,"state":"active","ping":76},{"user_id":221,"name":"Lunarthrope","steam_id":76561198292132147,"connected_time":3310000000000,"state":"active","ping":115},{"user_id":279,"name":"Greg","steam_id":76561198803498467,"connected_time":53000000000,"state":"active","ping":121},{"user_id":268,"name":"Jessicamustdie","steam_id":76561198045230921,"connected_time":744000000000,"state":"active","ping":61},{"user_id":278,"name":"rf","steam_id":76561198195359229,"connected_time":102000000000,"state":"active","ping":77},{"user_id":239,"name":"dadgummit","steam_id":76561198005806915,"connected_time":2724000000000,"state":"active","ping":61},{"user_id":257,"name":"Useless","steam_id":76561198116079299,"connected_time":1334000000000,"state":"active","ping":91},{"user_id":276,"name":"Rornir","steam_id":76561198081829615,"connected_time":154000000000,"state":"active","ping":35},{"user_id":271,"name":"On The Bright Side...","steam_id":76561198168785883,"connected_time":518000000000,"state":"active","ping":52},{"user_id":258,"name":"lil' Wayne","steam_id":76561198050136796,"connected_time":1331000000000,"state":"active","ping":88},{"user_id":242,"name":"Dreysidel","steam_id":76561198056496183,"connected_time":2356000000000,"state":"active","ping":69},{"user_id":259,"name":"Ivory","steam_id":76561198978827841,"connected_time":1328000000000,"state":"active","ping":62},{"user_id":265,"name":"the headphones you lost","steam_id":76561199201098634,"connected_time":864000000000,"state":"active","ping":62}]},{"server_id":402,"name":"Uncletopia | Chicago | 3 | All Maps","name_short":"chi-3","host":"chi-1.us.uncletopia.com","port":27035,"enabled":true,"region":"us-central","cc":"us","latitude":41.881832,"longitude":-87.62318,"reserved":0,"last_update":"0001-01-01T00:00:00Z","name_a2s":"Uncletopia | Chicago | 3 | All Maps","protocol":17,"map":"ctf_2fort","folder":"tf","game":"Team Fortress","app_id":440,"player_count":22,"max_players":24,"Bots":0,"server_type":"Dedicated","server_os":"Linux","password":true,"vac":true,"version":"7961495","steam_id":85568392924515191,"keywords":["ctf","nocrits","nodmgspread","uncletopia"],"game_id":440,"stv_port":27036,"stv_name":"Uncletopia | Chicago | 3 | All Maps | STV","players":[{"user_id":662,"name":"The Senate","steam_id":76561198198805293,"connected_time":632000000000,"state":"active","ping":96},{"user_id":663,"name":"Sultan","steam_id":76561198447852406,"connected_time":624000000000,"state":"active","ping":64},{"user_id":655,"name":"R@cing74m","steam_id":76561199036177043,"connected_time":1871000000000,"state":"active","ping":72},{"user_id":665,"name":"IdealBlank","steam_id":76561198454620794,"connected_time":541000000000,"state":"active","ping":116},{"user_id":666,"name":"Bluedemon","steam_id":76561199212058684,"connected_time":497000000000,"state":"active","ping":106},{"user_id":681,"name":"Slope115117","steam_id":76561199028794627,"connected_time":101000000000,"state":"active","ping":105},{"user_id":680,"name":"CivillianNumber86","steam_id":76561199349013627,"connected_time":199000000000,"state":"active","ping":87},{"user_id":626,"name":"Major Woody","steam_id":76561198835541533,"connected_time":3452000000000,"state":"active","ping":78},{"user_id":647,"name":"whatever","steam_id":76561197994759007,"connected_time":2523000000000,"state":"active","ping":75},{"user_id":682,"name":"callie","steam_id":76561198131833567,"connected_time":100000000000,"state":"active","ping":110},{"user_id":669,"name":"i am a sturgeon","steam_id":76561198042209721,"connected_time":473000000000,"state":"active","ping":50},{"user_id":670,"name":"Dr Han","steam_id":76561198233984300,"connected_time":452000000000,"state":"active","ping":46},{"user_id":684,"name":"Ockulus","steam_id":76561199069638460,"connected_time":17000000000,"state":"spawning","ping":122},{"user_id":683,"name":".jpg","steam_id":76561198137237377,"connected_time":71000000000,"state":"active","ping":87},{"user_id":675,"name":"Joebobio","steam_id":76561198024442760,"connected_time":349000000000,"state":"active","ping":73},{"user_id":677,"name":"Other Players, My One Weakness","steam_id":76561197989247588,"connected_time":337000000000,"state":"active","ping":61},{"user_id":619,"name":"ArmyGuyIan","steam_id":76561198120926552,"connected_time":3637000000000,"state":"active","ping":67},{"user_id":630,"name":"Burny Sanders","steam_id":76561197961879048,"connected_time":3412000000000,"state":"active","ping":60},{"user_id":678,"name":"Abu Shoosh","steam_id":76561198094990358,"connected_time":331000000000,"state":"active","ping":97},{"user_id":679,"name":"Hawkborne","steam_id":76561198107249245,"connected_time":323000000000,"state":"active","ping":71},{"user_id":660,"name":"benjamator67","steam_id":76561198209002860,"connected_time":1488000000000,"state":"active","ping":51}]},{"server_id":403,"name":"Uncletopia | Chicago | 4 | All Maps","name_short":"chi-4","host":"chi-1.us.uncletopia.com","port":27045,"enabled":true,"region":"us-central","cc":"us","latitude":41.881832,"longitude":-87.62318,"reserved":0,"last_update":"0001-01-01T00:00:00Z","name_a2s":"Uncletopia | Chicago | 4 | All Maps","protocol":17,"map":"cp_sunshine","folder":"tf","game":"Team Fortress","app_id":440,"player_count":24,"max_players":24,"Bots":0,"server_type":"Dedicated","server_os":"Linux","password":true,"vac":true,"version":"7961495","steam_id":85568392924515193,"keywords":["cp","nocrits","nodmgspread","uncletopia"],"game_id":440,"stv_port":27046,"stv_name":"Uncletopia | Chicago | 4 | All Maps | STV","players":[{"user_id":177,"name":"FenrisÃºlfr","steam_id":76561198042012705,"connected_time":1252000000000,"state":"active","ping":68},{"user_id":182,"name":"Yarman53","steam_id":76561198099889202,"connected_time":1081000000000,"state":"active","ping":35},{"user_id":178,"name":"THE ULTIMATE JOHN","steam_id":76561199082758073,"connected_time":1244000000000,"state":"active","ping":56},{"user_id":195,"name":"The local hobo","steam_id":76561198289650060,"connected_time":638000000000,"state":"active","ping":81},{"user_id":200,"name":"DusterDan35","steam_id":76561198309129093,"connected_time":275000000000,"state":"active","ping":132},{"user_id":161,"name":"Shady Businessman","steam_id":76561198143855968,"connected_time":2377000000000,"state":"active","ping":91},{"user_id":179,"name":"Clarnex","steam_id":76561198032438366,"connected_time":1229000000000,"state":"active","ping":160},{"user_id":94,"name":"Shoeshocker","steam_id":76561198174302467,"connected_time":6478000000000,"state":"active","ping":134},{"user_id":139,"name":"Violinja","steam_id":76561198324875899,"connected_time":3589000000000,"state":"active","ping":52},{"user_id":183,"name":"thecal","steam_id":76561198307893384,"connected_time":1032000000000,"state":"active","ping":53},{"user_id":190,"name":"asm_ghost","steam_id":76561199205363547,"connected_time":731000000000,"state":"active","ping":126},{"user_id":188,"name":"Yarn","steam_id":76561199227148369,"connected_time":817000000000,"state":"active","ping":86},{"user_id":189,"name":"theManMan","steam_id":76561199488457138,"connected_time":784000000000,"state":"active","ping":108},{"user_id":142,"name":"catboy extraordinaire","steam_id":76561197983889333,"connected_time":3464000000000,"state":"active","ping":168},{"user_id":184,"name":"laz","steam_id":76561198334164507,"connected_time":1030000000000,"state":"active","ping":72},{"user_id":203,"name":"herb","steam_id":76561198185980055,"connected_time":154000000000,"state":"active","ping":63},{"user_id":201,"name":"Ninjoth","steam_id":76561198038611753,"connected_time":227000000000,"state":"active","ping":81},{"user_id":106,"name":"Digitic","steam_id":76561198080295536,"connected_time":5875000000000,"state":"active","ping":77},{"user_id":186,"name":"flux_alpha","steam_id":76561199146350077,"connected_time":913000000000,"state":"active","ping":37},{"user_id":123,"name":"summerlis","steam_id":76561198165324438,"connected_time":4980000000000,"state":"active","ping":91},{"user_id":192,"name":"DETCON 1","steam_id":76561198170859755,"connected_time":691000000000,"state":"active","ping":72},{"user_id":202,"name":"Eplayz12436","steam_id":76561199227452083,"connected_time":214000000000,"state":"active","ping":55},{"user_id":196,"name":"Ball Juggler","steam_id":76561198031675881,"connected_time":572000000000,"state":"active","ping":44},{"user_id":174,"name":"Astrocards","steam_id":76561199184079830,"connected_time":1391000000000,"state":"active","ping":67}]},{"server_id":36,"name":"Uncletopia | Chicago | 5 | All Maps","name_short":"chi-5","host":"chi-2.us.uncletopia.com","port":27015,"enabled":true,"region":"us-central","cc":"us","latitude":41.881832,"longitude":-87.62318,"reserved":0,"last_update":"0001-01-01T00:00:00Z","name_a2s":"Uncletopia | Chicago | 5 | All Maps","protocol":17,"map":"koth_viaduct","folder":"tf","game":"Team Fortress","app_id":440,"player_count":0,"max_players":24,"Bots":0,"server_type":"Dedicated","server_os":"Linux","password":true,"vac":true,"version":"7961495","steam_id":85568392924866362,"keywords":["cp","nocrits","nodmgspread","uncletopia"],"game_id":440,"stv_port":27016,"stv_name":"Uncletopia | Chicago | 5 | All Maps | STV","players":null},{"server_id":37,"name":"Uncletopia | Chicago | 6 | All Maps","name_short":"chi-6","host":"chi-2.us.uncletopia.com","port":27025,"enabled":true,"region":"us-central","cc":"us","latitude":41.881832,"longitude":-87.62318,"reserved":0,"last_update":"0001-01-01T00:00:00Z","name_a2s":"Uncletopia | Chicago | 6 | All Maps","protocol":17,"map":"koth_harvest_final","folder":"tf","game":"Team Fortress","app_id":440,"player_count":24,"max_players":24,"Bots":0,"server_type":"Dedicated","server_os":"Linux","password":true,"vac":true,"version":"7961495","steam_id":85568392924866363,"keywords":["cp","nocrits","nodmgspread","uncletopia"],"game_id":440,"stv_port":27026,"stv_name":"Uncletopia | Chicago | 6 | All Maps | STV","players":[{"user_id":22,"name":"dark souls boss","steam_id":76561198316610724,"connected_time":2665000000000,"state":"active","ping":85},{"user_id":64,"name":"Retlow","steam_id":76561198066810435,"connected_time":650000000000,"state":"active","ping":76},{"user_id":58,"name":"Gary Budussy","steam_id":76561197969793969,"connected_time":1387000000000,"state":"active","ping":62},{"user_id":15,"name":"General Sherman","steam_id":76561198044769376,"connected_time":3816000000000,"state":"active","ping":79},{"user_id":59,"name":"Chuck Shartz M.D.","steam_id":76561198292258115,"connected_time":1113000000000,"state":"active","ping":60},{"user_id":33,"name":"Aztea","steam_id":76561198982089893,"connected_time":2197000000000,"state":"active","ping":77},{"user_id":62,"name":"Amtyk","steam_id":76561197979130554,"connected_time":681000000000,"state":"active","ping":62},{"user_id":66,"name":"Bhutch","steam_id":76561198145654275,"connected_time":287000000000,"state":"active","ping":84},{"user_id":25,"name":"dweamy","steam_id":76561198119181880,"connected_time":2539000000000,"state":"active","ping":77},{"user_id":35,"name":"illness","steam_id":76561198881651324,"connected_time":2062000000000,"state":"active","ping":66},{"user_id":63,"name":"Tostman","steam_id":76561198047605439,"connected_time":668000000000,"state":"active","ping":54},{"user_id":37,"name":"Fernando Alonso","steam_id":76561198066822788,"connected_time":2053000000000,"state":"active","ping":75},{"user_id":38,"name":"11 INCH TGIRL SCHLONG","steam_id":76561198122059018,"connected_time":2033000000000,"state":"active","ping":45},{"user_id":52,"name":"mellowhype","steam_id":76561198040675606,"connected_time":1740000000000,"state":"active","ping":73},{"user_id":41,"name":"Andrew Weber","steam_id":76561199359977174,"connected_time":1922000000000,"state":"active","ping":97},{"user_id":42,"name":"Jefferton","steam_id":76561198406216568,"connected_time":1921000000000,"state":"active","ping":76},{"user_id":54,"name":"Astrocircuit","steam_id":76561198014437544,"connected_time":1630000000000,"state":"active","ping":63},{"user_id":67,"name":"Zin","steam_id":76561199041369507,"connected_time":206000000000,"state":"active","ping":83},{"user_id":57,"name":"neo :)","steam_id":76561199092954930,"connected_time":1403000000000,"state":"active","ping":57},{"user_id":47,"name":"delight","steam_id":76561197980280272,"connected_time":1802000000000,"state":"active","ping":98},{"user_id":48,"name":"Kyle Kushman","steam_id":76561199257008060,"connected_time":1786000000000,"state":"active","ping":69},{"user_id":61,"name":"Apples","steam_id":76561199272580089,"connected_time":986000000000,"state":"active","ping":69},{"user_id":50,"name":"otwtomarsoffdabars(spacecore)","steam_id":76561199085974120,"connected_time":1780000000000,"state":"active","ping":71},{"user_id":55,"name":"AstronautPug","steam_id":76561198162372709,"connected_time":1588000000000,"state":"active","ping":65}]},{"server_id":38,"name":"Uncletopia | Chicago | 7 | Stopwatch","name_short":"chi-7","host":"chi-2.us.uncletopia.com","port":27035,"enabled":true,"region":"us-central","cc":"us","latitude":41.881832,"longitude":-87.62318,"reserved":0,"last_update":"0001-01-01T00:00:00Z","name_a2s":"Uncletopia | Chicago | 7 | Stopwatch","protocol":17,"map":"workshop/koth_bagel_rc6.ugc2514036946","folder":"tf","game":"Team Fortress","app_id":440,"player_count":0,"max_players":24,"Bots":0,"server_type":"Dedicated","server_os":"Linux","password":true,"vac":true,"version":"7961495","steam_id":85568392924866364,"keywords":["cp","nocrits","nodmgspread","uncletopia"],"game_id":440,"stv_port":27036,"stv_name":"Uncletopia | Chicago | 7 | Stopwatch | STV","players":null},{"server_id":39,"name":"Uncletopia | Chicago | 8 | Community","name_short":"chi-8","host":"chi-2.us.uncletopia.com","port":27045,"enabled":true,"region":"us-central","cc":"us","latitude":41.881832,"longitude":-87.62318,"reserved":0,"last_update":"0001-01-01T00:00:00Z","name_a2s":"Uncletopia | Chicago | 8 | Community","protocol":17,"map":"workshop/koth_synthetic_rc6a.ugc1549817316","folder":"tf","game":"Team Fortress","app_id":440,"player_count":1,"max_players":24,"Bots":0,"server_type":"Dedicated","server_os":"Linux","password":true,"vac":true,"version":"7961495","steam_id":85568392924866365,"keywords":["cp","nocrits","nodmgspread","uncletopia"],"game_id":440,"stv_port":27046,"stv_name":"Uncletopia | Chicago | 8 | Community | STV","players":[{"user_id":8,"name":"Engineer Gaming","steam_id":76561198840761529,"connected_time":149000000000,"state":"active","ping":49}]},{"server_id":8,"name":"Uncletopia | Dallas | 1 | All Maps","name_short":"dal-1","host":"dal-1.us.uncletopia.com","port":27015,"enabled":true,"region":"us-central","cc":"us","latitude":32.779167,"longitude":-96.80889,"reserved":0,"last_update":"0001-01-01T00:00:00Z","name_a2s":"Uncletopia | Dallas | 1 | All Maps","protocol":17,"map":"koth_viaduct","folder":"tf","game":"Team Fortress","app_id":440,"player_count":0,"max_players":24,"Bots":0,"server_type":"Dedicated","server_os":"Linux","password":true,"vac":true,"version":"7961495","steam_id":85568392924469986,"keywords":["cp","nocrits","nodmgspread","uncletopia"],"game_id":440,"stv_port":27016,"stv_name":"Uncletopia | Dallas | 1 | All Maps | STV","players":null},{"server_id":108,"name":"Uncletopia | Dallas | 2 | All Maps","name_short":"dal-2","host":"dal-1.us.uncletopia.com","port":27025,"enabled":true,"region":"us-central","cc":"us","latitude":32.779167,"longitude":-96.80889,"reserved":0,"last_update":"0001-01-01T00:00:00Z","name_a2s":"Uncletopia | Dallas | 2 | All Maps","protocol":17,"map":"pl_thundermountain","folder":"tf","game":"Team Fortress","app_id":440,"player_count":24,"max_players":24,"Bots":0,"server_type":"Dedicated","server_os":"Linux","password":true,"vac":true,"version":"7961495","steam_id":85568392924469988,"keywords":["nocrits","nodmgspread","payload","uncletopia"],"game_id":440,"stv_port":27026,"stv_name":"Uncletopia | Dallas | 2 | All Maps | STV","players":[{"user_id":387,"name":"Frogninja","steam_id":76561198051418374,"connected_time":1625000000000,"state":"active","ping":109},{"user_id":422,"name":"imng","steam_id":76561198014988031,"connected_time":312000000000,"state":"active","ping":71},{"user_id":417,"name":"Mr.Duck","steam_id":76561199063410531,"connected_time":534000000000,"state":"active","ping":67},{"user_id":393,"name":"BADWOLF42","steam_id":76561198055447523,"connected_time":1512000000000,"state":"active","ping":55},{"user_id":409,"name":"Western_dragon","steam_id":76561198130456105,"connected_time":845000000000,"state":"active","ping":82},{"user_id":369,"name":"K2f","steam_id":76561198049600563,"connected_time":3151000000000,"state":"active","ping":67},{"user_id":420,"name":"Hey","steam_id":76561198447517893,"connected_time":375000000000,"state":"active","ping":74},{"user_id":410,"name":"MrBusiness","steam_id":76561198309685571,"connected_time":822000000000,"state":"active","ping":102},{"user_id":428,"name":"TechnoBear2099","steam_id":76561198238863596,"connected_time":234000000000,"state":"active","ping":57},{"user_id":395,"name":"Meet The Taunt","steam_id":76561198253927199,"connected_time":1416000000000,"state":"active","ping":169},{"user_id":421,"name":"lil EGG","steam_id":76561198361321253,"connected_time":338000000000,"state":"active","ping":98},{"user_id":423,"name":"Suburban Wolf Dad","steam_id":76561198069234954,"connected_time":308000000000,"state":"active","ping":71},{"user_id":386,"name":"Curse of the Blackened Eye","steam_id":76561198097175164,"connected_time":1687000000000,"state":"active","ping":110},{"user_id":416,"name":"Tenki","steam_id":76561198796459347,"connected_time":582000000000,"state":"active","ping":72},{"user_id":397,"name":"master_minion","steam_id":76561198170693990,"connected_time":1382000000000,"state":"active","ping":79},{"user_id":400,"name":"Yaoi Boy Princess","steam_id":76561197997343746,"connected_time":1316000000000,"state":"active","ping":84},{"user_id":424,"name":"Discount TaDa #SaveTF2 Repeat.g","steam_id":76561198340196737,"connected_time":293000000000,"state":"active","ping":99},{"user_id":412,"name":"Fostrel","steam_id":76561198152160601,"connected_time":818000000000,"state":"active","ping":59},{"user_id":437,"name":"Vennith","steam_id":76561197999131486,"connected_time":39000000000,"state":"active","ping":84},{"user_id":385,"name":"UnkownGamerLOL","steam_id":76561198225902368,"connected_time":1979000000000,"state":"active","ping":73},{"user_id":430,"name":"ShadowWasUhOh","steam_id":76561198400361935,"connected_time":193000000000,"state":"active","ping":81},{"user_id":380,"name":"Lickity Split","steam_id":76561198132051047,"connected_time":2321000000000,"state":"active","ping":125},{"user_id":403,"name":"John16Mark","steam_id":76561198119445407,"connected_time":1207000000000,"state":"active","ping":68},{"user_id":414,"name":"JSN","steam_id":76561198138876827,"connected_time":624000000000,"state":"active","ping":89}]},{"server_id":404,"name":"Uncletopia | Dallas | 3 | All Maps","name_short":"dal-3","host":"dal-1.us.uncletopia.com","port":27035,"enabled":true,"region":"us-central","cc":"us","latitude":32.779167,"longitude":-96.80889,"reserved":0,"last_update":"0001-01-01T00:00:00Z","name_a2s":"Uncletopia | Dallas | 3 | All Maps","protocol":17,"map":"cp_dustbowl","folder":"tf","game":"Team Fortress","app_id":440,"player_count":0,"max_players":24,"Bots":0,"server_type":"Dedicated","server_os":"Linux","password":true,"vac":true,"version":"7961495","steam_id":85568392924515219,"keywords":["cp","nocrits","nodmgspread","uncletopia"],"game_id":440,"stv_port":27036,"stv_name":"Uncletopia | Dallas | 3 | All Maps | STV","players":null},{"server_id":405,"name":"Uncletopia | Dallas | 4 | Community","name_short":"dal-4","host":"dal-1.us.uncletopia.com","port":27045,"enabled":true,"region":"us-central","cc":"us","latitude":32.779167,"longitude":-96.80889,"reserved":0,"last_update":"0001-01-01T00:00:00Z","name_a2s":"Uncletopia | Dallas | 4 | Community","protocol":17,"map":"workshop/pl_barnblitz_pro7.ugc582280235","folder":"tf","game":"Team Fortress","app_id":440,"player_count":0,"max_players":24,"Bots":0,"server_type":"Dedicated","server_os":"Linux","password":true,"vac":true,"version":"7961495","steam_id":85568392924515220,"keywords":["nocrits","nodmgspread","payload","uncletopia"],"game_id":440,"stv_port":27046,"stv_name":"Uncletopia | Dallas | 4 | Community | STV","players":null},{"server_id":5,"name":"Uncletopia | Frankfurt | 1 | All Maps","name_short":"frk-1","host":"frk-1.de.uncletopia.com","port":27015,"enabled":true,"region":"eu","cc":"de","latitude":50.110924,"longitude":8.682127,"reserved":0,"last_update":"0001-01-01T00:00:00Z","name_a2s":"Uncletopia | Frankfurt | 1 | All Maps","protocol":17,"map":"pl_badwater","folder":"tf","game":"Team Fortress","app_id":440,"player_count":24,"max_players":24,"Bots":0,"server_type":"Dedicated","server_os":"Linux","password":true,"vac":true,"version":"7961495","steam_id":85568392924469989,"keywords":["nocrits","nodmgspread","payload","uncletopia"],"game_id":440,"stv_port":27016,"stv_name":"Uncletopia | Frankfurt | 1 | All Maps | STV","players":[{"user_id":866,"name":"Atua","steam_id":76561198349648942,"connected_time":177000000000,"state":"active","ping":75},{"user_id":847,"name":"catface","steam_id":76561198963378933,"connected_time":2652000000000,"state":"active","ping":51},{"user_id":861,"name":"Pats (Gifted items Collector)","steam_id":76561198418538887,"connected_time":784000000000,"state":"active","ping":88},{"user_id":849,"name":"ywy","steam_id":76561198088624259,"connected_time":2405000000000,"state":"active","ping":63},{"user_id":837,"name":"Ã‡odar","steam_id":76561198235518444,"connected_time":2878000000000,"state":"active","ping":48},{"user_id":852,"name":"stun","steam_id":76561198276681691,"connected_time":1588000000000,"state":"active","ping":57},{"user_id":851,"name":"CEO of Racism","steam_id":76561198042317958,"connected_time":1597000000000,"state":"active","ping":60},{"user_id":715,"name":"fish","steam_id":76561198092096689,"connected_time":12849000000000,"state":"active","ping":59},{"user_id":826,"name":"Brian","steam_id":76561198077756206,"connected_time":3843000000000,"state":"active","ping":47},{"user_id":819,"name":"Wattseyy","steam_id":76561198248567360,"connected_time":4161000000000,"state":"active","ping":45},{"user_id":841,"name":"Pipper","steam_id":76561197970326616,"connected_time":2722000000000,"state":"active","ping":67},{"user_id":838,"name":"aqpw","steam_id":76561198346638308,"connected_time":2862000000000,"state":"active","ping":62},{"user_id":857,"name":"Proto-arc","steam_id":76561198012776747,"connected_time":1023000000000,"state":"active","ping":57},{"user_id":850,"name":"Conan the Librarian","steam_id":76561198007224654,"connected_time":1608000000000,"state":"active","ping":64},{"user_id":863,"name":"lawn","steam_id":76561198001243486,"connected_time":383000000000,"state":"active","ping":49},{"user_id":815,"name":"dick cheese enjoyer","steam_id":76561198077421906,"connected_time":4850000000000,"state":"active","ping":50},{"user_id":858,"name":"Piellino","steam_id":76561198156873276,"connected_time":1004000000000,"state":"active","ping":91},{"user_id":853,"name":"tone' (real)","steam_id":76561198055552635,"connected_time":1354000000000,"state":"active","ping":54},{"user_id":859,"name":"glyph","steam_id":76561197980736364,"connected_time":936000000000,"state":"active","ping":76},{"user_id":865,"name":"KrAk3rs","steam_id":76561198298179344,"connected_time":193000000000,"state":"active","ping":65},{"user_id":823,"name":"n-b?d!n","steam_id":76561198307037169,"connected_time":4081000000000,"state":"active","ping":63},{"user_id":864,"name":"ðŸš½KorfJobðŸš½","steam_id":76561198212932833,"connected_time":380000000000,"state":"active","ping":100},{"user_id":835,"name":"booba","steam_id":76561198158018284,"connected_time":3053000000000,"state":"active","ping":58},{"user_id":848,"name":"nose.spooner67","steam_id":76561198119324108,"connected_time":2643000000000,"state":"active","ping":45}]},{"server_id":110,"name":"Uncletopia | Frankfurt | 2 | All Maps","name_short":"frk-2","host":"frk-1.de.uncletopia.com","port":27025,"enabled":true,"region":"eu","cc":"de","latitude":50.110924,"longitude":8.682127,"reserved":0,"last_update":"0001-01-01T00:00:00Z","name_a2s":"Uncletopia | Frankfurt | 2 | All Maps","protocol":17,"map":"cp_altitude","folder":"tf","game":"Team Fortress","app_id":440,"player_count":15,"max_players":24,"Bots":0,"server_type":"Dedicated","server_os":"Linux","password":true,"vac":true,"version":"7961495","steam_id":85568392924469990,"keywords":["cp","nocrits","nodmgspread","uncletopia"],"game_id":440,"stv_port":27026,"stv_name":"Uncletopia | Frankfurt | 2 | All Maps | STV","players":[{"user_id":600,"name":"DiJin","steam_id":76561198154349638,"connected_time":1893000000000,"state":"active","ping":54},{"user_id":577,"name":"worgeral","steam_id":76561198050781898,"connected_time":3269000000000,"state":"active","ping":61},{"user_id":587,"name":"Rudoss","steam_id":76561198018415787,"connected_time":2527000000000,"state":"active","ping":61},{"user_id":603,"name":"Em","steam_id":76561198057911246,"connected_time":1713000000000,"state":"active","ping":76},{"user_id":618,"name":"agent youppii","steam_id":76561198055264447,"connected_time":389000000000,"state":"active","ping":63},{"user_id":591,"name":"puddles","steam_id":76561198046196005,"connected_time":2328000000000,"state":"active","ping":30},{"user_id":596,"name":"Doctor Rudy G. Numpad","steam_id":76561198440881106,"connected_time":2134000000000,"state":"active","ping":69},{"user_id":608,"name":"[Sheep] Tomco","steam_id":76561198388549261,"connected_time":1410000000000,"state":"spawning","ping":60},{"user_id":609,"name":"Ritmic Mortal","steam_id":76561198352862033,"connected_time":1335000000000,"state":"spawning","ping":102},{"user_id":599,"name":"MAGik","steam_id":76561198085793729,"connected_time":1903000000000,"state":"active","ping":70},{"user_id":614,"name":"shr1mple","steam_id":76561198173537027,"connected_time":769000000000,"state":"active","ping":37},{"user_id":588,"name":"American Chjeff (âœªoficial)","steam_id":76561198019917466,"connected_time":2525000000000,"state":"active","ping":64},{"user_id":602,"name":"Vershal Smershal","steam_id":76561198116223995,"connected_time":1850000000000,"state":"active","ping":95},{"user_id":612,"name":"Î© ScAVENGE Î©","steam_id":76561198034375627,"connected_time":1172000000000,"state":"active","ping":49},{"user_id":584,"name":"kavun","steam_id":76561198023461869,"connected_time":2880000000000,"state":"active","ping":64}]},{"server_id":308,"name":"Uncletopia | Frankfurt | 3 | All Maps","name_short":"frk-3","host":"frk-1.de.uncletopia.com","port":27035,"enabled":true,"region":"eu","cc":"de","latitude":50.110924,"longitude":8.682127,"reserved":0,"last_update":"0001-01-01T00:00:00Z","name_a2s":"Uncletopia | Frankfurt | 3 | All Maps","protocol":17,"map":"cp_altitude","folder":"tf","game":"Team Fortress","app_id":440,"player_count":22,"max_players":24,"Bots":0,"server_type":"Dedicated","server_os":"Linux","password":true,"vac":true,"version":"7961495","steam_id":85568392924504274,"keywords":["cp","nocrits","nodmgspread","uncletopia"],"game_id":440,"stv_port":27036,"stv_name":"Uncletopia | Frankfurt | 3 | All Maps | STV","players":[{"user_id":770,"name":"Kingsley","steam_id":76561198210210543,"connected_time":1678000000000,"state":"active","ping":61},{"user_id":794,"name":"48dripz","steam_id":76561198057040197,"connected_time":260000000000,"state":"active","ping":60},{"user_id":758,"name":"decriminalise goblins","steam_id":76561198048257605,"connected_time":2170000000000,"state":"active","ping":79},{"user_id":752,"name":"Monkey","steam_id":76561199008411791,"connected_time":3111000000000,"state":"active","ping":55},{"user_id":783,"name":"Endi","steam_id":76561198914938199,"connected_time":1125000000000,"state":"active","ping":89},{"user_id":795,"name":":D","steam_id":76561199101935694,"connected_time":200000000000,"state":"active","ping":68},{"user_id":790,"name":"SAS41","steam_id":76561197998649851,"connected_time":819000000000,"state":"active","ping":58},{"user_id":768,"name":"HazelForest","steam_id":76561198171827033,"connected_time":1718000000000,"state":"active","ping":66},{"user_id":764,"name":"JosepXXL","steam_id":76561198407124695,"connected_time":1834000000000,"state":"active","ping":86},{"user_id":784,"name":"Glorious Leader Xi Jinping","steam_id":76561198293811839,"connected_time":1074000000000,"state":"active","ping":62},{"user_id":766,"name":"caramelldancin'","steam_id":76561198193357946,"connected_time":1784000000000,"state":"active","ping":104},{"user_id":680,"name":"random gaming","steam_id":76561198087970118,"connected_time":8366000000000,"state":"active","ping":57},{"user_id":769,"name":"boxing time","steam_id":76561198231966088,"connected_time":1699000000000,"state":"active","ping":62},{"user_id":585,"name":"Papa Cheese","steam_id":76561198276351496,"connected_time":14424000000000,"state":"active","ping":59},{"user_id":682,"name":"Doctor Medic","steam_id":76561198100957443,"connected_time":8360000000000,"state":"active","ping":72},{"user_id":785,"name":"Summer â™¥","steam_id":76561198047723907,"connected_time":1043000000000,"state":"active","ping":54},{"user_id":797,"name":"G4merSz3mcsi (â–°Ë˜â—¡Ë˜â–°)","steam_id":76561199055233794,"connected_time":112000000000,"state":"active","ping":60},{"user_id":791,"name":"Hungeryan","steam_id":76561198887299930,"connected_time":590000000000,"state":"active","ping":95},{"user_id":798,"name":"Radom","steam_id":76561198291681674,"connected_time":19000000000,"state":"active","ping":55},{"user_id":776,"name":"Coramari Derifey","steam_id":76561198092035222,"connected_time":1509000000000,"state":"active","ping":95},{"user_id":799,"name":"Frazzles","steam_id":76561199228009586,"connected_time":11000000000,"state":"spawning","ping":62},{"user_id":778,"name":"CzechMate #SaveTF2","steam_id":76561198012687703,"connected_time":1442000000000,"state":"active","ping":50}]},{"server_id":309,"name":"Uncletopia | Frankfurt | 4 | All Maps","name_short":"frk-4","host":"frk-1.de.uncletopia.com","port":27045,"enabled":true,"region":"eu","cc":"de","latitude":50.110924,"longitude":8.682127,"reserved":0,"last_update":"0001-01-01T00:00:00Z","name_a2s":"Uncletopia | Frankfurt | 4 | All Maps","protocol":17,"map":"koth_lakeside_final","folder":"tf","game":"Team Fortress","app_id":440,"player_count":0,"max_players":24,"Bots":0,"server_type":"Dedicated","server_os":"Linux","password":true,"vac":true,"version":"7961495","steam_id":85568392924504275,"keywords":["cp","nocrits","nodmgspread","uncletopia"],"game_id":440,"stv_port":27046,"stv_name":"Uncletopia | Frankfurt | 4 | All Maps | STV","players":null},{"server_id":310,"name":"Uncletopia | Frankfurt | 5 | All Maps","name_short":"frk-5","host":"frk-1.de.uncletopia.com","port":27055,"enabled":true,"region":"eu","cc":"de","latitude":50.110924,"longitude":8.682127,"reserved":0,"last_update":"0001-01-01T00:00:00Z","name_a2s":"Uncletopia | Frankfurt | 5 | All Maps","protocol":17,"map":"pl_snowycoast","folder":"tf","game":"Team Fortress","app_id":440,"player_count":0,"max_players":24,"Bots":0,"server_type":"Dedicated","server_os":"Linux","password":true,"vac":true,"version":"7961495","steam_id":85568392924504277,"keywords":["nocrits","nodmgspread","payload","uncletopia"],"game_id":440,"stv_port":27056,"stv_name":"Uncletopia | Frankfurt | 5 | All Maps | STV","players":null},{"server_id":311,"name":"Uncletopia | Frankfurt | 6 | All Maps","name_short":"frk-6","host":"frk-1.de.uncletopia.com","port":27065,"enabled":true,"region":"eu","cc":"de","latitude":50.110924,"longitude":8.682127,"reserved":0,"last_update":"0001-01-01T00:00:00Z","name_a2s":"Uncletopia | Frankfurt | 6 | All Maps","protocol":17,"map":"pl_badwater","folder":"tf","game":"Team Fortress","app_id":440,"player_count":24,"max_players":24,"Bots":0,"server_type":"Dedicated","server_os":"Linux","password":true,"vac":true,"version":"7961495","steam_id":85568392924504278,"keywords":["nocrits","nodmgspread","payload","uncletopia"],"game_id":440,"stv_port":27066,"stv_name":"Uncletopia | Frankfurt | 6 | All Maps | STV","players":[{"user_id":561,"name":"Aaron","steam_id":76561197990046953,"connected_time":697000000000,"state":"active","ping":76},{"user_id":521,"name":"Jureron","steam_id":76561198097535175,"connected_time":3446000000000,"state":"active","ping":56},{"user_id":563,"name":"Omni","steam_id":76561197964320557,"connected_time":355000000000,"state":"active","ping":61},{"user_id":564,"name":"Dream","steam_id":76561198802024369,"connected_time":212000000000,"state":"active","ping":46},{"user_id":522,"name":"DaveRISK","steam_id":76561198143854076,"connected_time":3441000000000,"state":"active","ping":103},{"user_id":523,"name":"slnc","steam_id":76561198041151496,"connected_time":3423000000000,"state":"active","ping":60},{"user_id":559,"name":"Drpostman","steam_id":76561198110817061,"connected_time":1187000000000,"state":"active","ping":71},{"user_id":532,"name":"Pancake Medic","steam_id":76561199018423214,"connected_time":3143000000000,"state":"active","ping":65},{"user_id":566,"name":"Nuuskis","steam_id":76561198084042012,"connected_time":121000000000,"state":"active","ping":82},{"user_id":547,"name":"OneSolidJunky","steam_id":76561199086682942,"connected_time":1739000000000,"state":"active","ping":98},{"user_id":550,"name":"LionKing","steam_id":76561198023399545,"connected_time":1421000000000,"state":"active","ping":49},{"user_id":551,"name":"beckler","steam_id":76561198029266963,"connected_time":1411000000000,"state":"active","ping":45},{"user_id":552,"name":"Sweetcheesus","steam_id":76561198022299033,"connected_time":1400000000000,"state":"active","ping":48},{"user_id":533,"name":"golfmastr","steam_id":76561198993144124,"connected_time":3123000000000,"state":"active","ping":73},{"user_id":507,"name":"LILY-CHAN","steam_id":76561198035085893,"connected_time":3920000000000,"state":"active","ping":102},{"user_id":539,"name":"ITâ€™S NESTING SEASON","steam_id":76561198015573257,"connected_time":2973000000000,"state":"active","ping":71},{"user_id":553,"name":"Dangerousbros","steam_id":76561198088952519,"connected_time":1379000000000,"state":"active","ping":46},{"user_id":554,"name":"Redsy","steam_id":76561198360088412,"connected_time":1344000000000,"state":"active","ping":134},{"user_id":567,"name":"tjuv","steam_id":76561198214848887,"connected_time":102000000000,"state":"active","ping":60},{"user_id":516,"name":"you're wasting your time","steam_id":76561199282911650,"connected_time":3607000000000,"state":"active","ping":48},{"user_id":556,"name":"Dizzy","steam_id":76561198010192462,"connected_time":1314000000000,"state":"active","ping":51},{"user_id":568,"name":"mq","steam_id":76561198091888948,"connected_time":24000000000,"state":"active","ping":55},{"user_id":558,"name":"waj","steam_id":76561198053628243,"connected_time":1266000000000,"state":"active","ping":59},{"user_id":560,"name":"Not A Fake Uncletopia Server","steam_id":76561198152871288,"connected_time":1174000000000,"state":"active","ping":56}]},{"server_id":23,"name":"Uncletopia | Frankfurt | 7 | Stopwatch","name_short":"frk-7","host":"frk-1.de.uncletopia.com","port":27075,"enabled":true,"region":"eu","cc":"de","latitude":50.110924,"longitude":8.682127,"reserved":0,"last_update":"0001-01-01T00:00:00Z","name_a2s":"Uncletopia | Frankfurt | 7 | Stopwatch","protocol":17,"map":"workshop/pl_badwater_pro_v12.ugc2142942074","folder":"tf","game":"Team Fortress","app_id":440,"player_count":1,"max_players":24,"Bots":0,"server_type":"Dedicated","server_os":"Linux","password":true,"vac":true,"version":"7961495","steam_id":85568392924742827,"keywords":["nocrits","nodmgspread","payload","uncletopia"],"game_id":440,"stv_port":27076,"stv_name":"Uncletopia | Frankfurt | 7 | Stopwatch | STV","players":[{"user_id":13,"name":"mescoman","steam_id":76561198086929484,"connected_time":35000000000,"state":"spawning","ping":189}]},{"server_id":24,"name":"Uncletopia | Frankfurt | 8 | Community","name_short":"frk-8","host":"frk-1.de.uncletopia.com","port":27085,"enabled":true,"region":"eu","cc":"de","latitude":50.110924,"longitude":8.682127,"reserved":0,"last_update":"0001-01-01T00:00:00Z","name_a2s":"Uncletopia | Frankfurt | 8 | Community","protocol":17,"map":"workshop/koth_bagel_rc6.ugc2514036946","folder":"tf","game":"Team Fortress","app_id":440,"player_count":0,"max_players":24,"Bots":0,"server_type":"Dedicated","server_os":"Linux","password":true,"vac":true,"version":"7961495","steam_id":85568392924742828,"keywords":["cp","nocrits","nodmgspread","uncletopia"],"game_id":440,"stv_port":27086,"stv_name":"Uncletopia | Frankfurt | 8 | Community | STV","players":null},{"server_id":202,"name":"Uncletopia | Hong Kong | 1 | All Maps","name_short":"hgk-1","host":"hgk-1.hk.uncletopia.com","port":27015,"enabled":true,"region":"asia","cc":"hk","latitude":22.302711,"longitude":114.177216,"reserved":0,"last_update":"0001-01-01T00:00:00Z","name_a2s":"Uncletopia | Hong Kong | 1 | All Maps","protocol":17,"map":"cp_process_final","folder":"tf","game":"Team Fortress","app_id":440,"player_count":0,"max_players":24,"Bots":0,"server_type":"Dedicated","server_os":"Linux","password":true,"vac":true,"version":"7961495","steam_id":85568392924494504,"keywords":["cp","nocrits","nodmgspread","uncletopia"],"game_id":440,"stv_port":27016,"stv_name":"Uncletopia | Hong Kong | 1 | All Maps | STV","players":null},{"server_id":1,"name":"Uncletopia | Los Angeles | 1 | All Maps","name_short":"lax-1","host":"lax-1.us.uncletopia.com","port":27015,"enabled":true,"region":"us-west","cc":"us","latitude":33.94279,"longitude":-118.41004,"reserved":0,"last_update":"0001-01-01T00:00:00Z","name_a2s":"Uncletopia | Los Angeles | 1 | All Maps","protocol":17,"map":"pl_swiftwater_final1","folder":"tf","game":"Team Fortress","app_id":440,"player_count":24,"max_players":24,"Bots":0,"server_type":"Dedicated","server_os":"Linux","password":true,"vac":true,"version":"7961495","steam_id":85568392924469991,"keywords":["nocrits","nodmgspread","payload","uncletopia"],"game_id":440,"stv_port":27016,"stv_name":"Uncletopia | Los Angeles | 1 | All Maps | STV","players":[{"user_id":240,"name":"hyazz","steam_id":76561199100342013,"connected_time":351000000000,"state":"active","ping":46},{"user_id":237,"name":"[â˜¯] randomshagz*","steam_id":76561197968666646,"connected_time":460000000000,"state":"active","ping":66},{"user_id":220,"name":"Pluto","steam_id":76561198012630802,"connected_time":1597000000000,"state":"active","ping":63},{"user_id":232,"name":"joemoe84g","steam_id":76561199141651280,"connected_time":508000000000,"state":"active","ping":119},{"user_id":242,"name":"iiamiizzyy","steam_id":76561198355030751,"connected_time":204000000000,"state":"active","ping":118},{"user_id":227,"name":"Stoopnagle","steam_id":76561198011942560,"connected_time":1009000000000,"state":"active","ping":74},{"user_id":230,"name":"roc","steam_id":76561198059047954,"connected_time":549000000000,"state":"active","ping":48},{"user_id":199,"name":"paypur -rng","steam_id":76561198214370515,"connected_time":2978000000000,"state":"active","ping":68},{"user_id":243,"name":"Jimmy Fallon","steam_id":76561198069131730,"connected_time":199000000000,"state":"active","ping":87},{"user_id":244,"name":"johnny","steam_id":76561198050225055,"connected_time":155000000000,"state":"active","ping":45},{"user_id":233,"name":"Crustacean Daddy","steam_id":76561198993807061,"connected_time":495000000000,"state":"active","ping":46},{"user_id":234,"name":"SneekiCheekiQbone","steam_id":76561198045077980,"connected_time":491000000000,"state":"active","ping":44},{"user_id":224,"name":"SnappyPython","steam_id":76561198155631884,"connected_time":1389000000000,"state":"active","ping":102},{"user_id":245,"name":"peter griefing","steam_id":76561198276823075,"connected_time":152000000000,"state":"active","ping":49},{"user_id":235,"name":"mr poop","steam_id":76561199195196632,"connected_time":474000000000,"state":"active","ping":80},{"user_id":236,"name":"sloped wall (fake) [not real]","steam_id":76561198203952392,"connected_time":460000000000,"state":"active","ping":113},{"user_id":238,"name":"havarti gaming","steam_id":76561198069895678,"connected_time":455000000000,"state":"active","ping":101},{"user_id":239,"name":"EAT SPIT!","steam_id":76561198096836451,"connected_time":451000000000,"state":"active","ping":55},{"user_id":177,"name":"CookieMeister","steam_id":76561198112646899,"connected_time":4817000000000,"state":"active","ping":89},{"user_id":241,"name":"Unlimited_Trees","steam_id":76561198299141443,"connected_time":298000000000,"state":"active","ping":56},{"user_id":200,"name":"moe","steam_id":76561198929586245,"connected_time":2976000000000,"state":"active","ping":43},{"user_id":246,"name":"Drilly22","steam_id":76561198068838338,"connected_time":148000000000,"state":"active","ping":100},{"user_id":247,"name":"greenpeace","steam_id":76561197983221708,"connected_time":26000000000,"state":"active","ping":60},{"user_id":223,"name":"Len","steam_id":76561199141913673,"connected_time":1578000000000,"state":"active","ping":64}]},{"server_id":112,"name":"Uncletopia | Los Angeles | 2 | All Maps","name_short":"lax-2","host":"lax-1.us.uncletopia.com","port":27025,"enabled":true,"region":"us-west","cc":"us","latitude":33.94279,"longitude":-118.41004,"reserved":0,"last_update":"0001-01-01T00:00:00Z","name_a2s":"Uncletopia | Los Angeles | 2 | All Maps","protocol":17,"map":"koth_highpass","folder":"tf","game":"Team Fortress","app_id":440,"player_count":0,"max_players":24,"Bots":0,"server_type":"Dedicated","server_os":"Linux","password":true,"vac":true,"version":"7961495","steam_id":85568392924469992,"keywords":["cp","nocrits","nodmgspread","uncletopia"],"game_id":440,"stv_port":27026,"stv_name":"Uncletopia | Los Angeles | 2 | All Maps | STV","players":null},{"server_id":324,"name":"Uncletopia | Los Angeles | 3 | All Maps","name_short":"lax-3","host":"lax-1.us.uncletopia.com","port":27035,"enabled":true,"region":"us-west","cc":"us","latitude":33.94279,"longitude":-118.41004,"reserved":0,"last_update":"0001-01-01T00:00:00Z","name_a2s":"Uncletopia | Los Angeles | 3 | All Maps","protocol":17,"map":"pl_upward","folder":"tf","game":"Team Fortress","app_id":440,"player_count":1,"max_players":24,"Bots":0,"server_type":"Dedicated","server_os":"Linux","password":true,"vac":true,"version":"7961495","steam_id":85568392924510198,"keywords":["nocrits","nodmgspread","payload","uncletopia"],"game_id":440,"stv_port":27036,"stv_name":"Uncletopia | Los Angeles | 3 | All Maps | STV","players":[{"user_id":8,"name":"lilicopter1","steam_id":76561199109281757,"connected_time":71000000000,"state":"active","ping":62}]},{"server_id":25,"name":"Uncletopia | Los Angeles | 4 | Stopwatch","name_short":"lax-4","host":"lax-1.us.uncletopia.com","port":27045,"enabled":true,"region":"us-west","cc":"us","latitude":33.94279,"longitude":-118.41004,"reserved":0,"last_update":"0001-01-01T00:00:00Z","name_a2s":"Uncletopia | Los Angeles | 4 | Stopwatch","protocol":17,"map":"pl_barnblitz","folder":"tf","game":"Team Fortress","app_id":440,"player_count":0,"max_players":24,"Bots":0,"server_type":"Dedicated","server_os":"Linux","password":true,"vac":true,"version":"7961495","steam_id":85568392924510199,"keywords":["nocrits","nodmgspread","payload","uncletopia"],"game_id":440,"stv_port":27046,"stv_name":"Uncletopia | Los Angeles | 4 | Stopwatch | STV","players":null},{"server_id":11,"name":"Uncletopia | London | 1 | All Maps","name_short":"lon-1","host":"lon-1.uk.uncletopia.com","port":27015,"enabled":true,"region":"eu","cc":"gb","latitude":51.509865,"longitude":-0.118092,"reserved":0,"last_update":"0001-01-01T00:00:00Z","name_a2s":"Uncletopia | London | 1 | All Maps","protocol":17,"map":"pl_upward","folder":"tf","game":"Team Fortress","app_id":440,"player_count":24,"max_players":24,"Bots":0,"server_type":"Dedicated","server_os":"Linux","password":true,"vac":true,"version":"7961495","steam_id":85568392924367362,"keywords":["nocrits","nodmgspread","payload","uncletopia"],"game_id":440,"stv_port":27016,"stv_name":"Uncletopia | London | 1 | All Maps | STV","players":[{"user_id":704,"name":"sora","steam_id":76561198096547662,"connected_time":4504000000000,"state":"active","ping":53},{"user_id":724,"name":"Marquis de Hoto","steam_id":76561198080687708,"connected_time":2281000000000,"state":"active","ping":78},{"user_id":634,"name":"shooer!","steam_id":76561198110531281,"connected_time":9127000000000,"state":"active","ping":72},{"user_id":716,"name":"gibb (official)","steam_id":76561198074097655,"connected_time":3615000000000,"state":"active","ping":63},{"user_id":728,"name":"puck","steam_id":76561198121260981,"connected_time":1233000000000,"state":"active","ping":43},{"user_id":727,"name":"Slifer","steam_id":76561198062255803,"connected_time":1697000000000,"state":"active","ping":72},{"user_id":686,"name":"RomAnjentululiantiarion","steam_id":76561198161417211,"connected_time":5429000000000,"state":"active","ping":98},{"user_id":712,"name":"Trans Femtress 2","steam_id":76561198014056212,"connected_time":3912000000000,"state":"active","ping":74},{"user_id":620,"name":"Kahvi","steam_id":76561198723244199,"connected_time":10623000000000,"state":"active","ping":76},{"user_id":713,"name":"Black Tom","steam_id":76561198335730273,"connected_time":3888000000000,"state":"active","ping":66},{"user_id":680,"name":"KnugenIV","steam_id":76561198127091993,"connected_time":5537000000000,"state":"active","ping":96},{"user_id":718,"name":"Clown :o)","steam_id":76561198074657015,"connected_time":3506000000000,"state":"active","ping":58},{"user_id":696,"name":"GoblinGaming (Gabagool)","steam_id":76561198360395476,"connected_time":5074000000000,"state":"active","ping":41},{"user_id":702,"name":"kelpie (eepiest girl)","steam_id":76561198128327529,"connected_time":4564000000000,"state":"active","ping":47},{"user_id":730,"name":"MG","steam_id":76561197992591715,"connected_time":762000000000,"state":"active","ping":72},{"user_id":701,"name":"Velvet","steam_id":76561199394742012,"connected_time":4628000000000,"state":"active","ping":67},{"user_id":708,"name":"à¶žauraà¶ž","steam_id":76561198066258544,"connected_time":4327000000000,"state":"active","ping":59},{"user_id":717,"name":"stroyo","steam_id":76561198409592046,"connected_time":3573000000000,"state":"active","ping":60},{"user_id":651,"name":"SKY_","steam_id":76561198080980508,"connected_time":8076000000000,"state":"active","ping":66},{"user_id":729,"name":"BreadBubbles","steam_id":76561198174332826,"connected_time":1200000000000,"state":"active","ping":62},{"user_id":720,"name":"albert","steam_id":76561198353496134,"connected_time":2776000000000,"state":"active","ping":58},{"user_id":721,"name":"beebo","steam_id":76561199120277007,"connected_time":2762000000000,"state":"active","ping":48},{"user_id":711,"name":"goff","steam_id":76561198118989010,"connected_time":3921000000000,"state":"active","ping":55},{"user_id":714,"name":"ahh, eto... nya :3c","steam_id":76561198878171763,"connected_time":3824000000000,"state":"active","ping":55}]},{"server_id":114,"name":"Uncletopia | London | 2 | All Maps","name_short":"lon-2","host":"lon-1.uk.uncletopia.com","port":27025,"enabled":true,"region":"eu","cc":"gb","latitude":51.509865,"longitude":-0.118092,"reserved":0,"last_update":"0001-01-01T00:00:00Z","name_a2s":"Uncletopia | London | 2 | All Maps","protocol":17,"map":"koth_viaduct","folder":"tf","game":"Team Fortress","app_id":440,"player_count":22,"max_players":24,"Bots":0,"server_type":"Dedicated","server_os":"Linux","password":true,"vac":true,"version":"7961495","steam_id":85568392924470941,"keywords":["cp","nocrits","nodmgspread","uncletopia"],"game_id":440,"stv_port":27026,"stv_name":"Uncletopia | London | 2 | All Maps | STV","players":[{"user_id":459,"name":"Jimmy Poppadopolos","steam_id":76561198044825612,"connected_time":528000000000,"state":"active","ping":59},{"user_id":410,"name":"Flying Squirrel","steam_id":76561198005202791,"connected_time":3449000000000,"state":"active","ping":78},{"user_id":440,"name":"Suetolog","steam_id":76561199053090212,"connected_time":1908000000000,"state":"active","ping":60},{"user_id":460,"name":"comic_sans","steam_id":76561198845309519,"connected_time":405000000000,"state":"active","ping":81},{"user_id":462,"name":"Furious_Coder Buying w\u003e2222k","steam_id":76561198146046621,"connected_time":180000000000,"state":"active","ping":90},{"user_id":435,"name":"IndigoJones","steam_id":76561198050284262,"connected_time":2139000000000,"state":"active","ping":45},{"user_id":464,"name":"zen","steam_id":76561198358006442,"connected_time":95000000000,"state":"active","ping":69},{"user_id":466,"name":"Victoria Wood (as seen on TV)","steam_id":76561198066243851,"connected_time":78000000000,"state":"active","ping":89},{"user_id":446,"name":"Isaac Boush","steam_id":76561198179746529,"connected_time":1293000000000,"state":"active","ping":87},{"user_id":455,"name":"Tedk0n","steam_id":76561198034141061,"connected_time":784000000000,"state":"active","ping":91},{"user_id":447,"name":"turbo shart","steam_id":76561198012351808,"connected_time":1243000000000,"state":"active","ping":51},{"user_id":443,"name":"_420_StopItDudeCmon","steam_id":76561197997146481,"connected_time":1572000000000,"state":"active","ping":49},{"user_id":373,"name":"Jaeger","steam_id":76561199392187099,"connected_time":5196000000000,"state":"active","ping":147},{"user_id":428,"name":"BOT Jeremus","steam_id":76561198072981684,"connected_time":2350000000000,"state":"active","ping":54},{"user_id":437,"name":"Peat","steam_id":76561197992168067,"connected_time":2130000000000,"state":"active","ping":68},{"user_id":458,"name":"mary","steam_id":76561198014828037,"connected_time":532000000000,"state":"active","ping":54},{"user_id":451,"name":"bunbun","steam_id":76561198879837470,"connected_time":947000000000,"state":"active","ping":133},{"user_id":463,"name":"Cillian","steam_id":76561199471571148,"connected_time":147000000000,"state":"active","ping":69},{"user_id":420,"name":"Wanderer.","steam_id":76561198021837576,"connected_time":3044000000000,"state":"active","ping":41},{"user_id":416,"name":"tm`","steam_id":76561197993580412,"connected_time":3368000000000,"state":"active","ping":67},{"user_id":421,"name":"WEEP","steam_id":76561199499933159,"connected_time":3038000000000,"state":"active","ping":72},{"user_id":448,"name":"LemonAids","steam_id":76561198151605171,"connected_time":1224000000000,"state":"active","ping":115}]},{"server_id":320,"name":"Uncletopia | London | 3 | All Maps","name_short":"lon-3","host":"lon-1.uk.uncletopia.com","port":27035,"enabled":true,"region":"eu","cc":"gb","latitude":51.509865,"longitude":-0.118092,"reserved":0,"last_update":"0001-01-01T00:00:00Z","name_a2s":"Uncletopia | London | 3 | All Maps","protocol":17,"map":"cp_mercenarypark","folder":"tf","game":"Team Fortress","app_id":440,"player_count":22,"max_players":24,"Bots":0,"server_type":"Dedicated","server_os":"Linux","password":true,"vac":true,"version":"7961495","steam_id":85568392924510192,"keywords":["cp","nocrits","nodmgspread","uncletopia"],"game_id":440,"stv_port":27036,"stv_name":"Uncletopia | London | 3 | All Maps | STV","players":[{"user_id":335,"name":"Hank J Wimbleton","steam_id":76561198408623293,"connected_time":4872000000000,"state":"active","ping":53},{"user_id":387,"name":"My left foot itches","steam_id":76561198078411001,"connected_time":2890000000000,"state":"active","ping":87},{"user_id":374,"name":"BearWithMe","steam_id":76561198032715989,"connected_time":3079000000000,"state":"active","ping":57},{"user_id":355,"name":"car with air conditioning","steam_id":76561198368514674,"connected_time":4023000000000,"state":"active","ping":70},{"user_id":394,"name":"TheChickenman","steam_id":76561198077160025,"connected_time":2349000000000,"state":"active","ping":51},{"user_id":395,"name":"Yangus","steam_id":76561198147796010,"connected_time":1520000000000,"state":"active","ping":58},{"user_id":360,"name":"milk.mp4","steam_id":76561198376723362,"connected_time":3789000000000,"state":"active","ping":70},{"user_id":401,"name":"Brikermaster564","steam_id":76561199059400393,"connected_time":1254000000000,"state":"active","ping":82},{"user_id":376,"name":"King Nugget","steam_id":76561198134037464,"connected_time":3074000000000,"state":"active","ping":54},{"user_id":396,"name":"Gen","steam_id":76561198021775885,"connected_time":1499000000000,"state":"active","ping":57},{"user_id":403,"name":"Doctor Livesey","steam_id":76561198828037534,"connected_time":1131000000000,"state":"active","ping":73},{"user_id":407,"name":"merry","steam_id":76561198060242699,"connected_time":706000000000,"state":"active","ping":50},{"user_id":379,"name":"sleeping souls","steam_id":76561198205464653,"connected_time":3032000000000,"state":"active","ping":53},{"user_id":362,"name":"legalize marijuana","steam_id":76561198988882521,"connected_time":3678000000000,"state":"active","ping":88},{"user_id":405,"name":".Kwik'M","steam_id":76561198284433467,"connected_time":1027000000000,"state":"active","ping":57},{"user_id":380,"name":"Koppa","steam_id":76561197972286376,"connected_time":3023000000000,"state":"active","ping":61},{"user_id":399,"name":"soupalognionycrouton","steam_id":76561199021878433,"connected_time":1436000000000,"state":"active","ping":78},{"user_id":383,"name":"Jesse Pikmin","steam_id":76561198042793243,"connected_time":2997000000000,"state":"active","ping":53},{"user_id":384,"name":"the rat","steam_id":76561198079101313,"connected_time":2994000000000,"state":"active","ping":48},{"user_id":209,"name":"m0â§â§ â§â§â§â§m","steam_id":76561198151388694,"connected_time":13150000000000,"state":"active","ping":70},{"user_id":397,"name":"Violent_Raccoons","steam_id":76561199006002337,"connected_time":1479000000000,"state":"active","ping":49}]},{"server_id":321,"name":"Uncletopia | London | 4 | All Maps","name_short":"lon-4","host":"lon-1.uk.uncletopia.com","port":27045,"enabled":true,"region":"eu","cc":"gb","latitude":51.509865,"longitude":-0.118092,"reserved":0,"last_update":"0001-01-01T00:00:00Z","name_a2s":"Uncletopia | London | 4 | All Maps","protocol":17,"map":"cp_dustbowl","folder":"tf","game":"Team Fortress","app_id":440,"player_count":23,"max_players":24,"Bots":0,"server_type":"Dedicated","server_os":"Linux","password":true,"vac":true,"version":"7961495","steam_id":85568392924510193,"keywords":["cp","nocrits","nodmgspread","uncletopia"],"game_id":440,"stv_port":27046,"stv_name":"Uncletopia | London | 4 | All Maps | STV","players":[{"user_id":498,"name":"C++, Git and Linux Enjoyer","steam_id":76561198277310442,"connected_time":927000000000,"state":"active","ping":66},{"user_id":410,"name":"free back real estate","steam_id":76561197999437155,"connected_time":4414000000000,"state":"active","ping":50},{"user_id":484,"name":"thorn","steam_id":76561198089287999,"connected_time":1893000000000,"state":"active","ping":44},{"user_id":501,"name":"Saken","steam_id":76561198049075295,"connected_time":561000000000,"state":"active","ping":66},{"user_id":425,"name":"ÐŸÐ˜Ð’ÐÐžÐ™ Ð Ð•Ð¡ÐŸÐÐ’Ð","steam_id":76561198807724266,"connected_time":3479000000000,"state":"active","ping":90},{"user_id":392,"name":"Nurse=Leave","steam_id":76561198103323356,"connected_time":5900000000000,"state":"active","ping":64},{"user_id":496,"name":"Alex","steam_id":76561198061327298,"connected_time":1057000000000,"state":"active","ping":63},{"user_id":499,"name":"Gryoss","steam_id":76561197999837111,"connected_time":879000000000,"state":"active","ping":107},{"user_id":500,"name":"R A S M U S","steam_id":76561198279799226,"connected_time":836000000000,"state":"active","ping":82},{"user_id":434,"name":"Bill Carr","steam_id":76561198110033943,"connected_time":3057000000000,"state":"active","ping":34},{"user_id":441,"name":"Stefman","steam_id":76561199025104038,"connected_time":2695000000000,"state":"active","ping":43},{"user_id":502,"name":"Zamorocian","steam_id":76561198076604017,"connected_time":537000000000,"state":"active","ping":38},{"user_id":419,"name":"beer creator","steam_id":76561198039472276,"connected_time":3583000000000,"state":"active","ping":80},{"user_id":509,"name":"iswaxan","steam_id":76561199214988157,"connected_time":75000000000,"state":"active","ping":71},{"user_id":503,"name":"lark","steam_id":76561198091724522,"connected_time":490000000000,"state":"active","ping":53},{"user_id":510,"name":"Burpman","steam_id":76561198022897937,"connected_time":16000000000,"state":"spawning","ping":100},{"user_id":505,"name":"Live Ruby Reaction","steam_id":76561198304902462,"connected_time":240000000000,"state":"active","ping":40},{"user_id":506,"name":"Your Friend Pedro","steam_id":76561199191169748,"connected_time":216000000000,"state":"active","ping":105},{"user_id":347,"name":"kluri","steam_id":76561198084518962,"connected_time":8115000000000,"state":"active","ping":80},{"user_id":507,"name":"Goomba gaming","steam_id":76561199470354045,"connected_time":139000000000,"state":"active","ping":162},{"user_id":508,"name":"Underground Level G","steam_id":76561198317750546,"connected_time":126000000000,"state":"active","ping":108},{"user_id":411,"name":"Mega","steam_id":76561197970389664,"connected_time":4330000000000,"state":"active","ping":50},{"user_id":477,"name":"Jon","steam_id":76561199380849468,"connected_time":2145000000000,"state":"active","ping":61}]},{"server_id":21,"name":"Uncletopia | London | 5 | All Maps","name_short":"lon-5","host":"lon-1.uk.uncletopia.com","port":27055,"enabled":true,"region":"eu","cc":"gb","latitude":51.509865,"longitude":-0.118092,"reserved":0,"last_update":"0001-01-01T00:00:00Z","name_a2s":"Uncletopia | London | 5 | All Maps","protocol":17,"map":"pl_borneo","folder":"tf","game":"Team Fortress","app_id":440,"player_count":22,"max_players":24,"Bots":0,"server_type":"Dedicated","server_os":"Linux","password":true,"vac":true,"version":"7961495","steam_id":85568392924742829,"keywords":["nocrits","nodmgspread","payload","uncletopia"],"game_id":440,"stv_port":27056,"stv_name":"Uncletopia | London | 5 | All Maps | STV","players":[{"user_id":209,"name":"N O U F E XD","steam_id":76561199386090066,"connected_time":2720000000000,"state":"active","ping":74},{"user_id":219,"name":"finbar","steam_id":76561198056812396,"connected_time":2017000000000,"state":"active","ping":71},{"user_id":241,"name":"Duke Nukem","steam_id":76561197994240833,"connected_time":154000000000,"state":"active","ping":143},{"user_id":233,"name":"Steen","steam_id":76561198122992510,"connected_time":1314000000000,"state":"active","ping":48},{"user_id":237,"name":"i pity the drool.","steam_id":76561199330937686,"connected_time":292000000000,"state":"active","ping":75},{"user_id":238,"name":"lit64","steam_id":76561198164806677,"connected_time":262000000000,"state":"active","ping":83},{"user_id":211,"name":"Gety0","steam_id":76561198044387185,"connected_time":2460000000000,"state":"active","ping":93},{"user_id":244,"name":"Onions","steam_id":76561198150195195,"connected_time":92000000000,"state":"active","ping":50},{"user_id":195,"name":"ha,burger","steam_id":76561199093584225,"connected_time":4427000000000,"state":"active","ping":62},{"user_id":215,"name":"Umby","steam_id":76561198166584580,"connected_time":2359000000000,"state":"active","ping":33},{"user_id":229,"name":"Duke Fishlord","steam_id":76561198079928327,"connected_time":1496000000000,"state":"active","ping":66},{"user_id":208,"name":"emer","steam_id":76561198001420975,"connected_time":2867000000000,"state":"active","ping":97},{"user_id":201,"name":"â™¡ Cursed â™¡","steam_id":76561199161458959,"connected_time":3763000000000,"state":"active","ping":174},{"user_id":234,"name":"Average Blahaj Enjoyer","steam_id":76561198022290284,"connected_time":1236000000000,"state":"active","ping":65},{"user_id":223,"name":"footballween","steam_id":76561198796143531,"connected_time":1669000000000,"state":"active","ping":51},{"user_id":242,"name":"Kali","steam_id":76561198796327257,"connected_time":136000000000,"state":"active","ping":61},{"user_id":224,"name":"El Chubacabre","steam_id":76561199220322070,"connected_time":1579000000000,"state":"active","ping":54},{"user_id":154,"name":"raebbitos","steam_id":76561198167580006,"connected_time":7138000000000,"state":"active","ping":55},{"user_id":188,"name":"paypig","steam_id":76561198035137115,"connected_time":4940000000000,"state":"active","ping":49},{"user_id":192,"name":"avenje","steam_id":76561198155824845,"connected_time":4736000000000,"state":"active","ping":39},{"user_id":243,"name":"Bim Jeam","steam_id":76561198039417163,"connected_time":135000000000,"state":"active","ping":39}]},{"server_id":22,"name":"Uncletopia | London | 6 | All Maps","name_short":"lon-6","host":"lon-1.uk.uncletopia.com","port":27065,"enabled":true,"region":"eu","cc":"gb","latitude":51.509865,"longitude":-0.118092,"reserved":0,"last_update":"0001-01-01T00:00:00Z","name_a2s":"Uncletopia | London | 6 | All Maps","protocol":17,"map":"pl_borneo","folder":"tf","game":"Team Fortress","app_id":440,"player_count":0,"max_players":24,"Bots":0,"server_type":"Dedicated","server_os":"Linux","password":true,"vac":true,"version":"7961495","steam_id":85568392924742830,"keywords":["nocrits","nodmgspread","payload","uncletopia"],"game_id":440,"stv_port":27066,"stv_name":"Uncletopia | London | 6 | All Maps | STV","players":null},{"server_id":40,"name":"Uncletopia | London | 7 | Stopwatch","name_short":"lon-7","host":"lon-1.uk.uncletopia.com","port":27075,"enabled":true,"region":"eu","cc":"gb","latitude":51.509865,"longitude":-0.118092,"reserved":0,"last_update":"0001-01-01T00:00:00Z","name_a2s":"Uncletopia | London | 7 | Stopwatch","protocol":17,"map":"workshop/koth_ashville_final.ugc2130459942","folder":"tf","game":"Team Fortress","app_id":440,"player_count":0,"max_players":24,"Bots":0,"server_type":"Dedicated","server_os":"Linux","password":true,"vac":true,"version":"7961495","steam_id":85568392924964314,"keywords":["cp","nocrits","nodmgspread","uncletopia"],"game_id":440,"stv_port":27076,"stv_name":"Uncletopia | London | 7 | Stopwatch | STV","players":null},{"server_id":41,"name":"Uncletopia | London | 8 | Community","name_short":"lon-8","host":"lon-1.uk.uncletopia.com","port":27085,"enabled":true,"region":"eu","cc":"gb","latitude":51.509865,"longitude":-0.118092,"reserved":0,"last_update":"0001-01-01T00:00:00Z","name_a2s":"Uncletopia | London | 8 | Community","protocol":17,"map":"workshop/koth_slaughter_rc1.ugc1712845210","folder":"tf","game":"Team Fortress","app_id":440,"player_count":0,"max_players":24,"Bots":0,"server_type":"Dedicated","server_os":"Linux","password":true,"vac":true,"version":"7961495","steam_id":85568392924964315,"keywords":["cp","nocrits","nodmgspread","uncletopia"],"game_id":440,"stv_port":27086,"stv_name":"Uncletopia | London | 8 | Community | STV","players":null},{"server_id":300,"name":"Uncletopia | MontrÃ©al | 1 | One Thousand Uncles","name_short":"mtl-1","host":"mtl-1.ca.uncletopia.com","port":27015,"enabled":true,"region":"us-east","cc":"ca","latitude":45.50889,"longitude":-73.56167,"reserved":0,"last_update":"0001-01-01T00:00:00Z","name_a2s":"","protocol":0,"map":"","folder":"","game":"","app_id":0,"player_count":10,"max_players":0,"Bots":0,"server_type":"","server_os":"","password":false,"vac":false,"version":"","steam_id":0,"keywords":null,"game_id":0,"stv_port":0,"stv_name":"","players":[{"user_id":205,"name":"PiRA","steam_id":76561197962440292,"connected_time":2938000000000,"state":"active","ping":35},{"user_id":222,"name":"duck ðŸ¦†","steam_id":76561197998344127,"connected_time":2829000000000,"state":"active","ping":85},{"user_id":223,"name":"Rhutebeer","steam_id":76561198018302761,"connected_time":2602000000000,"state":"active","ping":105},{"user_id":224,"name":"Waaagh!","steam_id":76561197995317887,"connected_time":2200000000000,"state":"active","ping":34},{"user_id":225,"name":"Enzo","steam_id":76561197975076681,"connected_time":1457000000000,"state":"active","ping":63},{"user_id":228,"name":"Yankee_Pirate","steam_id":76561198260667117,"connected_time":667000000000,"state":"active","ping":49},{"user_id":229,"name":"gab_q","steam_id":76561198407724842,"connected_time":642000000000,"state":"active","ping":184},{"user_id":231,"name":"JoeFalco","steam_id":76561198064005012,"connected_time":239000000000,"state":"active","ping":88},{"user_id":232,"name":"tf2fan","steam_id":76561199371264774,"connected_time":220000000000,"state":"active","ping":93},{"user_id":234,"name":"1-800-GHOST-DANCE","steam_id":76561198835430429,"connected_time":74000000000,"state":"active","ping":79}]},{"server_id":301,"name":"Uncletopia | MontrÃ©al | 2 | One Thousand Uncles","name_short":"mtl-2","host":"mtl-1.ca.uncletopia.com","port":27025,"enabled":true,"region":"us-east","cc":"ca","latitude":45.50889,"longitude":-73.56167,"reserved":0,"last_update":"0001-01-01T00:00:00Z","name_a2s":"","protocol":0,"map":"","folder":"","game":"","app_id":0,"player_count":0,"max_players":0,"Bots":0,"server_type":"","server_os":"","password":false,"vac":false,"version":"","steam_id":0,"keywords":null,"game_id":0,"stv_port":0,"stv_name":"","players":null},{"server_id":302,"name":"Uncletopia | MontrÃ©al | 3 | One Thousand Uncles","name_short":"mtl-3","host":"mtl-1.ca.uncletopia.com","port":27035,"enabled":true,"region":"us-east","cc":"ca","latitude":45.50889,"longitude":-73.56167,"reserved":0,"last_update":"0001-01-01T00:00:00Z","name_a2s":"","protocol":0,"map":"","folder":"","game":"","app_id":0,"player_count":0,"max_players":0,"Bots":0,"server_type":"","server_os":"","password":false,"vac":false,"version":"","steam_id":0,"keywords":null,"game_id":0,"stv_port":0,"stv_name":"","players":null},{"server_id":13,"name":"Uncletopia | New York City | 1 | All Maps","name_short":"nyc-1","host":"nyc-1.us.uncletopia.com","port":27015,"enabled":true,"region":"us-east","cc":"us","latitude":40.73061,"longitude":-73.93524,"reserved":0,"last_update":"0001-01-01T00:00:00Z","name_a2s":"Uncletopia | New York City | 1 | All Maps","protocol":17,"map":"pl_snowycoast","folder":"tf","game":"Team Fortress","app_id":440,"player_count":23,"max_players":24,"Bots":0,"server_type":"Dedicated","server_os":"Linux","password":true,"vac":true,"version":"7961495","steam_id":85568392924469993,"keywords":["nocrits","nodmgspread","payload","uncletopia"],"game_id":440,"stv_port":27016,"stv_name":"Uncletopia | New York City | 1 | All Maps | STV","players":[{"user_id":311,"name":"gIBBY","steam_id":76561198080099598,"connected_time":83000000000,"state":"active","ping":31},{"user_id":309,"name":"Xavi","steam_id":76561198337783795,"connected_time":231000000000,"state":"active","ping":50},{"user_id":298,"name":"gimpter","steam_id":76561199229601553,"connected_time":462000000000,"state":"active","ping":98},{"user_id":267,"name":"jakobeo","steam_id":76561198415106043,"connected_time":2246000000000,"state":"active","ping":46},{"user_id":310,"name":"Mr. Pepper","steam_id":76561198153258241,"connected_time":183000000000,"state":"active","ping":64},{"user_id":254,"name":"Havok","steam_id":76561198063455003,"connected_time":2716000000000,"state":"active","ping":54},{"user_id":308,"name":"nhbiker","steam_id":76561198081277675,"connected_time":281000000000,"state":"active","ping":44},{"user_id":252,"name":"Kraftlos","steam_id":76561198074350350,"connected_time":2816000000000,"state":"active","ping":59},{"user_id":299,"name":"Ama","steam_id":76561198077883218,"connected_time":431000000000,"state":"active","ping":62},{"user_id":286,"name":"bobbymcbobington","steam_id":76561199089411172,"connected_time":1046000000000,"state":"active","ping":127},{"user_id":293,"name":"20 miles for a Quaalude","steam_id":76561198042579477,"connected_time":664000000000,"state":"active","ping":52},{"user_id":284,"name":"jamzine","steam_id":76561198186168293,"connected_time":1217000000000,"state":"active","ping":56},{"user_id":295,"name":"sillylokisparkles","steam_id":76561198872251615,"connected_time":557000000000,"state":"active","ping":75},{"user_id":275,"name":"ndvr (femboy (REAL))","steam_id":76561199379200102,"connected_time":1863000000000,"state":"active","ping":55},{"user_id":247,"name":"SalsaDaddy","steam_id":76561198358869108,"connected_time":3186000000000,"state":"active","ping":70},{"user_id":282,"name":"StretchySnail59","steam_id":76561198073535005,"connected_time":1635000000000,"state":"active","ping":69},{"user_id":300,"name":"carrot cake","steam_id":76561198055174915,"connected_time":393000000000,"state":"active","ping":73},{"user_id":301,"name":"xFactr","steam_id":76561198129007422,"connected_time":388000000000,"state":"active","ping":42},{"user_id":306,"name":"Just Luke","steam_id":76561198072134257,"connected_time":331000000000,"state":"active","ping":59},{"user_id":288,"name":"Snugboo","steam_id":76561198147970327,"connected_time":1040000000000,"state":"active","ping":41},{"user_id":304,"name":"IdkProlly","steam_id":76561198269212968,"connected_time":353000000000,"state":"active","ping":44},{"user_id":305,"name":"Cupidmeh","steam_id":76561198138669654,"connected_time":352000000000,"state":"active","ping":53},{"user_id":244,"name":"Hot Cheese Sundae","steam_id":76561198061189527,"connected_time":3265000000000,"state":"active","ping":85}]},{"server_id":14,"name":"Uncletopia | New York City | 2 | All Maps","name_short":"nyc-2","host":"nyc-1.us.uncletopia.com","port":27025,"enabled":true,"region":"us-east","cc":"us","latitude":40.73061,"longitude":-73.93524,"reserved":0,"last_update":"0001-01-01T00:00:00Z","name_a2s":"Uncletopia | New York City | 2 | All Maps","protocol":17,"map":"pl_badwater","folder":"tf","game":"Team Fortress","app_id":440,"player_count":24,"max_players":24,"Bots":0,"server_type":"Dedicated","server_os":"Linux","password":true,"vac":true,"version":"7961495","steam_id":85568392924469994,"keywords":["nocrits","nodmgspread","payload","uncletopia"],"game_id":440,"stv_port":27026,"stv_name":"Uncletopia | New York City | 2 | All Maps | STV","players":[{"user_id":174,"name":"slowdance","steam_id":76561198097427947,"connected_time":946000000000,"state":"active","ping":164},{"user_id":127,"name":"Ting","steam_id":76561198111669760,"connected_time":3726000000000,"state":"active","ping":118},{"user_id":190,"name":"saurhead","steam_id":76561198132937722,"connected_time":475000000000,"state":"active","ping":47},{"user_id":192,"name":"Dullahan","steam_id":76561198119668908,"connected_time":263000000000,"state":"active","ping":120},{"user_id":144,"name":"The Guy","steam_id":76561198799183693,"connected_time":2234000000000,"state":"active","ping":76},{"user_id":176,"name":"FrostSnail [Live on twitch]","steam_id":76561197989859175,"connected_time":938000000000,"state":"active","ping":134},{"user_id":151,"name":"Squope","steam_id":76561198983129293,"connected_time":1931000000000,"state":"active","ping":54},{"user_id":152,"name":"filthy white trash","steam_id":76561198154176367,"connected_time":1873000000000,"state":"active","ping":87},{"user_id":156,"name":"Rumplestiltskin","steam_id":76561198319600069,"connected_time":1793000000000,"state":"active","ping":61},{"user_id":172,"name":"poke_ravi","steam_id":76561198006619886,"connected_time":1251000000000,"state":"active","ping":57},{"user_id":183,"name":"sodapop","steam_id":76561198983033137,"connected_time":747000000000,"state":"active","ping":69},{"user_id":178,"name":"Tokyo_Timeshift_","steam_id":76561198048677523,"connected_time":866000000000,"state":"active","ping":60},{"user_id":188,"name":"SpudðŸ¥”","steam_id":76561197993592964,"connected_time":563000000000,"state":"active","ping":70},{"user_id":159,"name":"warhawkgamer11","steam_id":76561198081119223,"connected_time":1752000000000,"state":"active","ping":110},{"user_id":179,"name":"BaguetteThief","steam_id":76561197962257656,"connected_time":839000000000,"state":"active","ping":60},{"user_id":191,"name":"Legit_Jaxer","steam_id":76561198172234053,"connected_time":437000000000,"state":"active","ping":138},{"user_id":184,"name":"plsplsplslol","steam_id":76561198868084626,"connected_time":702000000000,"state":"active","ping":135},{"user_id":193,"name":"GreenApples","steam_id":76561198120559543,"connected_time":235000000000,"state":"active","ping":120},{"user_id":142,"name":"LeGamingProPlays","steam_id":76561198121304032,"connected_time":2841000000000,"state":"active","ping":81},{"user_id":185,"name":"ZariaGalaxy","steam_id":76561198089441300,"connected_time":698000000000,"state":"active","ping":55},{"user_id":166,"name":"The Fiend","steam_id":76561199229771413,"connected_time":1640000000000,"state":"active","ping":84},{"user_id":187,"name":"Cream Corn","steam_id":76561198043791586,"connected_time":642000000000,"state":"active","ping":45},{"user_id":129,"name":"Willham","steam_id":76561198065755781,"connected_time":3556000000000,"state":"active","ping":99},{"user_id":189,"name":"Papillon","steam_id":76561198049725849,"connected_time":556000000000,"state":"active","ping":73}]},{"server_id":15,"name":"Uncletopia | New York City | 3 | Stopwatch","name_short":"nyc-3","host":"nyc-1.us.uncletopia.com","port":27035,"enabled":true,"region":"us-east","cc":"us","latitude":40.73061,"longitude":-73.93524,"reserved":0,"last_update":"0001-01-01T00:00:00Z","name_a2s":"Uncletopia | New York City | 3 | Stopwatch","protocol":17,"map":"pl_swiftwater_final1","folder":"tf","game":"Team Fortress","app_id":440,"player_count":0,"max_players":24,"Bots":0,"server_type":"Dedicated","server_os":"Linux","password":true,"vac":true,"version":"7961495","steam_id":85568392924742820,"keywords":["nocrits","nodmgspread","payload","uncletopia"],"game_id":440,"stv_port":27036,"stv_name":"Uncletopia | New York City | 3 | Stopwatch | STV","players":null},{"server_id":16,"name":"Uncletopia | New York City | 4 | Community","name_short":"nyc-4","host":"nyc-1.us.uncletopia.com","port":27045,"enabled":true,"region":"us-east","cc":"us","latitude":40.73061,"longitude":-73.93524,"reserved":0,"last_update":"0001-01-01T00:00:00Z","name_a2s":"Uncletopia | New York City | 4 | Community","protocol":17,"map":"workshop/pl_emerge_rc2.ugc888027758","folder":"tf","game":"Team Fortress","app_id":440,"player_count":2,"max_players":24,"Bots":0,"server_type":"Dedicated","server_os":"Linux","password":true,"vac":true,"version":"7961495","steam_id":85568392924742821,"keywords":["nocrits","nodmgspread","payload","uncletopia"],"game_id":440,"stv_port":27046,"stv_name":"Uncletopia | New York City | 4 | Community | STV","players":[{"user_id":32,"name":"Gary","steam_id":76561199466597572,"connected_time":2057000000000,"state":"active","ping":89},{"user_id":33,"name":"Varie","steam_id":76561199454930210,"connected_time":1553000000000,"state":"active","ping":86}]},{"server_id":142,"name":"Uncletopia | SÃ£o Paulo | 1 | All Maps","name_short":"sao-1","host":"sao-1.br.uncletopia.com","port":27015,"enabled":true,"region":"sa","cc":"br","latitude":-23.533773,"longitude":-46.62529,"reserved":0,"last_update":"0001-01-01T00:00:00Z","name_a2s":"Uncletopia | SÃ£o Paulo | 1 | All Maps","protocol":17,"map":"koth_cascade","folder":"tf","game":"Team Fortress","app_id":440,"player_count":0,"max_players":24,"Bots":0,"server_type":"Dedicated","server_os":"Linux","password":true,"vac":true,"version":"7961495","steam_id":85568392924469996,"keywords":["cp","nocrits","nodmgspread","uncletopia"],"game_id":440,"stv_port":27016,"stv_name":"Uncletopia | SÃ£o Paulo | 1 | All Maps | STV","players":null},{"server_id":143,"name":"Uncletopia | SÃ£o Paulo | 2 | Community","name_short":"sao-2","host":"sao-2.br.uncletopia.com","port":27015,"enabled":true,"region":"sa","cc":"br","latitude":-23.533773,"longitude":-46.62529,"reserved":0,"last_update":"0001-01-01T00:00:00Z","name_a2s":"Uncletopia | SÃ£o Paulo | 2 | Community","protocol":17,"map":"workshop/koth_product_final.ugc454272353","folder":"tf","game":"Team Fortress","app_id":440,"player_count":0,"max_players":24,"Bots":0,"server_type":"Dedicated","server_os":"Linux","password":true,"vac":true,"version":"7961495","steam_id":85568392924485349,"keywords":["cp","nocrits","nodmgspread","uncletopia"],"game_id":440,"stv_port":27016,"stv_name":"Uncletopia | SÃ£o Paulo | 2 | Community | STV","players":null},{"server_id":7,"name":"Uncletopia | Seattle | 1 | All Maps","name_short":"sea-1","host":"sea-1.us.uncletopia.com","port":27015,"enabled":true,"region":"us-west","cc":"us","latitude":47.608013,"longitude":-122.33517,"reserved":0,"last_update":"0001-01-01T00:00:00Z","name_a2s":"Uncletopia | Seattle | 1 | All Maps","protocol":17,"map":"pl_badwater","folder":"tf","game":"Team Fortress","app_id":440,"player_count":23,"max_players":24,"Bots":0,"server_type":"Dedicated","server_os":"Linux","password":true,"vac":true,"version":"7961495","steam_id":85568392924469997,"keywords":["nocrits","nodmgspread","payload","uncletopia"],"game_id":440,"stv_port":27016,"stv_name":"Uncletopia | Seattle | 1 | All Maps | STV","players":[{"user_id":389,"name":"DiogenicBishop","steam_id":76561198093478794,"connected_time":682000000000,"state":"active","ping":49},{"user_id":373,"name":"[DATSâž¡] Sugar Meowth","steam_id":76561197995251793,"connected_time":1863000000000,"state":"active","ping":45},{"user_id":354,"name":"Twitch.tv/Jinx_VM","steam_id":76561198280150602,"connected_time":2917000000000,"state":"active","ping":46},{"user_id":392,"name":"greens beans","steam_id":76561198153611491,"connected_time":433000000000,"state":"active","ping":39},{"user_id":364,"name":"Browix_Phoenix","steam_id":76561199076123618,"connected_time":2740000000000,"state":"active","ping":74},{"user_id":393,"name":"bocchi the shlock (real)","steam_id":76561198844648825,"connected_time":286000000000,"state":"active","ping":47},{"user_id":353,"name":"Fox","steam_id":76561198076635466,"connected_time":2928000000000,"state":"active","ping":105},{"user_id":367,"name":"Nom Skirrett","steam_id":76561198014600788,"connected_time":2571000000000,"state":"active","ping":62},{"user_id":381,"name":"Micheal Jackson","steam_id":76561199053372373,"connected_time":1632000000000,"state":"active","ping":109},{"user_id":334,"name":"The Population of Sweden","steam_id":76561198202201644,"connected_time":3754000000000,"state":"active","ping":36},{"user_id":384,"name":"Turban Grease","steam_id":76561198072052434,"connected_time":1250000000000,"state":"active","ping":45},{"user_id":370,"name":"Eraser cat","steam_id":76561199045570463,"connected_time":2192000000000,"state":"active","ping":43},{"user_id":385,"name":"C-Kitt","steam_id":76561199048854572,"connected_time":1149000000000,"state":"active","ping":175},{"user_id":376,"name":"tom myers comedian","steam_id":76561198004619616,"connected_time":1837000000000,"state":"active","ping":74},{"user_id":328,"name":"smeasly","steam_id":76561198028718812,"connected_time":4325000000000,"state":"active","ping":43},{"user_id":388,"name":"bladees realest, saddest verse","steam_id":76561198098099826,"connected_time":1087000000000,"state":"active","ping":83},{"user_id":369,"name":"Walter White","steam_id":76561199102963294,"connected_time":2472000000000,"state":"active","ping":63},{"user_id":387,"name":"Major Rabbit","steam_id":76561198086047613,"connected_time":1117000000000,"state":"active","ping":109},{"user_id":390,"name":"á´¿á´ºá´³ GÊ€Éªá´á´ ÉªÊ™á´‡s","steam_id":76561198065621941,"connected_time":662000000000,"state":"active","ping":49},{"user_id":333,"name":"Dimple","steam_id":76561198980324190,"connected_time":3761000000000,"state":"active","ping":60},{"user_id":391,"name":"donkley kong","steam_id":76561199067637033,"connected_time":643000000000,"state":"active","ping":114},{"user_id":319,"name":"RyInc","steam_id":76561198874261643,"connected_time":5493000000000,"state":"active","ping":95},{"user_id":377,"name":"hl3 hot gay sex","steam_id":76561199122281764,"connected_time":1836000000000,"state":"active","ping":79}]},{"server_id":119,"name":"Uncletopia | Seattle | 2 | All Maps","name_short":"sea-2","host":"sea-1.us.uncletopia.com","port":27025,"enabled":true,"region":"us-west","cc":"us","latitude":47.608013,"longitude":-122.33517,"reserved":0,"last_update":"0001-01-01T00:00:00Z","name_a2s":"Uncletopia | Seattle | 2 | All Maps","protocol":17,"map":"pl_upward","folder":"tf","game":"Team Fortress","app_id":440,"player_count":0,"max_players":24,"Bots":0,"server_type":"Dedicated","server_os":"Linux","password":true,"vac":true,"version":"7961495","steam_id":85568392924469998,"keywords":["nocrits","nodmgspread","payload","uncletopia"],"game_id":440,"stv_port":27026,"stv_name":"Uncletopia | Seattle | 2 | All Maps | STV","players":null},{"server_id":406,"name":"Uncletopia | Seattle | 3 | Stopwatch","name_short":"sea-3","host":"sea-1.us.uncletopia.com","port":27035,"enabled":true,"region":"us-west","cc":"us","latitude":47.608013,"longitude":-122.33517,"reserved":0,"last_update":"0001-01-01T00:00:00Z","name_a2s":"Uncletopia | Seattle | 3 | Stopwatch","protocol":17,"map":"workshop/pl_barnblitz_pro7.ugc582280235","folder":"tf","game":"Team Fortress","app_id":440,"player_count":0,"max_players":24,"Bots":0,"server_type":"Dedicated","server_os":"Linux","password":true,"vac":true,"version":"7961495","steam_id":85568392924515217,"keywords":["nocrits","nodmgspread","payload","uncletopia"],"game_id":440,"stv_port":27036,"stv_name":"Uncletopia | Seattle | 3 | Stopwatch | STV","players":null},{"server_id":17,"name":"Uncletopia | San Francisco | 1 | All Maps","name_short":"sfo-1","host":"sfo-1.us.uncletopia.com","port":27015,"enabled":true,"region":"us-west","cc":"us","latitude":37.77397,"longitude":-122.4313,"reserved":0,"last_update":"0001-01-01T00:00:00Z","name_a2s":"Uncletopia | San Francisco | 1 | All Maps","protocol":17,"map":"koth_cascade","folder":"tf","game":"Team Fortress","app_id":440,"player_count":0,"max_players":24,"Bots":0,"server_type":"Dedicated","server_os":"Linux","password":true,"vac":true,"version":"7961495","steam_id":85568392924469999,"keywords":["cp","nocrits","nodmgspread","uncletopia"],"game_id":440,"stv_port":27016,"stv_name":"Uncletopia | San Francisco | 1 | All Maps | STV","players":null},{"server_id":18,"name":"Uncletopia | San Francisco | 2 | All Maps","name_short":"sfo-2","host":"sfo-1.us.uncletopia.com","port":27025,"enabled":true,"region":"us-west","cc":"us","latitude":37.77397,"longitude":-122.4313,"reserved":0,"last_update":"0001-01-01T00:00:00Z","name_a2s":"Uncletopia | San Francisco | 2 | All Maps","protocol":17,"map":"cp_altitude","folder":"tf","game":"Team Fortress","app_id":440,"player_count":0,"max_players":24,"Bots":0,"server_type":"Dedicated","server_os":"Linux","password":true,"vac":true,"version":"7961495","steam_id":85568392924470000,"keywords":["cp","nocrits","nodmgspread","uncletopia"],"game_id":440,"stv_port":27026,"stv_name":"Uncletopia | San Francisco | 2 | All Maps | STV","players":null},{"server_id":19,"name":"Uncletopia | San Francisco | 3 | Stopwatch","name_short":"sfo-3","host":"sfo-1.us.uncletopia.com","port":27035,"enabled":true,"region":"us-west","cc":"us","latitude":37.77397,"longitude":-122.4313,"reserved":0,"last_update":"0001-01-01T00:00:00Z","name_a2s":"Uncletopia | San Francisco | 3 | Stopwatch","protocol":17,"map":"workshop/koth_product_final.ugc454272353","folder":"tf","game":"Team Fortress","app_id":440,"player_count":0,"max_players":24,"Bots":0,"server_type":"Dedicated","server_os":"Linux","password":true,"vac":true,"version":"7961495","steam_id":85568392924742824,"keywords":["cp","nocrits","nodmgspread","uncletopia"],"game_id":440,"stv_port":27036,"stv_name":"Uncletopia | San Francisco | 3 | Stopwatch | STV","players":null},{"server_id":20,"name":"Uncletopia | San Francisco | 4 | Community","name_short":"sfo-4","host":"sfo-1.us.uncletopia.com","port":27045,"enabled":true,"region":"us-west","cc":"us","latitude":37.77397,"longitude":-122.4313,"reserved":0,"last_update":"0001-01-01T00:00:00Z","name_a2s":"Uncletopia | San Francisco | 4 | Community","protocol":17,"map":"workshop/pl_badwater_pro_v12.ugc2142942074","folder":"tf","game":"Team Fortress","app_id":440,"player_count":0,"max_players":24,"Bots":0,"server_type":"Dedicated","server_os":"Linux","password":true,"vac":true,"version":"7961495","steam_id":85568392924742826,"keywords":["nocrits","nodmgspread","payload","uncletopia"],"game_id":440,"stv_port":27046,"stv_name":"Uncletopia | San Francisco | 4 | Community | STV","players":null},{"server_id":141,"name":"Uncletopia | Sydney | 1 | All Maps","name_short":"syd-1","host":"syd-1.au.uncletopia.com","port":27015,"enabled":true,"region":"au","cc":"au","latitude":-33.865143,"longitude":151.2099,"reserved":0,"last_update":"0001-01-01T00:00:00Z","name_a2s":"Uncletopia | Sydney | 1 | All Maps","protocol":17,"map":"koth_viaduct","folder":"tf","game":"Team Fortress","app_id":440,"player_count":0,"max_players":24,"Bots":0,"server_type":"Dedicated","server_os":"Linux","password":true,"vac":true,"version":"7961495","steam_id":85568392924470001,"keywords":["cp","nocrits","nodmgspread","uncletopia"],"game_id":440,"stv_port":27016,"stv_name":"Uncletopia | Sydney | 1 | All Maps | STV","players":null},{"server_id":123,"name":"Uncletopia | Sydney | 2 | All Maps","name_short":"syd-2","host":"syd-1.au.uncletopia.com","port":27025,"enabled":true,"region":"au","cc":"au","latitude":-33.865143,"longitude":151.2099,"reserved":0,"last_update":"0001-01-01T00:00:00Z","name_a2s":"Uncletopia | Sydney | 2 | All Maps","protocol":17,"map":"koth_lakeside_final","folder":"tf","game":"Team Fortress","app_id":440,"player_count":0,"max_players":24,"Bots":0,"server_type":"Dedicated","server_os":"Linux","password":true,"vac":true,"version":"7961495","steam_id":85568392924470002,"keywords":["cp","nocrits","nodmgspread","uncletopia"],"game_id":440,"stv_port":27026,"stv_name":"Uncletopia | Sydney | 2 | All Maps | STV","players":null},{"server_id":395,"name":"Uncletopia | Sydney | 3 | All Maps","name_short":"syd-3","host":"syd-1.au.uncletopia.com","port":27035,"enabled":true,"region":"au","cc":"au","latitude":-33.865143,"longitude":151.2099,"reserved":0,"last_update":"0001-01-01T00:00:00Z","name_a2s":"Uncletopia | Sydney | 3 | All Maps","protocol":17,"map":"pl_frontier_final","folder":"tf","game":"Team Fortress","app_id":440,"player_count":0,"max_players":24,"Bots":0,"server_type":"Dedicated","server_os":"Linux","password":true,"vac":true,"version":"7961495","steam_id":85568392925194467,"keywords":["nocrits","nodmgspread","payload","uncletopia"],"game_id":440,"stv_port":27036,"stv_name":"Uncletopia | Sydney | 3 | All Maps | STV","players":null},{"server_id":396,"name":"Uncletopia | Sydney | 4 | All Maps","name_short":"syd-4","host":"syd-1.au.uncletopia.com","port":27045,"enabled":true,"region":"au","cc":"au","latitude":-33.865143,"longitude":151.2099,"reserved":0,"last_update":"0001-01-01T00:00:00Z","name_a2s":"Uncletopia | Sydney | 4 | All Maps","protocol":17,"map":"cp_process_final","folder":"tf","game":"Team Fortress","app_id":440,"player_count":0,"max_players":24,"Bots":0,"server_type":"Dedicated","server_os":"Linux","password":true,"vac":true,"version":"7961495","steam_id":85568392925397958,"keywords":["cp","nocrits","nodmgspread","uncletopia"],"game_id":440,"stv_port":27046,"stv_name":"Uncletopia | Sydney | 4 | All Maps | STV","players":null},{"server_id":58,"name":"Uncletopia | Sydney | 5 | Stopwatch","name_short":"syd-5","host":"syd-1.au.uncletopia.com","port":27055,"enabled":true,"region":"au","cc":"au","latitude":-33.865143,"longitude":151.2099,"reserved":0,"last_update":"0001-01-01T00:00:00Z","name_a2s":"Uncletopia | Sydney | 5 | Stopwatch","protocol":17,"map":"pl_frontier_final","folder":"tf","game":"Team Fortress","app_id":440,"player_count":0,"max_players":24,"Bots":0,"server_type":"Dedicated","server_os":"Linux","password":true,"vac":true,"version":"7961495","steam_id":85568392925397959,"keywords":["nocrits","nodmgspread","payload","uncletopia"],"game_id":440,"stv_port":27056,"stv_name":"Uncletopia | Sydney | 5 | Stopwatch | STV","players":null},{"server_id":59,"name":"Uncletopia | Sydney | 6 | Community","name_short":"syd-6","host":"syd-1.au.uncletopia.com","port":27065,"enabled":true,"region":"au","cc":"au","latitude":-33.865143,"longitude":151.2099,"reserved":0,"last_update":"0001-01-01T00:00:00Z","name_a2s":"Uncletopia | Sydney | 6 | Community","protocol":17,"map":"cp_sunshine","folder":"tf","game":"Team Fortress","app_id":440,"player_count":0,"max_players":24,"Bots":0,"server_type":"Dedicated","server_os":"Linux","password":true,"vac":true,"version":"7961495","steam_id":85568392925397960,"keywords":["cp","nocrits","nodmgspread","uncletopia"],"game_id":440,"stv_port":27066,"stv_name":"Uncletopia | Sydney | 6 | Community | STV","players":null},{"server_id":49,"name":"Uncletopia | Warsaw | 1 | One Thousand Uncles","name_short":"waw-1","host":"waw-1.pl.uncletopia.com","port":27015,"enabled":true,"region":"eu","cc":"pl","latitude":52.2297,"longitude":21.017532,"reserved":0,"last_update":"0001-01-01T00:00:00Z","name_a2s":"Uncletopia | Warsaw | 1 | One Thousand Uncles","protocol":17,"map":"pl_badwater","folder":"tf","game":"Team Fortress","app_id":440,"player_count":0,"max_players":32,"Bots":0,"server_type":"Dedicated","server_os":"Linux","password":true,"vac":true,"version":"7961495","steam_id":85568392925397850,"keywords":["alltalk","danepve","increased_maxplayers","nocrits","norespawntime","payload","uncletopia"],"game_id":440,"stv_port":0,"stv_name":"","players":null},{"server_id":50,"name":"Uncletopia | Warsaw | 2 | One Thousand Uncles","name_short":"waw-2","host":"waw-1.pl.uncletopia.com","port":27025,"enabled":true,"region":"eu","cc":"pl","latitude":52.2297,"longitude":21.017532,"reserved":0,"last_update":"0001-01-01T00:00:00Z","name_a2s":"Uncletopia | Warsaw | 2 | One Thousand Uncles","protocol":17,"map":"pl_upward","folder":"tf","game":"Team Fortress","app_id":440,"player_count":22,"max_players":32,"Bots":16,"server_type":"Dedicated","server_os":"Linux","password":true,"vac":true,"version":"7961495","steam_id":85568392925397851,"keywords":["alltalk","bots","danepve","increased_maxplayers","nocrits","norespawntime","payload","uncletopia"],"game_id":440,"stv_port":0,"stv_name":"","players":[{"user_id":418,"name":"The Detective","steam_id":76561198362995682,"connected_time":12419000000000,"state":"active","ping":99},{"user_id":537,"name":"Mr_Pulse_","steam_id":76561198095001602,"connected_time":1597000000000,"state":"active","ping":104},{"user_id":512,"name":"chadGPT","steam_id":76561197994732044,"connected_time":3345000000000,"state":"active","ping":44},{"user_id":544,"name":"Womanticore","steam_id":76561199235582031,"connected_time":126000000000,"state":"active","ping":266},{"user_id":517,"name":"EL WIWI","steam_id":76561198134378108,"connected_time":2372000000000,"state":"active","ping":85},{"user_id":520,"name":"Nari","steam_id":76561199220038535,"connected_time":1924000000000,"state":"active","ping":196}]},{"server_id":51,"name":"Uncletopia | Warsaw | 3 | All Maps","name_short":"waw-3","host":"waw-1.pl.uncletopia.com","port":27035,"enabled":true,"region":"eu","cc":"pl","latitude":52.2297,"longitude":21.017532,"reserved":0,"last_update":"0001-01-01T00:00:00Z","name_a2s":"Uncletopia | Warsaw | 3 | All Maps","protocol":17,"map":"koth_viaduct","folder":"tf","game":"Team Fortress","app_id":440,"player_count":0,"max_players":24,"Bots":0,"server_type":"Dedicated","server_os":"Linux","password":true,"vac":true,"version":"7961495","steam_id":85568392925397852,"keywords":["cp","nocrits","nodmgspread","uncletopia"],"game_id":440,"stv_port":27036,"stv_name":"Uncletopia | Warsaw | 3 | All Maps | STV","players":null},{"server_id":52,"name":"Uncletopia | Warsaw | 4 | All Maps","name_short":"waw-4","host":"waw-1.pl.uncletopia.com","port":27045,"enabled":true,"region":"eu","cc":"pl","latitude":52.2297,"longitude":21.017532,"reserved":0,"last_update":"0001-01-01T00:00:00Z","name_a2s":"Uncletopia | Warsaw | 4 | All Maps","protocol":17,"map":"koth_viaduct","folder":"tf","game":"Team Fortress","app_id":440,"player_count":0,"max_players":24,"Bots":0,"server_type":"Dedicated","server_os":"Linux","password":true,"vac":true,"version":"7961495","steam_id":85568392925397853,"keywords":["cp","nocrits","nodmgspread","uncletopia"],"game_id":440,"stv_port":27046,"stv_name":"Uncletopia | Warsaw | 4 | All Maps | STV","players":null},{"server_id":53,"name":"Uncletopia | Warsaw | 5 | Stopwatch","name_short":"waw-5","host":"waw-1.pl.uncletopia.com","port":27055,"enabled":true,"region":"eu","cc":"pl","latitude":52.2297,"longitude":21.017532,"reserved":0,"last_update":"0001-01-01T00:00:00Z","name_a2s":"Uncletopia | Warsaw | 5 | Stopwatch","protocol":17,"map":"workshop/koth_ashville_final.ugc2130459942","folder":"tf","game":"Team Fortress","app_id":440,"player_count":0,"max_players":24,"Bots":0,"server_type":"Dedicated","server_os":"Linux","password":true,"vac":true,"version":"7961495","steam_id":85568392925397854,"keywords":["cp","nocrits","nodmgspread","uncletopia"],"game_id":440,"stv_port":27056,"stv_name":"Uncletopia | Warsaw | 5 | Stopwatch | STV","players":null},{"server_id":54,"name":"Uncletopia | Warsaw | 6 | Community","name_short":"waw-6","host":"waw-1.pl.uncletopia.com","port":27065,"enabled":true,"region":"eu","cc":"pl","latitude":52.2297,"longitude":21.017532,"reserved":0,"last_update":"0001-01-01T00:00:00Z","name_a2s":"Uncletopia | Warsaw | 6 | Community","protocol":17,"map":"workshop/koth_ashville_final.ugc2130459942","folder":"tf","game":"Team Fortress","app_id":440,"player_count":0,"max_players":24,"Bots":0,"server_type":"Dedicated","server_os":"Linux","password":true,"vac":true,"version":"7961495","steam_id":85568392925397856,"keywords":["cp","nocrits","nodmgspread","uncletopia"],"game_id":440,"stv_port":27066,"stv_name":"Uncletopia | Warsaw | 6 | Community | STV","players":null}]}