{"status":true,"message":"","result":[{"server_id":9,"name":"Uncletopia | Atlanta | 1 | All Maps","name_short":"atl-1","host":"atl-1.us.uncletopia.com","port":27015,"enabled":true,"region":"us-east","cc":"us","latitude":33.753746,"longitude":-84.38633,"reserved":0,"last_update":"0001-01-01T00:00:00Z","name_a2s":"Uncletopia | Atlanta | 1 | All Maps","protocol":17,"map":"pl_badwater","folder":"tf","game":"Team Fortress","app_id":440,"player_count":24,"max_players":24,"Bots":0,"server_type":"Dedicated","server_os":"Linux","password":true,"vac":true,"version":"7757534","steam_id":85568392924469982,"keywords":["nocrits","nodmgspread","payload","uncletopia"],"game_id":440,"stv_port":27016,"stv_name":"Uncletopia | Atlanta | 1 | All Maps | STV","players":[{"user_id":282,"name":"jordxn","steam_id":76561198117505303,"connected_time":1859000000000,"state":"active","ping":75},{"user_id":289,"name":"AverageSandwich","steam_id":76561199474528163,"connected_time":1544000000000,"state":"active","ping":113},{"user_id":288,"name":"mayhem","steam_id":76561199246637881,"connected_time":1618000000000,"state":"active","ping":52},{"user_id":280,"name":"melancholy","steam_id":76561198024301465,"connected_time":2013000000000,"state":"active","ping":38},{"user_id":274,"name":"luxin","steam_id":76561198399383047,"connected_time":2203000000000,"state":"active","ping":43},{"user_id":211,"name":"Brown_Dream","steam_id":76561198975766145,"connected_time":6885000000000,"state":"active","ping":75},{"user_id":245,"name":"Scrumlet","steam_id":76561198339806643,"connected_time":4412000000000,"state":"active","ping":72},{"user_id":209,"name":"‚áå | œütriKeR | ‚áã","steam_id":76561199389089862,"connected_time":6920000000000,"state":"active","ping":135},{"user_id":251,"name":"Duckywinner","steam_id":76561198254828139,"connected_time":4023000000000,"state":"active","ping":58},{"user_id":154,"name":"Ashes!","steam_id":76561197998475441,"connected_time":11320000000000,"state":"active","ping":75},{"user_id":283,"name":"Prd_cz","steam_id":76561199090455570,"connected_time":1858000000000,"state":"active","ping":162},{"user_id":298,"name":"shadow wizard","steam_id":76561198165212575,"connected_time":985000000000,"state":"active","ping":75},{"user_id":276,"name":"athletesfoot","steam_id":76561197997331867,"connected_time":2183000000000,"state":"active","ping":60},{"user_id":297,"name":"ATL1 | Kramer","steam_id":76561198083595936,"connected_time":1004000000000,"state":"active","ping":73},{"user_id":269,"name":"HarryjusttHarry","steam_id":76561198982810452,"connected_time":2372000000000,"state":"active","ping":76},{"user_id":267,"name":"Riptide","steam_id":76561198164930435,"connected_time":2394000000000,"state":"active","ping":59},{"user_id":290,"name":"Kelly Clarkson","steam_id":76561198250330566,"connected_time":1520000000000,"state":"active","ping":105},{"user_id":294,"name":"namisimp102","steam_id":76561198166710027,"connected_time":1160000000000,"state":"active","ping":58},{"user_id":277,"name":"TI-83 Plus","steam_id":76561198316134443,"connected_time":2140000000000,"state":"active","ping":67},{"user_id":301,"name":"GotYourNose","steam_id":76561198803527852,"connected_time":576000000000,"state":"active","ping":56},{"user_id":302,"name":"Nyle","steam_id":76561198045652639,"connected_time":576000000000,"state":"active","ping":118},{"user_id":271,"name":"GunManWIllSTabYou#SaveTf2","steam_id":76561199045277311,"connected_time":2283000000000,"state":"active","ping":73},{"user_id":303,"name":"Sweet Baby Zain","steam_id":76561198046392267,"connected_time":3000000000,"state":"spawning","ping":70},{"user_id":296,"name":"wife","steam_id":76561198141795632,"connected_time":1145000000000,"state":"active","ping":45}]},{"server_id":400,"name":"Uncletopia | Atlanta | 3 | Community","name_short":"atl-3","host":"atl-1.us.uncletopia.com","port":27035,"enabled":true,"region":"us-east","cc":"us","latitude":33.753746,"longitude":-84.38633,"reserved":0,"last_update":"0001-01-01T00:00:00Z","name_a2s":"Uncletopia | Atlanta | 3 | Community","protocol":17,"map":"workshop/pl_corrode_rc2.ugc546577989","folder":"tf","game":"Team Fortress","app_id":440,"player_count":18,"max_players":24,"Bots":0,"server_type":"Dedicated","server_os":"Linux","password":true,"vac":true,"version":"7757534","steam_id":85568392924515187,"keywords":["nocrits","nodmgspread","payload","uncletopia"],"game_id":440,"stv_port":27036,"stv_name":"Uncletopia | Atlanta | 3 | Community | STV","players":[{"user_id":6,"name":"Greasy Ricky","steam_id":76561198301468342,"connected_time":1333000000000,"state":"active","ping":68},{"user_id":7,"name":"Crime McGyi","steam_id":76561198063997260,"connected_time":1312000000000,"state":"active","ping":78},{"user_id":8,"name":"Slippin Jimmy","steam_id":76561199018147171,"connected_time":1307000000000,"state":"active","ping":333},{"user_id":9,"name":"Moo_UwU","steam_id":76561199138512017,"connected_time":931000000000,"state":"active","ping":93},{"user_id":38,"name":"leumas","steam_id":76561198240408540,"connected_time":13000000000,"state":"spawning","ping":146},{"user_id":11,"name":"Kidzbopsicle","steam_id":76561198047660691,"connected_time":687000000000,"state":"active","ping":48},{"user_id":14,"name":"B00G","steam_id":76561198049705966,"connected_time":523000000000,"state":"active","ping":58},{"user_id":13,"name":"hud_saytext_time 0","steam_id":76561198010327228,"connected_time":592000000000,"state":"active","ping":147},{"user_id":15,"name":"Thequirka","steam_id":76561198968058652,"connected_time":377000000000,"state":"active","ping":102},{"user_id":16,"name":"augs","steam_id":76561199120607417,"connected_time":284000000000,"state":"active","ping":79},{"user_id":17,"name":"Salemander5000","steam_id":76561199027828453,"connected_time":277000000000,"state":"active","ping":75},{"user_id":18,"name":"hestus","steam_id":76561199132268907,"connected_time":263000000000,"state":"active","ping":67},{"user_id":19,"name":"Joe_Bones01","steam_id":76561198971794023,"connected_time":253000000000,"state":"active","ping":85},{"user_id":20,"name":"Nichnolte","steam_id":76561198051811176,"connected_time":235000000000,"state":"active","ping":190},{"user_id":21,"name":"Drowse","steam_id":76561198029794548,"connected_time":206000000000,"state":"active","ping":105},{"user_id":23,"name":"Vulture","steam_id":76561198181084747,"connected_time":114000000000,"state":"active","ping":81},{"user_id":24,"name":"Billybob7712","steam_id":76561199000291076,"connected_time":94000000000,"state":"active","ping":97},{"user_id":37,"name":"live4teaching","steam_id":76561198976290051,"connected_time":65000000000,"state":"active","ping":80}]},{"server_id":401,"name":"Uncletopia | Atlanta | 4 | No Payload","name_short":"atl-4","host":"atl-1.us.uncletopia.com","port":27045,"enabled":true,"region":"us-east","cc":"us","latitude":33.753746,"longitude":-84.38633,"reserved":0,"last_update":"0001-01-01T00:00:00Z","name_a2s":"","protocol":0,"map":"","folder":"","game":"","app_id":0,"player_count":0,"max_players":0,"Bots":0,"server_type":"","server_os":"","password":false,"vac":false,"version":"","steam_id":0,"keywords":null,"game_id":0,"stv_port":0,"stv_name":"","players":null},{"server_id":2,"name":"Uncletopia | Chicago | 1 | All Maps","name_short":"chi-1","host":"chi-1.us.uncletopia.com","port":27015,"enabled":true,"region":"us-central","cc":"us","latitude":41.881832,"longitude":-87.62318,"reserved":0,"last_update":"0001-01-01T00:00:00Z","name_a2s":"Uncletopia | Chicago | 1 | All Maps","protocol":17,"map":"pl_upward","folder":"tf","game":"Team Fortress","app_id":440,"player_count":24,"max_players":24,"Bots":0,"server_type":"Dedicated","server_os":"Linux","password":true,"vac":true,"version":"7757534","steam_id":85568392924469984,"keywords":["nocrits","nodmgspread","payload","uncletopia"],"game_id":440,"stv_port":27016,"stv_name":"Uncletopia | Chicago | 1 | All Maps | STV","players":[{"user_id":430,"name":"Cousin Corn on the Cob","steam_id":76561198049837377,"connected_time":4306000000000,"state":"active","ping":48},{"user_id":497,"name":"Hugo","steam_id":76561198045581609,"connected_time":204000000000,"state":"active","ping":68},{"user_id":368,"name":"tyg","steam_id":76561198056246867,"connected_time":9325000000000,"state":"active","ping":68},{"user_id":470,"name":"GPLv2","steam_id":76561198113096772,"connected_time":1750000000000,"state":"active","ping":120},{"user_id":496,"name":"Riboflavin","steam_id":76561198077328593,"connected_time":214000000000,"state":"active","ping":90},{"user_id":432,"name":"chloe","steam_id":76561198369849908,"connected_time":3627000000000,"state":"active","ping":82},{"user_id":468,"name":"Weerk","steam_id":76561199209543551,"connected_time":1755000000000,"state":"active","ping":74},{"user_id":391,"name":"Valerie","steam_id":76561198243188782,"connected_time":7575000000000,"state":"active","ping":88},{"user_id":466,"name":"bary","steam_id":76561197988317087,"connected_time":1858000000000,"state":"active","ping":61},{"user_id":469,"name":"IPlayGamez","steam_id":76561198041387508,"connected_time":1751000000000,"state":"active","ping":60},{"user_id":484,"name":"Gabinator32","steam_id":76561198872467183,"connected_time":661000000000,"state":"active","ping":47},{"user_id":487,"name":"fallacy","steam_id":76561198057374871,"connected_time":625000000000,"state":"active","ping":62},{"user_id":492,"name":"Jay F","steam_id":76561198046082188,"connected_time":391000000000,"state":"active","ping":65},{"user_id":480,"name":"Grand Piano Tuna","steam_id":76561198135137213,"connected_time":1467000000000,"state":"active","ping":68},{"user_id":493,"name":"amazing","steam_id":76561198386233160,"connected_time":387000000000,"state":"active","ping":86},{"user_id":491,"name":"Jitters","steam_id":76561198078898336,"connected_time":434000000000,"state":"active","ping":48},{"user_id":473,"name":"Tito McMan","steam_id":76561198068901630,"connected_time":1733000000000,"state":"active","ping":101},{"user_id":494,"name":"Sulphyr0","steam_id":76561199430044801,"connected_time":310000000000,"state":"active","ping":68},{"user_id":489,"name":"smelly boy james(he stinkin)","steam_id":76561197997006216,"connected_time":590000000000,"state":"active","ping":49},{"user_id":495,"name":"Crazy__Biscuit","steam_id":76561198399851872,"connected_time":302000000000,"state":"active","ping":76},{"user_id":476,"name":"chanoc","steam_id":76561198026734746,"connected_time":1727000000000,"state":"active","ping":103},{"user_id":479,"name":"catfish from toontown","steam_id":76561198060070002,"connected_time":1656000000000,"state":"active","ping":73},{"user_id":481,"name":"hummus in my tummus","steam_id":76561199438698036,"connected_time":1389000000000,"state":"active","ping":54},{"user_id":482,"name":"pool shark","steam_id":76561198130191179,"connected_time":1033000000000,"state":"active","ping":74}]},{"server_id":106,"name":"Uncletopia | Chicago | 2 | All Maps","name_short":"chi-2","host":"chi-1.us.uncletopia.com","port":27025,"enabled":true,"region":"us-central","cc":"us","latitude":41.881832,"longitude":-87.62318,"reserved":0,"last_update":"0001-01-01T00:00:00Z","name_a2s":"Uncletopia | Chicago | 2 | All Maps","protocol":17,"map":"pl_badwater","folder":"tf","game":"Team Fortress","app_id":440,"player_count":24,"max_players":24,"Bots":0,"server_type":"Dedicated","server_os":"Linux","password":true,"vac":true,"version":"7757534","steam_id":85568392924469985,"keywords":["nocrits","nodmgspread","payload","uncletopia"],"game_id":440,"stv_port":27026,"stv_name":"Uncletopia | Chicago | 2 | All Maps | STV","players":[{"user_id":497,"name":"THRILLHO","steam_id":76561198371663047,"connected_time":1400000000000,"state":"active","ping":62},{"user_id":473,"name":"4 life","steam_id":76561198175961598,"connected_time":3252000000000,"state":"active","ping":112},{"user_id":489,"name":"‚òº  gamble","steam_id":76561198074180953,"connected_time":2166000000000,"state":"active","ping":72},{"user_id":510,"name":"Violet42","steam_id":76561198072927887,"connected_time":956000000000,"state":"active","ping":67},{"user_id":502,"name":"Steen","steam_id":76561198122992510,"connected_time":1282000000000,"state":"active","ping":137},{"user_id":514,"name":"The Announcer's Feet","steam_id":76561199443456893,"connected_time":639000000000,"state":"active","ping":77},{"user_id":495,"name":"Rein","steam_id":76561198300340427,"connected_time":1412000000000,"state":"active","ping":60},{"user_id":485,"name":"Prison Sal","steam_id":76561198355553673,"connected_time":2762000000000,"state":"active","ping":56},{"user_id":478,"name":"Coffee with a Stranger","steam_id":76561198307422313,"connected_time":3211000000000,"state":"active","ping":69},{"user_id":464,"name":"98","steam_id":76561198134813102,"connected_time":3495000000000,"state":"active","ping":59},{"user_id":518,"name":"battle clown","steam_id":76561198045788371,"connected_time":546000000000,"state":"active","ping":83},{"user_id":470,"name":"suckmycock47","steam_id":76561198063099828,"connected_time":3315000000000,"state":"active","ping":54},{"user_id":494,"name":"mmmm im grooving","steam_id":76561198406252824,"connected_time":1701000000000,"state":"active","ping":98},{"user_id":427,"name":"creeeeeee","steam_id":76561198392539722,"connected_time":6789000000000,"state":"active","ping":78},{"user_id":467,"name":"zavala = smurf","steam_id":76561198249206656,"connected_time":3434000000000,"state":"active","ping":77},{"user_id":496,"name":"The Land Admiral","steam_id":76561198159356609,"connected_time":1406000000000,"state":"active","ping":76},{"user_id":480,"name":"[ŸäŸáŸàÿØŸä] Bill Clinton [◊ê◊ú","steam_id":76561198163291190,"connected_time":3143000000000,"state":"active","ping":88},{"user_id":507,"name":"bear","steam_id":76561198313696546,"connected_time":1072000000000,"state":"active","ping":87},{"user_id":498,"name":"JacripspyVulcano","steam_id":76561198966980576,"connected_time":1397000000000,"state":"active","ping":69},{"user_id":512,"name":"extinct111","steam_id":76561199013696367,"connected_time":732000000000,"state":"active","ping":69},{"user_id":414,"name":"Eden","steam_id":76561198075587475,"connected_time":8305000000000,"state":"active","ping":43},{"user_id":488,"name":"Doom","steam_id":76561197982099794,"connected_time":2563000000000,"state":"active","ping":64},{"user_id":520,"name":"Obelix","steam_id":76561198274715109,"connected_time":397000000000,"state":"active","ping":47},{"user_id":483,"name":"Moizturized","steam_id":76561198873850038,"connected_time":3005000000000,"state":"active","ping":75}]},{"server_id":402,"name":"Uncletopia | Chicago | 3 | All Maps","name_short":"chi-3","host":"chi-1.us.uncletopia.com","port":27035,"enabled":true,"region":"us-central","cc":"us","latitude":41.881832,"longitude":-87.62318,"reserved":0,"last_update":"0001-01-01T00:00:00Z","name_a2s":"Uncletopia | Chicago | 3 | All Maps","protocol":17,"map":"koth_cascade","folder":"tf","game":"Team Fortress","app_id":440,"player_count":0,"max_players":24,"Bots":0,"server_type":"Dedicated","server_os":"Linux","password":true,"vac":true,"version":"7757534","steam_id":85568392924515191,"keywords":["cp","nocrits","nodmgspread","uncletopia"],"game_id":440,"stv_port":27036,"stv_name":"Uncletopia | Chicago | 3 | All Maps | STV","players":null},{"server_id":403,"name":"Uncletopia | Chicago | 4 | All Maps","name_short":"chi-4","host":"chi-1.us.uncletopia.com","port":27045,"enabled":true,"region":"us-central","cc":"us","latitude":41.881832,"longitude":-87.62318,"reserved":0,"last_update":"0001-01-01T00:00:00Z","name_a2s":"Uncletopia | Chicago | 4 | All Maps","protocol":17,"map":"pl_barnblitz","folder":"tf","game":"Team Fortress","app_id":440,"player_count":24,"max_players":24,"Bots":0,"server_type":"Dedicated","server_os":"Linux","password":true,"vac":true,"version":"7757534","steam_id":85568392924515193,"keywords":["nocrits","nodmgspread","payload","uncletopia"],"game_id":440,"stv_port":27046,"stv_name":"Uncletopia | Chicago | 4 | All Maps | STV","players":[{"user_id":351,"name":"j - „Éï„É©„Ç§„Éâ„ÉÅ„Ç≠„É≥","steam_id":76561198061224922,"connected_time":1490000000000,"state":"active","ping":71},{"user_id":373,"name":"jorjor wells","steam_id":76561199073429082,"connected_time":667000000000,"state":"active","ping":59},{"user_id":355,"name":"there is cum in my ramen","steam_id":76561198059815894,"connected_time":1173000000000,"state":"active","ping":57},{"user_id":377,"name":"Lil' Urban Achiever","steam_id":76561197970450546,"connected_time":501000000000,"state":"active","ping":105},{"user_id":307,"name":"Ejaculation Zach","steam_id":76561198203765200,"connected_time":5429000000000,"state":"active","ping":61},{"user_id":364,"name":"Only One Jhakobi","steam_id":76561197993641141,"connected_time":934000000000,"state":"active","ping":60},{"user_id":378,"name":"griff928","steam_id":76561198149614679,"connected_time":487000000000,"state":"active","ping":46},{"user_id":360,"name":"Inpecular","steam_id":76561198096571237,"connected_time":964000000000,"state":"active","ping":90},{"user_id":314,"name":"Admiral Crumbs","steam_id":76561198108791583,"connected_time":4399000000000,"state":"active","ping":63},{"user_id":371,"name":"Waluigi","steam_id":76561198891626233,"connected_time":730000000000,"state":"active","ping":59},{"user_id":375,"name":"Superman123389","steam_id":76561198267472539,"connected_time":583000000000,"state":"active","ping":91},{"user_id":340,"name":"sAven","steam_id":76561198139343389,"connected_time":2381000000000,"state":"active","ping":46},{"user_id":372,"name":"ic","steam_id":76561198009288860,"connected_time":716000000000,"state":"active","ping":63},{"user_id":367,"name":"Kafka (Uses Matches)","steam_id":76561198073897823,"connected_time":923000000000,"state":"active","ping":82},{"user_id":334,"name":"Sal955","steam_id":76561198297487966,"connected_time":2726000000000,"state":"active","ping":70},{"user_id":325,"name":"pizzaroger2003 #savejulia","steam_id":76561198179785873,"connected_time":3126000000000,"state":"active","ping":87},{"user_id":358,"name":"[chef] iron","steam_id":76561197970888616,"connected_time":977000000000,"state":"active","ping":42},{"user_id":368,"name":"Jennifer Aniston's Nipples","steam_id":76561198086107548,"connected_time":901000000000,"state":"active","ping":65},{"user_id":299,"name":"Stumblin' in","steam_id":76561198119826352,"connected_time":5763000000000,"state":"active","ping":74},{"user_id":369,"name":"Rifter","steam_id":76561198077430698,"connected_time":888000000000,"state":"active","ping":62},{"user_id":321,"name":"Fake Uncle","steam_id":76561198880227689,"connected_time":3965000000000,"state":"active","ping":58},{"user_id":332,"name":"wheres my drink?","steam_id":76561198031675881,"connected_time":2893000000000,"state":"active","ping":56},{"user_id":318,"name":"when the oob hits","steam_id":76561198277163301,"connected_time":4181000000000,"state":"active","ping":63},{"user_id":345,"name":"Peopledbear52","steam_id":76561198126449338,"connected_time":2174000000000,"state":"active","ping":105}]},{"server_id":36,"name":"Uncletopia | Chicago | 5 | All Maps","name_short":"chi-5","host":"chi-2.us.uncletopia.com","port":27015,"enabled":true,"region":"us-central","cc":"us","latitude":41.881832,"longitude":-87.62318,"reserved":0,"last_update":"0001-01-01T00:00:00Z","name_a2s":"Uncletopia | Chicago | 5 | All Maps","protocol":17,"map":"koth_lakeside_final","folder":"tf","game":"Team Fortress","app_id":440,"player_count":0,"max_players":24,"Bots":0,"server_type":"Dedicated","server_os":"Linux","password":true,"vac":true,"version":"7757534","steam_id":85568392924866362,"keywords":["cp","nocrits","nodmgspread","uncletopia"],"game_id":440,"stv_port":27016,"stv_name":"Uncletopia | Chicago | 5 | All Maps | STV","players":null},{"server_id":37,"name":"Uncletopia | Chicago | 6 | All Maps","name_short":"chi-6","host":"chi-2.us.uncletopia.com","port":27025,"enabled":true,"region":"us-central","cc":"us","latitude":41.881832,"longitude":-87.62318,"reserved":0,"last_update":"0001-01-01T00:00:00Z","name_a2s":"Uncletopia | Chicago | 6 | All Maps","protocol":17,"map":"cp_dustbowl","folder":"tf","game":"Team Fortress","app_id":440,"player_count":0,"max_players":24,"Bots":0,"server_type":"Dedicated","server_os":"Linux","password":true,"vac":true,"version":"7757534","steam_id":85568392924866363,"keywords":["cp","nocrits","nodmgspread","uncletopia"],"game_id":440,"stv_port":27026,"stv_name":"Uncletopia | Chicago | 6 | All Maps | STV","players":null},{"server_id":38,"name":"Uncletopia | Chicago | 7 | Stopwatch Beta","name_short":"chi-7","host":"chi-2.us.uncletopia.com","port":27035,"enabled":true,"region":"us-central","cc":"us","latitude":41.881832,"longitude":-87.62318,"reserved":0,"last_update":"0001-01-01T00:00:00Z","name_a2s":"Uncletopia | Chicago | 7 | Stopwatch Beta","protocol":17,"map":"workshop/koth_bagel_rc6.ugc2514036946","folder":"tf","game":"Team Fortress","app_id":440,"player_count":0,"max_players":24,"Bots":0,"server_type":"Dedicated","server_os":"Linux","password":true,"vac":true,"version":"7757534","steam_id":85568392924866364,"keywords":["cp","nocrits","nodmgspread","uncletopia"],"game_id":440,"stv_port":27036,"stv_name":"Uncletopia | Chicago | 7 | Stopwatch Beta | STV","players":null},{"server_id":39,"name":"Uncletopia | Chicago | 8 | Community","name_short":"chi-8","host":"chi-2.us.uncletopia.com","port":27045,"enabled":true,"region":"us-central","cc":"us","latitude":41.881832,"longitude":-87.62318,"reserved":0,"last_update":"0001-01-01T00:00:00Z","name_a2s":"Uncletopia | Chicago | 8 | Community","protocol":17,"map":"koth_lakeside_final","folder":"tf","game":"Team Fortress","app_id":440,"player_count":0,"max_players":24,"Bots":0,"server_type":"Dedicated","server_os":"Linux","password":true,"vac":true,"version":"7757534","steam_id":85568392924866365,"keywords":["cp","nocrits","nodmgspread","uncletopia"],"game_id":440,"stv_port":27046,"stv_name":"Uncletopia | Chicago | 8 | Community | STV","players":null},{"server_id":8,"name":"Uncletopia | Dallas | 1 | All Maps","name_short":"dal-1","host":"dal-1.us.uncletopia.com","port":27015,"enabled":true,"region":"us-central","cc":"us","latitude":32.779167,"longitude":-96.80889,"reserved":0,"last_update":"0001-01-01T00:00:00Z","name_a2s":"Uncletopia | Dallas | 1 | All Maps","protocol":17,"map":"pl_borneo","folder":"tf","game":"Team Fortress","app_id":440,"player_count":24,"max_players":24,"Bots":0,"server_type":"Dedicated","server_os":"Linux","password":true,"vac":true,"version":"7757534","steam_id":85568392924469986,"keywords":["nocrits","nodmgspread","payload","uncletopia"],"game_id":440,"stv_port":27016,"stv_name":"Uncletopia | Dallas | 1 | All Maps | STV","players":[{"user_id":260,"name":"Trash Medic","steam_id":76561199042228163,"connected_time":3844000000000,"state":"active","ping":72},{"user_id":264,"name":"NANO","steam_id":76561199009634635,"connected_time":3738000000000,"state":"active","ping":79},{"user_id":305,"name":"fat","steam_id":76561198101352327,"connected_time":821000000000,"state":"active","ping":41},{"user_id":301,"name":"Jared In Target","steam_id":76561198372449718,"connected_time":875000000000,"state":"active","ping":55},{"user_id":212,"name":"terrorism? boy howdy","steam_id":76561198844003641,"connected_time":5479000000000,"state":"active","ping":85},{"user_id":251,"name":"SirArza","steam_id":76561198196214655,"connected_time":4406000000000,"state":"active","ping":70},{"user_id":277,"name":"Rendoas","steam_id":76561198002105259,"connected_time":2831000000000,"state":"active","ping":52},{"user_id":293,"name":"slap cheeks","steam_id":76561198128285450,"connected_time":1700000000000,"state":"active","ping":100},{"user_id":271,"name":"tragic | swiftyservers.com","steam_id":76561198024043469,"connected_time":2980000000000,"state":"active","ping":75},{"user_id":286,"name":"Possessd Pyro","steam_id":76561198389830988,"connected_time":2696000000000,"state":"active","ping":43},{"user_id":268,"name":"Beep","steam_id":76561198166649901,"connected_time":3162000000000,"state":"active","ping":118},{"user_id":307,"name":"Sergeant Joker #savetf2","steam_id":76561198854616604,"connected_time":685000000000,"state":"active","ping":91},{"user_id":269,"name":"\"Gay Panic\"","steam_id":76561198132531594,"connected_time":3141000000000,"state":"active","ping":65},{"user_id":290,"name":"Legit_Jaxer","steam_id":76561198172234053,"connected_time":2364000000000,"state":"active","ping":108},{"user_id":306,"name":"floofy","steam_id":76561198389769098,"connected_time":795000000000,"state":"active","ping":79},{"user_id":296,"name":"LotteKinnie","steam_id":76561199186245392,"connected_time":969000000000,"state":"active","ping":60},{"user_id":292,"name":"Latex Princess","steam_id":76561198158750199,"connected_time":2308000000000,"state":"active","ping":72},{"user_id":304,"name":"Aonator","steam_id":76561198252312446,"connected_time":860000000000,"state":"active","ping":99},{"user_id":275,"name":"Jdpho99","steam_id":76561197968182680,"connected_time":2848000000000,"state":"active","ping":86},{"user_id":299,"name":"Knightly Knight","steam_id":76561198399569659,"connected_time":941000000000,"state":"active","ping":60},{"user_id":295,"name":"yvko","steam_id":76561198165724991,"connected_time":1377000000000,"state":"active","ping":77},{"user_id":279,"name":"HeisenBurger","steam_id":76561198040632080,"connected_time":2828000000000,"state":"active","ping":80},{"user_id":283,"name":"whip bone grew shrooms","steam_id":76561198338482937,"connected_time":2795000000000,"state":"active","ping":87},{"user_id":297,"name":"‚òºBarracuda‚òº","steam_id":76561198013022083,"connected_time":968000000000,"state":"active","ping":60}]},{"server_id":108,"name":"Uncletopia | Dallas | 2 | All Maps","name_short":"dal-2","host":"dal-1.us.uncletopia.com","port":27025,"enabled":true,"region":"us-central","cc":"us","latitude":32.779167,"longitude":-96.80889,"reserved":0,"last_update":"0001-01-01T00:00:00Z","name_a2s":"Uncletopia | Dallas | 2 | All Maps","protocol":17,"map":"pl_swiftwater_final1","folder":"tf","game":"Team Fortress","app_id":440,"player_count":24,"max_players":24,"Bots":0,"server_type":"Dedicated","server_os":"Linux","password":true,"vac":true,"version":"7757534","steam_id":85568392924469988,"keywords":["nocrits","nodmgspread","payload","uncletopia"],"game_id":440,"stv_port":27026,"stv_name":"Uncletopia | Dallas | 2 | All Maps | STV","players":[{"user_id":129,"name":"jubb","steam_id":76561198186865526,"connected_time":2036000000000,"state":"active","ping":125},{"user_id":121,"name":"Romo","steam_id":76561198243101572,"connected_time":2250000000000,"state":"active","ping":83},{"user_id":125,"name":"Seal","steam_id":76561197970204043,"connected_time":2211000000000,"state":"active","ping":78},{"user_id":141,"name":"no trouble at all","steam_id":76561198138221795,"connected_time":1242000000000,"state":"active","ping":77},{"user_id":135,"name":"Quansen","steam_id":76561198151594550,"connected_time":1709000000000,"state":"active","ping":78},{"user_id":130,"name":"mynameisweenis","steam_id":76561198990223681,"connected_time":2020000000000,"state":"active","ping":112},{"user_id":134,"name":"Leviathan","steam_id":76561197997528907,"connected_time":1996000000000,"state":"active","ping":75},{"user_id":120,"name":"Baby Astro","steam_id":76561198357182369,"connected_time":2256000000000,"state":"active","ping":82},{"user_id":122,"name":"jn tr po","steam_id":76561198120327601,"connected_time":2246000000000,"state":"active","ping":54},{"user_id":146,"name":"inzang","steam_id":76561198088318074,"connected_time":291000000000,"state":"active","ping":55},{"user_id":70,"name":"HELIUM VAN!","steam_id":76561198083463877,"connected_time":6189000000000,"state":"active","ping":74},{"user_id":147,"name":"CFGU || RAWRWAFL","steam_id":76561198032118386,"connected_time":291000000000,"state":"active","ping":71},{"user_id":142,"name":"SuperFresh","steam_id":76561198200723198,"connected_time":1032000000000,"state":"active","ping":67},{"user_id":112,"name":"Tax","steam_id":76561198335683534,"connected_time":2520000000000,"state":"active","ping":77},{"user_id":138,"name":"brain so big i ate an ikea","steam_id":76561198099431543,"connected_time":1319000000000,"state":"active","ping":89},{"user_id":140,"name":"Train (E-Girl Edition)","steam_id":76561198087472085,"connected_time":1268000000000,"state":"active","ping":82},{"user_id":145,"name":"Superbearhero","steam_id":76561198252350708,"connected_time":418000000000,"state":"active","ping":37},{"user_id":133,"name":"Soy Blaster","steam_id":76561197971948876,"connected_time":2003000000000,"state":"active","ping":86},{"user_id":80,"name":"PingableUsername","steam_id":76561198138760165,"connected_time":4888000000000,"state":"active","ping":70},{"user_id":44,"name":"StarLy","steam_id":76561198174428289,"connected_time":7870000000000,"state":"active","ping":81},{"user_id":143,"name":"Discourse","steam_id":76561198984286678,"connected_time":1030000000000,"state":"active","ping":82},{"user_id":126,"name":"LordMorphesus","steam_id":76561198026995104,"connected_time":2154000000000,"state":"active","ping":96},{"user_id":68,"name":"Unofficial","steam_id":76561198370071152,"connected_time":6357000000000,"state":"active","ping":105},{"user_id":144,"name":"Matt.jpg","steam_id":76561198132469465,"connected_time":823000000000,"state":"active","ping":51}]},{"server_id":5,"name":"Uncletopia | Frankfurt | 1 | All Maps","name_short":"frk-1","host":"frk-1.de.uncletopia.com","port":27015,"enabled":true,"region":"eu","cc":"de","latitude":50.110924,"longitude":8.682127,"reserved":0,"last_update":"0001-01-01T00:00:00Z","name_a2s":"Uncletopia | Frankfurt | 1 | All Maps","protocol":17,"map":"cp_snakewater_final1","folder":"tf","game":"Team Fortress","app_id":440,"player_count":23,"max_players":24,"Bots":0,"server_type":"Dedicated","server_os":"Linux","password":true,"vac":true,"version":"7757534","steam_id":85568392924469989,"keywords":["cp","nocrits","nodmgspread","uncletopia"],"game_id":440,"stv_port":27016,"stv_name":"Uncletopia | Frankfurt | 1 | All Maps | STV","players":[{"user_id":695,"name":"pitbull gaming","steam_id":76561198052412362,"connected_time":2012000000000,"state":"active","ping":70},{"user_id":696,"name":"ProfessorCrack","steam_id":76561199035475627,"connected_time":1879000000000,"state":"active","ping":80},{"user_id":716,"name":"Reiyo the Interloper","steam_id":76561198155092485,"connected_time":860000000000,"state":"active","ping":50},{"user_id":719,"name":"Subterranean","steam_id":76561198106684566,"connected_time":760000000000,"state":"active","ping":79},{"user_id":697,"name":"TMC","steam_id":76561198077956157,"connected_time":1874000000000,"state":"active","ping":55},{"user_id":726,"name":"Lukas","steam_id":76561198009118452,"connected_time":471000000000,"state":"active","ping":62},{"user_id":595,"name":"R","steam_id":76561199379233899,"connected_time":8339000000000,"state":"active","ping":91},{"user_id":725,"name":"MajorKlebstoff","steam_id":76561198035489363,"connected_time":498000000000,"state":"active","ping":46},{"user_id":715,"name":"gosi","steam_id":76561198084111532,"connected_time":872000000000,"state":"active","ping":59},{"user_id":722,"name":"Rollermine ‚ô•","steam_id":76561199370148924,"connected_time":699000000000,"state":"active","ping":56},{"user_id":698,"name":"wepon","steam_id":76561198097789669,"connected_time":1871000000000,"state":"active","ping":60},{"user_id":694,"name":"minespweper","steam_id":76561199096919345,"connected_time":2186000000000,"state":"active","ping":78},{"user_id":711,"name":"dn4k","steam_id":76561199221755690,"connected_time":1057000000000,"state":"active","ping":79},{"user_id":714,"name":"pogfish","steam_id":76561198061427584,"connected_time":882000000000,"state":"active","ping":56},{"user_id":691,"name":"big hoops","steam_id":76561198004703799,"connected_time":2227000000000,"state":"active","ping":45},{"user_id":727,"name":"gragos","steam_id":76561199379401262,"connected_time":425000000000,"state":"active","ping":82},{"user_id":704,"name":"Jayco","steam_id":76561198122497262,"connected_time":1467000000000,"state":"active","ping":69},{"user_id":724,"name":"nedilya","steam_id":76561198039692077,"connected_time":538000000000,"state":"active","ping":53},{"user_id":723,"name":"Bleachy","steam_id":76561198101976229,"connected_time":619000000000,"state":"active","ping":55},{"user_id":707,"name":"Mza28","steam_id":76561198873993324,"connected_time":1242000000000,"state":"active","ping":81},{"user_id":721,"name":"Jonak","steam_id":76561198080832458,"connected_time":714000000000,"state":"active","ping":81},{"user_id":703,"name":"Predrag218","steam_id":76561199242439630,"connected_time":1709000000000,"state":"active","ping":608},{"user_id":684,"name":"Chris","steam_id":76561198018626828,"connected_time":2989000000000,"state":"active","ping":69}]},{"server_id":110,"name":"Uncletopia | Frankfurt | 2 | All Maps","name_short":"frk-2","host":"frk-1.de.uncletopia.com","port":27025,"enabled":true,"region":"eu","cc":"de","latitude":50.110924,"longitude":8.682127,"reserved":0,"last_update":"0001-01-01T00:00:00Z","name_a2s":"Uncletopia | Frankfurt | 2 | All Maps","protocol":17,"map":"cp_snakewater_final1","folder":"tf","game":"Team Fortress","app_id":440,"player_count":0,"max_players":24,"Bots":0,"server_type":"Dedicated","server_os":"Linux","password":true,"vac":true,"version":"7757534","steam_id":85568392924469990,"keywords":["cp","nocrits","nodmgspread","uncletopia"],"game_id":440,"stv_port":27026,"stv_name":"Uncletopia | Frankfurt | 2 | All Maps | STV","players":null},{"server_id":308,"name":"Uncletopia | Frankfurt | 3 | All Maps","name_short":"frk-3","host":"frk-1.de.uncletopia.com","port":27035,"enabled":true,"region":"eu","cc":"de","latitude":50.110924,"longitude":8.682127,"reserved":0,"last_update":"0001-01-01T00:00:00Z","name_a2s":"Uncletopia | Frankfurt | 3 | All Maps","protocol":17,"map":"koth_viaduct","folder":"tf","game":"Team Fortress","app_id":440,"player_count":20,"max_players":24,"Bots":0,"server_type":"Dedicated","server_os":"Linux","password":true,"vac":true,"version":"7757534","steam_id":85568392924504274,"keywords":["cp","nocrits","nodmgspread","uncletopia"],"game_id":440,"stv_port":27036,"stv_name":"Uncletopia | Frankfurt | 3 | All Maps | STV","players":[{"user_id":357,"name":"Carol Olston","steam_id":76561198080257273,"connected_time":60000000000,"state":"active","ping":59},{"user_id":304,"name":"Yony","steam_id":76561199070569941,"connected_time":3631000000000,"state":"active","ping":58},{"user_id":356,"name":"Le Chevalier Pingouin","steam_id":76561198221355000,"connected_time":78000000000,"state":"active","ping":50},{"user_id":333,"name":"zabloing","steam_id":76561198339480413,"connected_time":958000000000,"state":"active","ping":70},{"user_id":334,"name":"van-Dalismus","steam_id":76561198009894328,"connected_time":840000000000,"state":"active","ping":61},{"user_id":335,"name":"zombie","steam_id":76561197967386841,"connected_time":810000000000,"state":"active","ping":56},{"user_id":336,"name":"Krabbe","steam_id":76561197990204334,"connected_time":810000000000,"state":"active","ping":55},{"user_id":337,"name":"spiderman 3 enjoyer","steam_id":76561198332712960,"connected_time":718000000000,"state":"active","ping":74},{"user_id":338,"name":"John","steam_id":76561198050348944,"connected_time":716000000000,"state":"active","ping":173},{"user_id":339,"name":"akakez","steam_id":76561198095432821,"connected_time":684000000000,"state":"active","ping":114},{"user_id":340,"name":"guru{Bishop_45}","steam_id":76561197983245285,"connected_time":665000000000,"state":"active","ping":54},{"user_id":341,"name":"GuSkand","steam_id":76561198043775605,"connected_time":664000000000,"state":"active","ping":91},{"user_id":342,"name":"sareena","steam_id":76561198810194062,"connected_time":652000000000,"state":"active","ping":75},{"user_id":343,"name":"bart symptom","steam_id":76561198156906497,"connected_time":645000000000,"state":"active","ping":69},{"user_id":344,"name":"78","steam_id":76561198208328357,"connected_time":635000000000,"state":"active","ping":75},{"user_id":353,"name":"mai‚ú® @ no sound","steam_id":76561198008959448,"connected_time":315000000000,"state":"active","ping":72},{"user_id":346,"name":"igazs√°g","steam_id":76561199206159631,"connected_time":593000000000,"state":"active","ping":61},{"user_id":350,"name":"ball sniffa","steam_id":76561199022705805,"connected_time":530000000000,"state":"active","ping":66},{"user_id":318,"name":"REN","steam_id":76561198000596385,"connected_time":1715000000000,"state":"active","ping":66},{"user_id":351,"name":"Ptahotep","steam_id":76561198008708645,"connected_time":468000000000,"state":"active","ping":66}]},{"server_id":309,"name":"Uncletopia | Frankfurt | 4 | All Maps","name_short":"frk-4","host":"frk-1.de.uncletopia.com","port":27045,"enabled":true,"region":"eu","cc":"de","latitude":50.110924,"longitude":8.682127,"reserved":0,"last_update":"0001-01-01T00:00:00Z","name_a2s":"Uncletopia | Frankfurt | 4 | All Maps","protocol":17,"map":"pl_barnblitz","folder":"tf","game":"Team Fortress","app_id":440,"player_count":0,"max_players":24,"Bots":0,"server_type":"Dedicated","server_os":"Linux","password":true,"vac":true,"version":"7757534","steam_id":85568392924504275,"keywords":["nocrits","nodmgspread","payload","uncletopia"],"game_id":440,"stv_port":27046,"stv_name":"Uncletopia | Frankfurt | 4 | All Maps | STV","players":null},{"server_id":310,"name":"Uncletopia | Frankfurt | 5 | All Maps","name_short":"frk-5","host":"frk-1.de.uncletopia.com","port":27055,"enabled":true,"region":"eu","cc":"de","latitude":50.110924,"longitude":8.682127,"reserved":0,"last_update":"0001-01-01T00:00:00Z","name_a2s":"Uncletopia | Frankfurt | 5 | All Maps","protocol":17,"map":"pl_barnblitz","folder":"tf","game":"Team Fortress","app_id":440,"player_count":24,"max_players":24,"Bots":0,"server_type":"Dedicated","server_os":"Linux","password":true,"vac":true,"version":"7757534","steam_id":85568392924504277,"keywords":["nocrits","nodmgspread","payload","uncletopia"],"game_id":440,"stv_port":27056,"stv_name":"Uncletopia | Frankfurt | 5 | All Maps | STV","players":[{"user_id":309,"name":"FishD.ck_47","steam_id":76561198114773103,"connected_time":415000000000,"state":"active","ping":86},{"user_id":282,"name":"porridge","steam_id":76561198044585737,"connected_time":2064000000000,"state":"active","ping":56},{"user_id":311,"name":"Mr.Schnittlauch","steam_id":76561198295868113,"connected_time":93000000000,"state":"active","ping":61},{"user_id":276,"name":"Hellish Paradise.","steam_id":76561199011293286,"connected_time":2537000000000,"state":"active","ping":87},{"user_id":237,"name":"Klinmir","steam_id":76561198352339376,"connected_time":6232000000000,"state":"active","ping":95},{"user_id":310,"name":"Setter Ball Gaul","steam_id":76561198130427881,"connected_time":261000000000,"state":"active","ping":161},{"user_id":265,"name":"Zembis","steam_id":76561198008017918,"connected_time":3309000000000,"state":"active","ping":92},{"user_id":285,"name":"Huhso","steam_id":76561198219443271,"connected_time":1787000000000,"state":"active","ping":102},{"user_id":305,"name":"BeefHammer","steam_id":76561198078426223,"connected_time":858000000000,"state":"active","ping":97},{"user_id":300,"name":"jt7","steam_id":76561198073655162,"connected_time":888000000000,"state":"active","ping":72},{"user_id":288,"name":"Pancakes","steam_id":76561198196259989,"connected_time":1163000000000,"state":"active","ping":62},{"user_id":297,"name":".Aq","steam_id":76561198043376092,"connected_time":928000000000,"state":"active","ping":96},{"user_id":306,"name":"im so silly XD  :333","steam_id":76561198058012525,"connected_time":538000000000,"state":"active","ping":73},{"user_id":203,"name":"Vershal Smershal","steam_id":76561198116223995,"connected_time":8402000000000,"state":"active","ping":60},{"user_id":262,"name":"Charrky","steam_id":76561198054398642,"connected_time":3826000000000,"state":"active","ping":53},{"user_id":286,"name":"shr1mple","steam_id":76561198173537027,"connected_time":1621000000000,"state":"active","ping":45},{"user_id":292,"name":"lettuce at 58p","steam_id":76561199401283123,"connected_time":992000000000,"state":"active","ping":68},{"user_id":298,"name":"$13 hand-crank","steam_id":76561198029998773,"connected_time":925000000000,"state":"active","ping":63},{"user_id":299,"name":"Posture Check","steam_id":76561198053897197,"connected_time":920000000000,"state":"active","ping":60},{"user_id":293,"name":"gjhkgfkjfh","steam_id":76561198031181349,"connected_time":985000000000,"state":"active","ping":87},{"user_id":301,"name":"Oxer","steam_id":76561198055942412,"connected_time":885000000000,"state":"active","ping":86},{"user_id":303,"name":"Clitorina","steam_id":76561198077570815,"connected_time":871000000000,"state":"active","ping":60},{"user_id":260,"name":"LOBZIK","steam_id":76561198114830120,"connected_time":4039000000000,"state":"active","ping":77},{"user_id":302,"name":"Ready Rice‚Ñ¢","steam_id":76561198091969871,"connected_time":882000000000,"state":"active","ping":98}]},{"server_id":311,"name":"Uncletopia | Frankfurt | 6 | All Maps","name_short":"frk-6","host":"frk-1.de.uncletopia.com","port":27065,"enabled":true,"region":"eu","cc":"de","latitude":50.110924,"longitude":8.682127,"reserved":0,"last_update":"0001-01-01T00:00:00Z","name_a2s":"Uncletopia | Frankfurt | 6 | All Maps","protocol":17,"map":"pl_goldrush","folder":"tf","game":"Team Fortress","app_id":440,"player_count":22,"max_players":24,"Bots":0,"server_type":"Dedicated","server_os":"Linux","password":true,"vac":true,"version":"7757534","steam_id":85568392924504278,"keywords":["nocrits","nodmgspread","payload","uncletopia"],"game_id":440,"stv_port":27066,"stv_name":"Uncletopia | Frankfurt | 6 | All Maps | STV","players":[{"user_id":114,"name":"Rizzly Bear","steam_id":76561199012155377,"connected_time":2013000000000,"state":"active","ping":42},{"user_id":143,"name":"Toilet Paper","steam_id":76561198023534657,"connected_time":592000000000,"state":"active","ping":61},{"user_id":17,"name":"Milca_11","steam_id":76561198848650365,"connected_time":10596000000000,"state":"active","ping":84},{"user_id":123,"name":"xd","steam_id":76561198066523881,"connected_time":1699000000000,"state":"active","ping":57},{"user_id":82,"name":"bear in the big blue house enjo","steam_id":76561198133532980,"connected_time":5064000000000,"state":"active","ping":58},{"user_id":138,"name":"wcyd","steam_id":76561198103660553,"connected_time":748000000000,"state":"active","ping":91},{"user_id":131,"name":"arktischer Frosch","steam_id":76561199026955212,"connected_time":1084000000000,"state":"active","ping":66},{"user_id":136,"name":"proph","steam_id":76561197998803950,"connected_time":817000000000,"state":"active","ping":60},{"user_id":146,"name":"Checkmate.","steam_id":76561198339466196,"connected_time":222000000000,"state":"active","ping":62},{"user_id":115,"name":"trexwithlasereyes ü•ö","steam_id":76561198417276908,"connected_time":1964000000000,"state":"active","ping":68},{"user_id":147,"name":"Regan","steam_id":76561198100631086,"connected_time":209000000000,"state":"active","ping":69},{"user_id":88,"name":"SMELLY UNFORTUNATE","steam_id":76561198256755222,"connected_time":4204000000000,"state":"active","ping":57},{"user_id":128,"name":"aph","steam_id":76561198057722639,"connected_time":1492000000000,"state":"active","ping":67},{"user_id":133,"name":"LionKing","steam_id":76561198023399545,"connected_time":1004000000000,"state":"active","ping":47},{"user_id":145,"name":"varnu [[HEATZONE]]","steam_id":76561198104896547,"connected_time":408000000000,"state":"active","ping":74},{"user_id":130,"name":"Scrotie McBoogerballs","steam_id":76561198049312442,"connected_time":1143000000000,"state":"active","ping":62},{"user_id":137,"name":"Alibi","steam_id":76561198061845595,"connected_time":775000000000,"state":"active","ping":61},{"user_id":124,"name":"FNF","steam_id":76561199151422826,"connected_time":1698000000000,"state":"active","ping":113},{"user_id":96,"name":"The Bushman","steam_id":76561198152576682,"connected_time":3845000000000,"state":"active","ping":79},{"user_id":129,"name":"drew","steam_id":76561198012304706,"connected_time":1433000000000,"state":"active","ping":89},{"user_id":142,"name":"Billy Genie","steam_id":76561198061724014,"connected_time":610000000000,"state":"active","ping":37},{"user_id":111,"name":"CarrotFlowers","steam_id":76561198154714698,"connected_time":2295000000000,"state":"active","ping":56}]},{"server_id":23,"name":"Uncletopia | Frankfurt | 7 | Stopwatch Beta","name_short":"frk-7","host":"frk-1.de.uncletopia.com","port":27075,"enabled":true,"region":"eu","cc":"de","latitude":50.110924,"longitude":8.682127,"reserved":0,"last_update":"0001-01-01T00:00:00Z","name_a2s":"Uncletopia | Frankfurt | 7 | Stopwatch Beta","protocol":17,"map":"pl_swiftwater_final1","folder":"tf","game":"Team Fortress","app_id":440,"player_count":0,"max_players":24,"Bots":0,"server_type":"Dedicated","server_os":"Linux","password":true,"vac":true,"version":"7757534","steam_id":85568392924742827,"keywords":["nocrits","nodmgspread","payload","uncletopia"],"game_id":440,"stv_port":27076,"stv_name":"Uncletopia | Frankfurt | 7 | Stopwatch Beta | STV","players":null},{"server_id":24,"name":"Uncletopia | Frankfurt | 8 | Community","name_short":"frk-8","host":"frk-1.de.uncletopia.com","port":27085,"enabled":true,"region":"eu","cc":"de","latitude":50.110924,"longitude":8.682127,"reserved":0,"last_update":"0001-01-01T00:00:00Z","name_a2s":"Uncletopia | Frankfurt | 8 | Community","protocol":17,"map":"koth_viaduct","folder":"tf","game":"Team Fortress","app_id":440,"player_count":0,"max_players":24,"Bots":0,"server_type":"Dedicated","server_os":"Linux","password":true,"vac":true,"version":"7757534","steam_id":85568392924742828,"keywords":["cp","nocrits","nodmgspread","uncletopia"],"game_id":440,"stv_port":27086,"stv_name":"Uncletopia | Frankfurt | 8 | Community | STV","players":null},{"server_id":202,"name":"Uncletopia | Hong Kong | 1 | All Maps","name_short":"hgk-1","host":"hgk-1.hk.uncletopia.com","port":27015,"enabled":true,"region":"asia","cc":"hk","latitude":22.302711,"longitude":114.177216,"reserved":0,"last_update":"0001-01-01T00:00:00Z","name_a2s":"Uncletopia | Hong Kong | 1 | All Maps","protocol":17,"map":"cp_process_final","folder":"tf","game":"Team Fortress","app_id":440,"player_count":0,"max_players":24,"Bots":0,"server_type":"Dedicated","server_os":"Linux","password":true,"vac":true,"version":"7757534","steam_id":85568392924494504,"keywords":["cp","nocrits","nodmgspread","uncletopia"],"game_id":440,"stv_port":27016,"stv_name":"Uncletopia | Hong Kong | 1 | All Maps | STV","players":null},{"server_id":1,"name":"Uncletopia | Los Angeles | 1 | All Maps","name_short":"lax-1","host":"lax-1.us.uncletopia.com","port":27015,"enabled":true,"region":"us-west","cc":"us","latitude":33.94279,"longitude":-118.41004,"reserved":0,"last_update":"0001-01-01T00:00:00Z","name_a2s":"Uncletopia | Los Angeles | 1 | All Maps","protocol":17,"map":"pl_barnblitz","folder":"tf","game":"Team Fortress","app_id":440,"player_count":24,"max_players":24,"Bots":0,"server_type":"Dedicated","server_os":"Linux","password":true,"vac":true,"version":"7757534","steam_id":85568392924469991,"keywords":["nocrits","nodmgspread","payload","uncletopia"],"game_id":440,"stv_port":27016,"stv_name":"Uncletopia | Los Angeles | 1 | All Maps | STV","players":[{"user_id":52,"name":"Drive-By-Fish-Guy","steam_id":76561198105513652,"connected_time":931000000000,"state":"active","ping":61},{"user_id":40,"name":"beatrix","steam_id":76561199057103062,"connected_time":1740000000000,"state":"active","ping":54},{"user_id":60,"name":"OG Mando","steam_id":76561198799439774,"connected_time":387000000000,"state":"active","ping":41},{"user_id":53,"name":"MegaMott","steam_id":76561199172245274,"connected_time":878000000000,"state":"active","ping":89},{"user_id":45,"name":"Barn.Jones1992","steam_id":76561198197981309,"connected_time":1200000000000,"state":"active","ping":49},{"user_id":37,"name":"compulsive","steam_id":76561198212421513,"connected_time":2238000000000,"state":"active","ping":45},{"user_id":61,"name":"doobiebob","steam_id":76561198071963742,"connected_time":359000000000,"state":"active","ping":59},{"user_id":17,"name":"PinguEnjoyer6","steam_id":76561199186723516,"connected_time":3125000000000,"state":"active","ping":32},{"user_id":59,"name":"Bluedemon","steam_id":76561199212058684,"connected_time":457000000000,"state":"active","ping":59},{"user_id":42,"name":"a chicken","steam_id":76561198313121580,"connected_time":1728000000000,"state":"active","ping":45},{"user_id":56,"name":"Rx Auntie","steam_id":76561198051618393,"connected_time":727000000000,"state":"active","ping":113},{"user_id":58,"name":"u know i keep","steam_id":76561198094615739,"connected_time":517000000000,"state":"active","ping":93},{"user_id":30,"name":"Meteora","steam_id":76561198070934430,"connected_time":2353000000000,"state":"active","ping":98},{"user_id":63,"name":"b3atz","steam_id":76561198061389732,"connected_time":333000000000,"state":"active","ping":70},{"user_id":64,"name":"corbenis","steam_id":76561199012442511,"connected_time":279000000000,"state":"active","ping":53},{"user_id":27,"name":"Lilgraves710x","steam_id":76561199219933577,"connected_time":2415000000000,"state":"active","ping":101},{"user_id":57,"name":"Spy on cart","steam_id":76561198025466913,"connected_time":710000000000,"state":"active","ping":41},{"user_id":65,"name":"M1C4A3L","steam_id":76561198009980085,"connected_time":272000000000,"state":"active","ping":100},{"user_id":31,"name":"soy jesse joy bitch","steam_id":76561198154525168,"connected_time":2331000000000,"state":"active","ping":104},{"user_id":43,"name":"Birdman743","steam_id":76561198799636748,"connected_time":1714000000000,"state":"active","ping":86},{"user_id":33,"name":"matthew.caffee","steam_id":76561199069898310,"connected_time":2297000000000,"state":"active","ping":126},{"user_id":34,"name":"soapboxracer360","steam_id":76561198316394688,"connected_time":2289000000000,"state":"active","ping":64},{"user_id":35,"name":"oil","steam_id":76561198099980149,"connected_time":2278000000000,"state":"active","ping":52},{"user_id":49,"name":"obese farts","steam_id":76561198206922028,"connected_time":1044000000000,"state":"active","ping":55}]},{"server_id":112,"name":"Uncletopia | Los Angeles | 2 | All Maps","name_short":"lax-2","host":"lax-1.us.uncletopia.com","port":27025,"enabled":true,"region":"us-west","cc":"us","latitude":33.94279,"longitude":-118.41004,"reserved":0,"last_update":"0001-01-01T00:00:00Z","name_a2s":"Uncletopia | Los Angeles | 2 | All Maps","protocol":17,"map":"koth_viaduct","folder":"tf","game":"Team Fortress","app_id":440,"player_count":3,"max_players":24,"Bots":0,"server_type":"Dedicated","server_os":"Linux","password":true,"vac":true,"version":"7757534","steam_id":85568392924469992,"keywords":["cp","nocrits","nodmgspread","uncletopia"],"game_id":440,"stv_port":27026,"stv_name":"Uncletopia | Los Angeles | 2 | All Maps | STV","players":[{"user_id":5,"name":"Satan's Left Nut","steam_id":76561199446614223,"connected_time":91000000000,"state":"active","ping":101},{"user_id":6,"name":"Nutbusters","steam_id":76561199205120538,"connected_time":57000000000,"state":"active","ping":209},{"user_id":7,"name":"Master Cannoli","steam_id":76561198272327518,"connected_time":46000000000,"state":"active","ping":70}]},{"server_id":324,"name":"Uncletopia | Los Angeles | 3 | All Maps","name_short":"lax-3","host":"lax-1.us.uncletopia.com","port":27035,"enabled":true,"region":"us-west","cc":"us","latitude":33.94279,"longitude":-118.41004,"reserved":0,"last_update":"0001-01-01T00:00:00Z","name_a2s":"Uncletopia | Los Angeles | 3 | All Maps","protocol":17,"map":"cp_altitude","folder":"tf","game":"Team Fortress","app_id":440,"player_count":0,"max_players":24,"Bots":0,"server_type":"Dedicated","server_os":"Linux","password":true,"vac":true,"version":"7757534","steam_id":85568392924510198,"keywords":["cp","nocrits","nodmgspread","uncletopia"],"game_id":440,"stv_port":27036,"stv_name":"Uncletopia | Los Angeles | 3 | All Maps | STV","players":null},{"server_id":25,"name":"Uncletopia | Los Angeles | 4 | Stopwatch Beta","name_short":"lax-4","host":"lax-1.us.uncletopia.com","port":27045,"enabled":true,"region":"us-west","cc":"us","latitude":33.94279,"longitude":-118.41004,"reserved":0,"last_update":"0001-01-01T00:00:00Z","name_a2s":"Uncletopia | Los Angeles | 4 | Stopwatch Beta","protocol":17,"map":"cp_dustbowl","folder":"tf","game":"Team Fortress","app_id":440,"player_count":0,"max_players":24,"Bots":0,"server_type":"Dedicated","server_os":"Linux","password":true,"vac":true,"version":"7757534","steam_id":85568392924510199,"keywords":["cp","nocrits","nodmgspread","uncletopia"],"game_id":440,"stv_port":27046,"stv_name":"Uncletopia | Los Angeles | 4 | Stopwatch Beta | STV","players":null},{"server_id":11,"name":"Uncletopia | London | 1 | All Maps","name_short":"lon-1","host":"lon-1.uk.uncletopia.com","port":27015,"enabled":true,"region":"eu","cc":"gb","latitude":51.509865,"longitude":-0.118092,"reserved":0,"last_update":"0001-01-01T00:00:00Z","name_a2s":"Uncletopia | London | 1 | All Maps","protocol":17,"map":"pl_frontier_final","folder":"tf","game":"Team Fortress","app_id":440,"player_count":24,"max_players":24,"Bots":0,"server_type":"Dedicated","server_os":"Linux","password":true,"vac":true,"version":"7757534","steam_id":85568392924367362,"keywords":["nocrits","nodmgspread","payload","uncletopia"],"game_id":440,"stv_port":27016,"stv_name":"Uncletopia | London | 1 | All Maps | STV","players":[{"user_id":607,"name":"Ulasabdurrahman","steam_id":76561198373469235,"connected_time":255000000000,"state":"active","ping":89},{"user_id":599,"name":"Bat in a thousand","steam_id":76561198320506848,"connected_time":396000000000,"state":"active","ping":36},{"user_id":600,"name":"UNDORA","steam_id":76561198852456692,"connected_time":396000000000,"state":"active","ping":85},{"user_id":576,"name":"Ass Clappicus","steam_id":76561198851157897,"connected_time":2642000000000,"state":"active","ping":61},{"user_id":601,"name":"beratore1q2","steam_id":76561198892518663,"connected_time":368000000000,"state":"active","ping":112},{"user_id":595,"name":"Milosz52","steam_id":76561199060940204,"connected_time":803000000000,"state":"active","ping":87},{"user_id":608,"name":"Matro Da Vinci","steam_id":76561198097196777,"connected_time":204000000000,"state":"active","ping":86},{"user_id":602,"name":"fresh prince of no hair","steam_id":76561198064342804,"connected_time":368000000000,"state":"active","ping":79},{"user_id":597,"name":"Raulca25","steam_id":76561199068256964,"connected_time":756000000000,"state":"active","ping":77},{"user_id":568,"name":"Evil weed wizard","steam_id":76561198076137526,"connected_time":2989000000000,"state":"active","ping":50},{"user_id":580,"name":"Harpenden, Harpenden, Harpenden","steam_id":76561198118138546,"connected_time":2272000000000,"state":"active","ping":44},{"user_id":495,"name":"dec","steam_id":76561198009660168,"connected_time":7798000000000,"state":"active","ping":50},{"user_id":539,"name":"true","steam_id":76561198031145243,"connected_time":4779000000000,"state":"active","ping":75},{"user_id":569,"name":"InsectKing","steam_id":76561199013519071,"connected_time":2977000000000,"state":"active","ping":44},{"user_id":610,"name":"regimiro","steam_id":76561198120457008,"connected_time":183000000000,"state":"active","ping":54},{"user_id":606,"name":"Chambersite","steam_id":76561198197022399,"connected_time":326000000000,"state":"active","ping":76},{"user_id":591,"name":"M4R1O","steam_id":76561198050528464,"connected_time":1043000000000,"state":"active","ping":66},{"user_id":566,"name":"Yuval","steam_id":76561198241802390,"connected_time":3035000000000,"state":"active","ping":111},{"user_id":588,"name":"Renard pos4","steam_id":76561197998908594,"connected_time":1118000000000,"state":"active","ping":67},{"user_id":596,"name":"Julez","steam_id":76561198045505082,"connected_time":787000000000,"state":"active","ping":75},{"user_id":579,"name":"xristosblin","steam_id":76561199043074852,"connected_time":2413000000000,"state":"active","ping":101},{"user_id":578,"name":"Noodle","steam_id":76561198306486695,"connected_time":2488000000000,"state":"active","ping":70},{"user_id":604,"name":"[No Class]","steam_id":76561199019412162,"connected_time":353000000000,"state":"active","ping":52},{"user_id":589,"name":"Bumblebee","steam_id":76561198033551105,"connected_time":1064000000000,"state":"active","ping":76}]},{"server_id":114,"name":"Uncletopia | London | 2 | All Maps","name_short":"lon-2","host":"lon-1.uk.uncletopia.com","port":27025,"enabled":true,"region":"eu","cc":"gb","latitude":51.509865,"longitude":-0.118092,"reserved":0,"last_update":"0001-01-01T00:00:00Z","name_a2s":"Uncletopia | London | 2 | All Maps","protocol":17,"map":"cp_fastlane","folder":"tf","game":"Team Fortress","app_id":440,"player_count":24,"max_players":24,"Bots":0,"server_type":"Dedicated","server_os":"Linux","password":true,"vac":true,"version":"7757534","steam_id":85568392924470941,"keywords":["cp","nocrits","nodmgspread","uncletopia"],"game_id":440,"stv_port":27026,"stv_name":"Uncletopia | London | 2 | All Maps | STV","players":[{"user_id":366,"name":"Dangerousbros","steam_id":76561198088952519,"connected_time":1196000000000,"state":"active","ping":45},{"user_id":319,"name":"kektuse","steam_id":76561198088426580,"connected_time":4006000000000,"state":"active","ping":60},{"user_id":372,"name":"dominus.","steam_id":76561199065917088,"connected_time":318000000000,"state":"active","ping":67},{"user_id":368,"name":"Udinese Dion","steam_id":76561198067931573,"connected_time":1150000000000,"state":"active","ping":57},{"user_id":301,"name":"Fat Pigeon","steam_id":76561198817940142,"connected_time":4657000000000,"state":"active","ping":45},{"user_id":321,"name":"BisaGone!","steam_id":76561199002624709,"connected_time":3992000000000,"state":"active","ping":41},{"user_id":322,"name":"Captain HandicappedCock","steam_id":76561198109850402,"connected_time":3982000000000,"state":"active","ping":75},{"user_id":348,"name":"QuorglepleegJR","steam_id":76561198984658438,"connected_time":2183000000000,"state":"active","ping":46},{"user_id":365,"name":"player","steam_id":76561198054474684,"connected_time":1218000000000,"state":"active","ping":87},{"user_id":381,"name":"Firearms","steam_id":76561197989867612,"connected_time":95000000000,"state":"active","ping":45},{"user_id":253,"name":"Tomau5","steam_id":76561198027409468,"connected_time":8826000000000,"state":"active","ping":59},{"user_id":374,"name":"Milk Man","steam_id":76561198099433856,"connected_time":297000000000,"state":"active","ping":60},{"user_id":341,"name":"Petight","steam_id":76561197999438798,"connected_time":3101000000000,"state":"active","ping":34},{"user_id":375,"name":"elchi","steam_id":76561198009531752,"connected_time":258000000000,"state":"active","ping":48},{"user_id":350,"name":"Swedde","steam_id":76561198297296440,"connected_time":2160000000000,"state":"active","ping":66},{"user_id":376,"name":"1 toke 4 mars bars","steam_id":76561198056460000,"connected_time":251000000000,"state":"active","ping":86},{"user_id":361,"name":"Daga","steam_id":76561198055450219,"connected_time":1343000000000,"state":"active","ping":43},{"user_id":377,"name":"SK:NaikoN Piss|xit?","steam_id":76561199033423134,"connected_time":243000000000,"state":"active","ping":74},{"user_id":378,"name":"X45Y","steam_id":76561198112534025,"connected_time":239000000000,"state":"active","ping":50},{"user_id":379,"name":"F2Player","steam_id":76561199446699562,"connected_time":214000000000,"state":"active","ping":145},{"user_id":338,"name":"„Äê caden / karma „Äë","steam_id":76561198072276429,"connected_time":3222000000000,"state":"active","ping":150},{"user_id":380,"name":"semaka","steam_id":76561198068027379,"connected_time":212000000000,"state":"active","ping":75},{"user_id":339,"name":"PizzaPete123","steam_id":76561198089478290,"connected_time":3214000000000,"state":"active","ping":56},{"user_id":382,"name":"‚ò© Knightz ‚ò©","steam_id":76561198040936414,"connected_time":81000000000,"state":"active","ping":112}]},{"server_id":320,"name":"Uncletopia | London | 3 | All Maps","name_short":"lon-3","host":"lon-1.uk.uncletopia.com","port":27035,"enabled":true,"region":"eu","cc":"gb","latitude":51.509865,"longitude":-0.118092,"reserved":0,"last_update":"0001-01-01T00:00:00Z","name_a2s":"Uncletopia | London | 3 | All Maps","protocol":17,"map":"pl_upward","folder":"tf","game":"Team Fortress","app_id":440,"player_count":24,"max_players":24,"Bots":0,"server_type":"Dedicated","server_os":"Linux","password":true,"vac":true,"version":"7757534","steam_id":85568392924510192,"keywords":["nocrits","nodmgspread","payload","uncletopia"],"game_id":440,"stv_port":27036,"stv_name":"Uncletopia | London | 3 | All Maps | STV","players":[{"user_id":250,"name":"Morseerman","steam_id":76561198040169391,"connected_time":435000000000,"state":"active","ping":45},{"user_id":239,"name":"Haha?","steam_id":76561198056882245,"connected_time":560000000000,"state":"active","ping":43},{"user_id":240,"name":"!Trying to have fun!","steam_id":76561198151370212,"connected_time":559000000000,"state":"active","ping":74},{"user_id":229,"name":"NoPfizer","steam_id":76561198307914381,"connected_time":1318000000000,"state":"active","ping":56},{"user_id":215,"name":"doktor kablowski","steam_id":76561198334042273,"connected_time":2137000000000,"state":"active","ping":88},{"user_id":226,"name":"Koi-Koi","steam_id":76561198045527771,"connected_time":1344000000000,"state":"active","ping":55},{"user_id":225,"name":"Bert","steam_id":76561198070206096,"connected_time":1377000000000,"state":"active","ping":71},{"user_id":209,"name":"KittyKate ‚ù§","steam_id":76561198116340817,"connected_time":2514000000000,"state":"active","ping":62},{"user_id":252,"name":"mr K","steam_id":76561198120166752,"connected_time":293000000000,"state":"active","ping":83},{"user_id":245,"name":"Arturias","steam_id":76561198188720263,"connected_time":499000000000,"state":"active","ping":53},{"user_id":254,"name":"SwingyWingyShoes","steam_id":76561198089547302,"connected_time":88000000000,"state":"active","ping":49},{"user_id":243,"name":"Nickbro101","steam_id":76561198044271692,"connected_time":516000000000,"state":"active","ping":50},{"user_id":253,"name":"BuzzBees ‚ù§","steam_id":76561198101502273,"connected_time":133000000000,"state":"active","ping":46},{"user_id":237,"name":"Volcyy","steam_id":76561198063979124,"connected_time":617000000000,"state":"active","ping":54},{"user_id":246,"name":"3L","steam_id":76561198007208996,"connected_time":486000000000,"state":"active","ping":52},{"user_id":247,"name":"Roe Jogan","steam_id":76561198871991529,"connected_time":480000000000,"state":"active","ping":68},{"user_id":227,"name":"Cosmetic brain","steam_id":76561198055936410,"connected_time":1328000000000,"state":"active","ping":87},{"user_id":228,"name":"joe","steam_id":76561198026484403,"connected_time":1322000000000,"state":"active","ping":59},{"user_id":206,"name":"BepisR47","steam_id":76561198084515716,"connected_time":2612000000000,"state":"active","ping":42},{"user_id":248,"name":"paranoia","steam_id":76561198274105878,"connected_time":477000000000,"state":"active","ping":88},{"user_id":249,"name":"Silent Person","steam_id":76561198107763537,"connected_time":462000000000,"state":"active","ping":81},{"user_id":251,"name":"f√©nix","steam_id":76561198083199151,"connected_time":351000000000,"state":"active","ping":60},{"user_id":155,"name":"pezza","steam_id":76561197995173247,"connected_time":7310000000000,"state":"active","ping":61},{"user_id":223,"name":"John Noob","steam_id":76561197999170026,"connected_time":1543000000000,"state":"active","ping":101}]},{"server_id":321,"name":"Uncletopia | London | 4 | All Maps","name_short":"lon-4","host":"lon-1.uk.uncletopia.com","port":27045,"enabled":true,"region":"eu","cc":"gb","latitude":51.509865,"longitude":-0.118092,"reserved":0,"last_update":"0001-01-01T00:00:00Z","name_a2s":"Uncletopia | London | 4 | All Maps","protocol":17,"map":"cp_sunshine","folder":"tf","game":"Team Fortress","app_id":440,"player_count":0,"max_players":24,"Bots":0,"server_type":"Dedicated","server_os":"Linux","password":true,"vac":true,"version":"7757534","steam_id":85568392924510193,"keywords":["cp","nocrits","nodmgspread","uncletopia"],"game_id":440,"stv_port":27046,"stv_name":"Uncletopia | London | 4 | All Maps | STV","players":null},{"server_id":21,"name":"Uncletopia | London | 5 | All Maps","name_short":"lon-5","host":"lon-1.uk.uncletopia.com","port":27055,"enabled":true,"region":"eu","cc":"gb","latitude":51.509865,"longitude":-0.118092,"reserved":0,"last_update":"0001-01-01T00:00:00Z","name_a2s":"Uncletopia | London | 5 | All Maps","protocol":17,"map":"koth_viaduct","folder":"tf","game":"Team Fortress","app_id":440,"player_count":0,"max_players":24,"Bots":0,"server_type":"Dedicated","server_os":"Linux","password":true,"vac":true,"version":"7757534","steam_id":85568392924742829,"keywords":["cp","nocrits","nodmgspread","uncletopia"],"game_id":440,"stv_port":27056,"stv_name":"Uncletopia | London | 5 | All Maps | STV","players":null},{"server_id":22,"name":"Uncletopia | London | 6 | All Maps","name_short":"lon-6","host":"lon-1.uk.uncletopia.com","port":27065,"enabled":true,"region":"eu","cc":"gb","latitude":51.509865,"longitude":-0.118092,"reserved":0,"last_update":"0001-01-01T00:00:00Z","name_a2s":"Uncletopia | London | 6 | All Maps","protocol":17,"map":"pl_goldrush","folder":"tf","game":"Team Fortress","app_id":440,"player_count":24,"max_players":24,"Bots":0,"server_type":"Dedicated","server_os":"Linux","password":true,"vac":true,"version":"7757534","steam_id":85568392924742830,"keywords":["nocrits","nodmgspread","payload","uncletopia"],"game_id":440,"stv_port":27066,"stv_name":"Uncletopia | London | 6 | All Maps | STV","players":[{"user_id":219,"name":"VolcanicArts","steam_id":76561198063453246,"connected_time":1605000000000,"state":"active","ping":54},{"user_id":216,"name":"wheelie bin","steam_id":76561198040040328,"connected_time":1635000000000,"state":"active","ping":45},{"user_id":233,"name":"Soloman","steam_id":76561199212054667,"connected_time":819000000000,"state":"active","ping":43},{"user_id":227,"name":"Grillem Dafoe","steam_id":76561198306874574,"connected_time":1430000000000,"state":"active","ping":63},{"user_id":173,"name":"eeeeee","steam_id":76561198017786875,"connected_time":5078000000000,"state":"active","ping":57},{"user_id":195,"name":"Kurage","steam_id":76561198021221288,"connected_time":3243000000000,"state":"active","ping":67},{"user_id":163,"name":"Farao Ramses II","steam_id":76561198078722712,"connected_time":5589000000000,"state":"active","ping":45},{"user_id":207,"name":"justgvbe","steam_id":76561199193230375,"connected_time":2037000000000,"state":"active","ping":53},{"user_id":187,"name":"MAKENTAKEN","steam_id":76561199127359587,"connected_time":3980000000000,"state":"active","ping":101},{"user_id":212,"name":"Tort","steam_id":76561198329646769,"connected_time":1737000000000,"state":"active","ping":56},{"user_id":161,"name":"sex haver","steam_id":76561198798892497,"connected_time":5768000000000,"state":"active","ping":48},{"user_id":210,"name":"La-Li-Lu-Le-Lo","steam_id":76561198047990600,"connected_time":1756000000000,"state":"active","ping":53},{"user_id":204,"name":"StandAlloy","steam_id":76561199466218699,"connected_time":2405000000000,"state":"active","ping":109},{"user_id":214,"name":"Camo Leaf","steam_id":76561197999456575,"connected_time":1649000000000,"state":"active","ping":48},{"user_id":191,"name":"egirls are ruining my life","steam_id":76561198152368271,"connected_time":3847000000000,"state":"active","ping":73},{"user_id":218,"name":"quickfast","steam_id":76561199438900919,"connected_time":1627000000000,"state":"active","ping":45},{"user_id":180,"name":"Kodutah","steam_id":76561198203405574,"connected_time":4775000000000,"state":"active","ping":68},{"user_id":220,"name":"laser","steam_id":76561198036030697,"connected_time":1601000000000,"state":"active","ping":65},{"user_id":175,"name":"Carrotcracker","steam_id":76561198034862396,"connected_time":5062000000000,"state":"active","ping":72},{"user_id":144,"name":"Welder","steam_id":76561198355300561,"connected_time":7000000000000,"state":"active","ping":67},{"user_id":234,"name":"Juiceydough","steam_id":76561197997323419,"connected_time":90000000000,"state":"active","ping":78},{"user_id":228,"name":"shekels","steam_id":76561199218838411,"connected_time":1424000000000,"state":"active","ping":53},{"user_id":232,"name":"I.C. Wiener","steam_id":76561197999912254,"connected_time":1208000000000,"state":"active","ping":94},{"user_id":230,"name":"baro.ricky","steam_id":76561198172204039,"connected_time":1334000000000,"state":"active","ping":79}]},{"server_id":40,"name":"Uncletopia | London | 7 | No Payload","name_short":"lon-7","host":"lon-1.uk.uncletopia.com","port":27075,"enabled":true,"region":"eu","cc":"gb","latitude":51.509865,"longitude":-0.118092,"reserved":0,"last_update":"0001-01-01T00:00:00Z","name_a2s":"Uncletopia | London | 7 | No Payload","protocol":17,"map":"koth_highpass","folder":"tf","game":"Team Fortress","app_id":440,"player_count":0,"max_players":24,"Bots":0,"server_type":"Dedicated","server_os":"Linux","password":true,"vac":true,"version":"7757534","steam_id":85568392924964314,"keywords":["cp","nocrits","nodmgspread","uncletopia"],"game_id":440,"stv_port":27076,"stv_name":"Uncletopia | London | 7 | No Payload | STV","players":null},{"server_id":41,"name":"Uncletopia | London | 8 | Community","name_short":"lon-8","host":"lon-1.uk.uncletopia.com","port":27085,"enabled":true,"region":"eu","cc":"gb","latitude":51.509865,"longitude":-0.118092,"reserved":0,"last_update":"0001-01-01T00:00:00Z","name_a2s":"Uncletopia | London | 8 | Community","protocol":17,"map":"cp_altitude","folder":"tf","game":"Team Fortress","app_id":440,"player_count":0,"max_players":24,"Bots":0,"server_type":"Dedicated","server_os":"Linux","password":true,"vac":true,"version":"7757534","steam_id":85568392924964315,"keywords":["cp","nocrits","nodmgspread","uncletopia"],"game_id":440,"stv_port":27086,"stv_name":"Uncletopia | London | 8 | Community | STV","players":null},{"server_id":300,"name":"Uncletopia | Montr√©al | 1 | All Maps","name_short":"mtl-1","host":"mtl-1.ca.uncletopia.com","port":27015,"enabled":true,"region":"us-east","cc":"ca","latitude":45.50889,"longitude":-73.56167,"reserved":0,"last_update":"0001-01-01T00:00:00Z","name_a2s":"Uncletopia | Montr√©al | 1 | All Maps","protocol":17,"map":"pl_pier","folder":"tf","game":"Team Fortress","app_id":440,"player_count":0,"max_players":24,"Bots":0,"server_type":"Dedicated","server_os":"Linux","password":true,"vac":true,"version":"7757534","steam_id":85568392924500087,"keywords":["nocrits","nodmgspread","payload","uncletopia"],"game_id":440,"stv_port":27016,"stv_name":"Uncletopia | Montr√©al | 1 | All Maps | STV","players":null},{"server_id":301,"name":"Uncletopia | Montr√©al | 2 | All Maps","name_short":"mtl-2","host":"mtl-1.ca.uncletopia.com","port":27025,"enabled":true,"region":"us-east","cc":"ca","latitude":45.50889,"longitude":-73.56167,"reserved":0,"last_update":"0001-01-01T00:00:00Z","name_a2s":"Uncletopia | Montr√©al | 2 | All Maps","protocol":17,"map":"pl_snowycoast","folder":"tf","game":"Team Fortress","app_id":440,"player_count":0,"max_players":24,"Bots":0,"server_type":"Dedicated","server_os":"Linux","password":true,"vac":true,"version":"7757534","steam_id":85568392924500088,"keywords":["nocrits","nodmgspread","payload","uncletopia"],"game_id":440,"stv_port":27026,"stv_name":"Uncletopia | Montr√©al | 2 | All Maps | STV","players":null},{"server_id":302,"name":"Uncletopia | Montr√©al | 3 | All Maps","name_short":"mtl-3","host":"mtl-1.ca.uncletopia.com","port":27035,"enabled":true,"region":"us-east","cc":"ca","latitude":45.50889,"longitude":-73.56167,"reserved":0,"last_update":"0001-01-01T00:00:00Z","name_a2s":"Uncletopia | Montr√©al | 3 | All Maps","protocol":17,"map":"pl_frontier_final","folder":"tf","game":"Team Fortress","app_id":440,"player_count":0,"max_players":24,"Bots":0,"server_type":"Dedicated","server_os":"Linux","password":true,"vac":true,"version":"7757534","steam_id":85568392924500089,"keywords":["nocrits","nodmgspread","payload","uncletopia"],"game_id":440,"stv_port":27036,"stv_name":"Uncletopia | Montr√©al | 3 | All Maps | STV","players":null},{"server_id":303,"name":"Uncletopia | Montr√©al | 4 | No Payload","name_short":"mtl-4","host":"mtl-1.ca.uncletopia.com","port":27045,"enabled":true,"region":"us-east","cc":"ca","latitude":45.50889,"longitude":-73.56167,"reserved":0,"last_update":"0001-01-01T00:00:00Z","name_a2s":"Uncletopia | Montr√©al | 4 | No Payload","protocol":17,"map":"pl_pier","folder":"tf","game":"Team Fortress","app_id":440,"player_count":0,"max_players":24,"Bots":0,"server_type":"Dedicated","server_os":"Linux","password":true,"vac":true,"version":"7757534","steam_id":85568392924500090,"keywords":["nocrits","nodmgspread","payload","uncletopia"],"game_id":440,"stv_port":27046,"stv_name":"Uncletopia | Montr√©al | 4 | No Payload | STV","players":null},{"server_id":13,"name":"Uncletopia | New York City | 1 | All Maps","name_short":"nyc-1","host":"nyc-1.us.uncletopia.com","port":27015,"enabled":true,"region":"us-east","cc":"us","latitude":40.73061,"longitude":-73.93524,"reserved":0,"last_update":"0001-01-01T00:00:00Z","name_a2s":"Uncletopia | New York City | 1 | All Maps","protocol":17,"map":"koth_nucleus","folder":"tf","game":"Team Fortress","app_id":440,"player_count":24,"max_players":24,"Bots":0,"server_type":"Dedicated","server_os":"Linux","password":true,"vac":true,"version":"7757534","steam_id":85568392924469993,"keywords":["cp","nocrits","nodmgspread","uncletopia"],"game_id":440,"stv_port":27016,"stv_name":"Uncletopia | New York City | 1 | All Maps | STV","players":[{"user_id":89,"name":"gulch","steam_id":76561199227946025,"connected_time":1594000000000,"state":"active","ping":104},{"user_id":106,"name":"Crazy Dave","steam_id":76561198875469297,"connected_time":49000000000,"state":"active","ping":69},{"user_id":104,"name":"cass","steam_id":76561198074502046,"connected_time":347000000000,"state":"active","ping":72},{"user_id":68,"name":"Totouri","steam_id":76561198004229789,"connected_time":3448000000000,"state":"active","ping":72},{"user_id":97,"name":"plaiddd (needs friends)","steam_id":76561198353053169,"connected_time":1322000000000,"state":"active","ping":64},{"user_id":98,"name":"a king who's on a budget","steam_id":76561199134895220,"connected_time":1286000000000,"state":"active","ping":56},{"user_id":75,"name":"NeverAcedIt (Pinnacle -\u003e Pit)","steam_id":76561198406671743,"connected_time":3151000000000,"state":"active","ping":85},{"user_id":105,"name":"kubokujo","steam_id":76561198948966952,"connected_time":242000000000,"state":"active","ping":66},{"user_id":101,"name":"Saint","steam_id":76561199122494395,"connected_time":508000000000,"state":"active","ping":66},{"user_id":88,"name":"BigBubble42","steam_id":76561198136286123,"connected_time":1656000000000,"state":"active","ping":70},{"user_id":87,"name":"Drake the Pixel","steam_id":76561198131824401,"connected_time":1746000000000,"state":"active","ping":40},{"user_id":40,"name":"tulpa","steam_id":76561198013253513,"connected_time":4648000000000,"state":"active","ping":68},{"user_id":96,"name":"Buttons :)","steam_id":76561198139478534,"connected_time":1423000000000,"state":"active","ping":119},{"user_id":99,"name":"SandrookDyneKayla","steam_id":76561197979183395,"connected_time":969000000000,"state":"active","ping":85},{"user_id":49,"name":"Fudgely","steam_id":76561198039425862,"connected_time":4463000000000,"state":"active","ping":60},{"user_id":92,"name":"Sophvis","steam_id":76561198143786834,"connected_time":1531000000000,"state":"active","ping":136},{"user_id":93,"name":"Huey","steam_id":76561198972816386,"connected_time":1521000000000,"state":"active","ping":76},{"user_id":100,"name":"Swifgz","steam_id":76561198162875756,"connected_time":961000000000,"state":"active","ping":44},{"user_id":54,"name":"Wahooka","steam_id":76561197962240925,"connected_time":4289000000000,"state":"active","ping":57},{"user_id":85,"name":"slop","steam_id":76561198199803242,"connected_time":2030000000000,"state":"active","ping":76},{"user_id":94,"name":"swooce","steam_id":76561198156232484,"connected_time":1505000000000,"state":"active","ping":51},{"user_id":57,"name":"breesey","steam_id":76561198341658826,"connected_time":4239000000000,"state":"active","ping":35},{"user_id":95,"name":"/v/4na","steam_id":76561198971354161,"connected_time":1497000000000,"state":"active","ping":48},{"user_id":83,"name":"The Rambler","steam_id":76561198109648603,"connected_time":2381000000000,"state":"active","ping":90}]},{"server_id":14,"name":"Uncletopia | New York City | 2 | All Maps","name_short":"nyc-2","host":"nyc-1.us.uncletopia.com","port":27025,"enabled":true,"region":"us-east","cc":"us","latitude":40.73061,"longitude":-73.93524,"reserved":0,"last_update":"0001-01-01T00:00:00Z","name_a2s":"Uncletopia | New York City | 2 | All Maps","protocol":17,"map":"plr_hightower","folder":"tf","game":"Team Fortress","app_id":440,"player_count":6,"max_players":24,"Bots":0,"server_type":"Dedicated","server_os":"Linux","password":true,"vac":true,"version":"7757534","steam_id":85568392924469994,"keywords":["nocrits","nodmgspread","payload","uncletopia"],"game_id":440,"stv_port":27026,"stv_name":"Uncletopia | New York City | 2 | All Maps | STV","players":[{"user_id":24,"name":"Nice21","steam_id":76561199427548141,"connected_time":629000000000,"state":"active","ping":75},{"user_id":25,"name":"fridolin","steam_id":76561198005806915,"connected_time":482000000000,"state":"active","ping":74},{"user_id":26,"name":"DOWNWARD SPIRAL","steam_id":76561198170120946,"connected_time":337000000000,"state":"active","ping":50},{"user_id":27,"name":"tinkercrab11","steam_id":76561198881792140,"connected_time":269000000000,"state":"active","ping":68},{"user_id":29,"name":"Stick","steam_id":76561198107929915,"connected_time":118000000000,"state":"active","ping":62},{"user_id":30,"name":"OOKS-","steam_id":76561199472465850,"connected_time":90000000000,"state":"active","ping":61}]},{"server_id":15,"name":"Uncletopia | New York City | 3 | Stopwatch Beta","name_short":"nyc-3","host":"nyc-1.us.uncletopia.com","port":27035,"enabled":true,"region":"us-east","cc":"us","latitude":40.73061,"longitude":-73.93524,"reserved":0,"last_update":"0001-01-01T00:00:00Z","name_a2s":"Uncletopia | New York City | 3 | Stopwatch Beta","protocol":17,"map":"workshop/pl_vigil_rc9.ugc1266210012","folder":"tf","game":"Team Fortress","app_id":440,"player_count":3,"max_players":24,"Bots":0,"server_type":"Dedicated","server_os":"Linux","password":true,"vac":true,"version":"7757534","steam_id":85568392924742820,"keywords":["nocrits","nodmgspread","payload","uncletopia"],"game_id":440,"stv_port":27036,"stv_name":"Uncletopia | New York City | 3 | Stopwatch Beta | STV","players":[{"user_id":3,"name":"BaconLol","steam_id":76561199125317999,"connected_time":2235000000000,"state":"spawning","ping":270},{"user_id":11,"name":"GHSon","steam_id":76561199023916919,"connected_time":33000000000,"state":"spawning","ping":177},{"user_id":8,"name":"lmao09942","steam_id":76561199091569370,"connected_time":1045000000000,"state":"spawning","ping":177}]},{"server_id":16,"name":"Uncletopia | New York City | 4 | Community","name_short":"nyc-4","host":"nyc-1.us.uncletopia.com","port":27045,"enabled":true,"region":"us-east","cc":"us","latitude":40.73061,"longitude":-73.93524,"reserved":0,"last_update":"0001-01-01T00:00:00Z","name_a2s":"Uncletopia | New York City | 4 | Community","protocol":17,"map":"pl_frontier_final","folder":"tf","game":"Team Fortress","app_id":440,"player_count":0,"max_players":24,"Bots":0,"server_type":"Dedicated","server_os":"Linux","password":true,"vac":true,"version":"7757534","steam_id":85568392924742821,"keywords":["nocrits","nodmgspread","payload","uncletopia"],"game_id":440,"stv_port":27046,"stv_name":"Uncletopia | New York City | 4 | Community | STV","players":null},{"server_id":142,"name":"Uncletopia | S√£o Paulo | 1 | All Maps","name_short":"sao-1","host":"sao-1.br.uncletopia.com","port":27015,"enabled":true,"region":"sa","cc":"br","latitude":-23.533773,"longitude":-46.62529,"reserved":0,"last_update":"0001-01-01T00:00:00Z","name_a2s":"Uncletopia | S√£o Paulo | 1 | All Maps","protocol":17,"map":"koth_viaduct","folder":"tf","game":"Team Fortress","app_id":440,"player_count":0,"max_players":24,"Bots":0,"server_type":"Dedicated","server_os":"Linux","password":true,"vac":true,"version":"7757534","steam_id":85568392924469996,"keywords":["cp","nocrits","nodmgspread","uncletopia"],"game_id":440,"stv_port":27016,"stv_name":"Uncletopia | S√£o Paulo | 1 | All Maps | STV","players":null},{"server_id":143,"name":"Uncletopia | S√£o Paulo | 2 | All Maps","name_short":"sao-2","host":"sao-2.br.uncletopia.com","port":27015,"enabled":true,"region":"sa","cc":"br","latitude":-23.533773,"longitude":-46.62529,"reserved":0,"last_update":"0001-01-01T00:00:00Z","name_a2s":"Uncletopia | S√£o Paulo | 2 | All Maps","protocol":17,"map":"pl_barnblitz","folder":"tf","game":"Team Fortress","app_id":440,"player_count":0,"max_players":24,"Bots":0,"server_type":"Dedicated","server_os":"Linux","password":true,"vac":true,"version":"7757534","steam_id":85568392924485349,"keywords":["nocrits","nodmgspread","payload","uncletopia"],"game_id":440,"stv_port":27016,"stv_name":"Uncletopia | S√£o Paulo | 2 | All Maps | STV","players":null},{"server_id":7,"name":"Uncletopia | Seattle | 1 | All Maps","name_short":"sea-1","host":"sea-1.us.uncletopia.com","port":27015,"enabled":true,"region":"us-west","cc":"us","latitude":47.608013,"longitude":-122.33517,"reserved":0,"last_update":"0001-01-01T00:00:00Z","name_a2s":"Uncletopia | Seattle | 1 | All Maps","protocol":17,"map":"pl_borneo","folder":"tf","game":"Team Fortress","app_id":440,"player_count":24,"max_players":24,"Bots":0,"server_type":"Dedicated","server_os":"Linux","password":true,"vac":true,"version":"7757534","steam_id":85568392924469997,"keywords":["nocrits","nodmgspread","payload","uncletopia"],"game_id":440,"stv_port":27016,"stv_name":"Uncletopia | Seattle | 1 | All Maps | STV","players":[{"user_id":356,"name":"Speedy","steam_id":76561198080761661,"connected_time":4594000000000,"state":"active","ping":128},{"user_id":201,"name":"crumblejon","steam_id":76561198111273302,"connected_time":15866000000000,"state":"active","ping":60},{"user_id":386,"name":"H4V0C","steam_id":76561199129350925,"connected_time":136000000000,"state":"active","ping":53},{"user_id":376,"name":"years","steam_id":76561197994098627,"connected_time":1713000000000,"state":"active","ping":98},{"user_id":387,"name":"Pie","steam_id":76561198009460548,"connected_time":99000000000,"state":"active","ping":127},{"user_id":380,"name":"icFlow","steam_id":76561199068853190,"connected_time":1115000000000,"state":"active","ping":50},{"user_id":363,"name":"Frog","steam_id":76561198093257083,"connected_time":3283000000000,"state":"active","ping":46},{"user_id":388,"name":"Eosson","steam_id":76561198108642113,"connected_time":71000000000,"state":"active","ping":62},{"user_id":375,"name":"Can of Oranges","steam_id":76561199121813529,"connected_time":2212000000000,"state":"active","ping":49},{"user_id":339,"name":"SpinetinglingToast","steam_id":76561198099470670,"connected_time":6026000000000,"state":"active","ping":115},{"user_id":383,"name":"Dr.Pepper (real)","steam_id":76561198189173235,"connected_time":421000000000,"state":"active","ping":76},{"user_id":368,"name":"enolteiii","steam_id":76561198140843225,"connected_time":2962000000000,"state":"active","ping":105},{"user_id":372,"name":"Eris","steam_id":76561199471434875,"connected_time":2682000000000,"state":"active","ping":42},{"user_id":389,"name":"Alf Creepypasta","steam_id":76561198841844093,"connected_time":66000000000,"state":"active","ping":78},{"user_id":390,"name":"Lazy","steam_id":76561198802747832,"connected_time":57000000000,"state":"active","ping":189},{"user_id":381,"name":"Strikerbolt","steam_id":76561199095622897,"connected_time":952000000000,"state":"active","ping":89},{"user_id":371,"name":"AmiableNebula","steam_id":76561198094306627,"connected_time":2829000000000,"state":"active","ping":75},{"user_id":385,"name":"Prime","steam_id":76561198218218705,"connected_time":171000000000,"state":"active","ping":77},{"user_id":181,"name":"LProduct","steam_id":76561199442139670,"connected_time":17640000000000,"state":"active","ping":74},{"user_id":374,"name":"SUNLIGHT WITCH ANARCHY GATHER","steam_id":76561198131166135,"connected_time":2336000000000,"state":"active","ping":42},{"user_id":373,"name":"Ducks","steam_id":76561198130038345,"connected_time":2350000000000,"state":"active","ping":69},{"user_id":355,"name":"Korey","steam_id":76561198210734407,"connected_time":4636000000000,"state":"active","ping":107},{"user_id":359,"name":"Toad :)","steam_id":76561198163008022,"connected_time":4359000000000,"state":"active","ping":45},{"user_id":379,"name":"Mignyanne :3","steam_id":76561198048754056,"connected_time":1313000000000,"state":"active","ping":65}]},{"server_id":119,"name":"Uncletopia | Seattle | 2 | All Maps","name_short":"sea-2","host":"sea-1.us.uncletopia.com","port":27025,"enabled":true,"region":"us-west","cc":"us","latitude":47.608013,"longitude":-122.33517,"reserved":0,"last_update":"0001-01-01T00:00:00Z","name_a2s":"Uncletopia | Seattle | 2 | All Maps","protocol":17,"map":"cp_sunshine","folder":"tf","game":"Team Fortress","app_id":440,"player_count":24,"max_players":24,"Bots":0,"server_type":"Dedicated","server_os":"Linux","password":true,"vac":true,"version":"7757534","steam_id":85568392924469998,"keywords":["cp","nocrits","nodmgspread","uncletopia"],"game_id":440,"stv_port":27026,"stv_name":"Uncletopia | Seattle | 2 | All Maps | STV","players":[{"user_id":182,"name":"Ekoh2wo","steam_id":76561198067994868,"connected_time":899000000000,"state":"active","ping":105},{"user_id":164,"name":"Burrito","steam_id":76561199453910560,"connected_time":1583000000000,"state":"active","ping":104},{"user_id":172,"name":"Simply_Komeiji","steam_id":76561198354177703,"connected_time":1059000000000,"state":"active","ping":104},{"user_id":173,"name":"Recursive Gamer","steam_id":76561198042102952,"connected_time":1029000000000,"state":"active","ping":89},{"user_id":175,"name":"WaffleWithNoToppings","steam_id":76561199088280111,"connected_time":1028000000000,"state":"active","ping":56},{"user_id":166,"name":"TheGreatDong","steam_id":76561198000634178,"connected_time":1560000000000,"state":"active","ping":78},{"user_id":177,"name":"AmyPercent","steam_id":76561198071896932,"connected_time":992000000000,"state":"active","ping":76},{"user_id":159,"name":"Mr8bittripper","steam_id":76561198133894229,"connected_time":1658000000000,"state":"active","ping":42},{"user_id":189,"name":"viper","steam_id":76561198839942937,"connected_time":692000000000,"state":"active","ping":117},{"user_id":140,"name":"blahturretx","steam_id":76561198062998225,"connected_time":2929000000000,"state":"active","ping":66},{"user_id":192,"name":"Blue Banana","steam_id":76561198100077411,"connected_time":539000000000,"state":"active","ping":76},{"user_id":179,"name":"cassius","steam_id":76561198203851303,"connected_time":969000000000,"state":"active","ping":73},{"user_id":193,"name":"Autogyro","steam_id":76561198047943679,"connected_time":309000000000,"state":"active","ping":64},{"user_id":152,"name":"jams","steam_id":76561198131701290,"connected_time":2584000000000,"state":"active","ping":75},{"user_id":194,"name":"nnobi","steam_id":76561198878729277,"connected_time":222000000000,"state":"active","ping":127},{"user_id":183,"name":"PzVIIIMaus","steam_id":76561198346559365,"connected_time":891000000000,"state":"active","ping":96},{"user_id":169,"name":"money getter","steam_id":76561199065645094,"connected_time":1468000000000,"state":"active","ping":90},{"user_id":185,"name":"Seraph Guardian","steam_id":76561198162891621,"connected_time":830000000000,"state":"active","ping":86},{"user_id":156,"name":"Roberto‚Ñ¢","steam_id":76561198856969918,"connected_time":2248000000000,"state":"active","ping":84},{"user_id":180,"name":"Jaymowe","steam_id":76561198353959514,"connected_time":969000000000,"state":"active","ping":48},{"user_id":184,"name":"Sir Severus","steam_id":76561198061295188,"connected_time":884000000000,"state":"active","ping":45},{"user_id":188,"name":"lag","steam_id":76561197963872739,"connected_time":738000000000,"state":"active","ping":58},{"user_id":73,"name":"The Pepsi¬Æ Superbowl¬Æ!","steam_id":76561198080828981,"connected_time":8868000000000,"state":"active","ping":77},{"user_id":191,"name":"Flyingmeadow","steam_id":76561198144687723,"connected_time":662000000000,"state":"active","ping":125}]},{"server_id":406,"name":"Uncletopia | Seattle | 3 | Stopwatch Beta","name_short":"sea-3","host":"sea-1.us.uncletopia.com","port":27035,"enabled":true,"region":"us-west","cc":"us","latitude":47.608013,"longitude":-122.33517,"reserved":0,"last_update":"0001-01-01T00:00:00Z","name_a2s":"Uncletopia | Seattle | 3 | Stopwatch Beta","protocol":17,"map":"cp_process_final","folder":"tf","game":"Team Fortress","app_id":440,"player_count":0,"max_players":24,"Bots":0,"server_type":"Dedicated","server_os":"Linux","password":true,"vac":true,"version":"7757534","steam_id":85568392924515217,"keywords":["cp","nocrits","nodmgspread","uncletopia"],"game_id":440,"stv_port":27036,"stv_name":"Uncletopia | Seattle | 3 | Stopwatch Beta | STV","players":null},{"server_id":17,"name":"Uncletopia | San Francisco | 1 | All Maps","name_short":"sfo-1","host":"sfo-1.us.uncletopia.com","port":27015,"enabled":true,"region":"us-west","cc":"us","latitude":37.77397,"longitude":-122.4313,"reserved":0,"last_update":"0001-01-01T00:00:00Z","name_a2s":"Uncletopia | San Francisco | 1 | All Maps","protocol":17,"map":"koth_highpass","folder":"tf","game":"Team Fortress","app_id":440,"player_count":0,"max_players":24,"Bots":0,"server_type":"Dedicated","server_os":"Linux","password":true,"vac":true,"version":"7757534","steam_id":85568392924469999,"keywords":["cp","nocrits","nodmgspread","uncletopia"],"game_id":440,"stv_port":27016,"stv_name":"Uncletopia | San Francisco | 1 | All Maps | STV","players":null},{"server_id":18,"name":"Uncletopia | San Francisco | 2 | All Maps","name_short":"sfo-2","host":"sfo-1.us.uncletopia.com","port":27025,"enabled":true,"region":"us-west","cc":"us","latitude":37.77397,"longitude":-122.4313,"reserved":0,"last_update":"0001-01-01T00:00:00Z","name_a2s":"Uncletopia | San Francisco | 2 | All Maps","protocol":17,"map":"koth_viaduct","folder":"tf","game":"Team Fortress","app_id":440,"player_count":0,"max_players":24,"Bots":0,"server_type":"Dedicated","server_os":"Linux","password":true,"vac":true,"version":"7757534","steam_id":85568392924470000,"keywords":["cp","nocrits","nodmgspread","uncletopia"],"game_id":440,"stv_port":27026,"stv_name":"Uncletopia | San Francisco | 2 | All Maps | STV","players":null},{"server_id":19,"name":"Uncletopia | San Francisco | 3 | Stopwatch Beta","name_short":"sfo-3","host":"sfo-1.us.uncletopia.com","port":27035,"enabled":true,"region":"us-west","cc":"us","latitude":37.77397,"longitude":-122.4313,"reserved":0,"last_update":"0001-01-01T00:00:00Z","name_a2s":"Uncletopia | San Francisco | 3 | Stopwatch Beta","protocol":17,"map":"cp_snakewater_final1","folder":"tf","game":"Team Fortress","app_id":440,"player_count":0,"max_players":24,"Bots":0,"server_type":"Dedicated","server_os":"Linux","password":true,"vac":true,"version":"7757534","steam_id":85568392924742824,"keywords":["cp","nocrits","nodmgspread","uncletopia"],"game_id":440,"stv_port":27036,"stv_name":"Uncletopia | San Francisco | 3 | Stopwatch Beta | STV","players":null},{"server_id":20,"name":"Uncletopia | San Francisco | 4 | Community","name_short":"sfo-4","host":"sfo-1.us.uncletopia.com","port":27045,"enabled":true,"region":"us-west","cc":"us","latitude":37.77397,"longitude":-122.4313,"reserved":0,"last_update":"0001-01-01T00:00:00Z","name_a2s":"Uncletopia | San Francisco | 4 | Community","protocol":17,"map":"pl_frontier_final","folder":"tf","game":"Team Fortress","app_id":440,"player_count":0,"max_players":24,"Bots":0,"server_type":"Dedicated","server_os":"Linux","password":true,"vac":true,"version":"7757534","steam_id":85568392924742826,"keywords":["nocrits","nodmgspread","payload","uncletopia"],"game_id":440,"stv_port":27046,"stv_name":"Uncletopia | San Francisco | 4 | Community | STV","players":null},{"server_id":141,"name":"Uncletopia | Sydney | 1 | All Maps","name_short":"syd-1","host":"syd-1.au.uncletopia.com","port":27015,"enabled":true,"region":"au","cc":"au","latitude":-33.865143,"longitude":151.2099,"reserved":0,"last_update":"0001-01-01T00:00:00Z","name_a2s":"Uncletopia | Sydney | 1 | All Maps","protocol":17,"map":"pl_borneo","folder":"tf","game":"Team Fortress","app_id":440,"player_count":0,"max_players":24,"Bots":0,"server_type":"Dedicated","server_os":"Linux","password":true,"vac":true,"version":"7757534","steam_id":85568392924470001,"keywords":["nocrits","nodmgspread","payload","uncletopia"],"game_id":440,"stv_port":27016,"stv_name":"Uncletopia | Sydney | 1 | All Maps | STV","players":null},{"server_id":123,"name":"Uncletopia | Sydney | 2 | All Maps","name_short":"syd-2","host":"syd-1.au.uncletopia.com","port":27025,"enabled":true,"region":"au","cc":"au","latitude":-33.865143,"longitude":151.2099,"reserved":0,"last_update":"0001-01-01T00:00:00Z","name_a2s":"Uncletopia | Sydney | 2 | All Maps","protocol":17,"map":"pl_upward","folder":"tf","game":"Team Fortress","app_id":440,"player_count":0,"max_players":24,"Bots":0,"server_type":"Dedicated","server_os":"Linux","password":true,"vac":true,"version":"7757534","steam_id":85568392924470002,"keywords":["nocrits","nodmgspread","payload","uncletopia"],"game_id":440,"stv_port":27026,"stv_name":"Uncletopia | Sydney | 2 | All Maps | STV","players":null},{"server_id":395,"name":"Uncletopia | Sydney | 3 | All Maps","name_short":"syd-3","host":"syd-1.au.uncletopia.com","port":27035,"enabled":true,"region":"au","cc":"au","latitude":-33.865143,"longitude":151.2099,"reserved":0,"last_update":"0001-01-01T00:00:00Z","name_a2s":"Uncletopia | Sydney | 3 | All Maps","protocol":17,"map":"pl_borneo","folder":"tf","game":"Team Fortress","app_id":440,"player_count":0,"max_players":24,"Bots":0,"server_type":"Dedicated","server_os":"Linux","password":true,"vac":true,"version":"7757534","steam_id":85568392925194467,"keywords":["nocrits","nodmgspread","payload","uncletopia"],"game_id":440,"stv_port":27036,"stv_name":"Uncletopia | Sydney | 3 | All Maps | STV","players":null},{"server_id":396,"name":"Uncletopia | Sydney | 4 | All Maps","name_short":"syd-4","host":"syd-1.au.uncletopia.com","port":27045,"enabled":true,"region":"au","cc":"au","latitude":-33.865143,"longitude":151.2099,"reserved":0,"last_update":"0001-01-01T00:00:00Z","name_a2s":"Uncletopia | Sydney | 4 | All Maps","protocol":17,"map":"cp_process_final","folder":"tf","game":"Team Fortress","app_id":440,"player_count":0,"max_players":24,"Bots":0,"server_type":"Dedicated","server_os":"Linux","password":true,"vac":true,"version":"7757534","steam_id":85568392925397958,"keywords":["cp","nocrits","nodmgspread","uncletopia"],"game_id":440,"stv_port":27046,"stv_name":"Uncletopia | Sydney | 4 | All Maps | STV","players":null},{"server_id":58,"name":"Uncletopia | Sydney | 5 | Stopwatch Beta","name_short":"syd-5","host":"syd-1.au.uncletopia.com","port":27055,"enabled":true,"region":"au","cc":"au","latitude":-33.865143,"longitude":151.2099,"reserved":0,"last_update":"0001-01-01T00:00:00Z","name_a2s":"Uncletopia | Sydney | 5 | Stopwatch Beta","protocol":17,"map":"koth_cascade","folder":"tf","game":"Team Fortress","app_id":440,"player_count":0,"max_players":24,"Bots":0,"server_type":"Dedicated","server_os":"Linux","password":true,"vac":true,"version":"7757534","steam_id":85568392925397959,"keywords":["cp","nocrits","nodmgspread","uncletopia"],"game_id":440,"stv_port":27056,"stv_name":"Uncletopia | Sydney | 5 | Stopwatch Beta | STV","players":null},{"server_id":59,"name":"Uncletopia | Sydney | 6 | Community","name_short":"syd-6","host":"syd-1.au.uncletopia.com","port":27065,"enabled":true,"region":"au","cc":"au","latitude":-33.865143,"longitude":151.2099,"reserved":0,"last_update":"0001-01-01T00:00:00Z","name_a2s":"Uncletopia | Sydney | 6 | Community","protocol":17,"map":"pl_badwater","folder":"tf","game":"Team Fortress","app_id":440,"player_count":0,"max_players":24,"Bots":0,"server_type":"Dedicated","server_os":"Linux","password":true,"vac":true,"version":"7757534","steam_id":85568392925397960,"keywords":["nocrits","nodmgspread","payload","uncletopia"],"game_id":440,"stv_port":27066,"stv_name":"Uncletopia | Sydney | 6 | Community | STV","players":null},{"server_id":49,"name":"Uncletopia | Warsaw | 1 | All Maps","name_short":"waw-1","host":"waw-1.pl.uncletopia.com","port":27015,"enabled":true,"region":"eu","cc":"pl","latitude":52.2297,"longitude":21.017532,"reserved":0,"last_update":"0001-01-01T00:00:00Z","name_a2s":"","protocol":0,"map":"","folder":"","game":"","app_id":0,"player_count":0,"max_players":0,"Bots":0,"server_type":"","server_os":"","password":false,"vac":false,"version":"","steam_id":0,"keywords":null,"game_id":0,"stv_port":0,"stv_name":"","players":null},{"server_id":50,"name":"Uncletopia | Warsaw | 2 | All Maps","name_short":"waw-2","host":"waw-1.pl.uncletopia.com","port":27025,"enabled":true,"region":"eu","cc":"pl","latitude":52.2297,"longitude":21.017532,"reserved":0,"last_update":"0001-01-01T00:00:00Z","name_a2s":"Uncletopia | Warsaw | 2 | All Maps","protocol":17,"map":"koth_highpass","folder":"tf","game":"Team Fortress","app_id":440,"player_count":0,"max_players":24,"Bots":0,"server_type":"Dedicated","server_os":"Linux","password":true,"vac":true,"version":"7757534","steam_id":85568392925397851,"keywords":["cp","nocrits","nodmgspread","uncletopia"],"game_id":440,"stv_port":27026,"stv_name":"Uncletopia | Warsaw | 2 | All Maps | STV","players":null},{"server_id":51,"name":"Uncletopia | Warsaw | 3 | All Maps","name_short":"waw-3","host":"waw-1.pl.uncletopia.com","port":27035,"enabled":true,"region":"eu","cc":"pl","latitude":52.2297,"longitude":21.017532,"reserved":0,"last_update":"0001-01-01T00:00:00Z","name_a2s":"Uncletopia | Warsaw | 3 | All Maps","protocol":17,"map":"pl_pier","folder":"tf","game":"Team Fortress","app_id":440,"player_count":0,"max_players":24,"Bots":0,"server_type":"Dedicated","server_os":"Linux","password":true,"vac":true,"version":"7757534","steam_id":85568392925397852,"keywords":["nocrits","nodmgspread","payload","uncletopia"],"game_id":440,"stv_port":27036,"stv_name":"Uncletopia | Warsaw | 3 | All Maps | STV","players":null},{"server_id":52,"name":"Uncletopia | Warsaw | 4 | All Maps","name_short":"waw-4","host":"waw-1.pl.uncletopia.com","port":27045,"enabled":true,"region":"eu","cc":"pl","latitude":52.2297,"longitude":21.017532,"reserved":0,"last_update":"0001-01-01T00:00:00Z","name_a2s":"Uncletopia | Warsaw | 4 | All Maps","protocol":17,"map":"koth_highpass","folder":"tf","game":"Team Fortress","app_id":440,"player_count":0,"max_players":24,"Bots":0,"server_type":"Dedicated","server_os":"Linux","password":true,"vac":true,"version":"7757534","steam_id":85568392925397853,"keywords":["cp","nocrits","nodmgspread","uncletopia"],"game_id":440,"stv_port":27046,"stv_name":"Uncletopia | Warsaw | 4 | All Maps | STV","players":null},{"server_id":53,"name":"Uncletopia | Warsaw | 5 | Stopwatch Beta","name_short":"waw-5","host":"waw-1.pl.uncletopia.com","port":27055,"enabled":true,"region":"eu","cc":"pl","latitude":52.2297,"longitude":21.017532,"reserved":0,"last_update":"0001-01-01T00:00:00Z","name_a2s":"Uncletopia | Warsaw | 5 | Stopwatch Beta","protocol":17,"map":"pl_pier","folder":"tf","game":"Team Fortress","app_id":440,"player_count":0,"max_players":24,"Bots":0,"server_type":"Dedicated","server_os":"Linux","password":true,"vac":true,"version":"7757534","steam_id":85568392925397854,"keywords":["nocrits","nodmgspread","payload","uncletopia"],"game_id":440,"stv_port":27056,"stv_name":"Uncletopia | Warsaw | 5 | Stopwatch Beta | STV","players":null},{"server_id":54,"name":"Uncletopia | Warsaw | 6 | Community","name_short":"waw-6","host":"waw-1.pl.uncletopia.com","port":27065,"enabled":true,"region":"eu","cc":"pl","latitude":52.2297,"longitude":21.017532,"reserved":0,"last_update":"0001-01-01T00:00:00Z","name_a2s":"Uncletopia | Warsaw | 6 | Community","protocol":17,"map":"koth_highpass","folder":"tf","game":"Team Fortress","app_id":440,"player_count":0,"max_players":24,"Bots":0,"server_type":"Dedicated","server_os":"Linux","password":true,"vac":true,"version":"7757534","steam_id":85568392925397856,"keywords":["cp","nocrits","nodmgspread","uncletopia"],"game_id":440,"stv_port":27066,"stv_name":"Uncletopia | Warsaw | 6 | Community | STV","players":null}]}