{"status":true,"message":"","result":[{"server_id":9,"name":"Uncletopia | Atlanta | 1 | All Maps","name_short":"atl-1","host":"atl-1.us.uncletopia.com","port":27015,"enabled":true,"region":"us-east","cc":"us","latitude":33.753746,"longitude":-84.38633,"reserved":0,"last_update":"0001-01-01T00:00:00Z","name_a2s":"Uncletopia | Atlanta | 1 | All Maps","protocol":17,"map":"pl_upward","folder":"tf","game":"Team Fortress","app_id":440,"player_count":24,"max_players":24,"Bots":0,"server_type":"Dedicated","server_os":"Linux","password":true,"vac":true,"version":"7742253","steam_id":85568392924469982,"keywords":["nocrits","nodmgspread","payload","uncletopia"],"game_id":440,"stv_port":27016,"stv_name":"Uncletopia | Atlanta | 1 | All Maps | STV","players":[{"user_id":48,"name":"Brainfreezzzzz","steam_id":76561198068496884,"connected_time":3416000000000,"state":"active","ping":62},{"user_id":76,"name":"AHotdogVendor","steam_id":76561199211436683,"connected_time":37000000000,"state":"active","ping":65},{"user_id":5,"name":"Veilos","steam_id":76561198071897172,"connected_time":5936000000000,"state":"active","ping":79},{"user_id":73,"name":"Beatkeeper","steam_id":76561198029468483,"connected_time":646000000000,"state":"active","ping":81},{"user_id":68,"name":"Im High","steam_id":76561198049954886,"connected_time":1711000000000,"state":"active","ping":73},{"user_id":52,"name":"HEFTY HOG","steam_id":76561198079923652,"connected_time":2995000000000,"state":"active","ping":75},{"user_id":69,"name":"little hog","steam_id":76561199230929836,"connected_time":1703000000000,"state":"active","ping":87},{"user_id":54,"name":"ATL1 | Psionic Box","steam_id":76561198151019322,"connected_time":2984000000000,"state":"active","ping":74},{"user_id":57,"name":"skidzz","steam_id":76561198257068611,"connected_time":2952000000000,"state":"active","ping":68},{"user_id":70,"name":"SALEM","steam_id":76561198116281100,"connected_time":1111000000000,"state":"active","ping":46},{"user_id":13,"name":"Yakul","steam_id":76561198100040013,"connected_time":5923000000000,"state":"active","ping":73},{"user_id":43,"name":"ATL1 | eish","steam_id":76561198089463603,"connected_time":4874000000000,"state":"active","ping":117},{"user_id":15,"name":"Spag Hekki","steam_id":76561198207579353,"connected_time":5921000000000,"state":"active","ping":70},{"user_id":66,"name":"ATL1 | to4st","steam_id":76561198981009008,"connected_time":1901000000000,"state":"active","ping":72},{"user_id":39,"name":"Monkey","steam_id":76561198031015186,"connected_time":5074000000000,"state":"active","ping":70},{"user_id":18,"name":"James","steam_id":76561198081313916,"connected_time":5920000000000,"state":"active","ping":59},{"user_id":30,"name":"Rockgraham101","steam_id":76561198171740458,"connected_time":5864000000000,"state":"active","ping":74},{"user_id":41,"name":"Inky (Coolest)","steam_id":76561198968337022,"connected_time":4968000000000,"state":"active","ping":55},{"user_id":71,"name":"100dpm spoonful","steam_id":76561198927517471,"connected_time":1095000000000,"state":"active","ping":50},{"user_id":63,"name":"Tue","steam_id":76561198181668501,"connected_time":2012000000000,"state":"active","ping":87},{"user_id":23,"name":"ApertureCity","steam_id":76561198004153607,"connected_time":5910000000000,"state":"active","ping":75},{"user_id":67,"name":"mos","steam_id":76561198146126212,"connected_time":1724000000000,"state":"active","ping":59},{"user_id":56,"name":"shaderoses","steam_id":76561198070800500,"connected_time":2981000000000,"state":"active","ping":73},{"user_id":29,"name":"ATL6 Le4n!!!","steam_id":76561198045522596,"connected_time":5901000000000,"state":"active","ping":72}]},{"server_id":400,"name":"Uncletopia | Atlanta | 3 | Stopwatch Beta","name_short":"atl-3","host":"atl-1.us.uncletopia.com","port":27035,"enabled":true,"region":"us-east","cc":"us","latitude":33.753746,"longitude":-84.38633,"reserved":0,"last_update":"0001-01-01T00:00:00Z","name_a2s":"Uncletopia | Atlanta | 3 | Stopwatch Beta","protocol":17,"map":"pl_pier","folder":"tf","game":"Team Fortress","app_id":440,"player_count":0,"max_players":24,"Bots":0,"server_type":"Dedicated","server_os":"Linux","password":true,"vac":true,"version":"7742253","steam_id":85568392924515187,"keywords":["nocrits","nodmgspread","payload","uncletopia"],"game_id":440,"stv_port":27036,"stv_name":"Uncletopia | Atlanta | 3 | Stopwatch Beta | STV","players":null},{"server_id":401,"name":"Uncletopia | Atlanta | 4 | No Payload","name_short":"atl-4","host":"atl-1.us.uncletopia.com","port":27045,"enabled":true,"region":"us-east","cc":"us","latitude":33.753746,"longitude":-84.38633,"reserved":0,"last_update":"0001-01-01T00:00:00Z","name_a2s":"Uncletopia | Atlanta | 4 | No Payload","protocol":17,"map":"pl_pier","folder":"tf","game":"Team Fortress","app_id":440,"player_count":0,"max_players":24,"Bots":0,"server_type":"Dedicated","server_os":"Linux","password":true,"vac":true,"version":"7723704","steam_id":85568392924515188,"keywords":["nocrits","nodmgspread","payload","uncletopia"],"game_id":440,"stv_port":27046,"stv_name":"Uncletopia | Atlanta | 4 | No Payload | STV","players":null},{"server_id":2,"name":"Uncletopia | Chicago | 1 | All Maps","name_short":"chi-1","host":"chi-1.us.uncletopia.com","port":27015,"enabled":true,"region":"us-central","cc":"us","latitude":41.881832,"longitude":-87.62318,"reserved":0,"last_update":"0001-01-01T00:00:00Z","name_a2s":"Uncletopia | Chicago | 1 | All Maps","protocol":17,"map":"pl_borneo","folder":"tf","game":"Team Fortress","app_id":440,"player_count":18,"max_players":24,"Bots":0,"server_type":"Dedicated","server_os":"Linux","password":true,"vac":true,"version":"7742253","steam_id":85568392924469984,"keywords":["nocrits","nodmgspread","payload","uncletopia"],"game_id":440,"stv_port":27016,"stv_name":"Uncletopia | Chicago | 1 | All Maps | STV","players":[{"user_id":75,"name":"armpit munchies","steam_id":76561198254056316,"connected_time":302000000000,"state":"active","ping":45},{"user_id":78,"name":"ColonelKermit","steam_id":76561198318215660,"connected_time":40000000000,"state":"active","ping":48},{"user_id":73,"name":"IFDABOOTYFATUKNOWHEREIM@","steam_id":76561198144766439,"connected_time":342000000000,"state":"active","ping":44},{"user_id":37,"name":"Ye ( I Love Caulk ) West","steam_id":76561198068830312,"connected_time":4527000000000,"state":"active","ping":45},{"user_id":45,"name":"Shoe™","steam_id":76561199114397881,"connected_time":3867000000000,"state":"active","ping":58},{"user_id":59,"name":"esog","steam_id":76561198250069226,"connected_time":1710000000000,"state":"active","ping":73},{"user_id":68,"name":"BADBOY6996","steam_id":76561197969386201,"connected_time":945000000000,"state":"active","ping":46},{"user_id":13,"name":"Pikapillar","steam_id":76561198343321881,"connected_time":5904000000000,"state":"active","ping":104},{"user_id":64,"name":"NoahSherlock(wln.tf)","steam_id":76561199015641953,"connected_time":1593000000000,"state":"active","ping":134},{"user_id":58,"name":"gaming elliptical","steam_id":76561198013456569,"connected_time":1754000000000,"state":"active","ping":48},{"user_id":56,"name":"NOLSEY","steam_id":76561198108959504,"connected_time":2061000000000,"state":"active","ping":54},{"user_id":69,"name":"V@st0@L0rd333","steam_id":76561198100942212,"connected_time":852000000000,"state":"active","ping":75},{"user_id":46,"name":"ZachChase","steam_id":76561198086057112,"connected_time":3854000000000,"state":"active","ping":93},{"user_id":47,"name":"Karcist","steam_id":76561197970744075,"connected_time":3851000000000,"state":"active","ping":75},{"user_id":21,"name":"CAdaverOusPRophet","steam_id":76561198045304110,"connected_time":5899000000000,"state":"active","ping":48},{"user_id":27,"name":"icarly.com","steam_id":76561198157774267,"connected_time":5872000000000,"state":"active","ping":105},{"user_id":72,"name":"truundrscr","steam_id":76561198213525809,"connected_time":436000000000,"state":"active","ping":74},{"user_id":41,"name":"debin","steam_id":76561198070711217,"connected_time":4197000000000,"state":"active","ping":56}]},{"server_id":106,"name":"Uncletopia | Chicago | 2 | All Maps","name_short":"chi-2","host":"chi-1.us.uncletopia.com","port":27025,"enabled":true,"region":"us-central","cc":"us","latitude":41.881832,"longitude":-87.62318,"reserved":0,"last_update":"0001-01-01T00:00:00Z","name_a2s":"Uncletopia | Chicago | 2 | All Maps","protocol":17,"map":"koth_cascade","folder":"tf","game":"Team Fortress","app_id":440,"player_count":20,"max_players":24,"Bots":0,"server_type":"Dedicated","server_os":"Linux","password":true,"vac":true,"version":"7742253","steam_id":85568392924469985,"keywords":["cp","nocrits","nodmgspread","uncletopia"],"game_id":440,"stv_port":27026,"stv_name":"Uncletopia | Chicago | 2 | All Maps | STV","players":[{"user_id":83,"name":"cardboard","steam_id":76561198193855346,"connected_time":185000000000,"state":"active","ping":148},{"user_id":72,"name":"QueeQuey","steam_id":76561198117204064,"connected_time":967000000000,"state":"active","ping":58},{"user_id":59,"name":"shnowshner","steam_id":76561198066450438,"connected_time":2698000000000,"state":"active","ping":86},{"user_id":57,"name":"Piyono","steam_id":76561197962188504,"connected_time":2710000000000,"state":"active","ping":63},{"user_id":80,"name":"Ecliptica","steam_id":76561198171951333,"connected_time":517000000000,"state":"active","ping":117},{"user_id":56,"name":"Kiddo0","steam_id":76561198359596849,"connected_time":2832000000000,"state":"active","ping":67},{"user_id":68,"name":"KTB","steam_id":76561197990744614,"connected_time":995000000000,"state":"active","ping":40},{"user_id":84,"name":"$200 Shirt","steam_id":76561197977329534,"connected_time":84000000000,"state":"active","ping":56},{"user_id":77,"name":"nUwUb","steam_id":76561198164984099,"connected_time":669000000000,"state":"active","ping":75},{"user_id":74,"name":"strawberry","steam_id":76561198101926397,"connected_time":931000000000,"state":"active","ping":52},{"user_id":79,"name":"abcdefz","steam_id":76561198890949432,"connected_time":622000000000,"state":"active","ping":60},{"user_id":78,"name":"VibingVicinity","steam_id":76561198208211285,"connected_time":661000000000,"state":"active","ping":71},{"user_id":18,"name":"scarybroccoli","steam_id":76561198296440084,"connected_time":5862000000000,"state":"active","ping":70},{"user_id":75,"name":"pepsibobby","steam_id":76561198853864511,"connected_time":838000000000,"state":"active","ping":75},{"user_id":76,"name":"JesterJasper","steam_id":76561198025338925,"connected_time":836000000000,"state":"active","ping":91},{"user_id":81,"name":"Rubdu","steam_id":76561198121306576,"connected_time":509000000000,"state":"active","ping":53},{"user_id":51,"name":"deepmeta","steam_id":76561199053600691,"connected_time":3679000000000,"state":"active","ping":68},{"user_id":27,"name":"CreeperCatBengal","steam_id":76561198213193221,"connected_time":5851000000000,"state":"active","ping":76},{"user_id":41,"name":"trans rights","steam_id":76561198044183038,"connected_time":4350000000000,"state":"active","ping":70},{"user_id":53,"name":"Marc Antony","steam_id":76561198011366517,"connected_time":3562000000000,"state":"active","ping":59}]},{"server_id":402,"name":"Uncletopia | Chicago | 3 | All Maps","name_short":"chi-3","host":"chi-1.us.uncletopia.com","port":27035,"enabled":true,"region":"us-central","cc":"us","latitude":41.881832,"longitude":-87.62318,"reserved":0,"last_update":"0001-01-01T00:00:00Z","name_a2s":"Uncletopia | Chicago | 3 | All Maps","protocol":17,"map":"cp_sunshine","folder":"tf","game":"Team Fortress","app_id":440,"player_count":24,"max_players":24,"Bots":0,"server_type":"Dedicated","server_os":"Linux","password":true,"vac":true,"version":"7742253","steam_id":85568392924515191,"keywords":["cp","nocrits","nodmgspread","uncletopia"],"game_id":440,"stv_port":27036,"stv_name":"Uncletopia | Chicago | 3 | All Maps | STV","players":[{"user_id":86,"name":"Hameas","steam_id":76561198195620918,"connected_time":788000000000,"state":"active","ping":107},{"user_id":90,"name":"Shadynasty","steam_id":76561198042680229,"connected_time":541000000000,"state":"active","ping":62},{"user_id":92,"name":"coffee bagel","steam_id":76561198141198352,"connected_time":459000000000,"state":"active","ping":44},{"user_id":6,"name":"Calypso","steam_id":76561198082939544,"connected_time":5917000000000,"state":"active","ping":82},{"user_id":91,"name":"weed lesbian","steam_id":76561198042263805,"connected_time":533000000000,"state":"active","ping":84},{"user_id":62,"name":"no vc no c","steam_id":76561197989503095,"connected_time":3935000000000,"state":"active","ping":182},{"user_id":89,"name":"Whorse","steam_id":76561198114141445,"connected_time":701000000000,"state":"active","ping":63},{"user_id":74,"name":"Shwal","steam_id":76561198138840448,"connected_time":2237000000000,"state":"active","ping":87},{"user_id":93,"name":"Thumbs","steam_id":76561199065890132,"connected_time":323000000000,"state":"active","ping":53},{"user_id":94,"name":"darps","steam_id":76561198105227318,"connected_time":321000000000,"state":"active","ping":56},{"user_id":55,"name":"Occupy Watchlist","steam_id":76561198084208649,"connected_time":4181000000000,"state":"active","ping":89},{"user_id":83,"name":"HAVE YOU DONE YOUR SQUATS TODAY","steam_id":76561198010201227,"connected_time":1054000000000,"state":"active","ping":68},{"user_id":95,"name":"GuyGoom","steam_id":76561198254522178,"connected_time":241000000000,"state":"active","ping":56},{"user_id":97,"name":"Dawk Rawk","steam_id":76561197996027396,"connected_time":86000000000,"state":"active","ping":69},{"user_id":79,"name":"Darakou","steam_id":76561199018589984,"connected_time":1264000000000,"state":"active","ping":70},{"user_id":98,"name":"sithreis","steam_id":76561198000564263,"connected_time":61000000000,"state":"active","ping":62},{"user_id":99,"name":"lanoc","steam_id":76561198055415367,"connected_time":56000000000,"state":"active","ping":55},{"user_id":100,"name":"AlecTheNefarious","steam_id":76561198035291230,"connected_time":56000000000,"state":"active","ping":66},{"user_id":46,"name":"howtobepker","steam_id":76561198115053865,"connected_time":4696000000000,"state":"active","ping":82},{"user_id":70,"name":"hooley","steam_id":76561198041923067,"connected_time":2510000000000,"state":"active","ping":67},{"user_id":101,"name":"Whorse๊","steam_id":76561199442260601,"connected_time":52000000000,"state":"active","ping":52},{"user_id":35,"name":"Possum Witch","steam_id":76561199119125112,"connected_time":5666000000000,"state":"active","ping":61},{"user_id":102,"name":"Chesh","steam_id":76561197990316722,"connected_time":22000000000,"state":"active","ping":78},{"user_id":103,"name":"Cheese","steam_id":76561199055985064,"connected_time":9000000000,"state":"spawning","ping":113}]},{"server_id":403,"name":"Uncletopia | Chicago | 4 | All Maps","name_short":"chi-4","host":"chi-1.us.uncletopia.com","port":27045,"enabled":true,"region":"us-central","cc":"us","latitude":41.881832,"longitude":-87.62318,"reserved":0,"last_update":"0001-01-01T00:00:00Z","name_a2s":"Uncletopia | Chicago | 4 | All Maps","protocol":17,"map":"pl_snowycoast","folder":"tf","game":"Team Fortress","app_id":440,"player_count":22,"max_players":24,"Bots":0,"server_type":"Dedicated","server_os":"Linux","password":true,"vac":true,"version":"7742253","steam_id":85568392924515193,"keywords":["nocrits","nodmgspread","payload","uncletopia"],"game_id":440,"stv_port":27046,"stv_name":"Uncletopia | Chicago | 4 | All Maps | STV","players":[{"user_id":72,"name":"dave strider","steam_id":76561198065112186,"connected_time":924000000000,"state":"active","ping":73},{"user_id":74,"name":"hypnosterical","steam_id":76561197990537951,"connected_time":695000000000,"state":"active","ping":72},{"user_id":24,"name":"Saristan","steam_id":76561198093346048,"connected_time":2660000000000,"state":"active","ping":74},{"user_id":77,"name":"Sidewalk Gum","steam_id":76561198142873471,"connected_time":413000000000,"state":"active","ping":79},{"user_id":23,"name":"Blubman7","steam_id":76561198254718283,"connected_time":2736000000000,"state":"active","ping":65},{"user_id":64,"name":"Slepii","steam_id":76561198881786224,"connected_time":1172000000000,"state":"active","ping":71},{"user_id":26,"name":"Hermit not Kermit","steam_id":76561198106182525,"connected_time":2613000000000,"state":"active","ping":102},{"user_id":65,"name":"AlbinoRhino","steam_id":76561199192140783,"connected_time":1151000000000,"state":"active","ping":65},{"user_id":75,"name":"Slugger01","steam_id":76561198975798014,"connected_time":677000000000,"state":"active","ping":43},{"user_id":34,"name":"Throckmorton627","steam_id":76561199147734259,"connected_time":2368000000000,"state":"active","ping":78},{"user_id":66,"name":"DocDankDandy","steam_id":76561197999440195,"connected_time":1148000000000,"state":"active","ping":87},{"user_id":67,"name":"goblin","steam_id":76561199004451589,"connected_time":1143000000000,"state":"active","ping":71},{"user_id":62,"name":"Alexa, Bnuuy Witch","steam_id":76561198020696423,"connected_time":1190000000000,"state":"active","ping":82},{"user_id":48,"name":"Rx Auntie","steam_id":76561198051618393,"connected_time":1504000000000,"state":"active","ping":91},{"user_id":76,"name":"miki","steam_id":76561198331374895,"connected_time":676000000000,"state":"active","ping":75},{"user_id":80,"name":"Sin","steam_id":76561198940055557,"connected_time":90000000000,"state":"active","ping":98},{"user_id":81,"name":"Room","steam_id":76561199174579733,"connected_time":46000000000,"state":"active","ping":66},{"user_id":69,"name":"deadlypants (real)","steam_id":76561199086211518,"connected_time":1126000000000,"state":"active","ping":77},{"user_id":54,"name":"UWBW","steam_id":76561198007524241,"connected_time":1290000000000,"state":"active","ping":61},{"user_id":78,"name":"yomokha lft","steam_id":76561198063175935,"connected_time":354000000000,"state":"active","ping":76},{"user_id":79,"name":"SealsandSomeMore","steam_id":76561198399201495,"connected_time":333000000000,"state":"active","ping":85},{"user_id":71,"name":"devamar","steam_id":76561198069115467,"connected_time":974000000000,"state":"active","ping":62}]},{"server_id":36,"name":"Uncletopia | Chicago | 5 | All Maps","name_short":"chi-5","host":"chi-2.us.uncletopia.com","port":27015,"enabled":true,"region":"us-central","cc":"us","latitude":41.881832,"longitude":-87.62318,"reserved":0,"last_update":"0001-01-01T00:00:00Z","name_a2s":"Uncletopia | Chicago | 5 | All Maps","protocol":17,"map":"pl_borneo","folder":"tf","game":"Team Fortress","app_id":440,"player_count":20,"max_players":24,"Bots":0,"server_type":"Dedicated","server_os":"Linux","password":true,"vac":true,"version":"7742253","steam_id":85568392924866362,"keywords":["nocrits","nodmgspread","payload","uncletopia"],"game_id":440,"stv_port":27016,"stv_name":"Uncletopia | Chicago | 5 | All Maps | STV","players":[{"user_id":10,"name":"supermilk","steam_id":76561197978282744,"connected_time":5337000000000,"state":"active","ping":46},{"user_id":4,"name":"Fumohuxi Viriphyto","steam_id":76561198369395636,"connected_time":5901000000000,"state":"active","ping":90},{"user_id":74,"name":"Pizza Party","steam_id":76561198165730754,"connected_time":2478000000000,"state":"active","ping":78},{"user_id":83,"name":"Mamas favorite truffle hog","steam_id":76561198009847258,"connected_time":2305000000000,"state":"active","ping":92},{"user_id":96,"name":"https://www.dmv.ca.gov/portal/","steam_id":76561198207253121,"connected_time":94000000000,"state":"active","ping":101},{"user_id":13,"name":"The_Pacific_gamer","steam_id":76561198089491446,"connected_time":5114000000000,"state":"active","ping":92},{"user_id":95,"name":"Koishi","steam_id":76561198054541054,"connected_time":313000000000,"state":"active","ping":56},{"user_id":15,"name":"Krow Lincoln (she/her)","steam_id":76561198085410622,"connected_time":4757000000000,"state":"active","ping":100},{"user_id":94,"name":"hicadude","steam_id":76561199066385118,"connected_time":464000000000,"state":"active","ping":47},{"user_id":77,"name":"Sarbanes-Oxley","steam_id":76561197975898479,"connected_time":2439000000000,"state":"active","ping":76},{"user_id":97,"name":"cave full of snakes","steam_id":76561199084459911,"connected_time":61000000000,"state":"active","ping":124},{"user_id":98,"name":"Goury","steam_id":76561198133999959,"connected_time":23000000000,"state":"active","ping":102},{"user_id":99,"name":"Clarence","steam_id":76561198094319173,"connected_time":16000000000,"state":"spawning","ping":94},{"user_id":69,"name":"kametro4","steam_id":76561198835430429,"connected_time":2656000000000,"state":"active","ping":89},{"user_id":79,"name":"new mouse (still bad)","steam_id":76561198044443985,"connected_time":2391000000000,"state":"active","ping":99},{"user_id":100,"name":"John","steam_id":76561198091975252,"connected_time":9000000000,"state":"spawning","ping":109},{"user_id":80,"name":"rach9411","steam_id":76561198256535721,"connected_time":2383000000000,"state":"active","ping":137},{"user_id":51,"name":"psy","steam_id":76561198013195018,"connected_time":3845000000000,"state":"active","ping":82},{"user_id":88,"name":"Macko","steam_id":76561198452005461,"connected_time":1337000000000,"state":"active","ping":76},{"user_id":93,"name":"kb","steam_id":76561198115914109,"connected_time":503000000000,"state":"active","ping":69}]},{"server_id":37,"name":"Uncletopia | Chicago | 6 | All Maps","name_short":"chi-6","host":"chi-2.us.uncletopia.com","port":27025,"enabled":true,"region":"us-central","cc":"us","latitude":41.881832,"longitude":-87.62318,"reserved":0,"last_update":"0001-01-01T00:00:00Z","name_a2s":"Uncletopia | Chicago | 6 | All Maps","protocol":17,"map":"pl_badwater","folder":"tf","game":"Team Fortress","app_id":440,"player_count":24,"max_players":24,"Bots":0,"server_type":"Dedicated","server_os":"Linux","password":true,"vac":true,"version":"7742253","steam_id":85568392924866363,"keywords":["nocrits","nodmgspread","payload","uncletopia"],"game_id":440,"stv_port":27026,"stv_name":"Uncletopia | Chicago | 6 | All Maps | STV","players":[{"user_id":13,"name":"Jubb","steam_id":76561198138212832,"connected_time":5366000000000,"state":"active","ping":60},{"user_id":85,"name":"Cap N' Crunch","steam_id":76561198917309036,"connected_time":758000000000,"state":"active","ping":65},{"user_id":53,"name":"pencil","steam_id":76561198104658102,"connected_time":3942000000000,"state":"active","ping":92},{"user_id":75,"name":"substance","steam_id":76561198050103868,"connected_time":1625000000000,"state":"active","ping":106},{"user_id":89,"name":"Baegel","steam_id":76561198027447051,"connected_time":542000000000,"state":"active","ping":83},{"user_id":48,"name":"the222attacker","steam_id":76561198969690191,"connected_time":4094000000000,"state":"active","ping":65},{"user_id":14,"name":"PwePwe","steam_id":76561198159375282,"connected_time":5352000000000,"state":"active","ping":73},{"user_id":63,"name":"Product Consumer","steam_id":76561199030312610,"connected_time":3218000000000,"state":"active","ping":50},{"user_id":22,"name":"DragoDuck","steam_id":76561198385685683,"connected_time":4602000000000,"state":"active","ping":90},{"user_id":76,"name":"Minion Bob","steam_id":76561198023938170,"connected_time":1537000000000,"state":"active","ping":96},{"user_id":86,"name":"Jarryl97","steam_id":76561198055451373,"connected_time":700000000000,"state":"active","ping":89},{"user_id":62,"name":"bbqjunky","steam_id":76561198016224813,"connected_time":3351000000000,"state":"active","ping":71},{"user_id":87,"name":"goopgrabber","steam_id":76561199029951083,"connected_time":656000000000,"state":"active","ping":83},{"user_id":58,"name":"turkey is nota country its food","steam_id":76561198203725631,"connected_time":3849000000000,"state":"active","ping":72},{"user_id":43,"name":"kramer","steam_id":76561198117761965,"connected_time":4251000000000,"state":"active","ping":71},{"user_id":88,"name":"Adolf Rizzler","steam_id":76561198392407790,"connected_time":653000000000,"state":"active","ping":82},{"user_id":84,"name":"tim-","steam_id":76561199119101315,"connected_time":1257000000000,"state":"active","ping":92},{"user_id":79,"name":"Stihl","steam_id":76561198025152405,"connected_time":1457000000000,"state":"active","ping":55},{"user_id":90,"name":"Sigh","steam_id":76561197999306768,"connected_time":214000000000,"state":"active","ping":111},{"user_id":69,"name":"Distou","steam_id":76561198397886545,"connected_time":2811000000000,"state":"active","ping":105},{"user_id":54,"name":"Charcoal Corral","steam_id":76561198085762430,"connected_time":3934000000000,"state":"active","ping":76},{"user_id":41,"name":"Goofball","steam_id":76561198061211537,"connected_time":4257000000000,"state":"active","ping":60},{"user_id":83,"name":"hamdrinker985","steam_id":76561199241807676,"connected_time":1305000000000,"state":"active","ping":92},{"user_id":56,"name":"Jupiter","steam_id":76561198181315681,"connected_time":3933000000000,"state":"active","ping":63}]},{"server_id":38,"name":"Uncletopia | Chicago | 7 | Stopwatch Beta","name_short":"chi-7","host":"chi-2.us.uncletopia.com","port":27035,"enabled":true,"region":"us-central","cc":"us","latitude":41.881832,"longitude":-87.62318,"reserved":0,"last_update":"0001-01-01T00:00:00Z","name_a2s":"Uncletopia | Chicago | 7 | Stopwatch Beta","protocol":17,"map":"koth_lakeside_final","folder":"tf","game":"Team Fortress","app_id":440,"player_count":0,"max_players":24,"Bots":0,"server_type":"Dedicated","server_os":"Linux","password":true,"vac":true,"version":"7742253","steam_id":85568392924866364,"keywords":["cp","nocrits","nodmgspread","uncletopia"],"game_id":440,"stv_port":27036,"stv_name":"Uncletopia | Chicago | 7 | Stopwatch Beta | STV","players":null},{"server_id":39,"name":"Uncletopia | Chicago | 8 | Community","name_short":"chi-8","host":"chi-2.us.uncletopia.com","port":27045,"enabled":true,"region":"us-central","cc":"us","latitude":41.881832,"longitude":-87.62318,"reserved":0,"last_update":"0001-01-01T00:00:00Z","name_a2s":"Uncletopia | Chicago | 8 | Community","protocol":17,"map":"koth_lakeside_final","folder":"tf","game":"Team Fortress","app_id":440,"player_count":0,"max_players":24,"Bots":0,"server_type":"Dedicated","server_os":"Linux","password":true,"vac":true,"version":"7742253","steam_id":85568392924866365,"keywords":["cp","nocrits","nodmgspread","uncletopia"],"game_id":440,"stv_port":27046,"stv_name":"Uncletopia | Chicago | 8 | Community | STV","players":null},{"server_id":8,"name":"Uncletopia | Dallas | 1 | All Maps","name_short":"dal-1","host":"dal-1.us.uncletopia.com","port":27015,"enabled":true,"region":"us-central","cc":"us","latitude":32.779167,"longitude":-96.80889,"reserved":0,"last_update":"0001-01-01T00:00:00Z","name_a2s":"Uncletopia | Dallas | 1 | All Maps","protocol":17,"map":"pl_barnblitz","folder":"tf","game":"Team Fortress","app_id":440,"player_count":24,"max_players":24,"Bots":0,"server_type":"Dedicated","server_os":"Linux","password":true,"vac":true,"version":"7742253","steam_id":85568392924469986,"keywords":["nocrits","nodmgspread","payload","uncletopia"],"game_id":440,"stv_port":27016,"stv_name":"Uncletopia | Dallas | 1 | All Maps | STV","players":[{"user_id":74,"name":"Dinger","steam_id":76561198030119710,"connected_time":800000000000,"state":"active","ping":84},{"user_id":82,"name":"arashsmash","steam_id":76561198277649058,"connected_time":545000000000,"state":"active","ping":84},{"user_id":76,"name":"Huntsman Legend","steam_id":76561199122670387,"connected_time":698000000000,"state":"active","ping":51},{"user_id":6,"name":"Rat Smacker","steam_id":76561199090197628,"connected_time":5930000000000,"state":"active","ping":62},{"user_id":61,"name":"BlueCrue","steam_id":76561198066698869,"connected_time":1968000000000,"state":"active","ping":61},{"user_id":59,"name":"Omegalite","steam_id":76561198796787101,"connected_time":2236000000000,"state":"active","ping":66},{"user_id":9,"name":"Reyloko","steam_id":76561198172480913,"connected_time":5917000000000,"state":"active","ping":67},{"user_id":81,"name":"Biznickel","steam_id":76561199422511230,"connected_time":605000000000,"state":"active","ping":96},{"user_id":83,"name":"Techpriestess feeb","steam_id":76561198109054151,"connected_time":508000000000,"state":"active","ping":56},{"user_id":71,"name":"ocky","steam_id":76561198313049944,"connected_time":937000000000,"state":"active","ping":89},{"user_id":50,"name":"Lore","steam_id":76561198098407538,"connected_time":3294000000000,"state":"active","ping":75},{"user_id":58,"name":"s p a c e k a t","steam_id":76561198066852209,"connected_time":2475000000000,"state":"active","ping":58},{"user_id":52,"name":"Insane Heavy","steam_id":76561198314153596,"connected_time":3286000000000,"state":"active","ping":71},{"user_id":47,"name":"Ap1hw","steam_id":76561199122883466,"connected_time":3726000000000,"state":"active","ping":50},{"user_id":17,"name":"The Robot Menace","steam_id":76561198043390413,"connected_time":5898000000000,"state":"active","ping":53},{"user_id":70,"name":"oxbudy","steam_id":76561198022120207,"connected_time":1702000000000,"state":"active","ping":61},{"user_id":87,"name":"iluvtoust","steam_id":76561198869269207,"connected_time":74000000000,"state":"active","ping":45},{"user_id":79,"name":"Just Another Stoned Eevee","steam_id":76561198262852705,"connected_time":665000000000,"state":"active","ping":79},{"user_id":86,"name":"aniki","steam_id":76561198878416055,"connected_time":314000000000,"state":"active","ping":96},{"user_id":80,"name":"CPUnit","steam_id":76561198162881878,"connected_time":635000000000,"state":"active","ping":100},{"user_id":54,"name":"RipZ","steam_id":76561198179458030,"connected_time":3261000000000,"state":"active","ping":90},{"user_id":85,"name":"Batso","steam_id":76561198106589452,"connected_time":467000000000,"state":"active","ping":79},{"user_id":73,"name":"jimmybean","steam_id":76561197985070900,"connected_time":893000000000,"state":"active","ping":49},{"user_id":29,"name":"Ⓑ⓪⓪ⓣⓨⓒⓐⓚⓔⓢ","steam_id":76561198088776421,"connected_time":5855000000000,"state":"active","ping":90}]},{"server_id":108,"name":"Uncletopia | Dallas | 2 | All Maps","name_short":"dal-2","host":"dal-1.us.uncletopia.com","port":27025,"enabled":true,"region":"us-central","cc":"us","latitude":32.779167,"longitude":-96.80889,"reserved":0,"last_update":"0001-01-01T00:00:00Z","name_a2s":"Uncletopia | Dallas | 2 | All Maps","protocol":17,"map":"pl_upward","folder":"tf","game":"Team Fortress","app_id":440,"player_count":16,"max_players":24,"Bots":0,"server_type":"Dedicated","server_os":"Linux","password":true,"vac":true,"version":"7742253","steam_id":85568392924469988,"keywords":["nocrits","nodmgspread","payload","uncletopia"],"game_id":440,"stv_port":27026,"stv_name":"Uncletopia | Dallas | 2 | All Maps | STV","players":[{"user_id":54,"name":"[δ] Delta","steam_id":76561198287190116,"connected_time":3346000000000,"state":"active","ping":61},{"user_id":86,"name":"Jello","steam_id":76561198890633732,"connected_time":795000000000,"state":"active","ping":56},{"user_id":14,"name":"illious","steam_id":76561198169925494,"connected_time":5127000000000,"state":"active","ping":73},{"user_id":61,"name":"alligator fuckhouse","steam_id":76561198119178364,"connected_time":2886000000000,"state":"active","ping":75},{"user_id":79,"name":"Weird","steam_id":76561199082362722,"connected_time":1160000000000,"state":"active","ping":126},{"user_id":80,"name":"Fluddulation","steam_id":76561198161703678,"connected_time":1153000000000,"state":"active","ping":89},{"user_id":92,"name":"Adolf The Toast Jesus™","steam_id":76561198024553767,"connected_time":495000000000,"state":"active","ping":78},{"user_id":93,"name":"astron","steam_id":76561198058546328,"connected_time":479000000000,"state":"active","ping":84},{"user_id":100,"name":"baesth","steam_id":76561198857820304,"connected_time":186000000000,"state":"active","ping":52},{"user_id":44,"name":"Chuckled","steam_id":76561198217425919,"connected_time":4063000000000,"state":"active","ping":77},{"user_id":94,"name":"big man, bigger plan","steam_id":76561199064758232,"connected_time":440000000000,"state":"active","ping":47},{"user_id":95,"name":"dw4rf","steam_id":76561198046953937,"connected_time":439000000000,"state":"active","ping":109},{"user_id":96,"name":"gonurlight","steam_id":76561198935839416,"connected_time":436000000000,"state":"active","ping":67},{"user_id":97,"name":"peepeeroni","steam_id":76561198382877812,"connected_time":428000000000,"state":"active","ping":512},{"user_id":98,"name":"+","steam_id":76561198262422184,"connected_time":413000000000,"state":"active","ping":47},{"user_id":102,"name":"SuaveFrenchman","steam_id":76561198043762683,"connected_time":63000000000,"state":"active","ping":87}]},{"server_id":5,"name":"Uncletopia | Frankfurt | 1 | All Maps","name_short":"frk-1","host":"frk-1.de.uncletopia.com","port":27015,"enabled":true,"region":"eu","cc":"de","latitude":50.110924,"longitude":8.682127,"reserved":0,"last_update":"0001-01-01T00:00:00Z","name_a2s":"Uncletopia | Frankfurt | 1 | All Maps","protocol":17,"map":"pl_borneo","folder":"tf","game":"Team Fortress","app_id":440,"player_count":0,"max_players":24,"Bots":0,"server_type":"Dedicated","server_os":"Linux","password":true,"vac":true,"version":"7742253","steam_id":85568392924469989,"keywords":["nocrits","nodmgspread","payload","uncletopia"],"game_id":440,"stv_port":27016,"stv_name":"Uncletopia | Frankfurt | 1 | All Maps | STV","players":null},{"server_id":110,"name":"Uncletopia | Frankfurt | 2 | All Maps","name_short":"frk-2","host":"frk-1.de.uncletopia.com","port":27025,"enabled":true,"region":"eu","cc":"de","latitude":50.110924,"longitude":8.682127,"reserved":0,"last_update":"0001-01-01T00:00:00Z","name_a2s":"Uncletopia | Frankfurt | 2 | All Maps","protocol":17,"map":"pl_swiftwater_final1","folder":"tf","game":"Team Fortress","app_id":440,"player_count":0,"max_players":24,"Bots":0,"server_type":"Dedicated","server_os":"Linux","password":true,"vac":true,"version":"7742253","steam_id":85568392924469990,"keywords":["nocrits","nodmgspread","payload","uncletopia"],"game_id":440,"stv_port":27026,"stv_name":"Uncletopia | Frankfurt | 2 | All Maps | STV","players":null},{"server_id":308,"name":"Uncletopia | Frankfurt | 3 | All Maps","name_short":"frk-3","host":"frk-1.de.uncletopia.com","port":27035,"enabled":true,"region":"eu","cc":"de","latitude":50.110924,"longitude":8.682127,"reserved":0,"last_update":"0001-01-01T00:00:00Z","name_a2s":"Uncletopia | Frankfurt | 3 | All Maps","protocol":17,"map":"cp_dustbowl","folder":"tf","game":"Team Fortress","app_id":440,"player_count":0,"max_players":24,"Bots":0,"server_type":"Dedicated","server_os":"Linux","password":true,"vac":true,"version":"7742253","steam_id":85568392924504274,"keywords":["cp","nocrits","nodmgspread","uncletopia"],"game_id":440,"stv_port":27036,"stv_name":"Uncletopia | Frankfurt | 3 | All Maps | STV","players":null},{"server_id":309,"name":"Uncletopia | Frankfurt | 4 | All Maps","name_short":"frk-4","host":"frk-1.de.uncletopia.com","port":27045,"enabled":true,"region":"eu","cc":"de","latitude":50.110924,"longitude":8.682127,"reserved":0,"last_update":"0001-01-01T00:00:00Z","name_a2s":"Uncletopia | Frankfurt | 4 | All Maps","protocol":17,"map":"cp_sunshine","folder":"tf","game":"Team Fortress","app_id":440,"player_count":0,"max_players":24,"Bots":0,"server_type":"Dedicated","server_os":"Linux","password":true,"vac":true,"version":"7742253","steam_id":85568392924504275,"keywords":["cp","nocrits","nodmgspread","uncletopia"],"game_id":440,"stv_port":27046,"stv_name":"Uncletopia | Frankfurt | 4 | All Maps | STV","players":null},{"server_id":310,"name":"Uncletopia | Frankfurt | 5 | All Maps","name_short":"frk-5","host":"frk-1.de.uncletopia.com","port":27055,"enabled":true,"region":"eu","cc":"de","latitude":50.110924,"longitude":8.682127,"reserved":0,"last_update":"0001-01-01T00:00:00Z","name_a2s":"Uncletopia | Frankfurt | 5 | All Maps","protocol":17,"map":"cp_snakewater_final1","folder":"tf","game":"Team Fortress","app_id":440,"player_count":0,"max_players":24,"Bots":0,"server_type":"Dedicated","server_os":"Linux","password":true,"vac":true,"version":"7742253","steam_id":85568392924504277,"keywords":["cp","nocrits","nodmgspread","uncletopia"],"game_id":440,"stv_port":27056,"stv_name":"Uncletopia | Frankfurt | 5 | All Maps | STV","players":null},{"server_id":311,"name":"Uncletopia | Frankfurt | 6 | All Maps","name_short":"frk-6","host":"frk-1.de.uncletopia.com","port":27065,"enabled":true,"region":"eu","cc":"de","latitude":50.110924,"longitude":8.682127,"reserved":0,"last_update":"0001-01-01T00:00:00Z","name_a2s":"Uncletopia | Frankfurt | 6 | All Maps","protocol":17,"map":"koth_lakeside_final","folder":"tf","game":"Team Fortress","app_id":440,"player_count":0,"max_players":24,"Bots":0,"server_type":"Dedicated","server_os":"Linux","password":true,"vac":true,"version":"7742253","steam_id":85568392924504278,"keywords":["cp","nocrits","nodmgspread","uncletopia"],"game_id":440,"stv_port":27066,"stv_name":"Uncletopia | Frankfurt | 6 | All Maps | STV","players":null},{"server_id":23,"name":"Uncletopia | Frankfurt | 7 | Stopwatch Beta","name_short":"frk-7","host":"frk-1.de.uncletopia.com","port":27075,"enabled":true,"region":"eu","cc":"de","latitude":50.110924,"longitude":8.682127,"reserved":0,"last_update":"0001-01-01T00:00:00Z","name_a2s":"Uncletopia | Frankfurt | 7 | Stopwatch Beta","protocol":17,"map":"pl_badwater","folder":"tf","game":"Team Fortress","app_id":440,"player_count":0,"max_players":24,"Bots":0,"server_type":"Dedicated","server_os":"Linux","password":true,"vac":true,"version":"7742253","steam_id":85568392924742827,"keywords":["nocrits","nodmgspread","payload","uncletopia"],"game_id":440,"stv_port":27076,"stv_name":"Uncletopia | Frankfurt | 7 | Stopwatch Beta | STV","players":null},{"server_id":24,"name":"Uncletopia | Frankfurt | 8 | Community","name_short":"frk-8","host":"frk-1.de.uncletopia.com","port":27085,"enabled":true,"region":"eu","cc":"de","latitude":50.110924,"longitude":8.682127,"reserved":0,"last_update":"0001-01-01T00:00:00Z","name_a2s":"Uncletopia | Frankfurt | 8 | Community","protocol":17,"map":"koth_cascade","folder":"tf","game":"Team Fortress","app_id":440,"player_count":0,"max_players":24,"Bots":0,"server_type":"Dedicated","server_os":"Linux","password":true,"vac":true,"version":"7742253","steam_id":85568392924742828,"keywords":["cp","nocrits","nodmgspread","uncletopia"],"game_id":440,"stv_port":27086,"stv_name":"Uncletopia | Frankfurt | 8 | Community | STV","players":null},{"server_id":202,"name":"Uncletopia | Hong Kong | 1 | All Maps","name_short":"hgk-1","host":"hgk-1.hk.uncletopia.com","port":27015,"enabled":true,"region":"asia","cc":"hk","latitude":22.302711,"longitude":114.177216,"reserved":0,"last_update":"0001-01-01T00:00:00Z","name_a2s":"Uncletopia | Hong Kong | 1 | All Maps","protocol":17,"map":"pl_frontier_final","folder":"tf","game":"Team Fortress","app_id":440,"player_count":24,"max_players":24,"Bots":0,"server_type":"Dedicated","server_os":"Linux","password":true,"vac":true,"version":"7742253","steam_id":85568392924494504,"keywords":["nocrits","nodmgspread","payload","uncletopia"],"game_id":440,"stv_port":27016,"stv_name":"Uncletopia | Hong Kong | 1 | All Maps | STV","players":[{"user_id":15,"name":"Lu","steam_id":76561198320532821,"connected_time":5188000000000,"state":"active","ping":70},{"user_id":4,"name":"Nephew Nate","steam_id":76561199137872034,"connected_time":5218000000000,"state":"active","ping":102},{"user_id":69,"name":"Wakiiiz","steam_id":76561198850134590,"connected_time":1860000000000,"state":"active","ping":57},{"user_id":78,"name":"uptriste","steam_id":76561198158666692,"connected_time":851000000000,"state":"active","ping":33},{"user_id":7,"name":"Windmill","steam_id":76561199230997986,"connected_time":5215000000000,"state":"active","ping":75},{"user_id":8,"name":"lillalune","steam_id":76561198230213828,"connected_time":5211000000000,"state":"active","ping":60},{"user_id":44,"name":"ZUdolph, the Robo-reindeer","steam_id":76561198179320563,"connected_time":3932000000000,"state":"active","ping":75},{"user_id":75,"name":"3wfFbdrjEze5d2G","steam_id":76561198435900451,"connected_time":1324000000000,"state":"active","ping":71},{"user_id":82,"name":"IRA car dealership","steam_id":76561199224577498,"connected_time":530000000000,"state":"active","ping":69},{"user_id":66,"name":"Talkk More","steam_id":76561198305424433,"connected_time":2215000000000,"state":"active","ping":102},{"user_id":13,"name":"old chunk of coal","steam_id":76561197990537324,"connected_time":5206000000000,"state":"active","ping":149},{"user_id":64,"name":"Creeper-Chan","steam_id":76561198172623219,"connected_time":2572000000000,"state":"active","ping":51},{"user_id":72,"name":"quack","steam_id":76561198258934120,"connected_time":1429000000000,"state":"active","ping":82},{"user_id":83,"name":"cjjakeypaul","steam_id":76561199126245431,"connected_time":482000000000,"state":"active","ping":66},{"user_id":56,"name":"17","steam_id":76561198241530712,"connected_time":3093000000000,"state":"active","ping":62},{"user_id":85,"name":"That Finger","steam_id":76561199062866529,"connected_time":341000000000,"state":"active","ping":62},{"user_id":31,"name":"Aunt Daine","steam_id":76561198447470800,"connected_time":4822000000000,"state":"active","ping":67},{"user_id":65,"name":"festivized goth girl","steam_id":76561198118989010,"connected_time":2507000000000,"state":"active","ping":65},{"user_id":80,"name":"cellum95","steam_id":76561198172146871,"connected_time":833000000000,"state":"active","ping":77},{"user_id":37,"name":"Urotsuki","steam_id":76561198074339034,"connected_time":4665000000000,"state":"active","ping":75},{"user_id":53,"name":"bad at everything","steam_id":76561199378524169,"connected_time":3261000000000,"state":"active","ping":70},{"user_id":40,"name":"\"SKS\"","steam_id":76561198187995386,"connected_time":4394000000000,"state":"active","ping":83},{"user_id":48,"name":"煙海 | Enkai","steam_id":76561198050460825,"connected_time":3411000000000,"state":"active","ping":76},{"user_id":81,"name":"Noyour","steam_id":76561198323259830,"connected_time":832000000000,"state":"active","ping":116}]},{"server_id":1,"name":"Uncletopia | Los Angeles | 1 | All Maps","name_short":"lax-1","host":"lax-1.us.uncletopia.com","port":27015,"enabled":true,"region":"us-west","cc":"us","latitude":33.94279,"longitude":-118.41004,"reserved":0,"last_update":"0001-01-01T00:00:00Z","name_a2s":"Uncletopia | Los Angeles | 1 | All Maps","protocol":17,"map":"pl_barnblitz","folder":"tf","game":"Team Fortress","app_id":440,"player_count":24,"max_players":24,"Bots":0,"server_type":"Dedicated","server_os":"Linux","password":true,"vac":true,"version":"7742253","steam_id":85568392924469991,"keywords":["nocrits","nodmgspread","payload","uncletopia"],"game_id":440,"stv_port":27016,"stv_name":"Uncletopia | Los Angeles | 1 | All Maps | STV","players":[{"user_id":83,"name":"Nada2","steam_id":76561198087039694,"connected_time":1273000000000,"state":"active","ping":61},{"user_id":76,"name":"c49aa4","steam_id":76561199099537250,"connected_time":1907000000000,"state":"active","ping":50},{"user_id":5,"name":"TheBrocklobster","steam_id":76561198039682984,"connected_time":5921000000000,"state":"active","ping":60},{"user_id":88,"name":"Antis","steam_id":76561198055790522,"connected_time":1003000000000,"state":"active","ping":52},{"user_id":67,"name":"Ann Ziegler (No Sound)","steam_id":76561198052249401,"connected_time":3005000000000,"state":"active","ping":104},{"user_id":59,"name":"JON","steam_id":76561198057971005,"connected_time":3742000000000,"state":"active","ping":63},{"user_id":19,"name":"Genius Meme","steam_id":76561198162911254,"connected_time":5867000000000,"state":"active","ping":81},{"user_id":68,"name":"Owl_eyes","steam_id":76561198066199203,"connected_time":2655000000000,"state":"active","ping":52},{"user_id":11,"name":"coffee enjoyer","steam_id":76561198059900288,"connected_time":5904000000000,"state":"active","ping":91},{"user_id":84,"name":"SHADOW (he/him)","steam_id":76561198207768148,"connected_time":1188000000000,"state":"active","ping":66},{"user_id":87,"name":"Mr. Skerpentine","steam_id":76561198137244892,"connected_time":1093000000000,"state":"active","ping":98},{"user_id":89,"name":"Logan601 #savetf2","steam_id":76561198263116731,"connected_time":1001000000000,"state":"active","ping":51},{"user_id":78,"name":"Munk","steam_id":76561198134629193,"connected_time":1838000000000,"state":"active","ping":95},{"user_id":85,"name":"Tenrou","steam_id":76561198061448188,"connected_time":1182000000000,"state":"active","ping":61},{"user_id":79,"name":"veneficium","steam_id":76561198332783580,"connected_time":1799000000000,"state":"active","ping":66},{"user_id":70,"name":"Poverty's Finest","steam_id":76561198127704044,"connected_time":2634000000000,"state":"active","ping":107},{"user_id":69,"name":"Ryan","steam_id":76561198046600383,"connected_time":2652000000000,"state":"active","ping":100},{"user_id":77,"name":"Sorta Mera?","steam_id":76561198340743816,"connected_time":1898000000000,"state":"active","ping":47},{"user_id":24,"name":"Jimbobumbag","steam_id":76561198037179391,"connected_time":5849000000000,"state":"active","ping":69},{"user_id":86,"name":"Evanb","steam_id":76561198042057792,"connected_time":1171000000000,"state":"active","ping":72},{"user_id":72,"name":"SNIPSNAP","steam_id":76561198275472683,"connected_time":2620000000000,"state":"active","ping":108},{"user_id":81,"name":"cam","steam_id":76561198073426718,"connected_time":1680000000000,"state":"active","ping":60},{"user_id":55,"name":"A Pair of Candy Canes","steam_id":76561198052239472,"connected_time":3937000000000,"state":"active","ping":45},{"user_id":29,"name":"am","steam_id":76561198345528370,"connected_time":5833000000000,"state":"active","ping":57}]},{"server_id":112,"name":"Uncletopia | Los Angeles | 2 | All Maps","name_short":"lax-2","host":"lax-1.us.uncletopia.com","port":27025,"enabled":true,"region":"us-west","cc":"us","latitude":33.94279,"longitude":-118.41004,"reserved":0,"last_update":"0001-01-01T00:00:00Z","name_a2s":"Uncletopia | Los Angeles | 2 | All Maps","protocol":17,"map":"pl_borneo","folder":"tf","game":"Team Fortress","app_id":440,"player_count":24,"max_players":24,"Bots":0,"server_type":"Dedicated","server_os":"Linux","password":true,"vac":true,"version":"7742253","steam_id":85568392924469992,"keywords":["nocrits","nodmgspread","payload","uncletopia"],"game_id":440,"stv_port":27026,"stv_name":"Uncletopia | Los Angeles | 2 | All Maps | STV","players":[{"user_id":83,"name":"ElShaggy","steam_id":76561198148870214,"connected_time":1616000000000,"state":"active","ping":45},{"user_id":105,"name":"Fresh","steam_id":76561198068565728,"connected_time":228000000000,"state":"active","ping":49},{"user_id":67,"name":"goldhed","steam_id":76561198051751133,"connected_time":2245000000000,"state":"active","ping":85},{"user_id":102,"name":"Brando","steam_id":76561198078306678,"connected_time":675000000000,"state":"active","ping":68},{"user_id":106,"name":"gerg","steam_id":76561197997127387,"connected_time":209000000000,"state":"active","ping":51},{"user_id":107,"name":"The Population of Sweden","steam_id":76561198202201644,"connected_time":176000000000,"state":"active","ping":73},{"user_id":103,"name":"zinnk","steam_id":76561198092081825,"connected_time":604000000000,"state":"active","ping":53},{"user_id":99,"name":"sly1","steam_id":76561198049014977,"connected_time":736000000000,"state":"active","ping":59},{"user_id":82,"name":"The Collective","steam_id":76561198170423483,"connected_time":1642000000000,"state":"active","ping":102},{"user_id":101,"name":"8core","steam_id":76561198131163454,"connected_time":725000000000,"state":"active","ping":75},{"user_id":17,"name":"1000 Ping","steam_id":76561198098330939,"connected_time":5446000000000,"state":"active","ping":59},{"user_id":100,"name":"dzcreeper","steam_id":76561198072250723,"connected_time":733000000000,"state":"active","ping":88},{"user_id":104,"name":"Crom","steam_id":76561198121232183,"connected_time":583000000000,"state":"active","ping":59},{"user_id":93,"name":"Gh0stlight","steam_id":76561199138042008,"connected_time":1265000000000,"state":"active","ping":52},{"user_id":77,"name":"Brynkiwi","steam_id":76561198052177917,"connected_time":1916000000000,"state":"active","ping":70},{"user_id":108,"name":"ROCK","steam_id":76561198807413610,"connected_time":171000000000,"state":"active","ping":67},{"user_id":87,"name":"KritzKow","steam_id":76561198086164003,"connected_time":1506000000000,"state":"active","ping":79},{"user_id":88,"name":"Sham Cow","steam_id":76561198064556977,"connected_time":1504000000000,"state":"active","ping":96},{"user_id":25,"name":"Spider","steam_id":76561198051430727,"connected_time":5342000000000,"state":"active","ping":121},{"user_id":89,"name":"cirno","steam_id":76561198166081596,"connected_time":1504000000000,"state":"active","ping":82},{"user_id":109,"name":"Noxus","steam_id":76561199009820852,"connected_time":164000000000,"state":"active","ping":96},{"user_id":90,"name":"invb","steam_id":76561197998263914,"connected_time":1478000000000,"state":"active","ping":117},{"user_id":98,"name":"Frongus","steam_id":76561197979056451,"connected_time":1064000000000,"state":"active","ping":70},{"user_id":92,"name":"1 Great Wooden Dad","steam_id":76561198377126974,"connected_time":1457000000000,"state":"active","ping":118}]},{"server_id":324,"name":"Uncletopia | Los Angeles | 3 | All Maps","name_short":"lax-3","host":"lax-1.us.uncletopia.com","port":27035,"enabled":true,"region":"us-west","cc":"us","latitude":33.94279,"longitude":-118.41004,"reserved":0,"last_update":"0001-01-01T00:00:00Z","name_a2s":"Uncletopia | Los Angeles | 3 | All Maps","protocol":17,"map":"pl_frontier_final","folder":"tf","game":"Team Fortress","app_id":440,"player_count":0,"max_players":24,"Bots":0,"server_type":"Dedicated","server_os":"Linux","password":true,"vac":true,"version":"7742253","steam_id":85568392924510198,"keywords":["nocrits","nodmgspread","payload","uncletopia"],"game_id":440,"stv_port":27036,"stv_name":"Uncletopia | Los Angeles | 3 | All Maps | STV","players":null},{"server_id":25,"name":"Uncletopia | Los Angeles | 4 | Stopwatch Beta","name_short":"lax-4","host":"lax-1.us.uncletopia.com","port":27045,"enabled":true,"region":"us-west","cc":"us","latitude":33.94279,"longitude":-118.41004,"reserved":0,"last_update":"0001-01-01T00:00:00Z","name_a2s":"Uncletopia | Los Angeles | 4 | Stopwatch Beta","protocol":17,"map":"cp_snakewater_final1","folder":"tf","game":"Team Fortress","app_id":440,"player_count":0,"max_players":24,"Bots":0,"server_type":"Dedicated","server_os":"Linux","password":true,"vac":true,"version":"7742253","steam_id":85568392924510199,"keywords":["cp","nocrits","nodmgspread","uncletopia"],"game_id":440,"stv_port":27046,"stv_name":"Uncletopia | Los Angeles | 4 | Stopwatch Beta | STV","players":null},{"server_id":11,"name":"Uncletopia | London | 1 | All Maps","name_short":"lon-1","host":"lon-1.uk.uncletopia.com","port":27015,"enabled":true,"region":"eu","cc":"gb","latitude":51.509865,"longitude":-0.118092,"reserved":0,"last_update":"0001-01-01T00:00:00Z","name_a2s":"Uncletopia | London | 1 | All Maps","protocol":17,"map":"cp_altitude","folder":"tf","game":"Team Fortress","app_id":440,"player_count":0,"max_players":24,"Bots":0,"server_type":"Dedicated","server_os":"Linux","password":true,"vac":true,"version":"7742253","steam_id":85568392924367362,"keywords":["cp","nocrits","nodmgspread","uncletopia"],"game_id":440,"stv_port":27016,"stv_name":"Uncletopia | London | 1 | All Maps | STV","players":null},{"server_id":114,"name":"Uncletopia | London | 2 | All Maps","name_short":"lon-2","host":"lon-1.uk.uncletopia.com","port":27025,"enabled":true,"region":"eu","cc":"gb","latitude":51.509865,"longitude":-0.118092,"reserved":0,"last_update":"0001-01-01T00:00:00Z","name_a2s":"Uncletopia | London | 2 | All Maps","protocol":17,"map":"pl_swiftwater_final1","folder":"tf","game":"Team Fortress","app_id":440,"player_count":0,"max_players":24,"Bots":0,"server_type":"Dedicated","server_os":"Linux","password":true,"vac":true,"version":"7742253","steam_id":85568392924470941,"keywords":["nocrits","nodmgspread","payload","uncletopia"],"game_id":440,"stv_port":27026,"stv_name":"Uncletopia | London | 2 | All Maps | STV","players":null},{"server_id":320,"name":"Uncletopia | London | 3 | All Maps","name_short":"lon-3","host":"lon-1.uk.uncletopia.com","port":27035,"enabled":true,"region":"eu","cc":"gb","latitude":51.509865,"longitude":-0.118092,"reserved":0,"last_update":"0001-01-01T00:00:00Z","name_a2s":"Uncletopia | London | 3 | All Maps","protocol":17,"map":"pl_upward","folder":"tf","game":"Team Fortress","app_id":440,"player_count":0,"max_players":24,"Bots":0,"server_type":"Dedicated","server_os":"Linux","password":true,"vac":true,"version":"7742253","steam_id":85568392924510192,"keywords":["nocrits","nodmgspread","payload","uncletopia"],"game_id":440,"stv_port":27036,"stv_name":"Uncletopia | London | 3 | All Maps | STV","players":null},{"server_id":321,"name":"Uncletopia | London | 4 | All Maps","name_short":"lon-4","host":"lon-1.uk.uncletopia.com","port":27045,"enabled":true,"region":"eu","cc":"gb","latitude":51.509865,"longitude":-0.118092,"reserved":0,"last_update":"0001-01-01T00:00:00Z","name_a2s":"Uncletopia | London | 4 | All Maps","protocol":17,"map":"pl_pier","folder":"tf","game":"Team Fortress","app_id":440,"player_count":19,"max_players":24,"Bots":0,"server_type":"Dedicated","server_os":"Linux","password":true,"vac":true,"version":"7742253","steam_id":85568392924510193,"keywords":["nocrits","nodmgspread","payload","uncletopia"],"game_id":440,"stv_port":27046,"stv_name":"Uncletopia | London | 4 | All Maps | STV","players":[{"user_id":75,"name":"DavyJonesTF2","steam_id":76561199179229440,"connected_time":744000000000,"state":"active","ping":113},{"user_id":71,"name":"concussion gaming","steam_id":76561198425494530,"connected_time":1435000000000,"state":"active","ping":109},{"user_id":7,"name":"Borat","steam_id":76561198122226417,"connected_time":5922000000000,"state":"active","ping":43},{"user_id":72,"name":"marsel","steam_id":76561198116168271,"connected_time":1201000000000,"state":"active","ping":81},{"user_id":9,"name":"R A S M U S","steam_id":76561198279799226,"connected_time":5906000000000,"state":"active","ping":64},{"user_id":73,"name":"iMac G3","steam_id":76561199039424416,"connected_time":1167000000000,"state":"active","ping":163},{"user_id":35,"name":"jaime8D","steam_id":76561197980590671,"connected_time":5424000000000,"state":"active","ping":85},{"user_id":67,"name":"тукку ирма","steam_id":76561197998715016,"connected_time":1992000000000,"state":"active","ping":60},{"user_id":42,"name":"Sodsboy","steam_id":76561198030482006,"connected_time":3924000000000,"state":"active","ping":45},{"user_id":46,"name":"the boil","steam_id":76561199236080782,"connected_time":3729000000000,"state":"active","ping":133},{"user_id":52,"name":"BlueBlueFox","steam_id":76561198053817230,"connected_time":3290000000000,"state":"active","ping":73},{"user_id":17,"name":"hushhx","steam_id":76561198216200092,"connected_time":5884000000000,"state":"active","ping":45},{"user_id":76,"name":"zaamnsizofren","steam_id":76561199265839834,"connected_time":680000000000,"state":"active","ping":93},{"user_id":57,"name":"Chilchang Billing","steam_id":76561197993300020,"connected_time":2719000000000,"state":"active","ping":75},{"user_id":54,"name":"Homicidal Tendencies","steam_id":76561198828681043,"connected_time":3186000000000,"state":"active","ping":32},{"user_id":27,"name":"K.V. #RemoveRandomCrits","steam_id":76561197994832993,"connected_time":5725000000000,"state":"active","ping":68},{"user_id":77,"name":"Bonkers (f2p)","steam_id":76561199438106716,"connected_time":596000000000,"state":"active","ping":165},{"user_id":65,"name":"BONK","steam_id":76561199120275042,"connected_time":2162000000000,"state":"active","ping":60},{"user_id":78,"name":"Microsoft Excel","steam_id":76561199216713634,"connected_time":342000000000,"state":"active","ping":194}]},{"server_id":21,"name":"Uncletopia | London | 5 | All Maps","name_short":"lon-5","host":"lon-1.uk.uncletopia.com","port":27055,"enabled":true,"region":"eu","cc":"gb","latitude":51.509865,"longitude":-0.118092,"reserved":0,"last_update":"0001-01-01T00:00:00Z","name_a2s":"Uncletopia | London | 5 | All Maps","protocol":17,"map":"pl_frontier_final","folder":"tf","game":"Team Fortress","app_id":440,"player_count":0,"max_players":24,"Bots":0,"server_type":"Dedicated","server_os":"Linux","password":true,"vac":true,"version":"7742253","steam_id":85568392924742829,"keywords":["nocrits","nodmgspread","payload","uncletopia"],"game_id":440,"stv_port":27056,"stv_name":"Uncletopia | London | 5 | All Maps | STV","players":null},{"server_id":22,"name":"Uncletopia | London | 6 | All Maps","name_short":"lon-6","host":"lon-1.uk.uncletopia.com","port":27065,"enabled":true,"region":"eu","cc":"gb","latitude":51.509865,"longitude":-0.118092,"reserved":0,"last_update":"0001-01-01T00:00:00Z","name_a2s":"Uncletopia | London | 6 | All Maps","protocol":17,"map":"pl_borneo","folder":"tf","game":"Team Fortress","app_id":440,"player_count":0,"max_players":24,"Bots":0,"server_type":"Dedicated","server_os":"Linux","password":true,"vac":true,"version":"7742253","steam_id":85568392924742830,"keywords":["nocrits","nodmgspread","payload","uncletopia"],"game_id":440,"stv_port":27066,"stv_name":"Uncletopia | London | 6 | All Maps | STV","players":null},{"server_id":40,"name":"Uncletopia | London | 7 | No Payload","name_short":"lon-7","host":"lon-1.uk.uncletopia.com","port":27075,"enabled":true,"region":"eu","cc":"gb","latitude":51.509865,"longitude":-0.118092,"reserved":0,"last_update":"0001-01-01T00:00:00Z","name_a2s":"Uncletopia | London | 7 | No Payload","protocol":17,"map":"koth_viaduct","folder":"tf","game":"Team Fortress","app_id":440,"player_count":0,"max_players":24,"Bots":0,"server_type":"Dedicated","server_os":"Linux","password":true,"vac":true,"version":"7742253","steam_id":85568392924964314,"keywords":["cp","nocrits","nodmgspread","uncletopia"],"game_id":440,"stv_port":27076,"stv_name":"Uncletopia | London | 7 | No Payload | STV","players":null},{"server_id":41,"name":"Uncletopia | London | 8 | Community","name_short":"lon-8","host":"lon-1.uk.uncletopia.com","port":27085,"enabled":true,"region":"eu","cc":"gb","latitude":51.509865,"longitude":-0.118092,"reserved":0,"last_update":"0001-01-01T00:00:00Z","name_a2s":"Uncletopia | London | 8 | Community","protocol":17,"map":"cp_altitude","folder":"tf","game":"Team Fortress","app_id":440,"player_count":0,"max_players":24,"Bots":0,"server_type":"Dedicated","server_os":"Linux","password":true,"vac":true,"version":"7742253","steam_id":85568392924964315,"keywords":["cp","nocrits","nodmgspread","uncletopia"],"game_id":440,"stv_port":27086,"stv_name":"Uncletopia | London | 8 | Community | STV","players":null},{"server_id":300,"name":"Uncletopia | Montréal | 1 | All Maps","name_short":"mtl-1","host":"mtl-1.ca.uncletopia.com","port":27015,"enabled":true,"region":"us-east","cc":"ca","latitude":45.50889,"longitude":-73.56167,"reserved":0,"last_update":"0001-01-01T00:00:00Z","name_a2s":"Uncletopia | Montréal | 1 | All Maps","protocol":17,"map":"cp_snakewater_final1","folder":"tf","game":"Team Fortress","app_id":440,"player_count":0,"max_players":24,"Bots":0,"server_type":"Dedicated","server_os":"Linux","password":true,"vac":true,"version":"7742253","steam_id":85568392924500087,"keywords":["cp","nocrits","nodmgspread","uncletopia"],"game_id":440,"stv_port":27016,"stv_name":"Uncletopia | Montréal | 1 | All Maps | STV","players":null},{"server_id":301,"name":"Uncletopia | Montréal | 2 | All Maps","name_short":"mtl-2","host":"mtl-1.ca.uncletopia.com","port":27025,"enabled":true,"region":"us-east","cc":"ca","latitude":45.50889,"longitude":-73.56167,"reserved":0,"last_update":"0001-01-01T00:00:00Z","name_a2s":"Uncletopia | Montréal | 2 | All Maps","protocol":17,"map":"koth_highpass","folder":"tf","game":"Team Fortress","app_id":440,"player_count":0,"max_players":24,"Bots":0,"server_type":"Dedicated","server_os":"Linux","password":true,"vac":true,"version":"7742253","steam_id":85568392924500088,"keywords":["cp","nocrits","nodmgspread","uncletopia"],"game_id":440,"stv_port":27026,"stv_name":"Uncletopia | Montréal | 2 | All Maps | STV","players":null},{"server_id":302,"name":"Uncletopia | Montréal | 3 | All Maps","name_short":"mtl-3","host":"mtl-1.ca.uncletopia.com","port":27035,"enabled":true,"region":"us-east","cc":"ca","latitude":45.50889,"longitude":-73.56167,"reserved":0,"last_update":"0001-01-01T00:00:00Z","name_a2s":"Uncletopia | Montréal | 3 | All Maps","protocol":17,"map":"cp_mountainlab","folder":"tf","game":"Team Fortress","app_id":440,"player_count":0,"max_players":24,"Bots":0,"server_type":"Dedicated","server_os":"Linux","password":true,"vac":true,"version":"7742253","steam_id":85568392924500089,"keywords":["cp","nocrits","nodmgspread","uncletopia"],"game_id":440,"stv_port":27036,"stv_name":"Uncletopia | Montréal | 3 | All Maps | STV","players":null},{"server_id":303,"name":"Uncletopia | Montréal | 4 | No Payload","name_short":"mtl-4","host":"mtl-1.ca.uncletopia.com","port":27045,"enabled":true,"region":"us-east","cc":"ca","latitude":45.50889,"longitude":-73.56167,"reserved":0,"last_update":"0001-01-01T00:00:00Z","name_a2s":"Uncletopia | Montréal | 4 | No Payload","protocol":17,"map":"cp_snakewater_final1","folder":"tf","game":"Team Fortress","app_id":440,"player_count":0,"max_players":24,"Bots":0,"server_type":"Dedicated","server_os":"Linux","password":true,"vac":true,"version":"7742253","steam_id":85568392924500090,"keywords":["cp","nocrits","nodmgspread","uncletopia"],"game_id":440,"stv_port":27046,"stv_name":"Uncletopia | Montréal | 4 | No Payload | STV","players":null},{"server_id":13,"name":"Uncletopia | New York City | 1 | All Maps","name_short":"nyc-1","host":"nyc-1.us.uncletopia.com","port":27015,"enabled":true,"region":"us-east","cc":"us","latitude":40.73061,"longitude":-73.93524,"reserved":0,"last_update":"0001-01-01T00:00:00Z","name_a2s":"Uncletopia | New York City | 1 | All Maps","protocol":17,"map":"pl_badwater","folder":"tf","game":"Team Fortress","app_id":440,"player_count":23,"max_players":24,"Bots":0,"server_type":"Dedicated","server_os":"Linux","password":true,"vac":true,"version":"7742253","steam_id":85568392924469993,"keywords":["nocrits","nodmgspread","payload","uncletopia"],"game_id":440,"stv_port":27016,"stv_name":"Uncletopia | New York City | 1 | All Maps | STV","players":[{"user_id":90,"name":"DO NOT call me BART SIMPSON!!","steam_id":76561198069113375,"connected_time":881000000000,"state":"active","ping":59},{"user_id":4,"name":"Laelaps","steam_id":76561198100061416,"connected_time":5937000000000,"state":"active","ping":49},{"user_id":65,"name":"Fluffeline","steam_id":76561198352909489,"connected_time":2631000000000,"state":"active","ping":139},{"user_id":89,"name":"corrupted spy","steam_id":76561198018689620,"connected_time":909000000000,"state":"active","ping":125},{"user_id":79,"name":"(Not) Count Dante","steam_id":76561199446410166,"connected_time":1307000000000,"state":"active","ping":76},{"user_id":93,"name":"totally not a pile of beans","steam_id":76561198119851931,"connected_time":824000000000,"state":"active","ping":63},{"user_id":92,"name":"Gugus, Glutton of Crayons","steam_id":76561198101570471,"connected_time":853000000000,"state":"active","ping":55},{"user_id":71,"name":"измученный","steam_id":76561198882916603,"connected_time":2131000000000,"state":"active","ping":108},{"user_id":88,"name":"F@","steam_id":76561198019735105,"connected_time":934000000000,"state":"active","ping":35},{"user_id":94,"name":"Morphe","steam_id":76561197999279039,"connected_time":783000000000,"state":"active","ping":77},{"user_id":95,"name":"iCarly Lore Expert","steam_id":76561198111902910,"connected_time":752000000000,"state":"active","ping":118},{"user_id":101,"name":"Taco","steam_id":76561198158621392,"connected_time":335000000000,"state":"active","ping":61},{"user_id":96,"name":"GhostCoffee","steam_id":76561198105228900,"connected_time":653000000000,"state":"active","ping":46},{"user_id":97,"name":"X_MAS","steam_id":76561198211529143,"connected_time":631000000000,"state":"active","ping":86},{"user_id":102,"name":"christmas larguu","steam_id":76561197994336210,"connected_time":283000000000,"state":"active","ping":44},{"user_id":68,"name":"hashmap","steam_id":76561198043794014,"connected_time":2324000000000,"state":"active","ping":62},{"user_id":98,"name":"foil eater","steam_id":76561198827648455,"connected_time":544000000000,"state":"active","ping":82},{"user_id":99,"name":"Final_MarioXD","steam_id":76561199184862419,"connected_time":495000000000,"state":"active","ping":112},{"user_id":103,"name":"jorjor wells","steam_id":76561199073429082,"connected_time":225000000000,"state":"active","ping":56},{"user_id":87,"name":"Bee_Pirate","steam_id":76561199000599111,"connected_time":977000000000,"state":"active","ping":59},{"user_id":104,"name":"wile","steam_id":76561198125261443,"connected_time":100000000000,"state":"active","ping":118},{"user_id":84,"name":"A Fruit","steam_id":76561198951830050,"connected_time":1227000000000,"state":"active","ping":85},{"user_id":62,"name":"ctap2lean","steam_id":76561198068538473,"connected_time":2995000000000,"state":"active","ping":90}]},{"server_id":14,"name":"Uncletopia | New York City | 2 | All Maps","name_short":"nyc-2","host":"nyc-1.us.uncletopia.com","port":27025,"enabled":true,"region":"us-east","cc":"us","latitude":40.73061,"longitude":-73.93524,"reserved":0,"last_update":"0001-01-01T00:00:00Z","name_a2s":"Uncletopia | New York City | 2 | All Maps","protocol":17,"map":"cp_gravelpit","folder":"tf","game":"Team Fortress","app_id":440,"player_count":12,"max_players":24,"Bots":0,"server_type":"Dedicated","server_os":"Linux","password":true,"vac":true,"version":"7742253","steam_id":85568392924469994,"keywords":["cp","nocrits","nodmgspread","uncletopia"],"game_id":440,"stv_port":27026,"stv_name":"Uncletopia | New York City | 2 | All Maps | STV","players":[{"user_id":81,"name":"Vaude","steam_id":76561198369187511,"connected_time":290000000000,"state":"active","ping":49},{"user_id":58,"name":"J The Jounin","steam_id":76561198034583622,"connected_time":2692000000000,"state":"active","ping":81},{"user_id":79,"name":"Bashirider","steam_id":76561198260522253,"connected_time":1078000000000,"state":"active","ping":46},{"user_id":20,"name":"Green","steam_id":76561198003139381,"connected_time":3718000000000,"state":"active","ping":66},{"user_id":50,"name":"im using tilt controls!","steam_id":76561198295690725,"connected_time":2763000000000,"state":"active","ping":70},{"user_id":61,"name":"[IA]SchrödingersCat","steam_id":76561197995313389,"connected_time":2500000000000,"state":"active","ping":79},{"user_id":65,"name":"Lumpy","steam_id":76561198058840585,"connected_time":2405000000000,"state":"active","ping":44},{"user_id":28,"name":"BlinkEcho","steam_id":76561198134004689,"connected_time":3528000000000,"state":"active","ping":75},{"user_id":78,"name":"glitchhero12","steam_id":76561199401322907,"connected_time":1140000000000,"state":"active","ping":74},{"user_id":77,"name":"the deadliest pyroshark","steam_id":76561198374227766,"connected_time":1146000000000,"state":"active","ping":67},{"user_id":60,"name":"comet sooicidy","steam_id":76561198025173479,"connected_time":2577000000000,"state":"active","ping":80},{"user_id":54,"name":"DoodrunDoesThings","steam_id":76561198002103683,"connected_time":2717000000000,"state":"active","ping":48}]},{"server_id":15,"name":"Uncletopia | New York City | 3 | Stopwatch Beta","name_short":"nyc-3","host":"nyc-1.us.uncletopia.com","port":27035,"enabled":true,"region":"us-east","cc":"us","latitude":40.73061,"longitude":-73.93524,"reserved":0,"last_update":"0001-01-01T00:00:00Z","name_a2s":"Uncletopia | New York City | 3 | Stopwatch Beta","protocol":17,"map":"pl_pier","folder":"tf","game":"Team Fortress","app_id":440,"player_count":0,"max_players":24,"Bots":0,"server_type":"Dedicated","server_os":"Linux","password":true,"vac":true,"version":"7742253","steam_id":85568392924742820,"keywords":["nocrits","nodmgspread","payload","uncletopia"],"game_id":440,"stv_port":27036,"stv_name":"Uncletopia | New York City | 3 | Stopwatch Beta | STV","players":null},{"server_id":16,"name":"Uncletopia | New York City | 4 | Community","name_short":"nyc-4","host":"nyc-1.us.uncletopia.com","port":27045,"enabled":true,"region":"us-east","cc":"us","latitude":40.73061,"longitude":-73.93524,"reserved":0,"last_update":"0001-01-01T00:00:00Z","name_a2s":"Uncletopia | New York City | 4 | Community","protocol":17,"map":"koth_viaduct","folder":"tf","game":"Team Fortress","app_id":440,"player_count":0,"max_players":24,"Bots":0,"server_type":"Dedicated","server_os":"Linux","password":true,"vac":true,"version":"7742253","steam_id":85568392924742821,"keywords":["cp","nocrits","nodmgspread","uncletopia"],"game_id":440,"stv_port":27046,"stv_name":"Uncletopia | New York City | 4 | Community | STV","players":null},{"server_id":142,"name":"Uncletopia | São Paulo | 1 | All Maps","name_short":"sao-1","host":"sao-1.br.uncletopia.com","port":27015,"enabled":true,"region":"sa","cc":"br","latitude":-23.533773,"longitude":-46.62529,"reserved":0,"last_update":"0001-01-01T00:00:00Z","name_a2s":"Uncletopia | São Paulo | 1 | All Maps","protocol":17,"map":"koth_viaduct","folder":"tf","game":"Team Fortress","app_id":440,"player_count":4,"max_players":24,"Bots":0,"server_type":"Dedicated","server_os":"Linux","password":true,"vac":true,"version":"7742253","steam_id":85568392924469996,"keywords":["cp","nocrits","nodmgspread","uncletopia"],"game_id":440,"stv_port":27016,"stv_name":"Uncletopia | São Paulo | 1 | All Maps | STV","players":[{"user_id":4,"name":"Purgaman","steam_id":76561198151571613,"connected_time":1184000000000,"state":"active","ping":97},{"user_id":5,"name":"darkvisions02","steam_id":76561198179326869,"connected_time":1121000000000,"state":"active","ping":103},{"user_id":6,"name":"blazkin","steam_id":76561198136326054,"connected_time":1119000000000,"state":"active","ping":103},{"user_id":9,"name":"PatrickBL10","steam_id":76561198261251780,"connected_time":812000000000,"state":"active","ping":85}]},{"server_id":143,"name":"Uncletopia | São Paulo | 2 | All Maps","name_short":"sao-2","host":"sao-2.br.uncletopia.com","port":27015,"enabled":true,"region":"sa","cc":"br","latitude":-23.533773,"longitude":-46.62529,"reserved":0,"last_update":"0001-01-01T00:00:00Z","name_a2s":"Uncletopia | São Paulo | 2 | All Maps","protocol":17,"map":"koth_viaduct","folder":"tf","game":"Team Fortress","app_id":440,"player_count":0,"max_players":24,"Bots":0,"server_type":"Dedicated","server_os":"Linux","password":true,"vac":true,"version":"7742253","steam_id":85568392924485349,"keywords":["cp","nocrits","nodmgspread","uncletopia"],"game_id":440,"stv_port":27016,"stv_name":"Uncletopia | São Paulo | 2 | All Maps | STV","players":null},{"server_id":7,"name":"Uncletopia | Seattle | 1 | All Maps","name_short":"sea-1","host":"sea-1.us.uncletopia.com","port":27015,"enabled":true,"region":"us-west","cc":"us","latitude":47.608013,"longitude":-122.33517,"reserved":0,"last_update":"0001-01-01T00:00:00Z","name_a2s":"Uncletopia | Seattle | 1 | All Maps","protocol":17,"map":"pl_barnblitz","folder":"tf","game":"Team Fortress","app_id":440,"player_count":24,"max_players":24,"Bots":0,"server_type":"Dedicated","server_os":"Linux","password":true,"vac":true,"version":"7742253","steam_id":85568392924469997,"keywords":["nocrits","nodmgspread","payload","uncletopia"],"game_id":440,"stv_port":27016,"stv_name":"Uncletopia | Seattle | 1 | All Maps | STV","players":[{"user_id":88,"name":"bunter3","steam_id":76561198238828276,"connected_time":316000000000,"state":"active","ping":110},{"user_id":61,"name":"trapper wit som swag+i lurk too","steam_id":76561198885055475,"connected_time":2422000000000,"state":"active","ping":64},{"user_id":84,"name":"ed","steam_id":76561198080475712,"connected_time":403000000000,"state":"active","ping":64},{"user_id":85,"name":"L","steam_id":76561198348525944,"connected_time":400000000000,"state":"active","ping":76},{"user_id":77,"name":"Dreamworks","steam_id":76561198025454291,"connected_time":1008000000000,"state":"active","ping":41},{"user_id":42,"name":"Arsonist Goose","steam_id":76561198147441830,"connected_time":4282000000000,"state":"active","ping":74},{"user_id":9,"name":"Mignyanne :3","steam_id":76561198048754056,"connected_time":5886000000000,"state":"active","ping":68},{"user_id":60,"name":"fadedthanaho","steam_id":76561198131166135,"connected_time":2581000000000,"state":"active","ping":43},{"user_id":80,"name":"Amadeus","steam_id":76561198160047173,"connected_time":937000000000,"state":"active","ping":40},{"user_id":20,"name":"Aardappel","steam_id":76561198030894676,"connected_time":5868000000000,"state":"active","ping":67},{"user_id":70,"name":"just leo","steam_id":76561198094491158,"connected_time":1614000000000,"state":"active","ping":73},{"user_id":57,"name":"Neowudan","steam_id":76561198136850867,"connected_time":2964000000000,"state":"active","ping":101},{"user_id":81,"name":"Forty","steam_id":76561198257410181,"connected_time":890000000000,"state":"active","ping":55},{"user_id":71,"name":"The Pepsi® Superbowl®!","steam_id":76561198080828981,"connected_time":1573000000000,"state":"active","ping":74},{"user_id":89,"name":"s4lmon","steam_id":76561198055882807,"connected_time":301000000000,"state":"active","ping":56},{"user_id":83,"name":"Savant","steam_id":76561197969881916,"connected_time":568000000000,"state":"active","ping":59},{"user_id":72,"name":"Room Temperature Water","steam_id":76561198170663649,"connected_time":1563000000000,"state":"active","ping":86},{"user_id":47,"name":"mooney","steam_id":76561199110622484,"connected_time":4087000000000,"state":"active","ping":56},{"user_id":86,"name":"Yuzu","steam_id":76561198417913035,"connected_time":389000000000,"state":"active","ping":146},{"user_id":75,"name":"Roberto™","steam_id":76561198856969918,"connected_time":1184000000000,"state":"active","ping":86},{"user_id":24,"name":"Loo7 Ca$hual","steam_id":76561198011675372,"connected_time":5862000000000,"state":"active","ping":62},{"user_id":91,"name":"Chris P. Wiener","steam_id":76561198168808551,"connected_time":36000000000,"state":"active","ping":63},{"user_id":74,"name":"Idontknow","steam_id":76561199207044048,"connected_time":1321000000000,"state":"active","ping":48},{"user_id":76,"name":"bbbbb","steam_id":76561198095480838,"connected_time":1037000000000,"state":"active","ping":54}]},{"server_id":119,"name":"Uncletopia | Seattle | 2 | All Maps","name_short":"sea-2","host":"sea-1.us.uncletopia.com","port":27025,"enabled":true,"region":"us-west","cc":"us","latitude":47.608013,"longitude":-122.33517,"reserved":0,"last_update":"0001-01-01T00:00:00Z","name_a2s":"Uncletopia | Seattle | 2 | All Maps","protocol":17,"map":"pl_upward","folder":"tf","game":"Team Fortress","app_id":440,"player_count":24,"max_players":24,"Bots":0,"server_type":"Dedicated","server_os":"Linux","password":true,"vac":true,"version":"7742253","steam_id":85568392924469998,"keywords":["nocrits","nodmgspread","payload","uncletopia"],"game_id":440,"stv_port":27026,"stv_name":"Uncletopia | Seattle | 2 | All Maps | STV","players":[{"user_id":3,"name":"ORANGE","steam_id":76561198000401769,"connected_time":5863000000000,"state":"active","ping":48},{"user_id":74,"name":"nescoceo","steam_id":76561198040801160,"connected_time":439000000000,"state":"active","ping":78},{"user_id":5,"name":"strong and healthy gamer","steam_id":76561198049489349,"connected_time":5860000000000,"state":"active","ping":61},{"user_id":35,"name":"Femboi Fox","steam_id":76561198915758702,"connected_time":4456000000000,"state":"active","ping":64},{"user_id":7,"name":"General Fisticuffs","steam_id":76561198255721392,"connected_time":5858000000000,"state":"active","ping":108},{"user_id":8,"name":"KingTinkerer","steam_id":76561198226856548,"connected_time":5844000000000,"state":"active","ping":64},{"user_id":9,"name":"chloé","steam_id":76561198858926895,"connected_time":5836000000000,"state":"active","ping":34},{"user_id":10,"name":"the dingler man","steam_id":76561199099203623,"connected_time":5831000000000,"state":"active","ping":97},{"user_id":43,"name":"Violet K.","steam_id":76561198062963842,"connected_time":3755000000000,"state":"active","ping":93},{"user_id":71,"name":"mumbles","steam_id":76561197994528974,"connected_time":1199000000000,"state":"active","ping":81},{"user_id":75,"name":"mean penguin","steam_id":76561198174751517,"connected_time":327000000000,"state":"active","ping":77},{"user_id":73,"name":"Bedtime Stories","steam_id":76561198823083676,"connected_time":929000000000,"state":"active","ping":90},{"user_id":76,"name":"butt3r_","steam_id":76561198156374792,"connected_time":282000000000,"state":"active","ping":48},{"user_id":77,"name":"mynameisatif1","steam_id":76561199062993493,"connected_time":255000000000,"state":"active","ping":45},{"user_id":78,"name":"John Wick's puppy","steam_id":76561198064662875,"connected_time":215000000000,"state":"active","ping":69},{"user_id":79,"name":"whatzhisface","steam_id":76561198127891646,"connected_time":179000000000,"state":"active","ping":95},{"user_id":57,"name":"grey","steam_id":76561198050618142,"connected_time":2725000000000,"state":"active","ping":52},{"user_id":52,"name":"zoiboi","steam_id":76561198069598590,"connected_time":3274000000000,"state":"active","ping":75},{"user_id":24,"name":"sara","steam_id":76561198283462369,"connected_time":5724000000000,"state":"active","ping":103},{"user_id":80,"name":"Life is Pain I Hate","steam_id":76561198184565718,"connected_time":143000000000,"state":"active","ping":80},{"user_id":58,"name":"smollafell","steam_id":76561198061229113,"connected_time":2707000000000,"state":"active","ping":57},{"user_id":81,"name":"Sprucelass","steam_id":76561197998391724,"connected_time":126000000000,"state":"active","ping":101},{"user_id":27,"name":"NEBULA3LEM123","steam_id":76561198095433728,"connected_time":5693000000000,"state":"active","ping":76},{"user_id":70,"name":"lili.winters","steam_id":76561199391478575,"connected_time":1820000000000,"state":"active","ping":68}]},{"server_id":406,"name":"Uncletopia | Seattle | 3 | Stopwatch Beta","name_short":"sea-3","host":"sea-1.us.uncletopia.com","port":27035,"enabled":true,"region":"us-west","cc":"us","latitude":47.608013,"longitude":-122.33517,"reserved":0,"last_update":"0001-01-01T00:00:00Z","name_a2s":"Uncletopia | Seattle | 3 | Stopwatch Beta","protocol":17,"map":"workshop/koth_ramjam_rc1.ugc459778887","folder":"tf","game":"Team Fortress","app_id":440,"player_count":17,"max_players":24,"Bots":0,"server_type":"Dedicated","server_os":"Linux","password":true,"vac":true,"version":"7742253","steam_id":85568392924515217,"keywords":["cp","nocrits","nodmgspread","uncletopia"],"game_id":440,"stv_port":27036,"stv_name":"Uncletopia | Seattle | 3 | Stopwatch Beta | STV","players":[{"user_id":5,"name":"Calliope (She/her)","steam_id":76561198363290416,"connected_time":2376000000000,"state":"active","ping":80},{"user_id":6,"name":"Jesus Hooves (She/Her)","steam_id":76561198884198807,"connected_time":2369000000000,"state":"active","ping":63},{"user_id":23,"name":"Sivinus","steam_id":76561198025589541,"connected_time":1260000000000,"state":"active","ping":85},{"user_id":34,"name":"_spaceman_","steam_id":76561198353808504,"connected_time":50000000000,"state":"active","ping":119},{"user_id":10,"name":"Best Bleach","steam_id":76561198090216348,"connected_time":2299000000000,"state":"active","ping":62},{"user_id":18,"name":"Yoyo-Wo","steam_id":76561198880520205,"connected_time":1491000000000,"state":"active","ping":80},{"user_id":33,"name":"L1-L14-N4","steam_id":76561198100354457,"connected_time":281000000000,"state":"active","ping":110},{"user_id":14,"name":"♥FemboyProtogen♥","steam_id":76561198095113830,"connected_time":1734000000000,"state":"active","ping":62},{"user_id":25,"name":"TheMadDoctor(He/Him)","steam_id":76561198846198407,"connected_time":1157000000000,"state":"active","ping":43},{"user_id":16,"name":"THICC BOI FRE$H","steam_id":76561198357599249,"connected_time":1613000000000,"state":"active","ping":62},{"user_id":19,"name":"Femboy Gaming","steam_id":76561198075027029,"connected_time":1444000000000,"state":"active","ping":112},{"user_id":20,"name":"Seriously Bruh","steam_id":76561198070408485,"connected_time":1429000000000,"state":"active","ping":62},{"user_id":21,"name":"Reaper","steam_id":76561198435826103,"connected_time":1429000000000,"state":"active","ping":122},{"user_id":22,"name":"SmallErection","steam_id":76561198071770147,"connected_time":1427000000000,"state":"active","ping":54},{"user_id":28,"name":"LizardGames","steam_id":76561199147525483,"connected_time":859000000000,"state":"active","ping":42},{"user_id":29,"name":"Jackie (She/They)","steam_id":76561199096964288,"connected_time":785000000000,"state":"active","ping":85},{"user_id":32,"name":"PorgyPork","steam_id":76561198824399078,"connected_time":442000000000,"state":"active","ping":52}]},{"server_id":17,"name":"Uncletopia | San Francisco | 1 | All Maps","name_short":"sfo-1","host":"sfo-1.us.uncletopia.com","port":27015,"enabled":true,"region":"us-west","cc":"us","latitude":37.77397,"longitude":-122.4313,"reserved":0,"last_update":"0001-01-01T00:00:00Z","name_a2s":"Uncletopia | San Francisco | 1 | All Maps","protocol":17,"map":"cp_altitude","folder":"tf","game":"Team Fortress","app_id":440,"player_count":0,"max_players":24,"Bots":0,"server_type":"Dedicated","server_os":"Linux","password":true,"vac":true,"version":"7742253","steam_id":85568392924469999,"keywords":["cp","nocrits","nodmgspread","uncletopia"],"game_id":440,"stv_port":27016,"stv_name":"Uncletopia | San Francisco | 1 | All Maps | STV","players":null},{"server_id":18,"name":"Uncletopia | San Francisco | 2 | All Maps","name_short":"sfo-2","host":"sfo-1.us.uncletopia.com","port":27025,"enabled":true,"region":"us-west","cc":"us","latitude":37.77397,"longitude":-122.4313,"reserved":0,"last_update":"0001-01-01T00:00:00Z","name_a2s":"Uncletopia | San Francisco | 2 | All Maps","protocol":17,"map":"cp_altitude","folder":"tf","game":"Team Fortress","app_id":440,"player_count":0,"max_players":24,"Bots":0,"server_type":"Dedicated","server_os":"Linux","password":true,"vac":true,"version":"7742253","steam_id":85568392924470000,"keywords":["cp","nocrits","nodmgspread","uncletopia"],"game_id":440,"stv_port":27026,"stv_name":"Uncletopia | San Francisco | 2 | All Maps | STV","players":null},{"server_id":19,"name":"Uncletopia | San Francisco | 3 | Stopwatch Beta","name_short":"sfo-3","host":"sfo-1.us.uncletopia.com","port":27035,"enabled":true,"region":"us-west","cc":"us","latitude":37.77397,"longitude":-122.4313,"reserved":0,"last_update":"0001-01-01T00:00:00Z","name_a2s":"Uncletopia | San Francisco | 3 | Stopwatch Beta","protocol":17,"map":"cp_snakewater_final1","folder":"tf","game":"Team Fortress","app_id":440,"player_count":0,"max_players":24,"Bots":0,"server_type":"Dedicated","server_os":"Linux","password":true,"vac":true,"version":"7742253","steam_id":85568392924742824,"keywords":["cp","nocrits","nodmgspread","uncletopia"],"game_id":440,"stv_port":27036,"stv_name":"Uncletopia | San Francisco | 3 | Stopwatch Beta | STV","players":null},{"server_id":20,"name":"Uncletopia | San Francisco | 4 | Community","name_short":"sfo-4","host":"sfo-1.us.uncletopia.com","port":27045,"enabled":true,"region":"us-west","cc":"us","latitude":37.77397,"longitude":-122.4313,"reserved":0,"last_update":"0001-01-01T00:00:00Z","name_a2s":"Uncletopia | San Francisco | 4 | Community","protocol":17,"map":"cp_dustbowl","folder":"tf","game":"Team Fortress","app_id":440,"player_count":0,"max_players":24,"Bots":0,"server_type":"Dedicated","server_os":"Linux","password":true,"vac":true,"version":"7742253","steam_id":85568392924742826,"keywords":["cp","nocrits","nodmgspread","uncletopia"],"game_id":440,"stv_port":27046,"stv_name":"Uncletopia | San Francisco | 4 | Community | STV","players":null},{"server_id":141,"name":"Uncletopia | Sydney | 1 | All Maps","name_short":"syd-1","host":"syd-1.au.uncletopia.com","port":27015,"enabled":true,"region":"au","cc":"au","latitude":-33.865143,"longitude":151.2099,"reserved":0,"last_update":"0001-01-01T00:00:00Z","name_a2s":"Uncletopia | Sydney | 1 | All Maps","protocol":17,"map":"pl_upward","folder":"tf","game":"Team Fortress","app_id":440,"player_count":13,"max_players":24,"Bots":0,"server_type":"Dedicated","server_os":"Linux","password":true,"vac":true,"version":"7742253","steam_id":85568392924470001,"keywords":["nocrits","nodmgspread","payload","uncletopia"],"game_id":440,"stv_port":27016,"stv_name":"Uncletopia | Sydney | 1 | All Maps | STV","players":[{"user_id":24,"name":"coolwmodd","steam_id":76561198810006891,"connected_time":1286000000000,"state":"active","ping":37},{"user_id":25,"name":"itz_gh0stly","steam_id":76561199253775458,"connected_time":827000000000,"state":"active","ping":71},{"user_id":26,"name":"mmph mmmmmmmmm","steam_id":76561198268638706,"connected_time":629000000000,"state":"active","ping":248},{"user_id":27,"name":"Tnttoad","steam_id":76561198297360775,"connected_time":409000000000,"state":"active","ping":40},{"user_id":28,"name":"piss","steam_id":76561199230221816,"connected_time":383000000000,"state":"active","ping":53},{"user_id":30,"name":"callistoAshley","steam_id":76561198178116375,"connected_time":276000000000,"state":"active","ping":37},{"user_id":31,"name":"blaze","steam_id":76561198241303512,"connected_time":274000000000,"state":"active","ping":54},{"user_id":32,"name":"obfusc","steam_id":76561199388029472,"connected_time":160000000000,"state":"active","ping":61},{"user_id":33,"name":"zen","steam_id":76561198302670452,"connected_time":125000000000,"state":"active","ping":63},{"user_id":34,"name":"demoman","steam_id":76561199083914239,"connected_time":121000000000,"state":"active","ping":57},{"user_id":36,"name":"bogan on a fence","steam_id":76561198052032702,"connected_time":81000000000,"state":"active","ping":45},{"user_id":37,"name":"Bagetty","steam_id":76561198325088668,"connected_time":45000000000,"state":"active","ping":52},{"user_id":39,"name":"Stayfucking1.5metresaway","steam_id":76561198070569251,"connected_time":28000000000,"state":"active","ping":50}]},{"server_id":123,"name":"Uncletopia | Sydney | 2 | All Maps","name_short":"syd-2","host":"syd-1.au.uncletopia.com","port":27025,"enabled":true,"region":"au","cc":"au","latitude":-33.865143,"longitude":151.2099,"reserved":0,"last_update":"0001-01-01T00:00:00Z","name_a2s":"Uncletopia | Sydney | 2 | All Maps","protocol":17,"map":"ctf_2fort","folder":"tf","game":"Team Fortress","app_id":440,"player_count":0,"max_players":24,"Bots":0,"server_type":"Dedicated","server_os":"Linux","password":true,"vac":true,"version":"7742253","steam_id":85568392924470002,"keywords":["ctf","nocrits","nodmgspread","uncletopia"],"game_id":440,"stv_port":27026,"stv_name":"Uncletopia | Sydney | 2 | All Maps | STV","players":null},{"server_id":395,"name":"Uncletopia | Sydney | 3 | All Maps","name_short":"syd-3","host":"syd-1.au.uncletopia.com","port":27035,"enabled":true,"region":"au","cc":"au","latitude":-33.865143,"longitude":151.2099,"reserved":0,"last_update":"0001-01-01T00:00:00Z","name_a2s":"Uncletopia | Sydney | 3 | All Maps","protocol":17,"map":"ctf_2fort","folder":"tf","game":"Team Fortress","app_id":440,"player_count":0,"max_players":24,"Bots":0,"server_type":"Dedicated","server_os":"Linux","password":true,"vac":true,"version":"7742253","steam_id":85568392925194467,"keywords":["ctf","nocrits","nodmgspread","uncletopia"],"game_id":440,"stv_port":27036,"stv_name":"Uncletopia | Sydney | 3 | All Maps | STV","players":null},{"server_id":396,"name":"Uncletopia | Sydney | 4 | All Maps","name_short":"syd-4","host":"syd-1.au.uncletopia.com","port":27045,"enabled":true,"region":"au","cc":"au","latitude":-33.865143,"longitude":151.2099,"reserved":0,"last_update":"0001-01-01T00:00:00Z","name_a2s":"Uncletopia | Sydney | 4 | All Maps","protocol":17,"map":"ctf_2fort","folder":"tf","game":"Team Fortress","app_id":440,"player_count":0,"max_players":24,"Bots":0,"server_type":"Dedicated","server_os":"Linux","password":true,"vac":true,"version":"7742253","steam_id":85568392925397958,"keywords":["ctf","nocrits","nodmgspread","uncletopia"],"game_id":440,"stv_port":27046,"stv_name":"Uncletopia | Sydney | 4 | All Maps | STV","players":null},{"server_id":58,"name":"Uncletopia | Sydney | 5 | Stopwatch Beta","name_short":"syd-5","host":"syd-1.au.uncletopia.com","port":27055,"enabled":true,"region":"au","cc":"au","latitude":-33.865143,"longitude":151.2099,"reserved":0,"last_update":"0001-01-01T00:00:00Z","name_a2s":"Uncletopia | Sydney | 5 | Stopwatch Beta","protocol":17,"map":"workshop/koth_bagel_rc5.ugc2514036946","folder":"tf","game":"Team Fortress","app_id":440,"player_count":0,"max_players":24,"Bots":0,"server_type":"Dedicated","server_os":"Linux","password":true,"vac":true,"version":"7742253","steam_id":85568392925397959,"keywords":["cp","nocrits","nodmgspread","uncletopia"],"game_id":440,"stv_port":27056,"stv_name":"Uncletopia | Sydney | 5 | Stopwatch Beta | STV","players":null},{"server_id":59,"name":"Uncletopia | Sydney | 6 | Community","name_short":"syd-6","host":"syd-1.au.uncletopia.com","port":27065,"enabled":true,"region":"au","cc":"au","latitude":-33.865143,"longitude":151.2099,"reserved":0,"last_update":"0001-01-01T00:00:00Z","name_a2s":"Uncletopia | Sydney | 6 | Community","protocol":17,"map":"workshop/cp_caldera_rc2.ugc2834196889","folder":"tf","game":"Team Fortress","app_id":440,"player_count":0,"max_players":24,"Bots":0,"server_type":"Dedicated","server_os":"Linux","password":true,"vac":true,"version":"7742253","steam_id":85568392925397960,"keywords":["cp","nocrits","nodmgspread","uncletopia"],"game_id":440,"stv_port":27066,"stv_name":"Uncletopia | Sydney | 6 | Community | STV","players":null},{"server_id":49,"name":"Uncletopia | Warsaw | 1 | All Maps","name_short":"waw-1","host":"waw-1.pl.uncletopia.com","port":27015,"enabled":true,"region":"eu","cc":"pl","latitude":52.2297,"longitude":21.017532,"reserved":0,"last_update":"0001-01-01T00:00:00Z","name_a2s":"","protocol":0,"map":"","folder":"","game":"","app_id":0,"player_count":0,"max_players":0,"Bots":0,"server_type":"","server_os":"","password":false,"vac":false,"version":"","steam_id":0,"keywords":null,"game_id":0,"stv_port":0,"stv_name":"","players":null},{"server_id":50,"name":"Uncletopia | Warsaw | 2 | All Maps","name_short":"waw-2","host":"waw-1.pl.uncletopia.com","port":27025,"enabled":true,"region":"eu","cc":"pl","latitude":52.2297,"longitude":21.017532,"reserved":0,"last_update":"0001-01-01T00:00:00Z","name_a2s":"Uncletopia | Warsaw | 2 | All Maps","protocol":17,"map":"pl_upward","folder":"tf","game":"Team Fortress","app_id":440,"player_count":0,"max_players":24,"Bots":0,"server_type":"Dedicated","server_os":"Linux","password":true,"vac":true,"version":"7742253","steam_id":85568392925397851,"keywords":["nocrits","nodmgspread","payload","uncletopia"],"game_id":440,"stv_port":27026,"stv_name":"Uncletopia | Warsaw | 2 | All Maps | STV","players":null},{"server_id":51,"name":"Uncletopia | Warsaw | 3 | All Maps","name_short":"waw-3","host":"waw-1.pl.uncletopia.com","port":27035,"enabled":true,"region":"eu","cc":"pl","latitude":52.2297,"longitude":21.017532,"reserved":0,"last_update":"0001-01-01T00:00:00Z","name_a2s":"Uncletopia | Warsaw | 3 | All Maps","protocol":17,"map":"koth_lakeside_final","folder":"tf","game":"Team Fortress","app_id":440,"player_count":0,"max_players":24,"Bots":0,"server_type":"Dedicated","server_os":"Linux","password":true,"vac":true,"version":"7742253","steam_id":85568392925397852,"keywords":["cp","nocrits","nodmgspread","uncletopia"],"game_id":440,"stv_port":27036,"stv_name":"Uncletopia | Warsaw | 3 | All Maps | STV","players":null},{"server_id":52,"name":"Uncletopia | Warsaw | 4 | All Maps","name_short":"waw-4","host":"waw-1.pl.uncletopia.com","port":27045,"enabled":true,"region":"eu","cc":"pl","latitude":52.2297,"longitude":21.017532,"reserved":0,"last_update":"0001-01-01T00:00:00Z","name_a2s":"Uncletopia | Warsaw | 4 | All Maps","protocol":17,"map":"pl_upward","folder":"tf","game":"Team Fortress","app_id":440,"player_count":0,"max_players":24,"Bots":0,"server_type":"Dedicated","server_os":"Linux","password":true,"vac":true,"version":"7742253","steam_id":85568392925397853,"keywords":["nocrits","nodmgspread","payload","uncletopia"],"game_id":440,"stv_port":27046,"stv_name":"Uncletopia | Warsaw | 4 | All Maps | STV","players":null},{"server_id":53,"name":"Uncletopia | Warsaw | 5 | Stopwatch Beta","name_short":"waw-5","host":"waw-1.pl.uncletopia.com","port":27055,"enabled":true,"region":"eu","cc":"pl","latitude":52.2297,"longitude":21.017532,"reserved":0,"last_update":"0001-01-01T00:00:00Z","name_a2s":"Uncletopia | Warsaw | 5 | Stopwatch Beta","protocol":17,"map":"pl_swiftwater_final1","folder":"tf","game":"Team Fortress","app_id":440,"player_count":0,"max_players":24,"Bots":0,"server_type":"Dedicated","server_os":"Linux","password":true,"vac":true,"version":"7742253","steam_id":85568392925397854,"keywords":["nocrits","nodmgspread","payload","uncletopia"],"game_id":440,"stv_port":27056,"stv_name":"Uncletopia | Warsaw | 5 | Stopwatch Beta | STV","players":null},{"server_id":54,"name":"Uncletopia | Warsaw | 6 | Community","name_short":"waw-6","host":"waw-1.pl.uncletopia.com","port":27065,"enabled":true,"region":"eu","cc":"pl","latitude":52.2297,"longitude":21.017532,"reserved":0,"last_update":"0001-01-01T00:00:00Z","name_a2s":"Uncletopia | Warsaw | 6 | Community","protocol":17,"map":"koth_highpass","folder":"tf","game":"Team Fortress","app_id":440,"player_count":0,"max_players":24,"Bots":0,"server_type":"Dedicated","server_os":"Linux","password":true,"vac":true,"version":"7742253","steam_id":85568392925397856,"keywords":["cp","nocrits","nodmgspread","uncletopia"],"game_id":440,"stv_port":27066,"stv_name":"Uncletopia | Warsaw | 6 | Community | STV","players":null}]}