{"status":true,"message":"","result":[{"server_id":9,"name":"Uncletopia | Atlanta | 1 | All Maps","name_short":"atl-1","host":"atl-1.us.uncletopia.com","port":27015,"enabled":true,"region":"us-east","cc":"us","latitude":33.753746,"longitude":-84.38633,"reserved":0,"last_update":"0001-01-01T00:00:00Z","name_a2s":"Uncletopia | Atlanta | 1 | All Maps","protocol":17,"map":"koth_viaduct","folder":"tf","game":"Team Fortress","app_id":440,"player_count":0,"max_players":24,"Bots":0,"server_type":"Dedicated","server_os":"Linux","password":true,"vac":true,"version":"7882260","steam_id":85568392924469982,"keywords":["cp","nocrits","nodmgspread","uncletopia"],"game_id":440,"stv_port":27016,"stv_name":"Uncletopia | Atlanta | 1 | All Maps | STV","players":null},{"server_id":104,"name":"Uncletopia | Atlanta | 2 | All Maps","name_short":"atl-2","host":"atl-1.us.uncletopia.com","port":27025,"enabled":true,"region":"us-east","cc":"us","latitude":33.753746,"longitude":-84.38633,"reserved":0,"last_update":"0001-01-01T00:00:00Z","name_a2s":"Uncletopia | Atlanta | 2 | All Maps","protocol":17,"map":"cp_process_final","folder":"tf","game":"Team Fortress","app_id":440,"player_count":0,"max_players":24,"Bots":0,"server_type":"Dedicated","server_os":"Linux","password":true,"vac":true,"version":"7882260","steam_id":85568392924469983,"keywords":["cp","nocrits","nodmgspread","uncletopia"],"game_id":440,"stv_port":27026,"stv_name":"Uncletopia | Atlanta | 2 | All Maps | STV","players":null},{"server_id":400,"name":"Uncletopia | Atlanta | 3 | Community","name_short":"atl-3","host":"atl-1.us.uncletopia.com","port":27035,"enabled":true,"region":"us-east","cc":"us","latitude":33.753746,"longitude":-84.38633,"reserved":0,"last_update":"0001-01-01T00:00:00Z","name_a2s":"Uncletopia | Atlanta | 3 | Community","protocol":17,"map":"cp_sunshine","folder":"tf","game":"Team Fortress","app_id":440,"player_count":0,"max_players":24,"Bots":0,"server_type":"Dedicated","server_os":"Linux","password":true,"vac":true,"version":"7882260","steam_id":85568392924515187,"keywords":["cp","nocrits","nodmgspread","uncletopia"],"game_id":440,"stv_port":27036,"stv_name":"Uncletopia | Atlanta | 3 | Community | STV","players":null},{"server_id":401,"name":"Uncletopia | Atlanta | 4 | No Payload","name_short":"atl-4","host":"atl-1.us.uncletopia.com","port":27045,"enabled":true,"region":"us-east","cc":"us","latitude":33.753746,"longitude":-84.38633,"reserved":0,"last_update":"0001-01-01T00:00:00Z","name_a2s":"","protocol":0,"map":"","folder":"","game":"","app_id":0,"player_count":0,"max_players":0,"Bots":0,"server_type":"","server_os":"","password":false,"vac":false,"version":"","steam_id":0,"keywords":null,"game_id":0,"stv_port":0,"stv_name":"","players":null},{"server_id":2,"name":"Uncletopia | Chicago | 1 | All Maps","name_short":"chi-1","host":"chi-1.us.uncletopia.com","port":27015,"enabled":true,"region":"us-central","cc":"us","latitude":41.881832,"longitude":-87.62318,"reserved":0,"last_update":"0001-01-01T00:00:00Z","name_a2s":"Uncletopia | Chicago | 1 | All Maps","protocol":17,"map":"pl_badwater","folder":"tf","game":"Team Fortress","app_id":440,"player_count":24,"max_players":24,"Bots":0,"server_type":"Dedicated","server_os":"Linux","password":true,"vac":true,"version":"7882260","steam_id":85568392924469984,"keywords":["nocrits","nodmgspread","payload","uncletopia"],"game_id":440,"stv_port":27016,"stv_name":"Uncletopia | Chicago | 1 | All Maps | STV","players":[{"user_id":902,"name":"Iron","steam_id":76561198247918478,"connected_time":2144000000000,"state":"active","ping":58},{"user_id":864,"name":"Elias","steam_id":76561198106431732,"connected_time":4965000000000,"state":"active","ping":43},{"user_id":870,"name":"Argo","steam_id":76561198353725622,"connected_time":4862000000000,"state":"active","ping":76},{"user_id":912,"name":"Lucille_Bluth","steam_id":76561198206133916,"connected_time":914000000000,"state":"active","ping":68},{"user_id":903,"name":"Khaiden","steam_id":76561198104454754,"connected_time":2064000000000,"state":"active","ping":174},{"user_id":913,"name":"Trixie Lulamoon","steam_id":76561198088638723,"connected_time":887000000000,"state":"active","ping":131},{"user_id":921,"name":"Mister Frank","steam_id":76561198161473385,"connected_time":169000000000,"state":"active","ping":59},{"user_id":911,"name":"ZombieDog[N8]","steam_id":76561198056076918,"connected_time":968000000000,"state":"active","ping":73},{"user_id":892,"name":"virulence","steam_id":76561198107784011,"connected_time":2831000000000,"state":"active","ping":44},{"user_id":914,"name":"Kaluka","steam_id":76561198036861445,"connected_time":880000000000,"state":"active","ping":62},{"user_id":884,"name":"Mitsubishi Materials","steam_id":76561198151871198,"connected_time":3098000000000,"state":"active","ping":59},{"user_id":916,"name":"Cosmic sR","steam_id":76561198081738675,"connected_time":650000000000,"state":"active","ping":81},{"user_id":908,"name":"Frok","steam_id":76561199213363196,"connected_time":1525000000000,"state":"active","ping":162},{"user_id":890,"name":"porcelain","steam_id":76561198311004039,"connected_time":2846000000000,"state":"active","ping":78},{"user_id":882,"name":"Zelith","steam_id":76561198234980480,"connected_time":3282000000000,"state":"active","ping":53},{"user_id":918,"name":"Ôº¥Ôº®Ôº• Ôº¢Ôº°Ôº£Ôº´Ôº£Ôº°Ôº∞","steam_id":76561198030282308,"connected_time":551000000000,"state":"active","ping":103},{"user_id":900,"name":"Stan","steam_id":76561199057962816,"connected_time":2324000000000,"state":"active","ping":56},{"user_id":850,"name":"Joker's Skull","steam_id":76561199185320627,"connected_time":6335000000000,"state":"active","ping":151},{"user_id":893,"name":"dope","steam_id":76561198126699550,"connected_time":2792000000000,"state":"active","ping":100},{"user_id":894,"name":"sperklebonge [NF]","steam_id":76561199083692251,"connected_time":2767000000000,"state":"active","ping":146},{"user_id":818,"name":"Archie","steam_id":76561198137112917,"connected_time":8372000000000,"state":"active","ping":101},{"user_id":919,"name":"Kid named download","steam_id":76561199192074448,"connected_time":518000000000,"state":"active","ping":81},{"user_id":831,"name":"Gachalover","steam_id":76561199231552074,"connected_time":7934000000000,"state":"active","ping":70},{"user_id":920,"name":"Zizen","steam_id":76561199011832069,"connected_time":512000000000,"state":"active","ping":102}]},{"server_id":106,"name":"Uncletopia | Chicago | 2 | All Maps","name_short":"chi-2","host":"chi-1.us.uncletopia.com","port":27025,"enabled":true,"region":"us-central","cc":"us","latitude":41.881832,"longitude":-87.62318,"reserved":0,"last_update":"0001-01-01T00:00:00Z","name_a2s":"Uncletopia | Chicago | 2 | All Maps","protocol":17,"map":"cp_5gorge","folder":"tf","game":"Team Fortress","app_id":440,"player_count":23,"max_players":24,"Bots":0,"server_type":"Dedicated","server_os":"Linux","password":true,"vac":true,"version":"7882260","steam_id":85568392924469985,"keywords":["cp","nocrits","nodmgspread","uncletopia"],"game_id":440,"stv_port":27026,"stv_name":"Uncletopia | Chicago | 2 | All Maps | STV","players":[{"user_id":1217,"name":"Random","steam_id":76561199116602799,"connected_time":1313000000000,"state":"active","ping":130},{"user_id":1226,"name":"GolderGray","steam_id":76561198879179236,"connected_time":341000000000,"state":"active","ping":73},{"user_id":1231,"name":"Tired-Out Tibet-Trout","steam_id":76561198118082897,"connected_time":82000000000,"state":"active","ping":90},{"user_id":1216,"name":"RainboomCrash","steam_id":76561198065612273,"connected_time":1322000000000,"state":"active","ping":90},{"user_id":1224,"name":"Metbol","steam_id":76561198001362410,"connected_time":830000000000,"state":"active","ping":77},{"user_id":1229,"name":"Stauxie","steam_id":76561198255030077,"connected_time":167000000000,"state":"active","ping":89},{"user_id":1225,"name":"Wintar","steam_id":76561198048678941,"connected_time":613000000000,"state":"active","ping":81},{"user_id":1218,"name":"lights","steam_id":76561198049192689,"connected_time":1297000000000,"state":"active","ping":115},{"user_id":1160,"name":"tacofever","steam_id":76561198010966507,"connected_time":7517000000000,"state":"active","ping":94},{"user_id":1195,"name":"nox","steam_id":76561198054390505,"connected_time":4027000000000,"state":"active","ping":43},{"user_id":1211,"name":"Cross Breeze","steam_id":76561198043420803,"connected_time":1487000000000,"state":"active","ping":146},{"user_id":1228,"name":"BananaFana","steam_id":76561198008891875,"connected_time":275000000000,"state":"active","ping":102},{"user_id":1176,"name":"Sunny","steam_id":76561198125892600,"connected_time":4851000000000,"state":"active","ping":61},{"user_id":1213,"name":"Epifiny","steam_id":76561198027958086,"connected_time":1419000000000,"state":"active","ping":69},{"user_id":1178,"name":"PocketTieAMPLFY","steam_id":76561199080485881,"connected_time":4822000000000,"state":"active","ping":110},{"user_id":1188,"name":"Virtual Zorua","steam_id":76561198196180302,"connected_time":4135000000000,"state":"active","ping":84},{"user_id":1230,"name":"Pastor John","steam_id":76561198216484412,"connected_time":148000000000,"state":"active","ping":65},{"user_id":1214,"name":"dankman","steam_id":76561198977064186,"connected_time":1413000000000,"state":"active","ping":45},{"user_id":1180,"name":"Yongle","steam_id":76561198068591156,"connected_time":4662000000000,"state":"active","ping":56},{"user_id":1215,"name":"MeatBall","steam_id":76561199055196261,"connected_time":1386000000000,"state":"active","ping":63},{"user_id":1232,"name":"TF3.Moodyx","steam_id":76561198041849544,"connected_time":60000000000,"state":"active","ping":58},{"user_id":1233,"name":"BIG HOG","steam_id":76561198079923652,"connected_time":59000000000,"state":"active","ping":75},{"user_id":1234,"name":"ClutchSR","steam_id":76561199018366378,"connected_time":36000000000,"state":"active","ping":79}]},{"server_id":402,"name":"Uncletopia | Chicago | 3 | All Maps","name_short":"chi-3","host":"chi-1.us.uncletopia.com","port":27035,"enabled":true,"region":"us-central","cc":"us","latitude":41.881832,"longitude":-87.62318,"reserved":0,"last_update":"0001-01-01T00:00:00Z","name_a2s":"Uncletopia | Chicago | 3 | All Maps","protocol":17,"map":"koth_lakeside_final","folder":"tf","game":"Team Fortress","app_id":440,"player_count":0,"max_players":24,"Bots":0,"server_type":"Dedicated","server_os":"Linux","password":true,"vac":true,"version":"7882260","steam_id":85568392924515191,"keywords":["cp","nocrits","nodmgspread","uncletopia"],"game_id":440,"stv_port":27036,"stv_name":"Uncletopia | Chicago | 3 | All Maps | STV","players":null},{"server_id":403,"name":"Uncletopia | Chicago | 4 | All Maps","name_short":"chi-4","host":"chi-1.us.uncletopia.com","port":27045,"enabled":true,"region":"us-central","cc":"us","latitude":41.881832,"longitude":-87.62318,"reserved":0,"last_update":"0001-01-01T00:00:00Z","name_a2s":"Uncletopia | Chicago | 4 | All Maps","protocol":17,"map":"pl_snowycoast","folder":"tf","game":"Team Fortress","app_id":440,"player_count":0,"max_players":24,"Bots":0,"server_type":"Dedicated","server_os":"Linux","password":true,"vac":true,"version":"7882260","steam_id":85568392924515193,"keywords":["nocrits","nodmgspread","payload","uncletopia"],"game_id":440,"stv_port":27046,"stv_name":"Uncletopia | Chicago | 4 | All Maps | STV","players":null},{"server_id":36,"name":"Uncletopia | Chicago | 5 | All Maps","name_short":"chi-5","host":"chi-2.us.uncletopia.com","port":27015,"enabled":true,"region":"us-central","cc":"us","latitude":41.881832,"longitude":-87.62318,"reserved":0,"last_update":"0001-01-01T00:00:00Z","name_a2s":"Uncletopia | Chicago | 5 | All Maps","protocol":17,"map":"pl_snowycoast","folder":"tf","game":"Team Fortress","app_id":440,"player_count":0,"max_players":24,"Bots":0,"server_type":"Dedicated","server_os":"Linux","password":true,"vac":true,"version":"7882260","steam_id":85568392924866362,"keywords":["nocrits","nodmgspread","payload","uncletopia"],"game_id":440,"stv_port":27016,"stv_name":"Uncletopia | Chicago | 5 | All Maps | STV","players":null},{"server_id":37,"name":"Uncletopia | Chicago | 6 | All Maps","name_short":"chi-6","host":"chi-2.us.uncletopia.com","port":27025,"enabled":true,"region":"us-central","cc":"us","latitude":41.881832,"longitude":-87.62318,"reserved":0,"last_update":"0001-01-01T00:00:00Z","name_a2s":"Uncletopia | Chicago | 6 | All Maps","protocol":17,"map":"koth_suijin","folder":"tf","game":"Team Fortress","app_id":440,"player_count":0,"max_players":24,"Bots":0,"server_type":"Dedicated","server_os":"Linux","password":true,"vac":true,"version":"7882260","steam_id":85568392924866363,"keywords":["cp","nocrits","nodmgspread","uncletopia"],"game_id":440,"stv_port":27026,"stv_name":"Uncletopia | Chicago | 6 | All Maps | STV","players":null},{"server_id":38,"name":"Uncletopia | Chicago | 7 | Stopwatch Beta","name_short":"chi-7","host":"chi-2.us.uncletopia.com","port":27035,"enabled":true,"region":"us-central","cc":"us","latitude":41.881832,"longitude":-87.62318,"reserved":0,"last_update":"0001-01-01T00:00:00Z","name_a2s":"Uncletopia | Chicago | 7 | Stopwatch Beta","protocol":17,"map":"pl_borneo","folder":"tf","game":"Team Fortress","app_id":440,"player_count":0,"max_players":24,"Bots":0,"server_type":"Dedicated","server_os":"Linux","password":true,"vac":true,"version":"7882260","steam_id":85568392924866364,"keywords":["nocrits","nodmgspread","payload","uncletopia"],"game_id":440,"stv_port":27036,"stv_name":"Uncletopia | Chicago | 7 | Stopwatch Beta | STV","players":null},{"server_id":39,"name":"Uncletopia | Chicago | 8 | Community","name_short":"chi-8","host":"chi-2.us.uncletopia.com","port":27045,"enabled":true,"region":"us-central","cc":"us","latitude":41.881832,"longitude":-87.62318,"reserved":0,"last_update":"0001-01-01T00:00:00Z","name_a2s":"Uncletopia | Chicago | 8 | Community","protocol":17,"map":"workshop/cp_fulgur_rc2a.ugc2068252300","folder":"tf","game":"Team Fortress","app_id":440,"player_count":0,"max_players":24,"Bots":0,"server_type":"Dedicated","server_os":"Linux","password":true,"vac":true,"version":"7882260","steam_id":85568392924866365,"keywords":["cp","nocrits","nodmgspread","uncletopia"],"game_id":440,"stv_port":27046,"stv_name":"Uncletopia | Chicago | 8 | Community | STV","players":null},{"server_id":8,"name":"Uncletopia | Dallas | 1 | All Maps","name_short":"dal-1","host":"dal-1.us.uncletopia.com","port":27015,"enabled":true,"region":"us-central","cc":"us","latitude":32.779167,"longitude":-96.80889,"reserved":0,"last_update":"0001-01-01T00:00:00Z","name_a2s":"Uncletopia | Dallas | 1 | All Maps","protocol":17,"map":"pl_snowycoast","folder":"tf","game":"Team Fortress","app_id":440,"player_count":24,"max_players":24,"Bots":0,"server_type":"Dedicated","server_os":"Linux","password":true,"vac":true,"version":"7882260","steam_id":85568392924469986,"keywords":["nocrits","nodmgspread","payload","uncletopia"],"game_id":440,"stv_port":27016,"stv_name":"Uncletopia | Dallas | 1 | All Maps | STV","players":[{"user_id":943,"name":"PirateJet","steam_id":76561198050858744,"connected_time":930000000000,"state":"active","ping":85},{"user_id":944,"name":"15inchcamboy","steam_id":76561199136651289,"connected_time":788000000000,"state":"active","ping":73},{"user_id":857,"name":"life drop-out","steam_id":76561198366299848,"connected_time":7914000000000,"state":"active","ping":65},{"user_id":921,"name":"Tattletails","steam_id":76561198055690341,"connected_time":3345000000000,"state":"active","ping":171},{"user_id":923,"name":"JJ","steam_id":76561198040955086,"connected_time":3170000000000,"state":"active","ping":54},{"user_id":900,"name":"T√ñZI","steam_id":76561198045268695,"connected_time":5292000000000,"state":"active","ping":96},{"user_id":946,"name":"Ferran, Loathsome Hogsqueezer","steam_id":76561198004480302,"connected_time":671000000000,"state":"active","ping":90},{"user_id":924,"name":"rice white","steam_id":76561198320732910,"connected_time":3062000000000,"state":"active","ping":91},{"user_id":947,"name":"Soupster","steam_id":76561198073376693,"connected_time":666000000000,"state":"active","ping":176},{"user_id":948,"name":"Satan-2","steam_id":76561199231742764,"connected_time":449000000000,"state":"active","ping":86},{"user_id":940,"name":"feryae","steam_id":76561198072646165,"connected_time":1578000000000,"state":"active","ping":84},{"user_id":882,"name":"Teddi","steam_id":76561198000764012,"connected_time":6079000000000,"state":"active","ping":120},{"user_id":949,"name":"Avg. Santa Believer (Nice list)","steam_id":76561198040444697,"connected_time":431000000000,"state":"active","ping":88},{"user_id":950,"name":"mari_","steam_id":76561198137855741,"connected_time":395000000000,"state":"active","ping":79},{"user_id":912,"name":"Atlas","steam_id":76561198127975050,"connected_time":3802000000000,"state":"active","ping":67},{"user_id":936,"name":"Corzap","steam_id":76561198086030373,"connected_time":2261000000000,"state":"active","ping":108},{"user_id":926,"name":"PyroMorphik","steam_id":76561198157628007,"connected_time":3037000000000,"state":"active","ping":71},{"user_id":915,"name":"CloraPhoas","steam_id":76561199162750715,"connected_time":3747000000000,"state":"active","ping":72},{"user_id":939,"name":"Korean Game Designer","steam_id":76561198329996506,"connected_time":1759000000000,"state":"active","ping":85},{"user_id":951,"name":"godsdoctor","steam_id":76561198055010413,"connected_time":321000000000,"state":"active","ping":110},{"user_id":941,"name":"Bald Rice","steam_id":76561199019142767,"connected_time":1508000000000,"state":"active","ping":68},{"user_id":905,"name":"Crownedwings","steam_id":76561198211578571,"connected_time":4965000000000,"state":"active","ping":87},{"user_id":954,"name":"FI LO","steam_id":76561198976530881,"connected_time":119000000000,"state":"active","ping":63},{"user_id":918,"name":"xd Clover","steam_id":76561198038905361,"connected_time":3634000000000,"state":"active","ping":79}]},{"server_id":108,"name":"Uncletopia | Dallas | 2 | All Maps","name_short":"dal-2","host":"dal-1.us.uncletopia.com","port":27025,"enabled":true,"region":"us-central","cc":"us","latitude":32.779167,"longitude":-96.80889,"reserved":0,"last_update":"0001-01-01T00:00:00Z","name_a2s":"Uncletopia | Dallas | 2 | All Maps","protocol":17,"map":"koth_lakeside_final","folder":"tf","game":"Team Fortress","app_id":440,"player_count":0,"max_players":24,"Bots":0,"server_type":"Dedicated","server_os":"Linux","password":true,"vac":true,"version":"7882260","steam_id":85568392924469988,"keywords":["cp","nocrits","nodmgspread","uncletopia"],"game_id":440,"stv_port":27026,"stv_name":"Uncletopia | Dallas | 2 | All Maps | STV","players":null},{"server_id":5,"name":"Uncletopia | Frankfurt | 1 | All Maps","name_short":"frk-1","host":"frk-1.de.uncletopia.com","port":27015,"enabled":true,"region":"eu","cc":"de","latitude":50.110924,"longitude":8.682127,"reserved":0,"last_update":"0001-01-01T00:00:00Z","name_a2s":"Uncletopia | Frankfurt | 1 | All Maps","protocol":17,"map":"cp_dustbowl","folder":"tf","game":"Team Fortress","app_id":440,"player_count":24,"max_players":24,"Bots":0,"server_type":"Dedicated","server_os":"Linux","password":true,"vac":true,"version":"7882260","steam_id":85568392924469989,"keywords":["cp","nocrits","nodmgspread","uncletopia"],"game_id":440,"stv_port":27016,"stv_name":"Uncletopia | Frankfurt | 1 | All Maps | STV","players":[{"user_id":81,"name":"RCST","steam_id":76561198174955254,"connected_time":1337000000000,"state":"active","ping":87},{"user_id":76,"name":"(wm) Das Fleisch","steam_id":76561198001250715,"connected_time":1881000000000,"state":"active","ping":54},{"user_id":60,"name":"doopsuiker","steam_id":76561198025916703,"connected_time":3037000000000,"state":"active","ping":69},{"user_id":99,"name":"Reomk","steam_id":76561198309314129,"connected_time":113000000000,"state":"active","ping":77},{"user_id":68,"name":"kyuta","steam_id":76561198382281653,"connected_time":2587000000000,"state":"active","ping":75},{"user_id":72,"name":"domek brexit geezerüá¨üáß","steam_id":76561198048447632,"connected_time":2483000000000,"state":"active","ping":73},{"user_id":50,"name":"–ñ—ã–≤–µ –ë–µ–ª–∞—Ä—É—Å—å!","steam_id":76561199293036742,"connected_time":3749000000000,"state":"active","ping":57},{"user_id":93,"name":"KnusprigeKloake","steam_id":76561198051422734,"connected_time":656000000000,"state":"active","ping":38},{"user_id":100,"name":"RizzControlPete","steam_id":76561199009525001,"connected_time":89000000000,"state":"active","ping":52},{"user_id":15,"name":"Thing","steam_id":76561197997904403,"connected_time":4979000000000,"state":"active","ping":101},{"user_id":86,"name":"TheWerelizard","steam_id":76561198060638325,"connected_time":1310000000000,"state":"active","ping":44},{"user_id":91,"name":"Greencoffee","steam_id":76561198842090589,"connected_time":1056000000000,"state":"active","ping":92},{"user_id":70,"name":"ThatoneSkeleton1","steam_id":76561199482982102,"connected_time":2578000000000,"state":"active","ping":56},{"user_id":42,"name":"hipster_doofus","steam_id":76561197970902697,"connected_time":4311000000000,"state":"active","ping":75},{"user_id":54,"name":"Mephistopheles","steam_id":76561199033390312,"connected_time":3431000000000,"state":"active","ping":105},{"user_id":101,"name":"–ö–∞–í–æ–∫–∞–¥–∑–µüò¥","steam_id":76561198272589995,"connected_time":40000000000,"state":"active","ping":142},{"user_id":83,"name":"snsmac","steam_id":76561198082821185,"connected_time":1331000000000,"state":"active","ping":52},{"user_id":96,"name":"Kumquat","steam_id":76561198200490386,"connected_time":285000000000,"state":"active","ping":77},{"user_id":84,"name":"^_^","steam_id":76561198032359132,"connected_time":1328000000000,"state":"active","ping":59},{"user_id":55,"name":"mindas","steam_id":76561198056839438,"connected_time":3401000000000,"state":"active","ping":64},{"user_id":98,"name":"„ÉÜ„Ç§„É´„Çπ","steam_id":76561198022403271,"connected_time":162000000000,"state":"active","ping":45},{"user_id":80,"name":"Dicartal","steam_id":76561198295793592,"connected_time":1576000000000,"state":"active","ping":136},{"user_id":85,"name":"Timpanojnoj","steam_id":76561197970334448,"connected_time":1325000000000,"state":"active","ping":76},{"user_id":66,"name":"Hetmanych","steam_id":76561198870926865,"connected_time":2688000000000,"state":"active","ping":50}]},{"server_id":110,"name":"Uncletopia | Frankfurt | 2 | All Maps","name_short":"frk-2","host":"frk-1.de.uncletopia.com","port":27025,"enabled":true,"region":"eu","cc":"de","latitude":50.110924,"longitude":8.682127,"reserved":0,"last_update":"0001-01-01T00:00:00Z","name_a2s":"Uncletopia | Frankfurt | 2 | All Maps","protocol":17,"map":"pl_thundermountain","folder":"tf","game":"Team Fortress","app_id":440,"player_count":23,"max_players":24,"Bots":0,"server_type":"Dedicated","server_os":"Linux","password":true,"vac":true,"version":"7882260","steam_id":85568392924469990,"keywords":["nocrits","nodmgspread","payload","uncletopia"],"game_id":440,"stv_port":27026,"stv_name":"Uncletopia | Frankfurt | 2 | All Maps | STV","players":[{"user_id":77,"name":"kin","steam_id":76561198002155937,"connected_time":336000000000,"state":"active","ping":55},{"user_id":57,"name":"Jonkheervanflep","steam_id":76561198006853101,"connected_time":1245000000000,"state":"active","ping":96},{"user_id":86,"name":"[dopijus]","steam_id":76561198943009513,"connected_time":29000000000,"state":"spawning","ping":74},{"user_id":64,"name":"romaingallo","steam_id":76561198268112907,"connected_time":1000000000000,"state":"active","ping":68},{"user_id":66,"name":"Bayoyo","steam_id":76561199069591774,"connected_time":801000000000,"state":"active","ping":74},{"user_id":43,"name":"veins","steam_id":76561198997602764,"connected_time":3029000000000,"state":"active","ping":66},{"user_id":80,"name":"B.batt","steam_id":76561198998684199,"connected_time":170000000000,"state":"active","ping":110},{"user_id":81,"name":"wheatley worshipper","steam_id":76561198883869325,"connected_time":108000000000,"state":"active","ping":86},{"user_id":69,"name":"El`Capitano Flex","steam_id":76561198061813730,"connected_time":784000000000,"state":"active","ping":60},{"user_id":59,"name":"alice","steam_id":76561198269200388,"connected_time":1207000000000,"state":"active","ping":75},{"user_id":84,"name":"I own the penis scooter","steam_id":76561198173218318,"connected_time":62000000000,"state":"active","ping":60},{"user_id":23,"name":"Bottle O' Scrumpy","steam_id":76561199244250562,"connected_time":3642000000000,"state":"active","ping":81},{"user_id":71,"name":"rock","steam_id":76561198093488870,"connected_time":679000000000,"state":"active","ping":75},{"user_id":76,"name":"Spinyapickle","steam_id":76561198086653667,"connected_time":388000000000,"state":"active","ping":70},{"user_id":60,"name":"Nicholas Angel","steam_id":76561198434652604,"connected_time":1207000000000,"state":"active","ping":95},{"user_id":61,"name":"L1RG0","steam_id":76561198329274068,"connected_time":1202000000000,"state":"active","ping":67},{"user_id":55,"name":"Fat Pigeon","steam_id":76561198817940142,"connected_time":1514000000000,"state":"active","ping":58},{"user_id":30,"name":"Teksta","steam_id":76561198045087695,"connected_time":3498000000000,"state":"active","ping":57},{"user_id":85,"name":"i eat babies","steam_id":76561198388750592,"connected_time":56000000000,"state":"spawning","ping":44},{"user_id":83,"name":"damn, that bussy can squirt","steam_id":76561198050214002,"connected_time":103000000000,"state":"active","ping":55},{"user_id":40,"name":"spiritual healer","steam_id":76561199086153248,"connected_time":3144000000000,"state":"active","ping":69},{"user_id":41,"name":"Please God don't mertpill me","steam_id":76561199015561853,"connected_time":3140000000000,"state":"active","ping":61},{"user_id":42,"name":"le big mac","steam_id":76561199026378253,"connected_time":3132000000000,"state":"active","ping":53}]},{"server_id":308,"name":"Uncletopia | Frankfurt | 3 | All Maps","name_short":"frk-3","host":"frk-1.de.uncletopia.com","port":27035,"enabled":true,"region":"eu","cc":"de","latitude":50.110924,"longitude":8.682127,"reserved":0,"last_update":"0001-01-01T00:00:00Z","name_a2s":"Uncletopia | Frankfurt | 3 | All Maps","protocol":17,"map":"koth_highpass","folder":"tf","game":"Team Fortress","app_id":440,"player_count":0,"max_players":24,"Bots":0,"server_type":"Dedicated","server_os":"Linux","password":true,"vac":true,"version":"7882260","steam_id":85568392924504274,"keywords":["cp","nocrits","nodmgspread","uncletopia"],"game_id":440,"stv_port":27036,"stv_name":"Uncletopia | Frankfurt | 3 | All Maps | STV","players":null},{"server_id":309,"name":"Uncletopia | Frankfurt | 4 | All Maps","name_short":"frk-4","host":"frk-1.de.uncletopia.com","port":27045,"enabled":true,"region":"eu","cc":"de","latitude":50.110924,"longitude":8.682127,"reserved":0,"last_update":"0001-01-01T00:00:00Z","name_a2s":"Uncletopia | Frankfurt | 4 | All Maps","protocol":17,"map":"cp_snakewater_final1","folder":"tf","game":"Team Fortress","app_id":440,"player_count":22,"max_players":24,"Bots":0,"server_type":"Dedicated","server_os":"Linux","password":true,"vac":true,"version":"7882260","steam_id":85568392924504275,"keywords":["cp","nocrits","nodmgspread","uncletopia"],"game_id":440,"stv_port":27046,"stv_name":"Uncletopia | Frankfurt | 4 | All Maps | STV","players":[{"user_id":176,"name":"Corpus Christi","steam_id":76561198417999443,"connected_time":1812000000000,"state":"active","ping":102},{"user_id":159,"name":"Alice can't hit pipes","steam_id":76561198052410860,"connected_time":2917000000000,"state":"active","ping":144},{"user_id":147,"name":"Umbro","steam_id":76561198087930438,"connected_time":3524000000000,"state":"active","ping":70},{"user_id":123,"name":"elliot","steam_id":76561198055010039,"connected_time":5022000000000,"state":"active","ping":61},{"user_id":199,"name":"El_Kommadante","steam_id":76561198079551685,"connected_time":258000000000,"state":"active","ping":79},{"user_id":201,"name":"pakin157","steam_id":76561198035125667,"connected_time":204000000000,"state":"active","ping":154},{"user_id":196,"name":"Wololo","steam_id":76561197972235375,"connected_time":520000000000,"state":"active","ping":58},{"user_id":92,"name":"Rin-Nakaret","steam_id":76561197971051188,"connected_time":7694000000000,"state":"active","ping":60},{"user_id":190,"name":"Koli","steam_id":76561197992428783,"connected_time":1275000000000,"state":"active","ping":58},{"user_id":192,"name":"Bread","steam_id":76561198145232617,"connected_time":910000000000,"state":"active","ping":59},{"user_id":181,"name":"Azurh","steam_id":76561199330143102,"connected_time":1689000000000,"state":"active","ping":66},{"user_id":200,"name":"MrBanana","steam_id":76561198116021623,"connected_time":233000000000,"state":"active","ping":45},{"user_id":134,"name":"engie?","steam_id":76561198331852832,"connected_time":4493000000000,"state":"active","ping":59},{"user_id":140,"name":"Mac Bean","steam_id":76561198133782205,"connected_time":3944000000000,"state":"active","ping":120},{"user_id":204,"name":"snovi","steam_id":76561198984436595,"connected_time":165000000000,"state":"active","ping":75},{"user_id":191,"name":"skith","steam_id":76561198192190569,"connected_time":1042000000000,"state":"active","ping":75},{"user_id":165,"name":"mge_—Å–ø–∞–Ω—á–±–æ–±256","steam_id":76561198129314304,"connected_time":2591000000000,"state":"active","ping":129},{"user_id":177,"name":"Musicano","steam_id":76561198114541088,"connected_time":1797000000000,"state":"active","ping":90},{"user_id":188,"name":"engineer","steam_id":76561198298938176,"connected_time":1522000000000,"state":"active","ping":103},{"user_id":166,"name":"cult","steam_id":76561198188647690,"connected_time":2069000000000,"state":"active","ping":74},{"user_id":185,"name":"dorak","steam_id":76561198818037965,"connected_time":1671000000000,"state":"active","ping":105},{"user_id":198,"name":"Matteo Il Biondo","steam_id":76561198315389475,"connected_time":417000000000,"state":"active","ping":83}]},{"server_id":310,"name":"Uncletopia | Frankfurt | 5 | All Maps","name_short":"frk-5","host":"frk-1.de.uncletopia.com","port":27055,"enabled":true,"region":"eu","cc":"de","latitude":50.110924,"longitude":8.682127,"reserved":0,"last_update":"0001-01-01T00:00:00Z","name_a2s":"Uncletopia | Frankfurt | 5 | All Maps","protocol":17,"map":"pl_barnblitz","folder":"tf","game":"Team Fortress","app_id":440,"player_count":11,"max_players":24,"Bots":0,"server_type":"Dedicated","server_os":"Linux","password":true,"vac":true,"version":"7882260","steam_id":85568392924504277,"keywords":["nocrits","nodmgspread","payload","uncletopia"],"game_id":440,"stv_port":27056,"stv_name":"Uncletopia | Frankfurt | 5 | All Maps | STV","players":[{"user_id":11,"name":"Jhesus","steam_id":76561198778605978,"connected_time":460000000000,"state":"active","ping":122},{"user_id":10,"name":"WALTER WHITE","steam_id":76561199147666336,"connected_time":502000000000,"state":"active","ping":62},{"user_id":18,"name":"Gabys","steam_id":76561198282892553,"connected_time":241000000000,"state":"active","ping":73},{"user_id":13,"name":"Foreskin Gamer","steam_id":76561198283106341,"connected_time":412000000000,"state":"active","ping":49},{"user_id":15,"name":"FanFish","steam_id":76561199389558024,"connected_time":337000000000,"state":"active","ping":67},{"user_id":23,"name":"Adolf gayming","steam_id":76561198830058797,"connected_time":100000000000,"state":"active","ping":75},{"user_id":19,"name":"pain train tf2","steam_id":76561198111568728,"connected_time":187000000000,"state":"active","ping":47},{"user_id":22,"name":"Prostate Tickler","steam_id":76561198375230907,"connected_time":134000000000,"state":"active","ping":73},{"user_id":24,"name":"DrunkHungarian","steam_id":76561198853346540,"connected_time":76000000000,"state":"active","ping":49},{"user_id":25,"name":"Rejdory","steam_id":76561198416604100,"connected_time":43000000000,"state":"active","ping":52},{"user_id":26,"name":"koko","steam_id":76561198953867666,"connected_time":36000000000,"state":"active","ping":56}]},{"server_id":311,"name":"Uncletopia | Frankfurt | 6 | All Maps","name_short":"frk-6","host":"frk-1.de.uncletopia.com","port":27065,"enabled":true,"region":"eu","cc":"de","latitude":50.110924,"longitude":8.682127,"reserved":0,"last_update":"0001-01-01T00:00:00Z","name_a2s":"Uncletopia | Frankfurt | 6 | All Maps","protocol":17,"map":"cp_snakewater_final1","folder":"tf","game":"Team Fortress","app_id":440,"player_count":0,"max_players":24,"Bots":0,"server_type":"Dedicated","server_os":"Linux","password":true,"vac":true,"version":"7882260","steam_id":85568392924504278,"keywords":["cp","nocrits","nodmgspread","uncletopia"],"game_id":440,"stv_port":27066,"stv_name":"Uncletopia | Frankfurt | 6 | All Maps | STV","players":null},{"server_id":23,"name":"Uncletopia | Frankfurt | 7 | Stopwatch Beta","name_short":"frk-7","host":"frk-1.de.uncletopia.com","port":27075,"enabled":true,"region":"eu","cc":"de","latitude":50.110924,"longitude":8.682127,"reserved":0,"last_update":"0001-01-01T00:00:00Z","name_a2s":"Uncletopia | Frankfurt | 7 | Stopwatch Beta","protocol":17,"map":"cp_dustbowl","folder":"tf","game":"Team Fortress","app_id":440,"player_count":0,"max_players":24,"Bots":0,"server_type":"Dedicated","server_os":"Linux","password":true,"vac":true,"version":"7882260","steam_id":85568392924742827,"keywords":["cp","nocrits","nodmgspread","uncletopia"],"game_id":440,"stv_port":27076,"stv_name":"Uncletopia | Frankfurt | 7 | Stopwatch Beta | STV","players":null},{"server_id":24,"name":"Uncletopia | Frankfurt | 8 | Community","name_short":"frk-8","host":"frk-1.de.uncletopia.com","port":27085,"enabled":true,"region":"eu","cc":"de","latitude":50.110924,"longitude":8.682127,"reserved":0,"last_update":"0001-01-01T00:00:00Z","name_a2s":"Uncletopia | Frankfurt | 8 | Community","protocol":17,"map":"koth_cascade","folder":"tf","game":"Team Fortress","app_id":440,"player_count":0,"max_players":24,"Bots":0,"server_type":"Dedicated","server_os":"Linux","password":true,"vac":true,"version":"7882260","steam_id":85568392924742828,"keywords":["cp","nocrits","nodmgspread","uncletopia"],"game_id":440,"stv_port":27086,"stv_name":"Uncletopia | Frankfurt | 8 | Community | STV","players":null},{"server_id":202,"name":"Uncletopia | Hong Kong | 1 | All Maps","name_short":"hgk-1","host":"hgk-1.hk.uncletopia.com","port":27015,"enabled":true,"region":"asia","cc":"hk","latitude":22.302711,"longitude":114.177216,"reserved":0,"last_update":"0001-01-01T00:00:00Z","name_a2s":"Uncletopia | Hong Kong | 1 | All Maps","protocol":17,"map":"pl_pier","folder":"tf","game":"Team Fortress","app_id":440,"player_count":24,"max_players":24,"Bots":0,"server_type":"Dedicated","server_os":"Linux","password":true,"vac":true,"version":"7882260","steam_id":85568392924494504,"keywords":["nocrits","nodmgspread","payload","uncletopia"],"game_id":440,"stv_port":27016,"stv_name":"Uncletopia | Hong Kong | 1 | All Maps | STV","players":[{"user_id":83,"name":"BAD PYRO PLAYER","steam_id":76561198074339034,"connected_time":14547000000000,"state":"active","ping":71},{"user_id":166,"name":"UltraFat","steam_id":76561198253918132,"connected_time":4069000000000,"state":"active","ping":81},{"user_id":177,"name":"clorilla","steam_id":76561199146847474,"connected_time":2638000000000,"state":"active","ping":41},{"user_id":179,"name":"U SUX","steam_id":76561199171910074,"connected_time":2455000000000,"state":"active","ping":75},{"user_id":175,"name":"TomProPlayer","steam_id":76561199223292521,"connected_time":3168000000000,"state":"active","ping":73},{"user_id":186,"name":"WaifuThatGiveMeBloodPressure","steam_id":76561199090343752,"connected_time":1841000000000,"state":"active","ping":111},{"user_id":193,"name":"TheChainsaw","steam_id":76561198312001455,"connected_time":1267000000000,"state":"active","ping":291},{"user_id":204,"name":"NoWay","steam_id":76561198223517060,"connected_time":217000000000,"state":"active","ping":135},{"user_id":191,"name":"p1st0n","steam_id":76561198992723983,"connected_time":1379000000000,"state":"active","ping":109},{"user_id":187,"name":"lalo","steam_id":76561198074020067,"connected_time":1558000000000,"state":"active","ping":83},{"user_id":169,"name":"Dagoth Ur","steam_id":76561198289388650,"connected_time":4052000000000,"state":"active","ping":112},{"user_id":184,"name":"momosneakeradventure","steam_id":76561199046440440,"connected_time":2159000000000,"state":"active","ping":47},{"user_id":201,"name":"screaming sniper","steam_id":76561199085568674,"connected_time":758000000000,"state":"active","ping":58},{"user_id":185,"name":"PocoLoco","steam_id":76561198834044246,"connected_time":2143000000000,"state":"active","ping":97},{"user_id":143,"name":"NootNoot","steam_id":76561199122109977,"connected_time":7435000000000,"state":"active","ping":116},{"user_id":82,"name":"Â∏ï","steam_id":76561198439343999,"connected_time":14655000000000,"state":"active","ping":102},{"user_id":203,"name":"MeetTeMedic99","steam_id":76561199208706868,"connected_time":328000000000,"state":"active","ping":90},{"user_id":158,"name":"Milf (The fan O'Milk)","steam_id":76561198213031155,"connected_time":5084000000000,"state":"active","ping":92},{"user_id":200,"name":"Wx","steam_id":76561199217780897,"connected_time":952000000000,"state":"active","ping":116},{"user_id":198,"name":"Ghuzik","steam_id":76561199107596818,"connected_time":977000000000,"state":"active","ping":117},{"user_id":195,"name":"IEatSoap","steam_id":76561198861586000,"connected_time":1080000000000,"state":"active","ping":57},{"user_id":167,"name":"You got a war face?","steam_id":76561198047057420,"connected_time":4069000000000,"state":"active","ping":137},{"user_id":192,"name":"Ïø†ÌÇ§","steam_id":76561197997220367,"connected_time":1321000000000,"state":"active","ping":54},{"user_id":196,"name":"E","steam_id":76561199173781370,"connected_time":1077000000000,"state":"active","ping":133}]},{"server_id":1,"name":"Uncletopia | Los Angeles | 1 | All Maps","name_short":"lax-1","host":"lax-1.us.uncletopia.com","port":27015,"enabled":true,"region":"us-west","cc":"us","latitude":33.94279,"longitude":-118.41004,"reserved":0,"last_update":"0001-01-01T00:00:00Z","name_a2s":"Uncletopia | Los Angeles | 1 | All Maps","protocol":17,"map":"cp_sunshine","folder":"tf","game":"Team Fortress","app_id":440,"player_count":0,"max_players":24,"Bots":0,"server_type":"Dedicated","server_os":"Linux","password":true,"vac":true,"version":"7882260","steam_id":85568392924469991,"keywords":["cp","nocrits","nodmgspread","uncletopia"],"game_id":440,"stv_port":27016,"stv_name":"Uncletopia | Los Angeles | 1 | All Maps | STV","players":null},{"server_id":112,"name":"Uncletopia | Los Angeles | 2 | All Maps","name_short":"lax-2","host":"lax-1.us.uncletopia.com","port":27025,"enabled":true,"region":"us-west","cc":"us","latitude":33.94279,"longitude":-118.41004,"reserved":0,"last_update":"0001-01-01T00:00:00Z","name_a2s":"Uncletopia | Los Angeles | 2 | All Maps","protocol":17,"map":"plr_hightower","folder":"tf","game":"Team Fortress","app_id":440,"player_count":0,"max_players":24,"Bots":0,"server_type":"Dedicated","server_os":"Linux","password":true,"vac":true,"version":"7882260","steam_id":85568392924469992,"keywords":["nocrits","nodmgspread","payload","uncletopia"],"game_id":440,"stv_port":27026,"stv_name":"Uncletopia | Los Angeles | 2 | All Maps | STV","players":null},{"server_id":324,"name":"Uncletopia | Los Angeles | 3 | All Maps","name_short":"lax-3","host":"lax-1.us.uncletopia.com","port":27035,"enabled":true,"region":"us-west","cc":"us","latitude":33.94279,"longitude":-118.41004,"reserved":0,"last_update":"0001-01-01T00:00:00Z","name_a2s":"Uncletopia | Los Angeles | 3 | All Maps","protocol":17,"map":"cp_process_final","folder":"tf","game":"Team Fortress","app_id":440,"player_count":0,"max_players":24,"Bots":0,"server_type":"Dedicated","server_os":"Linux","password":true,"vac":true,"version":"7882260","steam_id":85568392924510198,"keywords":["cp","nocrits","nodmgspread","uncletopia"],"game_id":440,"stv_port":27036,"stv_name":"Uncletopia | Los Angeles | 3 | All Maps | STV","players":null},{"server_id":25,"name":"Uncletopia | Los Angeles | 4 | Stopwatch Beta","name_short":"lax-4","host":"lax-1.us.uncletopia.com","port":27045,"enabled":true,"region":"us-west","cc":"us","latitude":33.94279,"longitude":-118.41004,"reserved":0,"last_update":"0001-01-01T00:00:00Z","name_a2s":"Uncletopia | Los Angeles | 4 | Stopwatch Beta","protocol":17,"map":"koth_lakeside_final","folder":"tf","game":"Team Fortress","app_id":440,"player_count":0,"max_players":24,"Bots":0,"server_type":"Dedicated","server_os":"Linux","password":true,"vac":true,"version":"7882260","steam_id":85568392924510199,"keywords":["cp","nocrits","nodmgspread","uncletopia"],"game_id":440,"stv_port":27046,"stv_name":"Uncletopia | Los Angeles | 4 | Stopwatch Beta | STV","players":null},{"server_id":11,"name":"Uncletopia | London | 1 | All Maps","name_short":"lon-1","host":"lon-1.uk.uncletopia.com","port":27015,"enabled":true,"region":"eu","cc":"gb","latitude":51.509865,"longitude":-0.118092,"reserved":0,"last_update":"0001-01-01T00:00:00Z","name_a2s":"Uncletopia | London | 1 | All Maps","protocol":17,"map":"pl_upward","folder":"tf","game":"Team Fortress","app_id":440,"player_count":0,"max_players":24,"Bots":0,"server_type":"Dedicated","server_os":"Linux","password":true,"vac":true,"version":"7882260","steam_id":85568392924367362,"keywords":["nocrits","nodmgspread","payload","uncletopia"],"game_id":440,"stv_port":27016,"stv_name":"Uncletopia | London | 1 | All Maps | STV","players":null},{"server_id":114,"name":"Uncletopia | London | 2 | All Maps","name_short":"lon-2","host":"lon-1.uk.uncletopia.com","port":27025,"enabled":true,"region":"eu","cc":"gb","latitude":51.509865,"longitude":-0.118092,"reserved":0,"last_update":"0001-01-01T00:00:00Z","name_a2s":"Uncletopia | London | 2 | All Maps","protocol":17,"map":"cp_mountainlab","folder":"tf","game":"Team Fortress","app_id":440,"player_count":2,"max_players":24,"Bots":0,"server_type":"Dedicated","server_os":"Linux","password":true,"vac":true,"version":"7882260","steam_id":85568392924470941,"keywords":["cp","nocrits","nodmgspread","uncletopia"],"game_id":440,"stv_port":27026,"stv_name":"Uncletopia | London | 2 | All Maps | STV","players":[{"user_id":5,"name":"HypeRaidioActive","steam_id":76561198812130985,"connected_time":42000000000,"state":"active","ping":59},{"user_id":6,"name":"Tinpig#saveTF2","steam_id":76561199247554091,"connected_time":33000000000,"state":"active","ping":38}]},{"server_id":320,"name":"Uncletopia | London | 3 | All Maps","name_short":"lon-3","host":"lon-1.uk.uncletopia.com","port":27035,"enabled":true,"region":"eu","cc":"gb","latitude":51.509865,"longitude":-0.118092,"reserved":0,"last_update":"0001-01-01T00:00:00Z","name_a2s":"Uncletopia | London | 3 | All Maps","protocol":17,"map":"pl_swiftwater_final1","folder":"tf","game":"Team Fortress","app_id":440,"player_count":24,"max_players":24,"Bots":0,"server_type":"Dedicated","server_os":"Linux","password":true,"vac":true,"version":"7882260","steam_id":85568392924510192,"keywords":["nocrits","nodmgspread","payload","uncletopia"],"game_id":440,"stv_port":27036,"stv_name":"Uncletopia | London | 3 | All Maps | STV","players":[{"user_id":297,"name":"WaDIP","steam_id":76561198010270494,"connected_time":121000000000,"state":"active","ping":84},{"user_id":209,"name":"Paul B√§umer","steam_id":76561198308302932,"connected_time":5373000000000,"state":"active","ping":100},{"user_id":220,"name":"Jyghc","steam_id":76561198405980575,"connected_time":4674000000000,"state":"active","ping":83},{"user_id":289,"name":"Carrot","steam_id":76561198119340863,"connected_time":183000000000,"state":"active","ping":37},{"user_id":274,"name":"Fluffy","steam_id":76561198084447725,"connected_time":1240000000000,"state":"active","ping":46},{"user_id":299,"name":"\u003c  \u003e #savetf2","steam_id":76561199213338939,"connected_time":71000000000,"state":"active","ping":121},{"user_id":295,"name":"The Enclave","steam_id":76561198257670344,"connected_time":150000000000,"state":"active","ping":82},{"user_id":293,"name":"sam-","steam_id":76561198013770973,"connected_time":162000000000,"state":"active","ping":66},{"user_id":264,"name":"Carrot (woman)","steam_id":76561198139404261,"connected_time":1749000000000,"state":"active","ping":44},{"user_id":248,"name":"H.E Pennypacker","steam_id":76561198031573426,"connected_time":2492000000000,"state":"active","ping":74},{"user_id":276,"name":"Apple","steam_id":76561198128176001,"connected_time":1065000000000,"state":"active","ping":72},{"user_id":272,"name":"marvs","steam_id":76561198851777617,"connected_time":1376000000000,"state":"active","ping":31},{"user_id":237,"name":"szmen","steam_id":76561198072569764,"connected_time":3261000000000,"state":"active","ping":85},{"user_id":268,"name":"Flying skyhigh","steam_id":76561198372971096,"connected_time":1695000000000,"state":"active","ping":74},{"user_id":294,"name":"Yuval","steam_id":76561198241802390,"connected_time":161000000000,"state":"active","ping":113},{"user_id":217,"name":"Tevinell81","steam_id":76561198340658904,"connected_time":5094000000000,"state":"active","ping":104},{"user_id":284,"name":"Bobbegaard","steam_id":76561199425101629,"connected_time":813000000000,"state":"active","ping":79},{"user_id":286,"name":"Sir Cauterize","steam_id":76561198047079422,"connected_time":658000000000,"state":"active","ping":51},{"user_id":271,"name":"lofimonkeyjazz","steam_id":76561198117059662,"connected_time":1427000000000,"state":"active","ping":83},{"user_id":301,"name":"Perci","steam_id":76561198097789669,"connected_time":51000000000,"state":"active","ping":73},{"user_id":287,"name":"Mr. Frog","steam_id":76561198016568920,"connected_time":527000000000,"state":"active","ping":48},{"user_id":283,"name":"Alx2k1","steam_id":76561198051544601,"connected_time":912000000000,"state":"active","ping":77},{"user_id":290,"name":"mira","steam_id":76561199040246790,"connected_time":174000000000,"state":"active","ping":59},{"user_id":291,"name":"ackermann","steam_id":76561199129801006,"connected_time":173000000000,"state":"active","ping":59}]},{"server_id":321,"name":"Uncletopia | London | 4 | All Maps","name_short":"lon-4","host":"lon-1.uk.uncletopia.com","port":27045,"enabled":true,"region":"eu","cc":"gb","latitude":51.509865,"longitude":-0.118092,"reserved":0,"last_update":"0001-01-01T00:00:00Z","name_a2s":"Uncletopia | London | 4 | All Maps","protocol":17,"map":"pl_upward","folder":"tf","game":"Team Fortress","app_id":440,"player_count":0,"max_players":24,"Bots":0,"server_type":"Dedicated","server_os":"Linux","password":true,"vac":true,"version":"7882260","steam_id":85568392924510193,"keywords":["nocrits","nodmgspread","payload","uncletopia"],"game_id":440,"stv_port":27046,"stv_name":"Uncletopia | London | 4 | All Maps | STV","players":null},{"server_id":21,"name":"Uncletopia | London | 5 | All Maps","name_short":"lon-5","host":"lon-1.uk.uncletopia.com","port":27055,"enabled":true,"region":"eu","cc":"gb","latitude":51.509865,"longitude":-0.118092,"reserved":0,"last_update":"0001-01-01T00:00:00Z","name_a2s":"Uncletopia | London | 5 | All Maps","protocol":17,"map":"pl_frontier_final","folder":"tf","game":"Team Fortress","app_id":440,"player_count":0,"max_players":24,"Bots":0,"server_type":"Dedicated","server_os":"Linux","password":true,"vac":true,"version":"7882260","steam_id":85568392924742829,"keywords":["nocrits","nodmgspread","payload","uncletopia"],"game_id":440,"stv_port":27056,"stv_name":"Uncletopia | London | 5 | All Maps | STV","players":null},{"server_id":22,"name":"Uncletopia | London | 6 | All Maps","name_short":"lon-6","host":"lon-1.uk.uncletopia.com","port":27065,"enabled":true,"region":"eu","cc":"gb","latitude":51.509865,"longitude":-0.118092,"reserved":0,"last_update":"0001-01-01T00:00:00Z","name_a2s":"Uncletopia | London | 6 | All Maps","protocol":17,"map":"cp_altitude","folder":"tf","game":"Team Fortress","app_id":440,"player_count":0,"max_players":24,"Bots":0,"server_type":"Dedicated","server_os":"Linux","password":true,"vac":true,"version":"7882260","steam_id":85568392924742830,"keywords":["cp","nocrits","nodmgspread","uncletopia"],"game_id":440,"stv_port":27066,"stv_name":"Uncletopia | London | 6 | All Maps | STV","players":null},{"server_id":40,"name":"Uncletopia | London | 7 | No Payload","name_short":"lon-7","host":"lon-1.uk.uncletopia.com","port":27075,"enabled":true,"region":"eu","cc":"gb","latitude":51.509865,"longitude":-0.118092,"reserved":0,"last_update":"0001-01-01T00:00:00Z","name_a2s":"Uncletopia | London | 7 | No Payload","protocol":17,"map":"pl_pier","folder":"tf","game":"Team Fortress","app_id":440,"player_count":0,"max_players":24,"Bots":0,"server_type":"Dedicated","server_os":"Linux","password":true,"vac":true,"version":"7882260","steam_id":85568392924964314,"keywords":["nocrits","nodmgspread","payload","uncletopia"],"game_id":440,"stv_port":27076,"stv_name":"Uncletopia | London | 7 | No Payload | STV","players":null},{"server_id":41,"name":"Uncletopia | London | 8 | Community","name_short":"lon-8","host":"lon-1.uk.uncletopia.com","port":27085,"enabled":true,"region":"eu","cc":"gb","latitude":51.509865,"longitude":-0.118092,"reserved":0,"last_update":"0001-01-01T00:00:00Z","name_a2s":"Uncletopia | London | 8 | Community","protocol":17,"map":"pl_swiftwater_final1","folder":"tf","game":"Team Fortress","app_id":440,"player_count":7,"max_players":24,"Bots":0,"server_type":"Dedicated","server_os":"Linux","password":true,"vac":true,"version":"7882260","steam_id":85568392924964315,"keywords":["nocrits","nodmgspread","payload","uncletopia"],"game_id":440,"stv_port":27086,"stv_name":"Uncletopia | London | 8 | Community | STV","players":[{"user_id":6,"name":"z4k","steam_id":76561198849236583,"connected_time":1126000000000,"state":"active","ping":54},{"user_id":7,"name":"Rare bulldog owner","steam_id":76561199407941086,"connected_time":815000000000,"state":"active","ping":68},{"user_id":8,"name":"Mitrev","steam_id":76561198157124880,"connected_time":609000000000,"state":"active","ping":61},{"user_id":9,"name":"Refre35","steam_id":76561198971840738,"connected_time":565000000000,"state":"active","ping":76},{"user_id":10,"name":"EtTuFruit","steam_id":76561199100798111,"connected_time":395000000000,"state":"active","ping":49},{"user_id":11,"name":"Mirandaws","steam_id":76561198930890710,"connected_time":160000000000,"state":"active","ping":72},{"user_id":13,"name":"Kid named nuclear bomb","steam_id":76561199485140595,"connected_time":12000000000,"state":"spawning","ping":166}]},{"server_id":300,"name":"Uncletopia | Montr√©al | 1 | All Maps","name_short":"mtl-1","host":"mtl-1.ca.uncletopia.com","port":27015,"enabled":true,"region":"us-east","cc":"ca","latitude":45.50889,"longitude":-73.56167,"reserved":0,"last_update":"0001-01-01T00:00:00Z","name_a2s":"Uncletopia | Montr√©al | 1 | All Maps","protocol":17,"map":"pl_snowycoast","folder":"tf","game":"Team Fortress","app_id":440,"player_count":0,"max_players":24,"Bots":0,"server_type":"Dedicated","server_os":"Linux","password":true,"vac":true,"version":"7882260","steam_id":85568392924500087,"keywords":["nocrits","nodmgspread","payload","uncletopia"],"game_id":440,"stv_port":27016,"stv_name":"Uncletopia | Montr√©al | 1 | All Maps | STV","players":null},{"server_id":301,"name":"Uncletopia | Montr√©al | 2 | All Maps","name_short":"mtl-2","host":"mtl-1.ca.uncletopia.com","port":27025,"enabled":true,"region":"us-east","cc":"ca","latitude":45.50889,"longitude":-73.56167,"reserved":0,"last_update":"0001-01-01T00:00:00Z","name_a2s":"Uncletopia | Montr√©al | 2 | All Maps","protocol":17,"map":"cp_sunshine","folder":"tf","game":"Team Fortress","app_id":440,"player_count":0,"max_players":24,"Bots":0,"server_type":"Dedicated","server_os":"Linux","password":true,"vac":true,"version":"7882260","steam_id":85568392924500088,"keywords":["cp","nocrits","nodmgspread","uncletopia"],"game_id":440,"stv_port":27026,"stv_name":"Uncletopia | Montr√©al | 2 | All Maps | STV","players":null},{"server_id":302,"name":"Uncletopia | Montr√©al | 3 | All Maps","name_short":"mtl-3","host":"mtl-1.ca.uncletopia.com","port":27035,"enabled":true,"region":"us-east","cc":"ca","latitude":45.50889,"longitude":-73.56167,"reserved":0,"last_update":"0001-01-01T00:00:00Z","name_a2s":"Uncletopia | Montr√©al | 3 | All Maps","protocol":17,"map":"pl_borneo","folder":"tf","game":"Team Fortress","app_id":440,"player_count":0,"max_players":24,"Bots":0,"server_type":"Dedicated","server_os":"Linux","password":true,"vac":true,"version":"7882260","steam_id":85568392924500089,"keywords":["nocrits","nodmgspread","payload","uncletopia"],"game_id":440,"stv_port":27036,"stv_name":"Uncletopia | Montr√©al | 3 | All Maps | STV","players":null},{"server_id":303,"name":"Uncletopia | Montr√©al | 4 | No Payload","name_short":"mtl-4","host":"mtl-1.ca.uncletopia.com","port":27045,"enabled":true,"region":"us-east","cc":"ca","latitude":45.50889,"longitude":-73.56167,"reserved":0,"last_update":"0001-01-01T00:00:00Z","name_a2s":"Uncletopia | Montr√©al | 4 | No Payload","protocol":17,"map":"cp_altitude","folder":"tf","game":"Team Fortress","app_id":440,"player_count":0,"max_players":24,"Bots":0,"server_type":"Dedicated","server_os":"Linux","password":true,"vac":true,"version":"7882260","steam_id":85568392924500090,"keywords":["cp","nocrits","nodmgspread","uncletopia"],"game_id":440,"stv_port":27046,"stv_name":"Uncletopia | Montr√©al | 4 | No Payload | STV","players":null},{"server_id":13,"name":"Uncletopia | New York City | 1 | All Maps","name_short":"nyc-1","host":"nyc-1.us.uncletopia.com","port":27015,"enabled":true,"region":"us-east","cc":"us","latitude":40.73061,"longitude":-73.93524,"reserved":0,"last_update":"0001-01-01T00:00:00Z","name_a2s":"Uncletopia | New York City | 1 | All Maps","protocol":17,"map":"pl_borneo","folder":"tf","game":"Team Fortress","app_id":440,"player_count":0,"max_players":24,"Bots":0,"server_type":"Dedicated","server_os":"Linux","password":true,"vac":true,"version":"7882260","steam_id":85568392924469993,"keywords":["nocrits","nodmgspread","payload","uncletopia"],"game_id":440,"stv_port":27016,"stv_name":"Uncletopia | New York City | 1 | All Maps | STV","players":null},{"server_id":14,"name":"Uncletopia | New York City | 2 | All Maps","name_short":"nyc-2","host":"nyc-1.us.uncletopia.com","port":27025,"enabled":true,"region":"us-east","cc":"us","latitude":40.73061,"longitude":-73.93524,"reserved":0,"last_update":"0001-01-01T00:00:00Z","name_a2s":"Uncletopia | New York City | 2 | All Maps","protocol":17,"map":"pl_badwater","folder":"tf","game":"Team Fortress","app_id":440,"player_count":5,"max_players":24,"Bots":0,"server_type":"Dedicated","server_os":"Linux","password":true,"vac":true,"version":"7882260","steam_id":85568392924469994,"keywords":["nocrits","nodmgspread","payload","uncletopia"],"game_id":440,"stv_port":27026,"stv_name":"Uncletopia | New York City | 2 | All Maps | STV","players":[{"user_id":3,"name":"Periculosum PhD in Funny","steam_id":76561198123370914,"connected_time":3157000000000,"state":"active","ping":83},{"user_id":4,"name":"desertcamila","steam_id":76561198249331208,"connected_time":3155000000000,"state":"active","ping":65},{"user_id":5,"name":"Rognoch","steam_id":76561199073488006,"connected_time":3145000000000,"state":"active","ping":149},{"user_id":6,"name":"dishsoap","steam_id":76561198849284832,"connected_time":2790000000000,"state":"active","ping":133},{"user_id":8,"name":"bread","steam_id":76561199207479862,"connected_time":263000000000,"state":"active","ping":92}]},{"server_id":15,"name":"Uncletopia | New York City | 3 | Stopwatch Beta","name_short":"nyc-3","host":"nyc-1.us.uncletopia.com","port":27035,"enabled":true,"region":"us-east","cc":"us","latitude":40.73061,"longitude":-73.93524,"reserved":0,"last_update":"0001-01-01T00:00:00Z","name_a2s":"Uncletopia | New York City | 3 | Stopwatch Beta","protocol":17,"map":"koth_lakeside_final","folder":"tf","game":"Team Fortress","app_id":440,"player_count":0,"max_players":24,"Bots":0,"server_type":"Dedicated","server_os":"Linux","password":true,"vac":true,"version":"7882260","steam_id":85568392924742820,"keywords":["cp","nocrits","nodmgspread","uncletopia"],"game_id":440,"stv_port":27036,"stv_name":"Uncletopia | New York City | 3 | Stopwatch Beta | STV","players":null},{"server_id":16,"name":"Uncletopia | New York City | 4 | Community","name_short":"nyc-4","host":"nyc-1.us.uncletopia.com","port":27045,"enabled":true,"region":"us-east","cc":"us","latitude":40.73061,"longitude":-73.93524,"reserved":0,"last_update":"0001-01-01T00:00:00Z","name_a2s":"Uncletopia | New York City | 4 | Community","protocol":17,"map":"pl_badwater","folder":"tf","game":"Team Fortress","app_id":440,"player_count":0,"max_players":24,"Bots":0,"server_type":"Dedicated","server_os":"Linux","password":true,"vac":true,"version":"7882260","steam_id":85568392924742821,"keywords":["nocrits","nodmgspread","payload","uncletopia"],"game_id":440,"stv_port":27046,"stv_name":"Uncletopia | New York City | 4 | Community | STV","players":null},{"server_id":142,"name":"Uncletopia | S√£o Paulo | 1 | All Maps","name_short":"sao-1","host":"sao-1.br.uncletopia.com","port":27015,"enabled":true,"region":"sa","cc":"br","latitude":-23.533773,"longitude":-46.62529,"reserved":0,"last_update":"0001-01-01T00:00:00Z","name_a2s":"Uncletopia | S√£o Paulo | 1 | All Maps","protocol":17,"map":"cp_process_final","folder":"tf","game":"Team Fortress","app_id":440,"player_count":0,"max_players":24,"Bots":0,"server_type":"Dedicated","server_os":"Linux","password":true,"vac":true,"version":"7882260","steam_id":85568392924469996,"keywords":["cp","nocrits","nodmgspread","uncletopia"],"game_id":440,"stv_port":27016,"stv_name":"Uncletopia | S√£o Paulo | 1 | All Maps | STV","players":null},{"server_id":143,"name":"Uncletopia | S√£o Paulo | 2 | All Maps","name_short":"sao-2","host":"sao-2.br.uncletopia.com","port":27015,"enabled":true,"region":"sa","cc":"br","latitude":-23.533773,"longitude":-46.62529,"reserved":0,"last_update":"0001-01-01T00:00:00Z","name_a2s":"Uncletopia | S√£o Paulo | 2 | All Maps","protocol":17,"map":"pl_pier","folder":"tf","game":"Team Fortress","app_id":440,"player_count":0,"max_players":24,"Bots":0,"server_type":"Dedicated","server_os":"Linux","password":true,"vac":true,"version":"7882260","steam_id":85568392924485349,"keywords":["nocrits","nodmgspread","payload","uncletopia"],"game_id":440,"stv_port":27016,"stv_name":"Uncletopia | S√£o Paulo | 2 | All Maps | STV","players":null},{"server_id":7,"name":"Uncletopia | Seattle | 1 | All Maps","name_short":"sea-1","host":"sea-1.us.uncletopia.com","port":27015,"enabled":true,"region":"us-west","cc":"us","latitude":47.608013,"longitude":-122.33517,"reserved":0,"last_update":"0001-01-01T00:00:00Z","name_a2s":"Uncletopia | Seattle | 1 | All Maps","protocol":17,"map":"pl_pier","folder":"tf","game":"Team Fortress","app_id":440,"player_count":4,"max_players":24,"Bots":0,"server_type":"Dedicated","server_os":"Linux","password":true,"vac":true,"version":"7882260","steam_id":85568392924469997,"keywords":["nocrits","nodmgspread","payload","uncletopia"],"game_id":440,"stv_port":27016,"stv_name":"Uncletopia | Seattle | 1 | All Maps | STV","players":[{"user_id":1114,"name":"T.√ò.‚Ç¶.Y.‚Ñ≥.·éØ.‚Ñµ.„Éä.·éØ.","steam_id":76561199168018630,"connected_time":1256000000000,"state":"active","ping":214},{"user_id":1090,"name":"Dr. Hashbrown","steam_id":76561198410780370,"connected_time":5078000000000,"state":"active","ping":60},{"user_id":1117,"name":"ultra lox","steam_id":76561199427318825,"connected_time":136000000000,"state":"active","ping":302},{"user_id":1072,"name":"justgaming","steam_id":76561199103123179,"connected_time":7278000000000,"state":"active","ping":126}]},{"server_id":119,"name":"Uncletopia | Seattle | 2 | All Maps","name_short":"sea-2","host":"sea-1.us.uncletopia.com","port":27025,"enabled":true,"region":"us-west","cc":"us","latitude":47.608013,"longitude":-122.33517,"reserved":0,"last_update":"0001-01-01T00:00:00Z","name_a2s":"Uncletopia | Seattle | 2 | All Maps","protocol":17,"map":"pl_borneo","folder":"tf","game":"Team Fortress","app_id":440,"player_count":24,"max_players":24,"Bots":0,"server_type":"Dedicated","server_os":"Linux","password":true,"vac":true,"version":"7882260","steam_id":85568392924469998,"keywords":["nocrits","nodmgspread","payload","uncletopia"],"game_id":440,"stv_port":27026,"stv_name":"Uncletopia | Seattle | 2 | All Maps | STV","players":[{"user_id":601,"name":"‚ô° ironterrortrain ‚ô°","steam_id":76561198046460418,"connected_time":11876000000000,"state":"active","ping":72},{"user_id":771,"name":"dubious little creature","steam_id":76561198113251746,"connected_time":554000000000,"state":"active","ping":68},{"user_id":762,"name":"Where The F**K I Am?","steam_id":76561197986530028,"connected_time":937000000000,"state":"active","ping":100},{"user_id":770,"name":"HellaCopter","steam_id":76561198062313698,"connected_time":573000000000,"state":"active","ping":58},{"user_id":755,"name":"One Horned Bitch Destroyer","steam_id":76561198045810191,"connected_time":1327000000000,"state":"active","ping":38},{"user_id":739,"name":"iggybones (girl with balls)","steam_id":76561198101610291,"connected_time":2149000000000,"state":"active","ping":82},{"user_id":751,"name":"Rabblerouser","steam_id":76561198127930963,"connected_time":1540000000000,"state":"active","ping":58},{"user_id":756,"name":"Mr Sir Logan","steam_id":76561198088803891,"connected_time":1234000000000,"state":"active","ping":90},{"user_id":679,"name":"Infuzion4","steam_id":76561198119664203,"connected_time":6485000000000,"state":"active","ping":90},{"user_id":745,"name":"Jacobzeba01","steam_id":76561198131808718,"connected_time":1873000000000,"state":"active","ping":61},{"user_id":772,"name":"summerof69","steam_id":76561198069049410,"connected_time":521000000000,"state":"active","ping":95},{"user_id":693,"name":"SQbuilder","steam_id":76561198076473375,"connected_time":5404000000000,"state":"active","ping":67},{"user_id":773,"name":"oske","steam_id":76561198131526809,"connected_time":488000000000,"state":"active","ping":72},{"user_id":757,"name":"KonJac","steam_id":76561198027812652,"connected_time":1218000000000,"state":"active","ping":67},{"user_id":766,"name":"RamHam","steam_id":76561198128466236,"connected_time":741000000000,"state":"active","ping":86},{"user_id":759,"name":"weed lesbian","steam_id":76561197989933601,"connected_time":1124000000000,"state":"active","ping":51},{"user_id":767,"name":"Ad3ptus","steam_id":76561198272045750,"connected_time":737000000000,"state":"active","ping":39},{"user_id":776,"name":"Aquarius","steam_id":76561198044161965,"connected_time":60000000000,"state":"active","ping":225},{"user_id":615,"name":"SadFapping","steam_id":76561198076651049,"connected_time":10922000000000,"state":"active","ping":59},{"user_id":777,"name":"Sil","steam_id":76561199029535430,"connected_time":53000000000,"state":"active","ping":55},{"user_id":765,"name":"chicago's second greatest enemy","steam_id":76561199091872158,"connected_time":846000000000,"state":"active","ping":59},{"user_id":736,"name":"the tf2 player of all time","steam_id":76561198881665250,"connected_time":2336000000000,"state":"active","ping":51},{"user_id":686,"name":"Capitalism","steam_id":76561198068677316,"connected_time":6043000000000,"state":"active","ping":57},{"user_id":701,"name":"toilet thief","steam_id":76561198057486874,"connected_time":5117000000000,"state":"active","ping":74}]},{"server_id":406,"name":"Uncletopia | Seattle | 3 | Stopwatch Beta","name_short":"sea-3","host":"sea-1.us.uncletopia.com","port":27035,"enabled":true,"region":"us-west","cc":"us","latitude":47.608013,"longitude":-122.33517,"reserved":0,"last_update":"0001-01-01T00:00:00Z","name_a2s":"Uncletopia | Seattle | 3 | Stopwatch Beta","protocol":17,"map":"workshop/koth_ramjam_rc1.ugc459778887","folder":"tf","game":"Team Fortress","app_id":440,"player_count":0,"max_players":24,"Bots":0,"server_type":"Dedicated","server_os":"Linux","password":true,"vac":true,"version":"7882260","steam_id":85568392924515217,"keywords":["cp","nocrits","nodmgspread","uncletopia"],"game_id":440,"stv_port":27036,"stv_name":"Uncletopia | Seattle | 3 | Stopwatch Beta | STV","players":null},{"server_id":17,"name":"Uncletopia | San Francisco | 1 | All Maps","name_short":"sfo-1","host":"sfo-1.us.uncletopia.com","port":27015,"enabled":true,"region":"us-west","cc":"us","latitude":37.77397,"longitude":-122.4313,"reserved":0,"last_update":"0001-01-01T00:00:00Z","name_a2s":"Uncletopia | San Francisco | 1 | All Maps","protocol":17,"map":"koth_lakeside_final","folder":"tf","game":"Team Fortress","app_id":440,"player_count":0,"max_players":24,"Bots":0,"server_type":"Dedicated","server_os":"Linux","password":true,"vac":true,"version":"7882260","steam_id":85568392924469999,"keywords":["cp","nocrits","nodmgspread","uncletopia"],"game_id":440,"stv_port":27016,"stv_name":"Uncletopia | San Francisco | 1 | All Maps | STV","players":null},{"server_id":18,"name":"Uncletopia | San Francisco | 2 | All Maps","name_short":"sfo-2","host":"sfo-1.us.uncletopia.com","port":27025,"enabled":true,"region":"us-west","cc":"us","latitude":37.77397,"longitude":-122.4313,"reserved":0,"last_update":"0001-01-01T00:00:00Z","name_a2s":"Uncletopia | San Francisco | 2 | All Maps","protocol":17,"map":"cp_sunshine","folder":"tf","game":"Team Fortress","app_id":440,"player_count":3,"max_players":24,"Bots":0,"server_type":"Dedicated","server_os":"Linux","password":true,"vac":true,"version":"7882260","steam_id":85568392924470000,"keywords":["cp","nocrits","nodmgspread","uncletopia"],"game_id":440,"stv_port":27026,"stv_name":"Uncletopia | San Francisco | 2 | All Maps | STV","players":[{"user_id":266,"name":"Engineer(matejkolcz)","steam_id":76561198280461212,"connected_time":994000000000,"state":"active","ping":205},{"user_id":268,"name":"2Fort Radio Station Bot (2)","steam_id":76561199471043909,"connected_time":20000000000,"state":"active","ping":233},{"user_id":264,"name":"Practicold","steam_id":76561198179447541,"connected_time":1940000000000,"state":"active","ping":40}]},{"server_id":19,"name":"Uncletopia | San Francisco | 3 | Stopwatch Beta","name_short":"sfo-3","host":"sfo-1.us.uncletopia.com","port":27035,"enabled":true,"region":"us-west","cc":"us","latitude":37.77397,"longitude":-122.4313,"reserved":0,"last_update":"0001-01-01T00:00:00Z","name_a2s":"Uncletopia | San Francisco | 3 | Stopwatch Beta","protocol":17,"map":"workshop/koth_bagel_rc6.ugc2514036946","folder":"tf","game":"Team Fortress","app_id":440,"player_count":0,"max_players":24,"Bots":0,"server_type":"Dedicated","server_os":"Linux","password":true,"vac":true,"version":"7882260","steam_id":85568392924742824,"keywords":["cp","nocrits","nodmgspread","uncletopia"],"game_id":440,"stv_port":27036,"stv_name":"Uncletopia | San Francisco | 3 | Stopwatch Beta | STV","players":null},{"server_id":20,"name":"Uncletopia | San Francisco | 4 | Community","name_short":"sfo-4","host":"sfo-1.us.uncletopia.com","port":27045,"enabled":true,"region":"us-west","cc":"us","latitude":37.77397,"longitude":-122.4313,"reserved":0,"last_update":"0001-01-01T00:00:00Z","name_a2s":"Uncletopia | San Francisco | 4 | Community","protocol":17,"map":"workshop/cp_indulge.ugc528106646","folder":"tf","game":"Team Fortress","app_id":440,"player_count":0,"max_players":24,"Bots":0,"server_type":"Dedicated","server_os":"Linux","password":true,"vac":true,"version":"7882260","steam_id":85568392924742826,"keywords":["cp","nocrits","nodmgspread","uncletopia"],"game_id":440,"stv_port":27046,"stv_name":"Uncletopia | San Francisco | 4 | Community | STV","players":null},{"server_id":141,"name":"Uncletopia | Sydney | 1 | All Maps","name_short":"syd-1","host":"syd-1.au.uncletopia.com","port":27015,"enabled":true,"region":"au","cc":"au","latitude":-33.865143,"longitude":151.2099,"reserved":0,"last_update":"0001-01-01T00:00:00Z","name_a2s":"Uncletopia | Sydney | 1 | All Maps","protocol":17,"map":"pl_frontier_final","folder":"tf","game":"Team Fortress","app_id":440,"player_count":14,"max_players":24,"Bots":0,"server_type":"Dedicated","server_os":"Linux","password":true,"vac":true,"version":"7882260","steam_id":85568392924470001,"keywords":["nocrits","nodmgspread","payload","uncletopia"],"game_id":440,"stv_port":27016,"stv_name":"Uncletopia | Sydney | 1 | All Maps | STV","players":[{"user_id":970,"name":"mysteriouslyseeing","steam_id":76561198858335738,"connected_time":1665000000000,"state":"active","ping":70},{"user_id":980,"name":"bread","steam_id":76561199405764106,"connected_time":1156000000000,"state":"active","ping":44},{"user_id":989,"name":"And Rotate","steam_id":76561199083645515,"connected_time":773000000000,"state":"active","ping":64},{"user_id":974,"name":"Dupiter","steam_id":76561198108820767,"connected_time":1462000000000,"state":"active","ping":55},{"user_id":976,"name":"_MAFKEES","steam_id":76561198233733104,"connected_time":1280000000000,"state":"active","ping":68},{"user_id":938,"name":"mushroom","steam_id":76561197992336470,"connected_time":5027000000000,"state":"active","ping":90},{"user_id":994,"name":"DIErector of death","steam_id":76561199217741639,"connected_time":103000000000,"state":"active","ping":343},{"user_id":995,"name":"LT.Steeamer","steam_id":76561198271938142,"connected_time":39000000000,"state":"spawning","ping":307},{"user_id":996,"name":"L.ion","steam_id":76561198261172910,"connected_time":12000000000,"state":"active","ping":54},{"user_id":985,"name":"Nugget","steam_id":76561197961747465,"connected_time":946000000000,"state":"active","ping":86},{"user_id":950,"name":"Tiger_Tan","steam_id":76561198221733844,"connected_time":3534000000000,"state":"active","ping":66},{"user_id":984,"name":"Tordy","steam_id":76561199228206655,"connected_time":1039000000000,"state":"active","ping":145},{"user_id":987,"name":"SuPerTeD","steam_id":76561197996233289,"connected_time":887000000000,"state":"active","ping":78},{"user_id":988,"name":"Jiffy360","steam_id":76561198149550772,"connected_time":880000000000,"state":"active","ping":90}]},{"server_id":123,"name":"Uncletopia | Sydney | 2 | All Maps","name_short":"syd-2","host":"syd-1.au.uncletopia.com","port":27025,"enabled":true,"region":"au","cc":"au","latitude":-33.865143,"longitude":151.2099,"reserved":0,"last_update":"0001-01-01T00:00:00Z","name_a2s":"Uncletopia | Sydney | 2 | All Maps","protocol":17,"map":"cp_steel","folder":"tf","game":"Team Fortress","app_id":440,"player_count":20,"max_players":24,"Bots":0,"server_type":"Dedicated","server_os":"Linux","password":true,"vac":true,"version":"7882260","steam_id":85568392924470002,"keywords":["cp","nocrits","nodmgspread","uncletopia"],"game_id":440,"stv_port":27026,"stv_name":"Uncletopia | Sydney | 2 | All Maps | STV","players":[{"user_id":298,"name":"Lumalee ‚ù§","steam_id":76561198157613299,"connected_time":2895000000000,"state":"active","ping":58},{"user_id":314,"name":"Batering","steam_id":76561198039849442,"connected_time":1700000000000,"state":"active","ping":61},{"user_id":330,"name":"ETHICAL CONSUMPTION","steam_id":76561198035066643,"connected_time":671000000000,"state":"active","ping":101},{"user_id":297,"name":"miyamoto is daddy","steam_id":76561199483818230,"connected_time":3025000000000,"state":"active","ping":81},{"user_id":264,"name":"TheTherepistAU","steam_id":76561198070250012,"connected_time":4944000000000,"state":"active","ping":55},{"user_id":282,"name":"little raw meat boy","steam_id":76561199248254676,"connected_time":3989000000000,"state":"active","ping":60},{"user_id":318,"name":"Breadnought","steam_id":76561198116436923,"connected_time":1681000000000,"state":"active","ping":85},{"user_id":311,"name":"MIDI.pk3","steam_id":76561199081848498,"connected_time":1935000000000,"state":"active","ping":61},{"user_id":328,"name":"Rashid Of The Dank Memes","steam_id":76561198281398078,"connected_time":789000000000,"state":"active","ping":61},{"user_id":322,"name":"Jauntyweb","steam_id":76561198814458512,"connected_time":1353000000000,"state":"active","ping":97},{"user_id":321,"name":"zorbingus blurgorgus","steam_id":76561198063481761,"connected_time":1445000000000,"state":"active","ping":45},{"user_id":317,"name":"Chromo Patrol","steam_id":76561197987001534,"connected_time":1686000000000,"state":"active","ping":97},{"user_id":325,"name":"lugig","steam_id":76561198264839805,"connected_time":943000000000,"state":"active","ping":60},{"user_id":313,"name":"Original Glazed (Krispy/Kreme)","steam_id":76561197997362731,"connected_time":1723000000000,"state":"active","ping":44},{"user_id":278,"name":"Mario","steam_id":76561198828095685,"connected_time":4415000000000,"state":"active","ping":70},{"user_id":270,"name":"Wario","steam_id":76561198188708730,"connected_time":4828000000000,"state":"active","ping":59},{"user_id":309,"name":"Sentry Gun (EpicGuy4227)","steam_id":76561198094132328,"connected_time":2128000000000,"state":"active","ping":55},{"user_id":324,"name":"DropBearWarrior","steam_id":76561198352774039,"connected_time":1106000000000,"state":"active","ping":82},{"user_id":323,"name":"whiteshaq","steam_id":76561198131988811,"connected_time":1299000000000,"state":"active","ping":44},{"user_id":223,"name":"goof","steam_id":76561198054034465,"connected_time":7251000000000,"state":"active","ping":71}]},{"server_id":395,"name":"Uncletopia | Sydney | 3 | All Maps","name_short":"syd-3","host":"syd-1.au.uncletopia.com","port":27035,"enabled":true,"region":"au","cc":"au","latitude":-33.865143,"longitude":151.2099,"reserved":0,"last_update":"0001-01-01T00:00:00Z","name_a2s":"Uncletopia | Sydney | 3 | All Maps","protocol":17,"map":"cp_sunshine","folder":"tf","game":"Team Fortress","app_id":440,"player_count":0,"max_players":24,"Bots":0,"server_type":"Dedicated","server_os":"Linux","password":true,"vac":true,"version":"7882260","steam_id":85568392925194467,"keywords":["cp","nocrits","nodmgspread","uncletopia"],"game_id":440,"stv_port":27036,"stv_name":"Uncletopia | Sydney | 3 | All Maps | STV","players":null},{"server_id":396,"name":"Uncletopia | Sydney | 4 | All Maps","name_short":"syd-4","host":"syd-1.au.uncletopia.com","port":27045,"enabled":true,"region":"au","cc":"au","latitude":-33.865143,"longitude":151.2099,"reserved":0,"last_update":"0001-01-01T00:00:00Z","name_a2s":"Uncletopia | Sydney | 4 | All Maps","protocol":17,"map":"pl_barnblitz","folder":"tf","game":"Team Fortress","app_id":440,"player_count":0,"max_players":24,"Bots":0,"server_type":"Dedicated","server_os":"Linux","password":true,"vac":true,"version":"7882260","steam_id":85568392925397958,"keywords":["nocrits","nodmgspread","payload","uncletopia"],"game_id":440,"stv_port":27046,"stv_name":"Uncletopia | Sydney | 4 | All Maps | STV","players":null},{"server_id":58,"name":"Uncletopia | Sydney | 5 | Stopwatch Beta","name_short":"syd-5","host":"syd-1.au.uncletopia.com","port":27055,"enabled":true,"region":"au","cc":"au","latitude":-33.865143,"longitude":151.2099,"reserved":0,"last_update":"0001-01-01T00:00:00Z","name_a2s":"Uncletopia | Sydney | 5 | Stopwatch Beta","protocol":17,"map":"workshop/pl_vigil_rc9.ugc1266210012","folder":"tf","game":"Team Fortress","app_id":440,"player_count":0,"max_players":24,"Bots":0,"server_type":"Dedicated","server_os":"Linux","password":true,"vac":true,"version":"7882260","steam_id":85568392925397959,"keywords":["nocrits","nodmgspread","payload","uncletopia"],"game_id":440,"stv_port":27056,"stv_name":"Uncletopia | Sydney | 5 | Stopwatch Beta | STV","players":null},{"server_id":59,"name":"Uncletopia | Sydney | 6 | Community","name_short":"syd-6","host":"syd-1.au.uncletopia.com","port":27065,"enabled":true,"region":"au","cc":"au","latitude":-33.865143,"longitude":151.2099,"reserved":0,"last_update":"0001-01-01T00:00:00Z","name_a2s":"Uncletopia | Sydney | 6 | Community","protocol":17,"map":"workshop/rd_asteroid_redux_b1.ugc2154902912","folder":"tf","game":"Team Fortress","app_id":440,"player_count":0,"max_players":24,"Bots":0,"server_type":"Dedicated","server_os":"Linux","password":true,"vac":true,"version":"7882260","steam_id":85568392925397960,"keywords":["beta","nocrits","nodmgspread","rd","uncletopia"],"game_id":440,"stv_port":27066,"stv_name":"Uncletopia | Sydney | 6 | Community | STV","players":null},{"server_id":49,"name":"Uncletopia | Warsaw | 1 | All Maps","name_short":"waw-1","host":"waw-1.pl.uncletopia.com","port":27015,"enabled":true,"region":"eu","cc":"pl","latitude":52.2297,"longitude":21.017532,"reserved":0,"last_update":"0001-01-01T00:00:00Z","name_a2s":"","protocol":0,"map":"","folder":"","game":"","app_id":0,"player_count":0,"max_players":0,"Bots":0,"server_type":"","server_os":"","password":false,"vac":false,"version":"","steam_id":0,"keywords":null,"game_id":0,"stv_port":0,"stv_name":"","players":null},{"server_id":50,"name":"Uncletopia | Warsaw | 2 | All Maps","name_short":"waw-2","host":"waw-1.pl.uncletopia.com","port":27025,"enabled":true,"region":"eu","cc":"pl","latitude":52.2297,"longitude":21.017532,"reserved":0,"last_update":"0001-01-01T00:00:00Z","name_a2s":"Uncletopia | Warsaw | 2 | All Maps","protocol":17,"map":"pl_swiftwater_final1","folder":"tf","game":"Team Fortress","app_id":440,"player_count":0,"max_players":24,"Bots":0,"server_type":"Dedicated","server_os":"Linux","password":true,"vac":true,"version":"7882260","steam_id":85568392925397851,"keywords":["nocrits","nodmgspread","payload","uncletopia"],"game_id":440,"stv_port":27026,"stv_name":"Uncletopia | Warsaw | 2 | All Maps | STV","players":null},{"server_id":51,"name":"Uncletopia | Warsaw | 3 | All Maps","name_short":"waw-3","host":"waw-1.pl.uncletopia.com","port":27035,"enabled":true,"region":"eu","cc":"pl","latitude":52.2297,"longitude":21.017532,"reserved":0,"last_update":"0001-01-01T00:00:00Z","name_a2s":"Uncletopia | Warsaw | 3 | All Maps","protocol":17,"map":"koth_viaduct","folder":"tf","game":"Team Fortress","app_id":440,"player_count":0,"max_players":24,"Bots":0,"server_type":"Dedicated","server_os":"Linux","password":true,"vac":true,"version":"7882260","steam_id":85568392925397852,"keywords":["cp","nocrits","nodmgspread","uncletopia"],"game_id":440,"stv_port":27036,"stv_name":"Uncletopia | Warsaw | 3 | All Maps | STV","players":null},{"server_id":52,"name":"Uncletopia | Warsaw | 4 | All Maps","name_short":"waw-4","host":"waw-1.pl.uncletopia.com","port":27045,"enabled":true,"region":"eu","cc":"pl","latitude":52.2297,"longitude":21.017532,"reserved":0,"last_update":"0001-01-01T00:00:00Z","name_a2s":"Uncletopia | Warsaw | 4 | All Maps","protocol":17,"map":"koth_highpass","folder":"tf","game":"Team Fortress","app_id":440,"player_count":0,"max_players":24,"Bots":0,"server_type":"Dedicated","server_os":"Linux","password":true,"vac":true,"version":"7882260","steam_id":85568392925397853,"keywords":["cp","nocrits","nodmgspread","uncletopia"],"game_id":440,"stv_port":27046,"stv_name":"Uncletopia | Warsaw | 4 | All Maps | STV","players":null},{"server_id":53,"name":"Uncletopia | Warsaw | 5 | Stopwatch Beta","name_short":"waw-5","host":"waw-1.pl.uncletopia.com","port":27055,"enabled":true,"region":"eu","cc":"pl","latitude":52.2297,"longitude":21.017532,"reserved":0,"last_update":"0001-01-01T00:00:00Z","name_a2s":"Uncletopia | Warsaw | 5 | Stopwatch Beta","protocol":17,"map":"cp_mountainlab","folder":"tf","game":"Team Fortress","app_id":440,"player_count":0,"max_players":24,"Bots":0,"server_type":"Dedicated","server_os":"Linux","password":true,"vac":true,"version":"7882260","steam_id":85568392925397854,"keywords":["cp","nocrits","nodmgspread","uncletopia"],"game_id":440,"stv_port":27056,"stv_name":"Uncletopia | Warsaw | 5 | Stopwatch Beta | STV","players":null},{"server_id":54,"name":"Uncletopia | Warsaw | 6 | Community","name_short":"waw-6","host":"waw-1.pl.uncletopia.com","port":27065,"enabled":true,"region":"eu","cc":"pl","latitude":52.2297,"longitude":21.017532,"reserved":0,"last_update":"0001-01-01T00:00:00Z","name_a2s":"Uncletopia | Warsaw | 6 | Community","protocol":17,"map":"koth_viaduct","folder":"tf","game":"Team Fortress","app_id":440,"player_count":0,"max_players":24,"Bots":0,"server_type":"Dedicated","server_os":"Linux","password":true,"vac":true,"version":"7882260","steam_id":85568392925397856,"keywords":["cp","nocrits","nodmgspread","uncletopia"],"game_id":440,"stv_port":27066,"stv_name":"Uncletopia | Warsaw | 6 | Community | STV","players":null}]}