{"status":true,"message":"","result":[{"server_id":9,"name":"Uncletopia | Atlanta | 1 | All Maps","name_short":"atl-1","host":"atl-1.us.uncletopia.com","port":27015,"enabled":true,"region":"us-east","cc":"us","latitude":33.753746,"longitude":-84.38633,"reserved":0,"last_update":"0001-01-01T00:00:00Z","name_a2s":"Uncletopia | Atlanta | 1 | All Maps","protocol":17,"map":"pl_snowycoast","folder":"tf","game":"Team Fortress","app_id":440,"player_count":13,"max_players":24,"Bots":0,"server_type":"Dedicated","server_os":"Linux","password":true,"vac":true,"version":"7961495","steam_id":85568392924469982,"keywords":["nocrits","nodmgspread","payload","uncletopia"],"game_id":440,"stv_port":27016,"stv_name":"Uncletopia | Atlanta | 1 | All Maps | STV","players":null},{"server_id":104,"name":"Uncletopia | Atlanta | 2 | All Maps","name_short":"atl-2","host":"atl-1.us.uncletopia.com","port":27025,"enabled":true,"region":"us-east","cc":"us","latitude":33.753746,"longitude":-84.38633,"reserved":0,"last_update":"0001-01-01T00:00:00Z","name_a2s":"","protocol":0,"map":"","folder":"","game":"","app_id":0,"player_count":0,"max_players":0,"Bots":0,"server_type":"","server_os":"","password":false,"vac":false,"version":"","steam_id":0,"keywords":null,"game_id":0,"stv_port":0,"stv_name":"","players":null},{"server_id":400,"name":"Uncletopia | Atlanta | 3 | All Maps","name_short":"atl-3","host":"atl-1.us.uncletopia.com","port":27035,"enabled":true,"region":"us-east","cc":"us","latitude":33.753746,"longitude":-84.38633,"reserved":0,"last_update":"0001-01-01T00:00:00Z","name_a2s":"","protocol":0,"map":"","folder":"","game":"","app_id":0,"player_count":0,"max_players":0,"Bots":0,"server_type":"","server_os":"","password":false,"vac":false,"version":"","steam_id":0,"keywords":null,"game_id":0,"stv_port":0,"stv_name":"","players":null},{"server_id":401,"name":"Uncletopia | Atlanta | 4 | Community","name_short":"atl-4","host":"atl-1.us.uncletopia.com","port":27045,"enabled":true,"region":"us-east","cc":"us","latitude":33.753746,"longitude":-84.38633,"reserved":0,"last_update":"0001-01-01T00:00:00Z","name_a2s":"","protocol":0,"map":"","folder":"","game":"","app_id":0,"player_count":0,"max_players":0,"Bots":0,"server_type":"","server_os":"","password":false,"vac":false,"version":"","steam_id":0,"keywords":null,"game_id":0,"stv_port":0,"stv_name":"","players":null},{"server_id":2,"name":"Uncletopia | Chicago | 1 | All Maps","name_short":"chi-1","host":"chi-1.us.uncletopia.com","port":27015,"enabled":true,"region":"us-central","cc":"us","latitude":41.881832,"longitude":-87.62318,"reserved":0,"last_update":"0001-01-01T00:00:00Z","name_a2s":"Uncletopia | Chicago | 1 | All Maps","protocol":17,"map":"cp_dustbowl","folder":"tf","game":"Team Fortress","app_id":440,"player_count":24,"max_players":24,"Bots":0,"server_type":"Dedicated","server_os":"Linux","password":true,"vac":true,"version":"7961495","steam_id":85568392924469984,"keywords":["cp","nocrits","nodmgspread","uncletopia"],"game_id":440,"stv_port":27016,"stv_name":"Uncletopia | Chicago | 1 | All Maps | STV","players":[{"user_id":619,"name":"Gram Tokers Count Doinkula","steam_id":76561198112811565,"connected_time":446000000000,"state":"active","ping":75},{"user_id":588,"name":"elyktsorb","steam_id":76561198158964488,"connected_time":3945000000000,"state":"active","ping":57},{"user_id":567,"name":"seldom","steam_id":76561198166193756,"connected_time":6543000000000,"state":"active","ping":85},{"user_id":545,"name":"‚òÖRIVI‚òÖ","steam_id":76561198086635699,"connected_time":7999000000000,"state":"active","ping":88},{"user_id":607,"name":"Puke Skyfucker","steam_id":76561198012846213,"connected_time":1977000000000,"state":"active","ping":72},{"user_id":591,"name":"DinkleBerg","steam_id":76561198891626233,"connected_time":3199000000000,"state":"active","ping":62},{"user_id":596,"name":"Bort","steam_id":76561198048992198,"connected_time":3146000000000,"state":"active","ping":62},{"user_id":626,"name":"Stubu Dubu","steam_id":76561198111846314,"connected_time":354000000000,"state":"active","ping":77},{"user_id":631,"name":"hashmap","steam_id":76561198043794014,"connected_time":173000000000,"state":"active","ping":51},{"user_id":634,"name":"big man","steam_id":76561199031963925,"connected_time":8000000000,"state":"spawning","ping":74},{"user_id":623,"name":"Herdez Hot Salsa","steam_id":76561197991740906,"connected_time":401000000000,"state":"active","ping":70},{"user_id":613,"name":"TheFriendlyPybro","steam_id":76561198119425604,"connected_time":1692000000000,"state":"active","ping":74},{"user_id":633,"name":"icyy","steam_id":76561198968001329,"connected_time":35000000000,"state":"active","ping":63},{"user_id":559,"name":"TheOneZoot","steam_id":76561198121944243,"connected_time":7042000000000,"state":"active","ping":71},{"user_id":610,"name":"ElBentz","steam_id":76561199059582221,"connected_time":1778000000000,"state":"active","ping":98},{"user_id":615,"name":"Wizard Raccoon","steam_id":76561198072562591,"connected_time":1612000000000,"state":"active","ping":86},{"user_id":624,"name":"F R U I T S","steam_id":76561198030619221,"connected_time":378000000000,"state":"active","ping":73},{"user_id":622,"name":"Snom","steam_id":76561198333827920,"connected_time":430000000000,"state":"active","ping":99},{"user_id":620,"name":"Oddball","steam_id":76561198040440984,"connected_time":443000000000,"state":"active","ping":72},{"user_id":625,"name":"OldNickDonald","steam_id":76561199082618992,"connected_time":361000000000,"state":"active","ping":67},{"user_id":628,"name":"Urbanzpinapple","steam_id":76561198115426938,"connected_time":309000000000,"state":"active","ping":106},{"user_id":632,"name":"Dieu-Sama","steam_id":76561198002075862,"connected_time":126000000000,"state":"active","ping":73},{"user_id":595,"name":"papa","steam_id":76561198109308860,"connected_time":3168000000000,"state":"active","ping":59},{"user_id":630,"name":"RexTheOnlyOne","steam_id":76561198848396566,"connected_time":225000000000,"state":"active","ping":62}]},{"server_id":106,"name":"Uncletopia | Chicago | 2 | All Maps","name_short":"chi-2","host":"chi-1.us.uncletopia.com","port":27025,"enabled":true,"region":"us-central","cc":"us","latitude":41.881832,"longitude":-87.62318,"reserved":0,"last_update":"0001-01-01T00:00:00Z","name_a2s":"Uncletopia | Chicago | 2 | All Maps","protocol":17,"map":"pl_borneo","folder":"tf","game":"Team Fortress","app_id":440,"player_count":24,"max_players":24,"Bots":0,"server_type":"Dedicated","server_os":"Linux","password":true,"vac":true,"version":"7961495","steam_id":85568392924469985,"keywords":["nocrits","nodmgspread","payload","uncletopia"],"game_id":440,"stv_port":27026,"stv_name":"Uncletopia | Chicago | 2 | All Maps | STV","players":[{"user_id":877,"name":"Six Piece Chicken McNobody","steam_id":76561198129848222,"connected_time":1928000000000,"state":"active","ping":65},{"user_id":973,"name":"(TPT) Ghost","steam_id":76561198123262873,"connected_time":371000000000,"state":"active","ping":114},{"user_id":986,"name":"Narlax","steam_id":76561198852832741,"connected_time":121000000000,"state":"active","ping":88},{"user_id":790,"name":"aciddragon","steam_id":76561198151211107,"connected_time":3862000000000,"state":"active","ping":115},{"user_id":960,"name":"K. O. E.","steam_id":76561198025188490,"connected_time":478000000000,"state":"active","ping":81},{"user_id":799,"name":"TheRatman","steam_id":76561197975916410,"connected_time":3365000000000,"state":"active","ping":74},{"user_id":959,"name":"Hertz","steam_id":76561198310927351,"connected_time":488000000000,"state":"active","ping":147},{"user_id":961,"name":"Ben Shapiro","steam_id":76561198380926090,"connected_time":471000000000,"state":"active","ping":52},{"user_id":963,"name":"HntrW","steam_id":76561198119876347,"connected_time":467000000000,"state":"active","ping":62},{"user_id":773,"name":"GreekGoat_Coffee","steam_id":76561198129331088,"connected_time":5298000000000,"state":"active","ping":44},{"user_id":766,"name":"Jovo","steam_id":76561197993265970,"connected_time":5724000000000,"state":"active","ping":74},{"user_id":846,"name":"Flexo","steam_id":76561198111618506,"connected_time":2610000000000,"state":"active","ping":132},{"user_id":964,"name":"Fantastic","steam_id":76561198079088978,"connected_time":463000000000,"state":"active","ping":46},{"user_id":847,"name":"jayhong","steam_id":76561198046772832,"connected_time":2588000000000,"state":"active","ping":39},{"user_id":850,"name":"Belloq","steam_id":76561198060279052,"connected_time":2542000000000,"state":"active","ping":46},{"user_id":982,"name":"YeshieSirYesSir","steam_id":76561198080214214,"connected_time":204000000000,"state":"active","ping":41},{"user_id":918,"name":"SD","steam_id":76561198217410988,"connected_time":1074000000000,"state":"active","ping":104},{"user_id":966,"name":"stupid haver 2","steam_id":76561198044443985,"connected_time":446000000000,"state":"active","ping":79},{"user_id":909,"name":"cup","steam_id":76561198121245586,"connected_time":1151000000000,"state":"active","ping":97},{"user_id":812,"name":"MegaBruh","steam_id":76561198191771321,"connected_time":3241000000000,"state":"active","ping":41},{"user_id":771,"name":"thecal","steam_id":76561198307893384,"connected_time":5464000000000,"state":"active","ping":51},{"user_id":821,"name":"Kirby.exe","steam_id":76561198242714582,"connected_time":3106000000000,"state":"active","ping":69},{"user_id":813,"name":"The mook","steam_id":76561198963551905,"connected_time":3241000000000,"state":"active","ping":62},{"user_id":793,"name":"susie deltarune (real)","steam_id":76561198044923865,"connected_time":3805000000000,"state":"active","ping":113}]},{"server_id":402,"name":"Uncletopia | Chicago | 3 | All Maps","name_short":"chi-3","host":"chi-1.us.uncletopia.com","port":27035,"enabled":true,"region":"us-central","cc":"us","latitude":41.881832,"longitude":-87.62318,"reserved":0,"last_update":"0001-01-01T00:00:00Z","name_a2s":"Uncletopia | Chicago | 3 | All Maps","protocol":17,"map":"pl_borneo","folder":"tf","game":"Team Fortress","app_id":440,"player_count":24,"max_players":24,"Bots":0,"server_type":"Dedicated","server_os":"Linux","password":true,"vac":true,"version":"7961495","steam_id":85568392924515191,"keywords":["nocrits","nodmgspread","payload","uncletopia"],"game_id":440,"stv_port":27036,"stv_name":"Uncletopia | Chicago | 3 | All Maps | STV","players":[{"user_id":788,"name":"medinaleyvas09","steam_id":76561199114677419,"connected_time":382000000000,"state":"active","ping":119},{"user_id":780,"name":"Reflector","steam_id":76561198078999855,"connected_time":644000000000,"state":"active","ping":57},{"user_id":803,"name":"One Horned Bitch Destroyer","steam_id":76561198045810191,"connected_time":204000000000,"state":"active","ping":91},{"user_id":784,"name":"Fiendish Frog","steam_id":76561198029478821,"connected_time":426000000000,"state":"active","ping":66},{"user_id":795,"name":"TheArachnidGamer","steam_id":76561198304986752,"connected_time":318000000000,"state":"active","ping":70},{"user_id":709,"name":"Amoxicilina","steam_id":76561198168486429,"connected_time":8079000000000,"state":"active","ping":116},{"user_id":774,"name":"femboy toucher","steam_id":76561198087039429,"connected_time":2651000000000,"state":"active","ping":72},{"user_id":785,"name":"Lee?","steam_id":76561199060892634,"connected_time":426000000000,"state":"active","ping":100},{"user_id":789,"name":"slugmundo","steam_id":76561198073549508,"connected_time":379000000000,"state":"active","ping":83},{"user_id":786,"name":"newport menthol 100s CEO","steam_id":76561198050976060,"connected_time":416000000000,"state":"active","ping":45},{"user_id":781,"name":"Dzhoshua","steam_id":76561198071915251,"connected_time":440000000000,"state":"active","ping":67},{"user_id":806,"name":"Floating Peasant","steam_id":76561198000183671,"connected_time":85000000000,"state":"active","ping":61},{"user_id":743,"name":"carly rae jepsen","steam_id":76561198336144991,"connected_time":6212000000000,"state":"active","ping":75},{"user_id":791,"name":"totally not a pile of beans","steam_id":76561198119851931,"connected_time":355000000000,"state":"active","ping":81},{"user_id":805,"name":"soltuno","steam_id":76561198074430565,"connected_time":182000000000,"state":"active","ping":119},{"user_id":793,"name":"Toddler Odder","steam_id":76561198045300476,"connected_time":344000000000,"state":"active","ping":46},{"user_id":794,"name":"Scut","steam_id":76561198973734291,"connected_time":329000000000,"state":"active","ping":92},{"user_id":696,"name":"RusticCarp42989","steam_id":76561198361151865,"connected_time":8886000000000,"state":"active","ping":131},{"user_id":777,"name":"Fat lazy useless Engineer","steam_id":76561199020244051,"connected_time":1616000000000,"state":"active","ping":97},{"user_id":707,"name":"SiltyStar85","steam_id":76561198309175923,"connected_time":8261000000000,"state":"active","ping":76},{"user_id":759,"name":"butterthoughts","steam_id":76561198025120284,"connected_time":4677000000000,"state":"active","ping":83},{"user_id":796,"name":"Amy Sapphire","steam_id":76561198122860452,"connected_time":318000000000,"state":"active","ping":100},{"user_id":801,"name":"Sarbanes-Oxley","steam_id":76561197975898479,"connected_time":254000000000,"state":"active","ping":77},{"user_id":798,"name":"watchfull","steam_id":76561198433266742,"connected_time":309000000000,"state":"active","ping":140}]},{"server_id":403,"name":"Uncletopia | Chicago | 4 | All Maps","name_short":"chi-4","host":"chi-1.us.uncletopia.com","port":27045,"enabled":true,"region":"us-central","cc":"us","latitude":41.881832,"longitude":-87.62318,"reserved":0,"last_update":"0001-01-01T00:00:00Z","name_a2s":"Uncletopia | Chicago | 4 | All Maps","protocol":17,"map":"pl_upward","folder":"tf","game":"Team Fortress","app_id":440,"player_count":24,"max_players":24,"Bots":0,"server_type":"Dedicated","server_os":"Linux","password":true,"vac":true,"version":"7961495","steam_id":85568392924515193,"keywords":["nocrits","nodmgspread","payload","uncletopia"],"game_id":440,"stv_port":27046,"stv_name":"Uncletopia | Chicago | 4 | All Maps | STV","players":[{"user_id":344,"name":"OneTrueCorvid","steam_id":76561199012953221,"connected_time":443000000000,"state":"active","ping":81},{"user_id":320,"name":"._.","steam_id":76561198300316801,"connected_time":2781000000000,"state":"active","ping":54},{"user_id":308,"name":"Topfix","steam_id":76561198038899333,"connected_time":4826000000000,"state":"active","ping":62},{"user_id":302,"name":"drwwby","steam_id":76561198067741339,"connected_time":5395000000000,"state":"active","ping":56},{"user_id":321,"name":"caption cool","steam_id":76561197990612056,"connected_time":2471000000000,"state":"active","ping":45},{"user_id":317,"name":"g.","steam_id":76561197981404672,"connected_time":3308000000000,"state":"active","ping":66},{"user_id":323,"name":"Lorberry","steam_id":76561198023706058,"connected_time":2452000000000,"state":"active","ping":36},{"user_id":335,"name":"Switchclackback","steam_id":76561198014355417,"connected_time":1580000000000,"state":"active","ping":59},{"user_id":334,"name":"Banned from Goodwill","steam_id":76561198408159536,"connected_time":1610000000000,"state":"active","ping":49},{"user_id":342,"name":"Capt.Swag","steam_id":76561198088340994,"connected_time":1021000000000,"state":"active","ping":76},{"user_id":298,"name":"wckid","steam_id":76561198044856349,"connected_time":5708000000000,"state":"active","ping":53},{"user_id":343,"name":"the pest","steam_id":76561198826298849,"connected_time":841000000000,"state":"active","ping":100},{"user_id":299,"name":"Laogh Marbh","steam_id":76561198115240256,"connected_time":5611000000000,"state":"active","ping":56},{"user_id":337,"name":"Crim","steam_id":76561198301292105,"connected_time":1488000000000,"state":"active","ping":83},{"user_id":328,"name":"GoldtoothFour","steam_id":76561198055529332,"connected_time":2381000000000,"state":"active","ping":55},{"user_id":314,"name":"spartanman284","steam_id":76561198952947651,"connected_time":3687000000000,"state":"active","ping":82},{"user_id":304,"name":"Piyono","steam_id":76561197962188504,"connected_time":5047000000000,"state":"active","ping":65},{"user_id":318,"name":"Aaron","steam_id":76561198091157802,"connected_time":3220000000000,"state":"active","ping":66},{"user_id":341,"name":"k8o","steam_id":76561198042481882,"connected_time":1077000000000,"state":"active","ping":53},{"user_id":348,"name":"Samercam","steam_id":76561198189403190,"connected_time":359000000000,"state":"active","ping":46},{"user_id":329,"name":"SmearierGold7","steam_id":76561198065689410,"connected_time":2380000000000,"state":"active","ping":81},{"user_id":312,"name":"plokmijnuhbygvtfcrdxeszwaq","steam_id":76561198175741741,"connected_time":4803000000000,"state":"active","ping":75},{"user_id":274,"name":"Talented","steam_id":76561198800259660,"connected_time":8023000000000,"state":"active","ping":64},{"user_id":330,"name":"Doofenshmirtz Evil Inc.","steam_id":76561198439793697,"connected_time":2377000000000,"state":"active","ping":72}]},{"server_id":36,"name":"Uncletopia | Chicago | 5 | All Maps","name_short":"chi-5","host":"chi-2.us.uncletopia.com","port":27015,"enabled":true,"region":"us-central","cc":"us","latitude":41.881832,"longitude":-87.62318,"reserved":0,"last_update":"0001-01-01T00:00:00Z","name_a2s":"Uncletopia | Chicago | 5 | All Maps","protocol":17,"map":"pl_frontier_final","folder":"tf","game":"Team Fortress","app_id":440,"player_count":24,"max_players":24,"Bots":0,"server_type":"Dedicated","server_os":"Linux","password":true,"vac":true,"version":"7961495","steam_id":85568392924866362,"keywords":["nocrits","nodmgspread","payload","uncletopia"],"game_id":440,"stv_port":27016,"stv_name":"Uncletopia | Chicago | 5 | All Maps | STV","players":[{"user_id":374,"name":"BronzeLeagueHero","steam_id":76561198088309711,"connected_time":4862000000000,"state":"active","ping":84},{"user_id":298,"name":"AlexLovesYou","steam_id":76561199163263543,"connected_time":9456000000000,"state":"active","ping":102},{"user_id":405,"name":"Squigatoni","steam_id":76561199433391962,"connected_time":1204000000000,"state":"active","ping":84},{"user_id":401,"name":"Five","steam_id":76561198026640473,"connected_time":1223000000000,"state":"active","ping":63},{"user_id":411,"name":"Marsupial Jones","steam_id":76561198058963406,"connected_time":153000000000,"state":"active","ping":102},{"user_id":412,"name":"Scorpianswag","steam_id":76561198260651036,"connected_time":134000000000,"state":"active","ping":90},{"user_id":393,"name":"Hertz","steam_id":76561198245322982,"connected_time":2051000000000,"state":"active","ping":49},{"user_id":356,"name":"SchmitySchmit","steam_id":76561198127024448,"connected_time":5161000000000,"state":"active","ping":57},{"user_id":377,"name":"Dirachi","steam_id":76561198148186898,"connected_time":4760000000000,"state":"active","ping":69},{"user_id":301,"name":"x","steam_id":76561198013735714,"connected_time":9422000000000,"state":"active","ping":81},{"user_id":404,"name":"Lemon","steam_id":76561198119362095,"connected_time":1209000000000,"state":"active","ping":58},{"user_id":396,"name":"t","steam_id":76561198175988929,"connected_time":1822000000000,"state":"active","ping":65},{"user_id":406,"name":"sunny","steam_id":76561198069380992,"connected_time":1196000000000,"state":"active","ping":84},{"user_id":362,"name":"Horizon","steam_id":76561198088957930,"connected_time":5111000000000,"state":"active","ping":70},{"user_id":409,"name":"CherriKat","steam_id":76561198821297512,"connected_time":320000000000,"state":"active","ping":104},{"user_id":408,"name":"Trout Mask Replica","steam_id":76561198069814977,"connected_time":343000000000,"state":"active","ping":74},{"user_id":370,"name":"Kdash","steam_id":76561198043829155,"connected_time":4912000000000,"state":"active","ping":77},{"user_id":389,"name":"RipHunter77","steam_id":76561198272973014,"connected_time":2407000000000,"state":"active","ping":81},{"user_id":385,"name":"FParadox5150","steam_id":76561198180675907,"connected_time":2902000000000,"state":"active","ping":78},{"user_id":378,"name":"Cyb3rCrunk","steam_id":76561198426463025,"connected_time":4709000000000,"state":"active","ping":72},{"user_id":390,"name":"Ace Chromatica","steam_id":76561198042211131,"connected_time":2397000000000,"state":"active","ping":61},{"user_id":399,"name":"Herr M√ºller","steam_id":76561198064876829,"connected_time":1255000000000,"state":"active","ping":98},{"user_id":373,"name":"Lego Yoda","steam_id":76561199008362890,"connected_time":4901000000000,"state":"active","ping":74},{"user_id":305,"name":"corntent","steam_id":76561198824847948,"connected_time":9381000000000,"state":"active","ping":64}]},{"server_id":37,"name":"Uncletopia | Chicago | 6 | All Maps","name_short":"chi-6","host":"chi-2.us.uncletopia.com","port":27025,"enabled":true,"region":"us-central","cc":"us","latitude":41.881832,"longitude":-87.62318,"reserved":0,"last_update":"0001-01-01T00:00:00Z","name_a2s":"Uncletopia | Chicago | 6 | All Maps","protocol":17,"map":"pl_swiftwater_final1","folder":"tf","game":"Team Fortress","app_id":440,"player_count":24,"max_players":24,"Bots":0,"server_type":"Dedicated","server_os":"Linux","password":true,"vac":true,"version":"7961495","steam_id":85568392924866363,"keywords":["nocrits","nodmgspread","payload","uncletopia"],"game_id":440,"stv_port":27026,"stv_name":"Uncletopia | Chicago | 6 | All Maps | STV","players":[{"user_id":265,"name":"CrunchCisco","steam_id":76561199162724832,"connected_time":4226000000000,"state":"active","ping":87},{"user_id":278,"name":"I'll suck ur toes","steam_id":76561198028157625,"connected_time":3533000000000,"state":"active","ping":92},{"user_id":290,"name":"-W3E- grim10465","steam_id":76561198045698581,"connected_time":2642000000000,"state":"active","ping":52},{"user_id":280,"name":"Cosmic sR","steam_id":76561198081738675,"connected_time":3364000000000,"state":"active","ping":89},{"user_id":313,"name":"len","steam_id":76561198093439770,"connected_time":521000000000,"state":"active","ping":59},{"user_id":282,"name":"Hipkid81","steam_id":76561198209679029,"connected_time":3025000000000,"state":"active","ping":85},{"user_id":312,"name":"Lore","steam_id":76561198098407538,"connected_time":668000000000,"state":"active","ping":47},{"user_id":296,"name":"AJTarcza","steam_id":76561198070800190,"connected_time":2150000000000,"state":"active","ping":88},{"user_id":284,"name":"Holo Spida","steam_id":76561199067325962,"connected_time":3000000000000,"state":"active","ping":84},{"user_id":298,"name":"Rudy","steam_id":76561198013456828,"connected_time":1459000000000,"state":"active","ping":71},{"user_id":90,"name":"Nexus","steam_id":76561198305472434,"connected_time":16975000000000,"state":"active","ping":112},{"user_id":310,"name":"CHIEF_JUSTICE_FUCKASS","steam_id":76561199261675844,"connected_time":1267000000000,"state":"active","ping":105},{"user_id":288,"name":"Dr Oshawott","steam_id":76561198042021629,"connected_time":2720000000000,"state":"active","ping":69},{"user_id":297,"name":"Toonice","steam_id":76561198402994885,"connected_time":1587000000000,"state":"active","ping":84},{"user_id":277,"name":"morphine","steam_id":76561198072124799,"connected_time":3644000000000,"state":"active","ping":82},{"user_id":242,"name":"nomad","steam_id":76561197998740399,"connected_time":5738000000000,"state":"active","ping":68},{"user_id":293,"name":"eish","steam_id":76561198089463603,"connected_time":2515000000000,"state":"active","ping":135},{"user_id":243,"name":"C Papi","steam_id":76561198027779564,"connected_time":5734000000000,"state":"active","ping":58},{"user_id":291,"name":"Envidia","steam_id":76561198141640643,"connected_time":2641000000000,"state":"active","ping":132},{"user_id":304,"name":"sorash","steam_id":76561198082006215,"connected_time":1381000000000,"state":"active","ping":60},{"user_id":314,"name":"george miller","steam_id":76561198207881077,"connected_time":505000000000,"state":"active","ping":86},{"user_id":295,"name":"Flowers","steam_id":76561198031669899,"connected_time":2329000000000,"state":"active","ping":89},{"user_id":316,"name":"The Noid!","steam_id":76561198120364727,"connected_time":333000000000,"state":"active","ping":56},{"user_id":285,"name":"the indomitable human spirit","steam_id":76561198277163301,"connected_time":3000000000000,"state":"active","ping":66}]},{"server_id":38,"name":"Uncletopia | Chicago | 7 | Stopwatch Beta","name_short":"chi-7","host":"chi-2.us.uncletopia.com","port":27035,"enabled":true,"region":"us-central","cc":"us","latitude":41.881832,"longitude":-87.62318,"reserved":0,"last_update":"0001-01-01T00:00:00Z","name_a2s":"Uncletopia | Chicago | 7 | Stopwatch Beta","protocol":17,"map":"pl_badwater","folder":"tf","game":"Team Fortress","app_id":440,"player_count":0,"max_players":24,"Bots":0,"server_type":"Dedicated","server_os":"Linux","password":true,"vac":true,"version":"7961495","steam_id":85568392924866364,"keywords":["nocrits","nodmgspread","payload","uncletopia"],"game_id":440,"stv_port":27036,"stv_name":"Uncletopia | Chicago | 7 | Stopwatch Beta | STV","players":null},{"server_id":39,"name":"Uncletopia | Chicago | 8 | Community","name_short":"chi-8","host":"chi-2.us.uncletopia.com","port":27045,"enabled":true,"region":"us-central","cc":"us","latitude":41.881832,"longitude":-87.62318,"reserved":0,"last_update":"0001-01-01T00:00:00Z","name_a2s":"Uncletopia | Chicago | 8 | Community","protocol":17,"map":"workshop/koth_bagel_rc6.ugc2514036946","folder":"tf","game":"Team Fortress","app_id":440,"player_count":26,"max_players":24,"Bots":0,"server_type":"Dedicated","server_os":"Linux","password":true,"vac":true,"version":"7961495","steam_id":85568392924866365,"keywords":["cp","nocrits","nodmgspread","uncletopia"],"game_id":440,"stv_port":27046,"stv_name":"Uncletopia | Chicago | 8 | Community | STV","players":[{"user_id":359,"name":"NastyStarchy","steam_id":76561198291849732,"connected_time":7000000000,"state":"spawning","ping":77},{"user_id":295,"name":"[·é¥·èã·èã·éÆ] Danmar33","steam_id":76561198056453091,"connected_time":3674000000000,"state":"active","ping":48},{"user_id":332,"name":"Lifial","steam_id":76561198271885819,"connected_time":1077000000000,"state":"active","ping":74},{"user_id":350,"name":"Ruins","steam_id":76561198140372785,"connected_time":174000000000,"state":"active","ping":57},{"user_id":334,"name":"Brendan","steam_id":76561198041079914,"connected_time":866000000000,"state":"active","ping":70},{"user_id":339,"name":"They could be ********","steam_id":76561198441020995,"connected_time":519000000000,"state":"active","ping":88},{"user_id":336,"name":"ROGUE-PLANET","steam_id":76561198116023052,"connected_time":826000000000,"state":"active","ping":69},{"user_id":333,"name":"Ashes!","steam_id":76561197998475441,"connected_time":1062000000000,"state":"active","ping":93},{"user_id":322,"name":"Captain Emerald The Changeling","steam_id":76561198320651177,"connected_time":1786000000000,"state":"active","ping":72},{"user_id":340,"name":"The Sinister Potion","steam_id":76561198131280715,"connected_time":509000000000,"state":"active","ping":77},{"user_id":328,"name":"Jaydyn","steam_id":76561198140326797,"connected_time":1633000000000,"state":"active","ping":89},{"user_id":341,"name":"JavaScript Frappuccino","steam_id":76561198111620153,"connected_time":504000000000,"state":"active","ping":93},{"user_id":343,"name":"squibonacci","steam_id":76561198305870184,"connected_time":497000000000,"state":"active","ping":107},{"user_id":258,"name":"DeckofDragons","steam_id":76561198057398213,"connected_time":5727000000000,"state":"active","ping":80},{"user_id":344,"name":"MR MODE","steam_id":76561198046775352,"connected_time":472000000000,"state":"active","ping":93},{"user_id":352,"name":"loop zoop","steam_id":76561198003306097,"connected_time":115000000000,"state":"active","ping":100},{"user_id":345,"name":"Big Dill Energy","steam_id":76561198153417107,"connected_time":454000000000,"state":"active","ping":62},{"user_id":326,"name":"Spare(8)Ball","steam_id":76561197982432995,"connected_time":1662000000000,"state":"active","ping":100},{"user_id":346,"name":"DiegoVal12","steam_id":76561198408509079,"connected_time":430000000000,"state":"active","ping":137},{"user_id":327,"name":"SouperBad","steam_id":76561198116690686,"connected_time":1648000000000,"state":"active","ping":58},{"user_id":330,"name":"Idiotden","steam_id":76561199340950135,"connected_time":1513000000000,"state":"active","ping":97},{"user_id":347,"name":"Silver","steam_id":76561199277302482,"connected_time":421000000000,"state":"active","ping":120},{"user_id":337,"name":"kazoo2","steam_id":76561198260473504,"connected_time":697000000000,"state":"active","ping":89},{"user_id":293,"name":"Induce Salt","steam_id":76561198116645978,"connected_time":3719000000000,"state":"active","ping":59},{"user_id":358,"name":"eryn üó∫","steam_id":76561198004433070,"connected_time":19000000000,"state":"active","ping":139},{"user_id":360,"name":"the \"crab\"","steam_id":76561198027422512,"connected_time":5000000000,"state":"spawning","ping":184}]},{"server_id":8,"name":"Uncletopia | Dallas | 1 | All Maps","name_short":"dal-1","host":"dal-1.us.uncletopia.com","port":27015,"enabled":true,"region":"us-central","cc":"us","latitude":32.779167,"longitude":-96.80889,"reserved":0,"last_update":"0001-01-01T00:00:00Z","name_a2s":"Uncletopia | Dallas | 1 | All Maps","protocol":17,"map":"pl_swiftwater_final1","folder":"tf","game":"Team Fortress","app_id":440,"player_count":24,"max_players":24,"Bots":0,"server_type":"Dedicated","server_os":"Linux","password":true,"vac":true,"version":"7961495","steam_id":85568392924469986,"keywords":["nocrits","nodmgspread","payload","uncletopia"],"game_id":440,"stv_port":27016,"stv_name":"Uncletopia | Dallas | 1 | All Maps | STV","players":[{"user_id":417,"name":"Bogey","steam_id":76561198096227944,"connected_time":4270000000000,"state":"active","ping":44},{"user_id":452,"name":"NormanVillage","steam_id":76561198330337371,"connected_time":1018000000000,"state":"active","ping":90},{"user_id":460,"name":"errant","steam_id":76561197961758410,"connected_time":117000000000,"state":"active","ping":39},{"user_id":456,"name":"Hiser","steam_id":76561198308193624,"connected_time":414000000000,"state":"active","ping":65},{"user_id":457,"name":"Lope","steam_id":76561198365488828,"connected_time":411000000000,"state":"active","ping":102},{"user_id":453,"name":"GibbusGod","steam_id":76561199232436690,"connected_time":958000000000,"state":"active","ping":70},{"user_id":421,"name":"Anon","steam_id":76561198109740776,"connected_time":3803000000000,"state":"active","ping":94},{"user_id":440,"name":"Crispy","steam_id":76561198037481161,"connected_time":2322000000000,"state":"active","ping":70},{"user_id":461,"name":"TOKENLIZARD","steam_id":76561198218765205,"connected_time":99000000000,"state":"active","ping":59},{"user_id":439,"name":"Kiso ÁÅ´","steam_id":76561198141026844,"connected_time":2389000000000,"state":"active","ping":135},{"user_id":458,"name":"Boomer Gaming","steam_id":76561198037803087,"connected_time":408000000000,"state":"active","ping":67},{"user_id":462,"name":"SPREAD SPRING GROWTH AND WARMTH","steam_id":76561198800386026,"connected_time":61000000000,"state":"active","ping":99},{"user_id":413,"name":"MeMyBongusAndTheGreatOutdoors","steam_id":76561198097708978,"connected_time":4532000000000,"state":"active","ping":59},{"user_id":447,"name":"Zhing","steam_id":76561198097160898,"connected_time":1081000000000,"state":"active","ping":78},{"user_id":424,"name":"rAnch","steam_id":76561198024562587,"connected_time":3586000000000,"state":"active","ping":42},{"user_id":430,"name":"TAMU ClariNate","steam_id":76561198452988152,"connected_time":3307000000000,"state":"active","ping":67},{"user_id":349,"name":"Ferguson","steam_id":76561198121349387,"connected_time":10335000000000,"state":"active","ping":57},{"user_id":459,"name":"Ruby Gillman (He/Him)","steam_id":76561198366299848,"connected_time":404000000000,"state":"active","ping":72},{"user_id":448,"name":"Bird","steam_id":76561198061274314,"connected_time":1081000000000,"state":"active","ping":92},{"user_id":397,"name":"Punished Shitster","steam_id":76561198150452857,"connected_time":6008000000000,"state":"active","ping":54},{"user_id":444,"name":"GLG.Liz","steam_id":76561198021957956,"connected_time":1100000000000,"state":"active","ping":51},{"user_id":382,"name":"David De Bergerac","steam_id":76561198010306294,"connected_time":7257000000000,"state":"active","ping":89},{"user_id":455,"name":"trainmarine -bt","steam_id":76561198341784551,"connected_time":718000000000,"state":"active","ping":86},{"user_id":338,"name":"PROFILE NAME","steam_id":76561199438851854,"connected_time":12201000000000,"state":"active","ping":116}]},{"server_id":108,"name":"Uncletopia | Dallas | 2 | All Maps","name_short":"dal-2","host":"dal-1.us.uncletopia.com","port":27025,"enabled":true,"region":"us-central","cc":"us","latitude":32.779167,"longitude":-96.80889,"reserved":0,"last_update":"0001-01-01T00:00:00Z","name_a2s":"Uncletopia | Dallas | 2 | All Maps","protocol":17,"map":"pl_swiftwater_final1","folder":"tf","game":"Team Fortress","app_id":440,"player_count":24,"max_players":24,"Bots":0,"server_type":"Dedicated","server_os":"Linux","password":true,"vac":true,"version":"7961495","steam_id":85568392924469988,"keywords":["nocrits","nodmgspread","payload","uncletopia"],"game_id":440,"stv_port":27026,"stv_name":"Uncletopia | Dallas | 2 | All Maps | STV","players":[{"user_id":400,"name":"PTR","steam_id":76561198237253772,"connected_time":123000000000,"state":"active","ping":44},{"user_id":363,"name":"emerie","steam_id":76561198406252824,"connected_time":3073000000000,"state":"active","ping":106},{"user_id":394,"name":"Plains Phoenix","steam_id":76561198817161299,"connected_time":271000000000,"state":"active","ping":60},{"user_id":315,"name":"-RŒª“âinyCloudCore","steam_id":76561198028799685,"connected_time":7016000000000,"state":"active","ping":83},{"user_id":387,"name":"Daddy‚Äôs Special Boy!","steam_id":76561198152454725,"connected_time":1170000000000,"state":"active","ping":68},{"user_id":384,"name":"armpit fetishist","steam_id":76561199008452637,"connected_time":1258000000000,"state":"active","ping":138},{"user_id":371,"name":"Kenny","steam_id":76561199005805984,"connected_time":2796000000000,"state":"active","ping":43},{"user_id":355,"name":"Â≠´Â≠ê","steam_id":76561198083112681,"connected_time":3193000000000,"state":"active","ping":55},{"user_id":358,"name":"Fightin Cow","steam_id":76561198080941486,"connected_time":3172000000000,"state":"active","ping":58},{"user_id":401,"name":"nude barber","steam_id":76561198254968823,"connected_time":54000000000,"state":"active","ping":56},{"user_id":391,"name":"mild","steam_id":76561198082470182,"connected_time":404000000000,"state":"active","ping":93},{"user_id":379,"name":"Cereal","steam_id":76561198128418112,"connected_time":1856000000000,"state":"active","ping":94},{"user_id":392,"name":"Johni3FireFly","steam_id":76561198089760607,"connected_time":315000000000,"state":"active","ping":66},{"user_id":298,"name":"Ichthyology Enthusiast","steam_id":76561198854662187,"connected_time":8352000000000,"state":"active","ping":52},{"user_id":403,"name":"ƒ†1 ‚ô¶ Synth","steam_id":76561198058660228,"connected_time":33000000000,"state":"active","ping":57},{"user_id":395,"name":"HTML","steam_id":76561198099061153,"connected_time":262000000000,"state":"active","ping":60},{"user_id":402,"name":"wakeupbdot","steam_id":76561198160786631,"connected_time":40000000000,"state":"active","ping":66},{"user_id":318,"name":"tiernan330","steam_id":76561198271912722,"connected_time":7003000000000,"state":"active","ping":94},{"user_id":397,"name":"Im Groot","steam_id":76561198294943420,"connected_time":246000000000,"state":"active","ping":131},{"user_id":399,"name":"Smooky","steam_id":76561198191435451,"connected_time":142000000000,"state":"active","ping":111},{"user_id":319,"name":"Yapple Dapple","steam_id":76561198082422815,"connected_time":6999000000000,"state":"active","ping":65},{"user_id":367,"name":"npc energy","steam_id":76561198035342207,"connected_time":2934000000000,"state":"active","ping":60},{"user_id":375,"name":"All Bark Love Bites","steam_id":76561198971285292,"connected_time":2364000000000,"state":"active","ping":62},{"user_id":390,"name":"Nobody","steam_id":76561199352089107,"connected_time":452000000000,"state":"active","ping":81}]},{"server_id":404,"name":"Uncletopia | Dallas | 3 | All Maps","name_short":"dal-3","host":"dal-1.us.uncletopia.com","port":27035,"enabled":true,"region":"us-central","cc":"us","latitude":32.779167,"longitude":-96.80889,"reserved":0,"last_update":"0001-01-01T00:00:00Z","name_a2s":"Uncletopia | Dallas | 3 | All Maps","protocol":17,"map":"cp_dustbowl","folder":"tf","game":"Team Fortress","app_id":440,"player_count":22,"max_players":24,"Bots":0,"server_type":"Dedicated","server_os":"Linux","password":true,"vac":true,"version":"7961495","steam_id":85568392924515219,"keywords":["cp","nocrits","nodmgspread","uncletopia"],"game_id":440,"stv_port":27036,"stv_name":"Uncletopia | Dallas | 3 | All Maps | STV","players":[{"user_id":471,"name":"Snoopy","steam_id":76561198273735974,"connected_time":3062000000000,"state":"active","ping":79},{"user_id":504,"name":"Dusklight","steam_id":76561198036982638,"connected_time":60000000000,"state":"active","ping":66},{"user_id":468,"name":"DREW PEACOCK","steam_id":76561198065057392,"connected_time":3214000000000,"state":"active","ping":93},{"user_id":503,"name":"homewurk","steam_id":76561199080327081,"connected_time":117000000000,"state":"active","ping":100},{"user_id":500,"name":"Û†Ä°Û†Ä°","steam_id":76561198348035053,"connected_time":334000000000,"state":"active","ping":128},{"user_id":501,"name":"slowdance","steam_id":76561198097427947,"connected_time":156000000000,"state":"active","ping":123},{"user_id":502,"name":"SKW14","steam_id":76561198215425735,"connected_time":138000000000,"state":"active","ping":79},{"user_id":485,"name":"Brown_Dream","steam_id":76561198975766145,"connected_time":1731000000000,"state":"active","ping":90},{"user_id":498,"name":"DigitalWizard","steam_id":76561198085936715,"connected_time":544000000000,"state":"active","ping":82},{"user_id":455,"name":"ŸÜÿµŸÑŸä ŸÖŸÜ ÿ£ÿ¨ŸÑ ÿ≥ŸÇŸàÿ∑Ÿá","steam_id":76561198021308963,"connected_time":3868000000000,"state":"active","ping":69},{"user_id":495,"name":"HEE HOO DUSTBOWL!","steam_id":76561199389985063,"connected_time":715000000000,"state":"active","ping":107},{"user_id":483,"name":"Rock005 Enjoyer","steam_id":76561198401455467,"connected_time":1929000000000,"state":"active","ping":95},{"user_id":491,"name":"z.","steam_id":76561198009773129,"connected_time":1081000000000,"state":"active","ping":83},{"user_id":494,"name":"Chrits","steam_id":76561198072082596,"connected_time":725000000000,"state":"active","ping":78},{"user_id":457,"name":"mellowhype","steam_id":76561198040675606,"connected_time":3829000000000,"state":"active","ping":47},{"user_id":505,"name":"Spartanfoks","steam_id":76561197991498628,"connected_time":39000000000,"state":"active","ping":74},{"user_id":493,"name":"Michaelpc1","steam_id":76561198088365519,"connected_time":853000000000,"state":"active","ping":90},{"user_id":506,"name":"GaminGuy","steam_id":76561198799269519,"connected_time":34000000000,"state":"active","ping":79},{"user_id":507,"name":"J76_","steam_id":76561199224457967,"connected_time":13000000000,"state":"spawning","ping":180},{"user_id":484,"name":"chicken joe from surfs up 2","steam_id":76561198060807152,"connected_time":1903000000000,"state":"active","ping":96},{"user_id":489,"name":"BlasterPrime","steam_id":76561198084154062,"connected_time":1187000000000,"state":"active","ping":52},{"user_id":508,"name":"Tony Bamboni","steam_id":76561198206590811,"connected_time":2000000000,"state":"spawning","ping":81}]},{"server_id":405,"name":"Uncletopia | Dallas | 4 | Community","name_short":"dal-4","host":"dal-1.us.uncletopia.com","port":27045,"enabled":true,"region":"us-central","cc":"us","latitude":32.779167,"longitude":-96.80889,"reserved":0,"last_update":"0001-01-01T00:00:00Z","name_a2s":"Uncletopia | Dallas | 4 | Community","protocol":17,"map":"workshop/cp_snowbase_b18.ugc2081770490","folder":"tf","game":"Team Fortress","app_id":440,"player_count":24,"max_players":24,"Bots":0,"server_type":"Dedicated","server_os":"Linux","password":true,"vac":true,"version":"7961495","steam_id":85568392924515220,"keywords":["cp","nocrits","nodmgspread","uncletopia"],"game_id":440,"stv_port":27046,"stv_name":"Uncletopia | Dallas | 4 | Community | STV","players":[{"user_id":117,"name":"I GOT LAID AT SHEN YUN 2023","steam_id":76561198844003641,"connected_time":3416000000000,"state":"active","ping":87},{"user_id":135,"name":"smittenkittenmittens","steam_id":76561198130900442,"connected_time":1846000000000,"state":"active","ping":137},{"user_id":84,"name":"Foxyz","steam_id":76561198040642992,"connected_time":6138000000000,"state":"active","ping":165},{"user_id":145,"name":"Xyk","steam_id":76561198023268899,"connected_time":1140000000000,"state":"active","ping":88},{"user_id":136,"name":"beguilingfool","steam_id":76561199128745972,"connected_time":1834000000000,"state":"active","ping":113},{"user_id":80,"name":"DELTRON ZERO","steam_id":76561198081123470,"connected_time":6347000000000,"state":"active","ping":65},{"user_id":156,"name":"BurR","steam_id":76561198055431367,"connected_time":235000000000,"state":"active","ping":77},{"user_id":150,"name":"Lezabel","steam_id":76561198970753261,"connected_time":908000000000,"state":"active","ping":74},{"user_id":88,"name":"Freddi Fish owes me $5","steam_id":76561198112705880,"connected_time":5622000000000,"state":"active","ping":78},{"user_id":158,"name":"Theo","steam_id":76561198147484780,"connected_time":123000000000,"state":"active","ping":87},{"user_id":159,"name":"Camfour","steam_id":76561198083090140,"connected_time":78000000000,"state":"active","ping":89},{"user_id":155,"name":"ButterNutz","steam_id":76561198122404516,"connected_time":250000000000,"state":"active","ping":77},{"user_id":103,"name":"Stillkill","steam_id":76561198065069057,"connected_time":4902000000000,"state":"active","ping":37},{"user_id":160,"name":"euphoricfilth","steam_id":76561198100160865,"connected_time":33000000000,"state":"active","ping":77},{"user_id":52,"name":"Gelliterate","steam_id":76561198107233070,"connected_time":8037000000000,"state":"active","ping":53},{"user_id":161,"name":"fisherman","steam_id":76561198157435832,"connected_time":7000000000,"state":"spawning","ping":136},{"user_id":149,"name":"pyrosnark","steam_id":76561198981868580,"connected_time":949000000000,"state":"active","ping":88},{"user_id":99,"name":"Moonflower ‚ú¶","steam_id":76561198191782483,"connected_time":5199000000000,"state":"active","ping":54},{"user_id":125,"name":"de1deonlyvic","steam_id":76561199072005203,"connected_time":2963000000000,"state":"active","ping":91},{"user_id":143,"name":"Rat5555546","steam_id":76561199350546592,"connected_time":1151000000000,"state":"active","ping":89},{"user_id":152,"name":"?pengin","steam_id":76561198254236408,"connected_time":886000000000,"state":"active","ping":91},{"user_id":148,"name":"Loashes","steam_id":76561198119608299,"connected_time":998000000000,"state":"active","ping":88},{"user_id":114,"name":"laddie","steam_id":76561198063029230,"connected_time":3635000000000,"state":"active","ping":97},{"user_id":154,"name":"|AG| Level","steam_id":76561198063633592,"connected_time":731000000000,"state":"active","ping":87}]},{"server_id":5,"name":"Uncletopia | Frankfurt | 1 | All Maps","name_short":"frk-1","host":"frk-1.de.uncletopia.com","port":27015,"enabled":true,"region":"eu","cc":"de","latitude":50.110924,"longitude":8.682127,"reserved":0,"last_update":"0001-01-01T00:00:00Z","name_a2s":"Uncletopia | Frankfurt | 1 | All Maps","protocol":17,"map":"pl_badwater","folder":"tf","game":"Team Fortress","app_id":440,"player_count":0,"max_players":24,"Bots":0,"server_type":"Dedicated","server_os":"Linux","password":true,"vac":true,"version":"7961495","steam_id":85568392924469989,"keywords":["nocrits","nodmgspread","payload","uncletopia"],"game_id":440,"stv_port":27016,"stv_name":"Uncletopia | Frankfurt | 1 | All Maps | STV","players":null},{"server_id":110,"name":"Uncletopia | Frankfurt | 2 | All Maps","name_short":"frk-2","host":"frk-1.de.uncletopia.com","port":27025,"enabled":true,"region":"eu","cc":"de","latitude":50.110924,"longitude":8.682127,"reserved":0,"last_update":"0001-01-01T00:00:00Z","name_a2s":"Uncletopia | Frankfurt | 2 | All Maps","protocol":17,"map":"koth_lakeside_final","folder":"tf","game":"Team Fortress","app_id":440,"player_count":0,"max_players":24,"Bots":0,"server_type":"Dedicated","server_os":"Linux","password":true,"vac":true,"version":"7961495","steam_id":85568392924469990,"keywords":["cp","nocrits","nodmgspread","uncletopia"],"game_id":440,"stv_port":27026,"stv_name":"Uncletopia | Frankfurt | 2 | All Maps | STV","players":null},{"server_id":308,"name":"Uncletopia | Frankfurt | 3 | All Maps","name_short":"frk-3","host":"frk-1.de.uncletopia.com","port":27035,"enabled":true,"region":"eu","cc":"de","latitude":50.110924,"longitude":8.682127,"reserved":0,"last_update":"0001-01-01T00:00:00Z","name_a2s":"Uncletopia | Frankfurt | 3 | All Maps","protocol":17,"map":"cp_sunshine","folder":"tf","game":"Team Fortress","app_id":440,"player_count":0,"max_players":24,"Bots":0,"server_type":"Dedicated","server_os":"Linux","password":true,"vac":true,"version":"7961495","steam_id":85568392924504274,"keywords":["cp","nocrits","nodmgspread","uncletopia"],"game_id":440,"stv_port":27036,"stv_name":"Uncletopia | Frankfurt | 3 | All Maps | STV","players":null},{"server_id":309,"name":"Uncletopia | Frankfurt | 4 | All Maps","name_short":"frk-4","host":"frk-1.de.uncletopia.com","port":27045,"enabled":true,"region":"eu","cc":"de","latitude":50.110924,"longitude":8.682127,"reserved":0,"last_update":"0001-01-01T00:00:00Z","name_a2s":"Uncletopia | Frankfurt | 4 | All Maps","protocol":17,"map":"cp_altitude","folder":"tf","game":"Team Fortress","app_id":440,"player_count":0,"max_players":24,"Bots":0,"server_type":"Dedicated","server_os":"Linux","password":true,"vac":true,"version":"7961495","steam_id":85568392924504275,"keywords":["cp","nocrits","nodmgspread","uncletopia"],"game_id":440,"stv_port":27046,"stv_name":"Uncletopia | Frankfurt | 4 | All Maps | STV","players":null},{"server_id":310,"name":"Uncletopia | Frankfurt | 5 | All Maps","name_short":"frk-5","host":"frk-1.de.uncletopia.com","port":27055,"enabled":true,"region":"eu","cc":"de","latitude":50.110924,"longitude":8.682127,"reserved":0,"last_update":"0001-01-01T00:00:00Z","name_a2s":"Uncletopia | Frankfurt | 5 | All Maps","protocol":17,"map":"cp_process_final","folder":"tf","game":"Team Fortress","app_id":440,"player_count":0,"max_players":24,"Bots":0,"server_type":"Dedicated","server_os":"Linux","password":true,"vac":true,"version":"7961495","steam_id":85568392924504277,"keywords":["cp","nocrits","nodmgspread","uncletopia"],"game_id":440,"stv_port":27056,"stv_name":"Uncletopia | Frankfurt | 5 | All Maps | STV","players":null},{"server_id":311,"name":"Uncletopia | Frankfurt | 6 | All Maps","name_short":"frk-6","host":"frk-1.de.uncletopia.com","port":27065,"enabled":true,"region":"eu","cc":"de","latitude":50.110924,"longitude":8.682127,"reserved":0,"last_update":"0001-01-01T00:00:00Z","name_a2s":"Uncletopia | Frankfurt | 6 | All Maps","protocol":17,"map":"pl_barnblitz","folder":"tf","game":"Team Fortress","app_id":440,"player_count":0,"max_players":24,"Bots":0,"server_type":"Dedicated","server_os":"Linux","password":true,"vac":true,"version":"7961495","steam_id":85568392924504278,"keywords":["nocrits","nodmgspread","payload","uncletopia"],"game_id":440,"stv_port":27066,"stv_name":"Uncletopia | Frankfurt | 6 | All Maps | STV","players":null},{"server_id":23,"name":"Uncletopia | Frankfurt | 7 | Stopwatch Beta","name_short":"frk-7","host":"frk-1.de.uncletopia.com","port":27075,"enabled":true,"region":"eu","cc":"de","latitude":50.110924,"longitude":8.682127,"reserved":0,"last_update":"0001-01-01T00:00:00Z","name_a2s":"Uncletopia | Frankfurt | 7 | Stopwatch Beta","protocol":17,"map":"koth_cascade","folder":"tf","game":"Team Fortress","app_id":440,"player_count":0,"max_players":24,"Bots":0,"server_type":"Dedicated","server_os":"Linux","password":true,"vac":true,"version":"7961495","steam_id":85568392924742827,"keywords":["cp","nocrits","nodmgspread","uncletopia"],"game_id":440,"stv_port":27076,"stv_name":"Uncletopia | Frankfurt | 7 | Stopwatch Beta | STV","players":null},{"server_id":24,"name":"Uncletopia | Frankfurt | 8 | Community","name_short":"frk-8","host":"frk-1.de.uncletopia.com","port":27085,"enabled":true,"region":"eu","cc":"de","latitude":50.110924,"longitude":8.682127,"reserved":0,"last_update":"0001-01-01T00:00:00Z","name_a2s":"Uncletopia | Frankfurt | 8 | Community","protocol":17,"map":"cp_dustbowl","folder":"tf","game":"Team Fortress","app_id":440,"player_count":0,"max_players":24,"Bots":0,"server_type":"Dedicated","server_os":"Linux","password":true,"vac":true,"version":"7961495","steam_id":85568392924742828,"keywords":["cp","nocrits","nodmgspread","uncletopia"],"game_id":440,"stv_port":27086,"stv_name":"Uncletopia | Frankfurt | 8 | Community | STV","players":null},{"server_id":202,"name":"Uncletopia | Hong Kong | 1 | All Maps","name_short":"hgk-1","host":"hgk-1.hk.uncletopia.com","port":27015,"enabled":true,"region":"asia","cc":"hk","latitude":22.302711,"longitude":114.177216,"reserved":0,"last_update":"0001-01-01T00:00:00Z","name_a2s":"Uncletopia | Hong Kong | 1 | All Maps","protocol":17,"map":"koth_viaduct","folder":"tf","game":"Team Fortress","app_id":440,"player_count":0,"max_players":24,"Bots":0,"server_type":"Dedicated","server_os":"Linux","password":true,"vac":true,"version":"7961495","steam_id":85568392924494504,"keywords":["cp","nocrits","nodmgspread","uncletopia"],"game_id":440,"stv_port":27016,"stv_name":"Uncletopia | Hong Kong | 1 | All Maps | STV","players":null},{"server_id":1,"name":"Uncletopia | Los Angeles | 1 | All Maps","name_short":"lax-1","host":"lax-1.us.uncletopia.com","port":27015,"enabled":true,"region":"us-west","cc":"us","latitude":33.94279,"longitude":-118.41004,"reserved":0,"last_update":"0001-01-01T00:00:00Z","name_a2s":"Uncletopia | Los Angeles | 1 | All Maps","protocol":17,"map":"pl_barnblitz","folder":"tf","game":"Team Fortress","app_id":440,"player_count":24,"max_players":24,"Bots":0,"server_type":"Dedicated","server_os":"Linux","password":true,"vac":true,"version":"7961495","steam_id":85568392924469991,"keywords":["nocrits","nodmgspread","payload","uncletopia"],"game_id":440,"stv_port":27016,"stv_name":"Uncletopia | Los Angeles | 1 | All Maps | STV","players":[{"user_id":397,"name":"Dr. Zoidburg","steam_id":76561198174593497,"connected_time":1136000000000,"state":"active","ping":93},{"user_id":404,"name":"AstraLee","steam_id":76561198093501649,"connected_time":628000000000,"state":"active","ping":96},{"user_id":367,"name":"Kng","steam_id":76561198993248203,"connected_time":4057000000000,"state":"active","ping":109},{"user_id":321,"name":"eh gaming","steam_id":76561198056075147,"connected_time":7949000000000,"state":"active","ping":170},{"user_id":395,"name":"LEE","steam_id":76561199127408846,"connected_time":1328000000000,"state":"active","ping":56},{"user_id":382,"name":"Eugene Thaddeus Hinkle V","steam_id":76561198821535846,"connected_time":2935000000000,"state":"active","ping":108},{"user_id":357,"name":"Pybro's Day Off","steam_id":76561197996353534,"connected_time":5464000000000,"state":"active","ping":46},{"user_id":379,"name":"M. Night Shalome","steam_id":76561198094909472,"connected_time":2974000000000,"state":"active","ping":119},{"user_id":409,"name":"jovial","steam_id":76561198297130941,"connected_time":101000000000,"state":"active","ping":46},{"user_id":392,"name":"Ralph Kramden (Slim Charles)","steam_id":76561197981687895,"connected_time":1520000000000,"state":"active","ping":53},{"user_id":403,"name":"MayKaye","steam_id":76561199016092265,"connected_time":693000000000,"state":"active","ping":55},{"user_id":398,"name":"soup bowl","steam_id":76561198126134338,"connected_time":745000000000,"state":"active","ping":54},{"user_id":400,"name":"De Monki","steam_id":76561198964210411,"connected_time":721000000000,"state":"active","ping":69},{"user_id":387,"name":"I'mFromSpace","steam_id":76561198808969653,"connected_time":2457000000000,"state":"active","ping":68},{"user_id":401,"name":"Heccu","steam_id":76561198248361348,"connected_time":714000000000,"state":"active","ping":105},{"user_id":375,"name":"HeHedron","steam_id":76561199199667164,"connected_time":3290000000000,"state":"active","ping":69},{"user_id":372,"name":"Dive(z)","steam_id":76561198140843225,"connected_time":3536000000000,"state":"active","ping":76},{"user_id":383,"name":"type \"bad med\" to kick","steam_id":76561198076402476,"connected_time":2898000000000,"state":"active","ping":65},{"user_id":390,"name":"WalnutWanker","steam_id":76561198287476517,"connected_time":2261000000000,"state":"active","ping":50},{"user_id":386,"name":"Dr. Kaine","steam_id":76561197982183984,"connected_time":2518000000000,"state":"active","ping":78},{"user_id":410,"name":"Playing on a Xbox Controller","steam_id":76561199229427395,"connected_time":2000000000,"state":"spawning","ping":142},{"user_id":347,"name":"HanakoToast","steam_id":76561198045233131,"connected_time":6392000000000,"state":"active","ping":70},{"user_id":408,"name":"meme","steam_id":76561199170771700,"connected_time":201000000000,"state":"active","ping":54},{"user_id":402,"name":"Gay Sex Connoiseur","steam_id":76561199400200597,"connected_time":705000000000,"state":"active","ping":58}]},{"server_id":112,"name":"Uncletopia | Los Angeles | 2 | All Maps","name_short":"lax-2","host":"lax-1.us.uncletopia.com","port":27025,"enabled":true,"region":"us-west","cc":"us","latitude":33.94279,"longitude":-118.41004,"reserved":0,"last_update":"0001-01-01T00:00:00Z","name_a2s":"Uncletopia | Los Angeles | 2 | All Maps","protocol":17,"map":"cp_sunshine","folder":"tf","game":"Team Fortress","app_id":440,"player_count":0,"max_players":24,"Bots":0,"server_type":"Dedicated","server_os":"Linux","password":true,"vac":true,"version":"7961495","steam_id":85568392924469992,"keywords":["cp","nocrits","nodmgspread","uncletopia"],"game_id":440,"stv_port":27026,"stv_name":"Uncletopia | Los Angeles | 2 | All Maps | STV","players":null},{"server_id":324,"name":"Uncletopia | Los Angeles | 3 | All Maps","name_short":"lax-3","host":"lax-1.us.uncletopia.com","port":27035,"enabled":true,"region":"us-west","cc":"us","latitude":33.94279,"longitude":-118.41004,"reserved":0,"last_update":"0001-01-01T00:00:00Z","name_a2s":"Uncletopia | Los Angeles | 3 | All Maps","protocol":17,"map":"koth_highpass","folder":"tf","game":"Team Fortress","app_id":440,"player_count":0,"max_players":24,"Bots":0,"server_type":"Dedicated","server_os":"Linux","password":true,"vac":true,"version":"7961495","steam_id":85568392924510198,"keywords":["cp","nocrits","nodmgspread","uncletopia"],"game_id":440,"stv_port":27036,"stv_name":"Uncletopia | Los Angeles | 3 | All Maps | STV","players":null},{"server_id":25,"name":"Uncletopia | Los Angeles | 4 | Stopwatch Beta","name_short":"lax-4","host":"lax-1.us.uncletopia.com","port":27045,"enabled":true,"region":"us-west","cc":"us","latitude":33.94279,"longitude":-118.41004,"reserved":0,"last_update":"0001-01-01T00:00:00Z","name_a2s":"Uncletopia | Los Angeles | 4 | Stopwatch Beta","protocol":17,"map":"workshop/pl_vigil_rc9.ugc1266210012","folder":"tf","game":"Team Fortress","app_id":440,"player_count":0,"max_players":24,"Bots":0,"server_type":"Dedicated","server_os":"Linux","password":true,"vac":true,"version":"7961495","steam_id":85568392924510199,"keywords":["nocrits","nodmgspread","payload","uncletopia"],"game_id":440,"stv_port":27046,"stv_name":"Uncletopia | Los Angeles | 4 | Stopwatch Beta | STV","players":null},{"server_id":11,"name":"Uncletopia | London | 1 | All Maps","name_short":"lon-1","host":"lon-1.uk.uncletopia.com","port":27015,"enabled":true,"region":"eu","cc":"gb","latitude":51.509865,"longitude":-0.118092,"reserved":0,"last_update":"0001-01-01T00:00:00Z","name_a2s":"Uncletopia | London | 1 | All Maps","protocol":17,"map":"pl_hoodoo_final","folder":"tf","game":"Team Fortress","app_id":440,"player_count":21,"max_players":24,"Bots":0,"server_type":"Dedicated","server_os":"Linux","password":true,"vac":true,"version":"7961495","steam_id":85568392924367362,"keywords":["nocrits","nodmgspread","payload","uncletopia"],"game_id":440,"stv_port":27016,"stv_name":"Uncletopia | London | 1 | All Maps | STV","players":[{"user_id":886,"name":"FurthestBen","steam_id":76561198056681239,"connected_time":577000000000,"state":"active","ping":60},{"user_id":877,"name":"‚òÜ Etna ‚òÜ","steam_id":76561198043111229,"connected_time":944000000000,"state":"active","ping":69},{"user_id":887,"name":"Random Weeb [YUE]","steam_id":76561198839212897,"connected_time":574000000000,"state":"active","ping":112},{"user_id":874,"name":"ElElliot","steam_id":76561198842278840,"connected_time":1084000000000,"state":"active","ping":122},{"user_id":884,"name":"Hamst123","steam_id":76561198957312452,"connected_time":627000000000,"state":"active","ping":68},{"user_id":873,"name":"yuno appreciator","steam_id":76561198083286511,"connected_time":1120000000000,"state":"active","ping":48},{"user_id":804,"name":"Dante","steam_id":76561198867107032,"connected_time":6323000000000,"state":"active","ping":134},{"user_id":878,"name":"Ran33","steam_id":76561197991474499,"connected_time":942000000000,"state":"active","ping":88},{"user_id":866,"name":"seigfried","steam_id":76561198047260133,"connected_time":1488000000000,"state":"active","ping":76},{"user_id":889,"name":"Apple","steam_id":76561199489227283,"connected_time":306000000000,"state":"active","ping":102},{"user_id":890,"name":"Snoogs","steam_id":76561198444880931,"connected_time":288000000000,"state":"active","ping":125},{"user_id":891,"name":"Howell at the Moon","steam_id":76561198060827426,"connected_time":274000000000,"state":"active","ping":158},{"user_id":880,"name":"MrDickRichards","steam_id":76561198402143091,"connected_time":928000000000,"state":"active","ping":55},{"user_id":849,"name":"N5LH","steam_id":76561199112528775,"connected_time":3303000000000,"state":"active","ping":119},{"user_id":868,"name":"Bluth Banana","steam_id":76561197997642178,"connected_time":1381000000000,"state":"active","ping":66},{"user_id":892,"name":"Draco","steam_id":76561198031226933,"connected_time":76000000000,"state":"active","ping":48},{"user_id":832,"name":"froglids","steam_id":76561198045466919,"connected_time":4274000000000,"state":"active","ping":75},{"user_id":834,"name":"bird ideas","steam_id":76561199480942903,"connected_time":4232000000000,"state":"active","ping":75},{"user_id":836,"name":"Qwerty","steam_id":76561198023525894,"connected_time":4225000000000,"state":"active","ping":89},{"user_id":882,"name":"Dead Kitten","steam_id":76561198152132092,"connected_time":774000000000,"state":"active","ping":84},{"user_id":883,"name":"Sakari","steam_id":76561197997811299,"connected_time":656000000000,"state":"active","ping":61}]},{"server_id":114,"name":"Uncletopia | London | 2 | All Maps","name_short":"lon-2","host":"lon-1.uk.uncletopia.com","port":27025,"enabled":true,"region":"eu","cc":"gb","latitude":51.509865,"longitude":-0.118092,"reserved":0,"last_update":"0001-01-01T00:00:00Z","name_a2s":"Uncletopia | London | 2 | All Maps","protocol":17,"map":"pl_snowycoast","folder":"tf","game":"Team Fortress","app_id":440,"player_count":0,"max_players":24,"Bots":0,"server_type":"Dedicated","server_os":"Linux","password":true,"vac":true,"version":"7961495","steam_id":85568392924470941,"keywords":["nocrits","nodmgspread","payload","uncletopia"],"game_id":440,"stv_port":27026,"stv_name":"Uncletopia | London | 2 | All Maps | STV","players":null},{"server_id":320,"name":"Uncletopia | London | 3 | All Maps","name_short":"lon-3","host":"lon-1.uk.uncletopia.com","port":27035,"enabled":true,"region":"eu","cc":"gb","latitude":51.509865,"longitude":-0.118092,"reserved":0,"last_update":"0001-01-01T00:00:00Z","name_a2s":"Uncletopia | London | 3 | All Maps","protocol":17,"map":"pl_pier","folder":"tf","game":"Team Fortress","app_id":440,"player_count":0,"max_players":24,"Bots":0,"server_type":"Dedicated","server_os":"Linux","password":true,"vac":true,"version":"7961495","steam_id":85568392924510192,"keywords":["nocrits","nodmgspread","payload","uncletopia"],"game_id":440,"stv_port":27036,"stv_name":"Uncletopia | London | 3 | All Maps | STV","players":null},{"server_id":321,"name":"Uncletopia | London | 4 | All Maps","name_short":"lon-4","host":"lon-1.uk.uncletopia.com","port":27045,"enabled":true,"region":"eu","cc":"gb","latitude":51.509865,"longitude":-0.118092,"reserved":0,"last_update":"0001-01-01T00:00:00Z","name_a2s":"Uncletopia | London | 4 | All Maps","protocol":17,"map":"pl_upward","folder":"tf","game":"Team Fortress","app_id":440,"player_count":0,"max_players":24,"Bots":0,"server_type":"Dedicated","server_os":"Linux","password":true,"vac":true,"version":"7961495","steam_id":85568392924510193,"keywords":["nocrits","nodmgspread","payload","uncletopia"],"game_id":440,"stv_port":27046,"stv_name":"Uncletopia | London | 4 | All Maps | STV","players":null},{"server_id":21,"name":"Uncletopia | London | 5 | All Maps","name_short":"lon-5","host":"lon-1.uk.uncletopia.com","port":27055,"enabled":true,"region":"eu","cc":"gb","latitude":51.509865,"longitude":-0.118092,"reserved":0,"last_update":"0001-01-01T00:00:00Z","name_a2s":"Uncletopia | London | 5 | All Maps","protocol":17,"map":"pl_upward","folder":"tf","game":"Team Fortress","app_id":440,"player_count":0,"max_players":24,"Bots":0,"server_type":"Dedicated","server_os":"Linux","password":true,"vac":true,"version":"7961495","steam_id":85568392924742829,"keywords":["nocrits","nodmgspread","payload","uncletopia"],"game_id":440,"stv_port":27056,"stv_name":"Uncletopia | London | 5 | All Maps | STV","players":null},{"server_id":22,"name":"Uncletopia | London | 6 | All Maps","name_short":"lon-6","host":"lon-1.uk.uncletopia.com","port":27065,"enabled":true,"region":"eu","cc":"gb","latitude":51.509865,"longitude":-0.118092,"reserved":0,"last_update":"0001-01-01T00:00:00Z","name_a2s":"Uncletopia | London | 6 | All Maps","protocol":17,"map":"cp_mountainlab","folder":"tf","game":"Team Fortress","app_id":440,"player_count":0,"max_players":24,"Bots":0,"server_type":"Dedicated","server_os":"Linux","password":true,"vac":true,"version":"7961495","steam_id":85568392924742830,"keywords":["cp","nocrits","nodmgspread","uncletopia"],"game_id":440,"stv_port":27066,"stv_name":"Uncletopia | London | 6 | All Maps | STV","players":null},{"server_id":40,"name":"Uncletopia | London | 7 | No Payload","name_short":"lon-7","host":"lon-1.uk.uncletopia.com","port":27075,"enabled":true,"region":"eu","cc":"gb","latitude":51.509865,"longitude":-0.118092,"reserved":0,"last_update":"0001-01-01T00:00:00Z","name_a2s":"Uncletopia | London | 7 | No Payload","protocol":17,"map":"plr_hightower","folder":"tf","game":"Team Fortress","app_id":440,"player_count":2,"max_players":24,"Bots":0,"server_type":"Dedicated","server_os":"Linux","password":true,"vac":true,"version":"7961495","steam_id":85568392924964314,"keywords":["nocrits","nodmgspread","payload","uncletopia"],"game_id":440,"stv_port":27076,"stv_name":"Uncletopia | London | 7 | No Payload | STV","players":[{"user_id":228,"name":"Slessplee","steam_id":76561198315732431,"connected_time":4884000000000,"state":"active","ping":165},{"user_id":229,"name":"Cosmic Yoshi","steam_id":76561199195528497,"connected_time":4817000000000,"state":"active","ping":176}]},{"server_id":41,"name":"Uncletopia | London | 8 | Community","name_short":"lon-8","host":"lon-1.uk.uncletopia.com","port":27085,"enabled":true,"region":"eu","cc":"gb","latitude":51.509865,"longitude":-0.118092,"reserved":0,"last_update":"0001-01-01T00:00:00Z","name_a2s":"Uncletopia | London | 8 | Community","protocol":17,"map":"workshop/pl_divulgence_b4b.ugc2884808746","folder":"tf","game":"Team Fortress","app_id":440,"player_count":0,"max_players":24,"Bots":0,"server_type":"Dedicated","server_os":"Linux","password":true,"vac":true,"version":"7961495","steam_id":85568392924964315,"keywords":["nocrits","nodmgspread","payload","uncletopia"],"game_id":440,"stv_port":27086,"stv_name":"Uncletopia | London | 8 | Community | STV","players":null},{"server_id":300,"name":"Uncletopia | Montr√©al | 1 | All Maps","name_short":"mtl-1","host":"mtl-1.ca.uncletopia.com","port":27015,"enabled":true,"region":"us-east","cc":"ca","latitude":45.50889,"longitude":-73.56167,"reserved":0,"last_update":"0001-01-01T00:00:00Z","name_a2s":"Uncletopia | Montr√©al | 1 | All Maps","protocol":17,"map":"pl_barnblitz","folder":"tf","game":"Team Fortress","app_id":440,"player_count":0,"max_players":24,"Bots":0,"server_type":"Dedicated","server_os":"Linux","password":true,"vac":true,"version":"7961495","steam_id":85568392924500087,"keywords":["nocrits","nodmgspread","payload","uncletopia"],"game_id":440,"stv_port":27016,"stv_name":"Uncletopia | Montr√©al | 1 | All Maps | STV","players":null},{"server_id":301,"name":"Uncletopia | Montr√©al | 2 | All Maps","name_short":"mtl-2","host":"mtl-1.ca.uncletopia.com","port":27025,"enabled":true,"region":"us-east","cc":"ca","latitude":45.50889,"longitude":-73.56167,"reserved":0,"last_update":"0001-01-01T00:00:00Z","name_a2s":"Uncletopia | Montr√©al | 2 | All Maps","protocol":17,"map":"koth_cascade","folder":"tf","game":"Team Fortress","app_id":440,"player_count":7,"max_players":24,"Bots":0,"server_type":"Dedicated","server_os":"Linux","password":true,"vac":true,"version":"7961495","steam_id":85568392924500088,"keywords":["cp","nocrits","nodmgspread","uncletopia"],"game_id":440,"stv_port":27026,"stv_name":"Uncletopia | Montr√©al | 2 | All Maps | STV","players":[{"user_id":5,"name":"\u003e:3 Muiramme Œµ—ó–∑","steam_id":76561197994458543,"connected_time":1047000000000,"state":"active","ping":105},{"user_id":6,"name":"Munky","steam_id":76561197993491054,"connected_time":1039000000000,"state":"active","ping":104},{"user_id":8,"name":"uhooter","steam_id":76561198007829078,"connected_time":978000000000,"state":"active","ping":44},{"user_id":11,"name":"6+3 Thequirka #ForBlu2th","steam_id":76561198968058652,"connected_time":759000000000,"state":"active","ping":111},{"user_id":12,"name":"Armpit!","steam_id":76561197978095727,"connected_time":675000000000,"state":"active","ping":122},{"user_id":19,"name":"HundchenTanque","steam_id":76561198122692754,"connected_time":225000000000,"state":"active","ping":29},{"user_id":20,"name":"Vega","steam_id":76561198141126883,"connected_time":223000000000,"state":"active","ping":88}]},{"server_id":302,"name":"Uncletopia | Montr√©al | 3 | All Maps","name_short":"mtl-3","host":"mtl-1.ca.uncletopia.com","port":27035,"enabled":true,"region":"us-east","cc":"ca","latitude":45.50889,"longitude":-73.56167,"reserved":0,"last_update":"0001-01-01T00:00:00Z","name_a2s":"Uncletopia | Montr√©al | 3 | All Maps","protocol":17,"map":"pl_pier","folder":"tf","game":"Team Fortress","app_id":440,"player_count":0,"max_players":24,"Bots":0,"server_type":"Dedicated","server_os":"Linux","password":true,"vac":true,"version":"7961495","steam_id":85568392924500089,"keywords":["nocrits","nodmgspread","payload","uncletopia"],"game_id":440,"stv_port":27036,"stv_name":"Uncletopia | Montr√©al | 3 | All Maps | STV","players":null},{"server_id":303,"name":"Uncletopia | Montr√©al | 4 | No Payload","name_short":"mtl-4","host":"mtl-1.ca.uncletopia.com","port":27045,"enabled":true,"region":"us-east","cc":"ca","latitude":45.50889,"longitude":-73.56167,"reserved":0,"last_update":"0001-01-01T00:00:00Z","name_a2s":"Uncletopia | Montr√©al | 4 | No Payload","protocol":17,"map":"koth_lakeside_final","folder":"tf","game":"Team Fortress","app_id":440,"player_count":0,"max_players":24,"Bots":0,"server_type":"Dedicated","server_os":"Linux","password":true,"vac":true,"version":"7961495","steam_id":85568392924500090,"keywords":["cp","nocrits","nodmgspread","uncletopia"],"game_id":440,"stv_port":27046,"stv_name":"Uncletopia | Montr√©al | 4 | No Payload | STV","players":null},{"server_id":13,"name":"Uncletopia | New York City | 1 | All Maps","name_short":"nyc-1","host":"nyc-1.us.uncletopia.com","port":27015,"enabled":true,"region":"us-east","cc":"us","latitude":40.73061,"longitude":-73.93524,"reserved":0,"last_update":"0001-01-01T00:00:00Z","name_a2s":"Uncletopia | New York City | 1 | All Maps","protocol":17,"map":"pl_badwater","folder":"tf","game":"Team Fortress","app_id":440,"player_count":24,"max_players":24,"Bots":0,"server_type":"Dedicated","server_os":"Linux","password":true,"vac":true,"version":"7961495","steam_id":85568392924469993,"keywords":["nocrits","nodmgspread","payload","uncletopia"],"game_id":440,"stv_port":27016,"stv_name":"Uncletopia | New York City | 1 | All Maps | STV","players":[{"user_id":457,"name":"Tri_Hunter","steam_id":76561198108176706,"connected_time":2198000000000,"state":"active","ping":53},{"user_id":451,"name":"Stop Being Mad,Be Happy","steam_id":76561198201276909,"connected_time":2945000000000,"state":"active","ping":75},{"user_id":465,"name":"Parth Makeo","steam_id":76561198002516581,"connected_time":1507000000000,"state":"active","ping":46},{"user_id":431,"name":"for the king","steam_id":76561197973488858,"connected_time":4289000000000,"state":"active","ping":45},{"user_id":376,"name":"‡πáPericulosum PhD in Funny","steam_id":76561198123370914,"connected_time":9697000000000,"state":"active","ping":85},{"user_id":471,"name":"ATL1 | on my hunting trip","steam_id":76561198315341646,"connected_time":1267000000000,"state":"active","ping":86},{"user_id":472,"name":"King of Ping","steam_id":76561198278737470,"connected_time":1216000000000,"state":"active","ping":52},{"user_id":314,"name":"ATL1 | cola","steam_id":76561198374390458,"connected_time":14787000000000,"state":"active","ping":73},{"user_id":461,"name":"creeper6868","steam_id":76561198441641149,"connected_time":2175000000000,"state":"active","ping":82},{"user_id":445,"name":"Aeris","steam_id":76561198287271028,"connected_time":3169000000000,"state":"active","ping":84},{"user_id":475,"name":"Zera","steam_id":76561198025129918,"connected_time":321000000000,"state":"active","ping":74},{"user_id":438,"name":"Mr. Durian","steam_id":76561198093813212,"connected_time":3410000000000,"state":"active","ping":55},{"user_id":446,"name":"ATL 1 | Save your wifi","steam_id":76561198286147372,"connected_time":3163000000000,"state":"active","ping":70},{"user_id":460,"name":"uheggwhite","steam_id":76561199199795741,"connected_time":2178000000000,"state":"active","ping":134},{"user_id":382,"name":"Bert.","steam_id":76561198140666346,"connected_time":8629000000000,"state":"active","ping":46},{"user_id":469,"name":"thixon","steam_id":76561198046655575,"connected_time":1280000000000,"state":"active","ping":44},{"user_id":429,"name":"Œ© Das Gebeine Œî","steam_id":76561198063665024,"connected_time":4306000000000,"state":"active","ping":109},{"user_id":456,"name":"4jess20","steam_id":76561199488852383,"connected_time":2201000000000,"state":"active","ping":56},{"user_id":442,"name":"Grand Piano Tuna","steam_id":76561198135137213,"connected_time":3201000000000,"state":"active","ping":76},{"user_id":473,"name":"GaydsIdit","steam_id":76561198827963575,"connected_time":1022000000000,"state":"active","ping":53},{"user_id":477,"name":"mytoyo2k2","steam_id":76561199486326945,"connected_time":167000000000,"state":"active","ping":75},{"user_id":444,"name":"patdine","steam_id":76561198060865671,"connected_time":3188000000000,"state":"active","ping":62},{"user_id":468,"name":"Machine Girl - SAD CLAPS","steam_id":76561198294013916,"connected_time":1287000000000,"state":"active","ping":45},{"user_id":470,"name":"weewa","steam_id":76561198064876090,"connected_time":1280000000000,"state":"active","ping":53}]},{"server_id":14,"name":"Uncletopia | New York City | 2 | All Maps","name_short":"nyc-2","host":"nyc-1.us.uncletopia.com","port":27025,"enabled":true,"region":"us-east","cc":"us","latitude":40.73061,"longitude":-73.93524,"reserved":0,"last_update":"0001-01-01T00:00:00Z","name_a2s":"Uncletopia | New York City | 2 | All Maps","protocol":17,"map":"pl_borneo","folder":"tf","game":"Team Fortress","app_id":440,"player_count":24,"max_players":24,"Bots":0,"server_type":"Dedicated","server_os":"Linux","password":true,"vac":true,"version":"7961495","steam_id":85568392924469994,"keywords":["nocrits","nodmgspread","payload","uncletopia"],"game_id":440,"stv_port":27026,"stv_name":"Uncletopia | New York City | 2 | All Maps | STV","players":[{"user_id":702,"name":"Zepkyr","steam_id":76561198254690609,"connected_time":236000000000,"state":"active","ping":80},{"user_id":700,"name":"Xraverz","steam_id":76561198008891628,"connected_time":1262000000000,"state":"active","ping":79},{"user_id":689,"name":"ShmixyTheBishop","steam_id":76561199281919953,"connected_time":2340000000000,"state":"active","ping":160},{"user_id":685,"name":"D.E.O","steam_id":76561198096992957,"connected_time":2664000000000,"state":"active","ping":123},{"user_id":686,"name":"keffers","steam_id":76561198202338796,"connected_time":2572000000000,"state":"active","ping":80},{"user_id":667,"name":"tonybaloney","steam_id":76561199434233117,"connected_time":4190000000000,"state":"active","ping":90},{"user_id":680,"name":"lost in spaaaaace","steam_id":76561199085974120,"connected_time":3439000000000,"state":"active","ping":58},{"user_id":694,"name":"Nogard015","steam_id":76561198302867168,"connected_time":2074000000000,"state":"active","ping":56},{"user_id":683,"name":"Awesome Style Gaming","steam_id":76561198311537713,"connected_time":2898000000000,"state":"active","ping":72},{"user_id":659,"name":"TLG, Certified Gamer Mom","steam_id":76561198076669951,"connected_time":5142000000000,"state":"active","ping":61},{"user_id":690,"name":"RatedM4Matt","steam_id":76561198086141042,"connected_time":2314000000000,"state":"active","ping":66},{"user_id":691,"name":"Classy","steam_id":76561198128415840,"connected_time":2290000000000,"state":"active","ping":50},{"user_id":697,"name":"Vibrantword3732","steam_id":76561198916638641,"connected_time":1402000000000,"state":"active","ping":116},{"user_id":494,"name":"[NAME-REDACTED]","steam_id":76561198035682975,"connected_time":16799000000000,"state":"active","ping":59},{"user_id":699,"name":"noodle leg","steam_id":76561198303462970,"connected_time":1296000000000,"state":"active","ping":65},{"user_id":579,"name":"triple_range_merge","steam_id":76561198991225026,"connected_time":9977000000000,"state":"active","ping":63},{"user_id":647,"name":"Foonut","steam_id":76561198075740574,"connected_time":5901000000000,"state":"active","ping":74},{"user_id":692,"name":"Generator","steam_id":76561198011762257,"connected_time":2239000000000,"state":"active","ping":126},{"user_id":678,"name":"Feldum","steam_id":76561198032537700,"connected_time":3784000000000,"state":"active","ping":76},{"user_id":675,"name":"Thunderous","steam_id":76561198192752793,"connected_time":4055000000000,"state":"active","ping":53},{"user_id":673,"name":"A Puppy","steam_id":76561198828184456,"connected_time":4125000000000,"state":"active","ping":53},{"user_id":682,"name":"Ballistic","steam_id":76561197992355477,"connected_time":3080000000000,"state":"active","ping":63},{"user_id":696,"name":"‚ùÑAdmiral Pete‚ùÑ The Penguin","steam_id":76561198452656581,"connected_time":1619000000000,"state":"active","ping":82},{"user_id":681,"name":"MAXIMUS","steam_id":76561198085809453,"connected_time":3184000000000,"state":"active","ping":83}]},{"server_id":15,"name":"Uncletopia | New York City | 3 | Stopwatch Beta","name_short":"nyc-3","host":"nyc-1.us.uncletopia.com","port":27035,"enabled":true,"region":"us-east","cc":"us","latitude":40.73061,"longitude":-73.93524,"reserved":0,"last_update":"0001-01-01T00:00:00Z","name_a2s":"Uncletopia | New York City | 3 | Stopwatch Beta","protocol":17,"map":"workshop/cp_process_f12.ugc2302948105","folder":"tf","game":"Team Fortress","app_id":440,"player_count":17,"max_players":24,"Bots":0,"server_type":"Dedicated","server_os":"Linux","password":true,"vac":true,"version":"7961495","steam_id":85568392924742820,"keywords":["cp","nocrits","nodmgspread","uncletopia"],"game_id":440,"stv_port":27036,"stv_name":"Uncletopia | New York City | 3 | Stopwatch Beta | STV","players":[{"user_id":209,"name":"dipp","steam_id":76561198395577807,"connected_time":160000000000,"state":"active","ping":46},{"user_id":206,"name":"iStrava","steam_id":76561198088223717,"connected_time":475000000000,"state":"active","ping":59},{"user_id":199,"name":"checkswing","steam_id":76561198999816132,"connected_time":1510000000000,"state":"active","ping":86},{"user_id":210,"name":"monkey","steam_id":76561198099481645,"connected_time":64000000000,"state":"active","ping":30},{"user_id":211,"name":"scottbagel","steam_id":76561199144640325,"connected_time":56000000000,"state":"active","ping":79},{"user_id":186,"name":"Techo","steam_id":76561199169405285,"connected_time":2848000000000,"state":"active","ping":123},{"user_id":212,"name":"maxie!","steam_id":76561197962607364,"connected_time":27000000000,"state":"active","ping":77},{"user_id":163,"name":"a leaf","steam_id":76561198242599168,"connected_time":3550000000000,"state":"active","ping":109},{"user_id":202,"name":"SD-N","steam_id":76561199488989511,"connected_time":878000000000,"state":"active","ping":121},{"user_id":173,"name":"toastman","steam_id":76561198207073088,"connected_time":3386000000000,"state":"active","ping":92},{"user_id":200,"name":"Burks","steam_id":76561198134813531,"connected_time":1352000000000,"state":"active","ping":60},{"user_id":201,"name":"Kiphus","steam_id":76561198025289407,"connected_time":1193000000000,"state":"active","ping":58},{"user_id":208,"name":"Modstin","steam_id":76561198080081255,"connected_time":311000000000,"state":"active","ping":126},{"user_id":194,"name":"Bewen","steam_id":76561198325334261,"connected_time":2163000000000,"state":"active","ping":36},{"user_id":207,"name":"Canonically Garbage","steam_id":76561198802410416,"connected_time":333000000000,"state":"active","ping":69},{"user_id":152,"name":"Lumi","steam_id":76561198089978036,"connected_time":4297000000000,"state":"active","ping":56},{"user_id":109,"name":"Lux E Tenebris","steam_id":76561198072664199,"connected_time":7347000000000,"state":"active","ping":65}]},{"server_id":16,"name":"Uncletopia | New York City | 4 | Community","name_short":"nyc-4","host":"nyc-1.us.uncletopia.com","port":27045,"enabled":true,"region":"us-east","cc":"us","latitude":40.73061,"longitude":-73.93524,"reserved":0,"last_update":"0001-01-01T00:00:00Z","name_a2s":"Uncletopia | New York City | 4 | Community","protocol":17,"map":"workshop/cp_mannbase_rc2a.ugc1900737467","folder":"tf","game":"Team Fortress","app_id":440,"player_count":0,"max_players":24,"Bots":0,"server_type":"Dedicated","server_os":"Linux","password":true,"vac":true,"version":"7961495","steam_id":85568392924742821,"keywords":["cp","nocrits","nodmgspread","uncletopia"],"game_id":440,"stv_port":27046,"stv_name":"Uncletopia | New York City | 4 | Community | STV","players":null},{"server_id":142,"name":"Uncletopia | S√£o Paulo | 1 | All Maps","name_short":"sao-1","host":"sao-1.br.uncletopia.com","port":27015,"enabled":true,"region":"sa","cc":"br","latitude":-23.533773,"longitude":-46.62529,"reserved":0,"last_update":"0001-01-01T00:00:00Z","name_a2s":"Uncletopia | S√£o Paulo | 1 | All Maps","protocol":17,"map":"koth_cascade","folder":"tf","game":"Team Fortress","app_id":440,"player_count":0,"max_players":24,"Bots":0,"server_type":"Dedicated","server_os":"Linux","password":true,"vac":true,"version":"7961495","steam_id":85568392924469996,"keywords":["cp","nocrits","nodmgspread","uncletopia"],"game_id":440,"stv_port":27016,"stv_name":"Uncletopia | S√£o Paulo | 1 | All Maps | STV","players":null},{"server_id":143,"name":"Uncletopia | S√£o Paulo | 2 | Community","name_short":"sao-2","host":"sao-2.br.uncletopia.com","port":27015,"enabled":true,"region":"sa","cc":"br","latitude":-23.533773,"longitude":-46.62529,"reserved":0,"last_update":"0001-01-01T00:00:00Z","name_a2s":"Uncletopia | S√£o Paulo | 2 | Community","protocol":17,"map":"workshop/cp_indulge.ugc528106646","folder":"tf","game":"Team Fortress","app_id":440,"player_count":0,"max_players":24,"Bots":0,"server_type":"Dedicated","server_os":"Linux","password":true,"vac":true,"version":"7961495","steam_id":85568392924485349,"keywords":["cp","nocrits","nodmgspread","uncletopia"],"game_id":440,"stv_port":27016,"stv_name":"Uncletopia | S√£o Paulo | 2 | Community | STV","players":null},{"server_id":7,"name":"Uncletopia | Seattle | 1 | All Maps","name_short":"sea-1","host":"sea-1.us.uncletopia.com","port":27015,"enabled":true,"region":"us-west","cc":"us","latitude":47.608013,"longitude":-122.33517,"reserved":0,"last_update":"0001-01-01T00:00:00Z","name_a2s":"Uncletopia | Seattle | 1 | All Maps","protocol":17,"map":"pl_frontier_final","folder":"tf","game":"Team Fortress","app_id":440,"player_count":24,"max_players":24,"Bots":0,"server_type":"Dedicated","server_os":"Linux","password":true,"vac":true,"version":"7961495","steam_id":85568392924469997,"keywords":["nocrits","nodmgspread","payload","uncletopia"],"game_id":440,"stv_port":27016,"stv_name":"Uncletopia | Seattle | 1 | All Maps | STV","players":[{"user_id":753,"name":"help","steam_id":76561198171840525,"connected_time":1987000000000,"state":"active","ping":54},{"user_id":764,"name":"blizz","steam_id":76561199139715539,"connected_time":285000000000,"state":"active","ping":71},{"user_id":772,"name":"i cant aim","steam_id":76561198065873462,"connected_time":201000000000,"state":"active","ping":74},{"user_id":755,"name":"Daz","steam_id":76561198041431938,"connected_time":1535000000000,"state":"active","ping":54},{"user_id":748,"name":"Pukei-Pukei","steam_id":76561197992722546,"connected_time":2159000000000,"state":"active","ping":89},{"user_id":771,"name":"Juuichi11","steam_id":76561198141955085,"connected_time":203000000000,"state":"active","ping":45},{"user_id":695,"name":"BolognaWithOlives","steam_id":76561198101262668,"connected_time":8118000000000,"state":"active","ping":89},{"user_id":744,"name":"Luca","steam_id":76561198125087140,"connected_time":3343000000000,"state":"active","ping":46},{"user_id":768,"name":"Skabbety","steam_id":76561198168044257,"connected_time":215000000000,"state":"active","ping":42},{"user_id":758,"name":"Bendidy","steam_id":76561198041964300,"connected_time":1157000000000,"state":"active","ping":85},{"user_id":673,"name":"ilun","steam_id":76561198042913843,"connected_time":9740000000000,"state":"active","ping":64},{"user_id":761,"name":"McDonald","steam_id":76561199028533497,"connected_time":1044000000000,"state":"active","ping":84},{"user_id":751,"name":"O","steam_id":76561198450073779,"connected_time":2150000000000,"state":"active","ping":57},{"user_id":767,"name":"Can of Oranges","steam_id":76561199121813529,"connected_time":221000000000,"state":"active","ping":58},{"user_id":730,"name":"aisu","steam_id":76561198043768507,"connected_time":4442000000000,"state":"active","ping":91},{"user_id":769,"name":"MrYadaization","steam_id":76561198050770818,"connected_time":210000000000,"state":"active","ping":67},{"user_id":770,"name":"H0UZM@$T3R!!!!1","steam_id":76561198044297170,"connected_time":203000000000,"state":"active","ping":72},{"user_id":773,"name":"robinhood","steam_id":76561198448278191,"connected_time":186000000000,"state":"active","ping":66},{"user_id":726,"name":"30-50 feral hogs","steam_id":76561198073587145,"connected_time":4813000000000,"state":"active","ping":112},{"user_id":763,"name":"?","steam_id":76561198209880837,"connected_time":601000000000,"state":"active","ping":53},{"user_id":703,"name":"Ayayayayayahuasca","steam_id":76561199002906056,"connected_time":7125000000000,"state":"active","ping":54},{"user_id":766,"name":"Dextersbrain","steam_id":76561198011831579,"connected_time":232000000000,"state":"active","ping":71},{"user_id":732,"name":"a cat plushie","steam_id":76561198080046542,"connected_time":4388000000000,"state":"active","ping":48},{"user_id":752,"name":"Haydob13","steam_id":76561198110378191,"connected_time":2150000000000,"state":"active","ping":52}]},{"server_id":119,"name":"Uncletopia | Seattle | 2 | All Maps","name_short":"sea-2","host":"sea-1.us.uncletopia.com","port":27025,"enabled":true,"region":"us-west","cc":"us","latitude":47.608013,"longitude":-122.33517,"reserved":0,"last_update":"0001-01-01T00:00:00Z","name_a2s":"Uncletopia | Seattle | 2 | All Maps","protocol":17,"map":"ctf_sawmill","folder":"tf","game":"Team Fortress","app_id":440,"player_count":24,"max_players":24,"Bots":0,"server_type":"Dedicated","server_os":"Linux","password":true,"vac":true,"version":"7961495","steam_id":85568392924469998,"keywords":["ctf","nocrits","nodmgspread","uncletopia"],"game_id":440,"stv_port":27026,"stv_name":"Uncletopia | Seattle | 2 | All Maps | STV","players":[{"user_id":348,"name":"Sniff","steam_id":76561198010270922,"connected_time":1978000000000,"state":"active","ping":49},{"user_id":366,"name":"Keyboardbreaker","steam_id":76561198372836132,"connected_time":395000000000,"state":"active","ping":85},{"user_id":351,"name":"GotYourGoat","steam_id":76561197995171850,"connected_time":1807000000000,"state":"active","ping":46},{"user_id":353,"name":"Mr. Ravioli","steam_id":76561197996625649,"connected_time":1490000000000,"state":"active","ping":59},{"user_id":364,"name":"EforEstrogen","steam_id":76561198086787295,"connected_time":516000000000,"state":"active","ping":52},{"user_id":352,"name":"silly jester","steam_id":76561198079609974,"connected_time":1721000000000,"state":"active","ping":89},{"user_id":325,"name":"RagingRoosevelt","steam_id":76561197985483153,"connected_time":3178000000000,"state":"active","ping":47},{"user_id":373,"name":"elephant thumb","steam_id":76561198118859752,"connected_time":49000000000,"state":"active","ping":70},{"user_id":374,"name":":3","steam_id":76561198008599033,"connected_time":29000000000,"state":"active","ping":94},{"user_id":372,"name":"Mitchacho74","steam_id":76561198087986935,"connected_time":158000000000,"state":"active","ping":98},{"user_id":369,"name":"Quick Fix Be Hittin Different","steam_id":76561198881093314,"connected_time":350000000000,"state":"active","ping":63},{"user_id":333,"name":"{AVG} Xx_Half-Life2fan420_xX","steam_id":76561199231634222,"connected_time":2836000000000,"state":"active","ping":131},{"user_id":334,"name":"flamingdorit0s","steam_id":76561198869206247,"connected_time":2834000000000,"state":"active","ping":99},{"user_id":359,"name":"Pegway","steam_id":76561198044303814,"connected_time":976000000000,"state":"active","ping":120},{"user_id":349,"name":"Grungus","steam_id":76561198047700230,"connected_time":1968000000000,"state":"active","ping":65},{"user_id":360,"name":"Outlier","steam_id":76561199093787770,"connected_time":974000000000,"state":"active","ping":131},{"user_id":375,"name":"birbyob","steam_id":76561198121268007,"connected_time":28000000000,"state":"active","ping":73},{"user_id":367,"name":"Firestorm","steam_id":76561198025017126,"connected_time":382000000000,"state":"active","ping":55},{"user_id":365,"name":"Spray and Pray","steam_id":76561199062326425,"connected_time":514000000000,"state":"active","ping":56},{"user_id":342,"name":"ultrakillfan82","steam_id":76561198294601519,"connected_time":2672000000000,"state":"active","ping":45},{"user_id":362,"name":"selling rice","steam_id":76561198063357023,"connected_time":850000000000,"state":"active","ping":63},{"user_id":361,"name":"Kittystalker","steam_id":76561198046886077,"connected_time":964000000000,"state":"active","ping":90},{"user_id":355,"name":"General Fisticuffs","steam_id":76561198255721392,"connected_time":1335000000000,"state":"active","ping":105},{"user_id":304,"name":"i wish i were a bird","steam_id":76561199224976982,"connected_time":4886000000000,"state":"active","ping":111}]},{"server_id":406,"name":"Uncletopia | Seattle | 3 | Stopwatch Beta","name_short":"sea-3","host":"sea-1.us.uncletopia.com","port":27035,"enabled":true,"region":"us-west","cc":"us","latitude":47.608013,"longitude":-122.33517,"reserved":0,"last_update":"0001-01-01T00:00:00Z","name_a2s":"Uncletopia | Seattle | 3 | Stopwatch Beta","protocol":17,"map":"workshop/koth_ramjam_rc1.ugc459778887","folder":"tf","game":"Team Fortress","app_id":440,"player_count":0,"max_players":24,"Bots":0,"server_type":"Dedicated","server_os":"Linux","password":true,"vac":true,"version":"7961495","steam_id":85568392924515217,"keywords":["cp","nocrits","nodmgspread","uncletopia"],"game_id":440,"stv_port":27036,"stv_name":"Uncletopia | Seattle | 3 | Stopwatch Beta | STV","players":null},{"server_id":17,"name":"Uncletopia | San Francisco | 1 | All Maps","name_short":"sfo-1","host":"sfo-1.us.uncletopia.com","port":27015,"enabled":true,"region":"us-west","cc":"us","latitude":37.77397,"longitude":-122.4313,"reserved":0,"last_update":"0001-01-01T00:00:00Z","name_a2s":"Uncletopia | San Francisco | 1 | All Maps","protocol":17,"map":"pl_borneo","folder":"tf","game":"Team Fortress","app_id":440,"player_count":25,"max_players":24,"Bots":0,"server_type":"Dedicated","server_os":"Linux","password":true,"vac":true,"version":"7961495","steam_id":85568392924469999,"keywords":["nocrits","nodmgspread","payload","uncletopia"],"game_id":440,"stv_port":27016,"stv_name":"Uncletopia | San Francisco | 1 | All Maps | STV","players":[{"user_id":127,"name":"gamer_cruncher","steam_id":76561198973306314,"connected_time":5005000000000,"state":"active","ping":52},{"user_id":156,"name":"Yakul","steam_id":76561198100040013,"connected_time":3783000000000,"state":"active","ping":123},{"user_id":180,"name":"OneMisguidedSlyGuy","steam_id":76561198372243261,"connected_time":2338000000000,"state":"active","ping":46},{"user_id":183,"name":"Mom","steam_id":76561198207936000,"connected_time":2269000000000,"state":"active","ping":36},{"user_id":154,"name":"||BassMan||","steam_id":76561198279865229,"connected_time":3823000000000,"state":"active","ping":76},{"user_id":204,"name":"EatSomeBEES","steam_id":76561198047334307,"connected_time":1007000000000,"state":"active","ping":70},{"user_id":173,"name":"Cookies","steam_id":76561199099061813,"connected_time":2955000000000,"state":"active","ping":70},{"user_id":201,"name":"Megatron G","steam_id":76561198168864083,"connected_time":1127000000000,"state":"active","ping":62},{"user_id":184,"name":"Fractured_Mango","steam_id":76561199013113268,"connected_time":2262000000000,"state":"active","ping":84},{"user_id":185,"name":"Manchurian Bandit","steam_id":76561198072410042,"connected_time":2260000000000,"state":"active","ping":56},{"user_id":171,"name":"Higuma","steam_id":76561198375229012,"connected_time":3273000000000,"state":"active","ping":58},{"user_id":210,"name":"oliver biscuit","steam_id":76561197989058876,"connected_time":98000000000,"state":"connecting","ping":0},{"user_id":177,"name":"chanoc","steam_id":76561198026734746,"connected_time":2627000000000,"state":"active","ping":50},{"user_id":193,"name":"Probably Still a Furry","steam_id":76561198816076211,"connected_time":2124000000000,"state":"active","ping":73},{"user_id":202,"name":"Starkiller","steam_id":76561198101643120,"connected_time":1123000000000,"state":"active","ping":74},{"user_id":188,"name":"Pez","steam_id":76561199197778137,"connected_time":2207000000000,"state":"active","ping":78},{"user_id":208,"name":"porksoda","steam_id":76561198021451377,"connected_time":702000000000,"state":"active","ping":62},{"user_id":112,"name":"A UsedNom","steam_id":76561198402832756,"connected_time":6008000000000,"state":"active","ping":52},{"user_id":209,"name":"Keamy","steam_id":76561199471434875,"connected_time":542000000000,"state":"active","ping":60},{"user_id":198,"name":"Drake from State Farm","steam_id":76561199069029812,"connected_time":1410000000000,"state":"active","ping":248},{"user_id":175,"name":"DrWilloughby","steam_id":76561198095260357,"connected_time":2854000000000,"state":"active","ping":72},{"user_id":194,"name":"Mud Goblin","steam_id":76561198839118505,"connected_time":2117000000000,"state":"active","ping":84},{"user_id":199,"name":"NubNub21","steam_id":76561197995743317,"connected_time":1197000000000,"state":"active","ping":116},{"user_id":211,"name":"donutdagger","steam_id":76561199203048300,"connected_time":89000000000,"state":"active","ping":71},{"user_id":206,"name":"Wolfer","steam_id":76561198098153246,"connected_time":947000000000,"state":"active","ping":100}]},{"server_id":18,"name":"Uncletopia | San Francisco | 2 | All Maps","name_short":"sfo-2","host":"sfo-1.us.uncletopia.com","port":27025,"enabled":true,"region":"us-west","cc":"us","latitude":37.77397,"longitude":-122.4313,"reserved":0,"last_update":"0001-01-01T00:00:00Z","name_a2s":"Uncletopia | San Francisco | 2 | All Maps","protocol":17,"map":"cp_mountainlab","folder":"tf","game":"Team Fortress","app_id":440,"player_count":24,"max_players":24,"Bots":0,"server_type":"Dedicated","server_os":"Linux","password":true,"vac":true,"version":"7961495","steam_id":85568392924470000,"keywords":["cp","nocrits","nodmgspread","uncletopia"],"game_id":440,"stv_port":27026,"stv_name":"Uncletopia | San Francisco | 2 | All Maps | STV","players":[{"user_id":226,"name":"Whiskey","steam_id":76561198858154667,"connected_time":2857000000000,"state":"active","ping":54},{"user_id":241,"name":"Capybara Enjoyer","steam_id":76561199147114434,"connected_time":1500000000000,"state":"active","ping":121},{"user_id":213,"name":"shitass | troutsupply.net","steam_id":76561198210572481,"connected_time":4269000000000,"state":"active","ping":56},{"user_id":246,"name":"Sunkendarkcat","steam_id":76561198834672736,"connected_time":1371000000000,"state":"active","ping":70},{"user_id":222,"name":"Seanvich","steam_id":76561198065805500,"connected_time":3589000000000,"state":"active","ping":105},{"user_id":227,"name":"BurningKev","steam_id":76561198057688837,"connected_time":2848000000000,"state":"active","ping":74},{"user_id":248,"name":"Cam","steam_id":76561198285054047,"connected_time":640000000000,"state":"active","ping":70},{"user_id":228,"name":"WarBorg","steam_id":76561198929639228,"connected_time":2841000000000,"state":"active","ping":48},{"user_id":250,"name":"BuncusBeffer","steam_id":76561198285936616,"connected_time":589000000000,"state":"active","ping":59},{"user_id":249,"name":"Pablo's nuts","steam_id":76561198062763756,"connected_time":596000000000,"state":"active","ping":98},{"user_id":224,"name":"Grand","steam_id":76561198290143399,"connected_time":3517000000000,"state":"active","ping":73},{"user_id":225,"name":"Truffles","steam_id":76561198095868800,"connected_time":3258000000000,"state":"active","ping":120},{"user_id":243,"name":"kriggly kriggly goo","steam_id":76561198197838803,"connected_time":1490000000000,"state":"active","ping":60},{"user_id":244,"name":"Sgt. Satire","steam_id":76561198104193483,"connected_time":1463000000000,"state":"active","ping":74},{"user_id":251,"name":"walrooos","steam_id":76561198024521839,"connected_time":585000000000,"state":"active","ping":54},{"user_id":230,"name":"Grassman (Cc)","steam_id":76561198026488532,"connected_time":2825000000000,"state":"active","ping":49},{"user_id":255,"name":"nelly modelo","steam_id":76561198044875206,"connected_time":378000000000,"state":"active","ping":71},{"user_id":232,"name":"hash","steam_id":76561198058516339,"connected_time":2816000000000,"state":"active","ping":60},{"user_id":102,"name":"riSygneD","steam_id":76561198331618687,"connected_time":11934000000000,"state":"active","ping":47},{"user_id":252,"name":"Cambonieboo","steam_id":76561198139174433,"connected_time":583000000000,"state":"active","ping":70},{"user_id":256,"name":"D.A.V.I.D","steam_id":76561199443570634,"connected_time":76000000000,"state":"active","ping":112},{"user_id":233,"name":"JV","steam_id":76561199107368676,"connected_time":2810000000000,"state":"active","ping":65},{"user_id":247,"name":"krootonitron","steam_id":76561198114113037,"connected_time":1131000000000,"state":"active","ping":44},{"user_id":245,"name":"jooce box","steam_id":76561198162717644,"connected_time":1460000000000,"state":"active","ping":57}]},{"server_id":19,"name":"Uncletopia | San Francisco | 3 | Stopwatch Beta","name_short":"sfo-3","host":"sfo-1.us.uncletopia.com","port":27035,"enabled":true,"region":"us-west","cc":"us","latitude":37.77397,"longitude":-122.4313,"reserved":0,"last_update":"0001-01-01T00:00:00Z","name_a2s":"Uncletopia | San Francisco | 3 | Stopwatch Beta","protocol":17,"map":"pl_borneo","folder":"tf","game":"Team Fortress","app_id":440,"player_count":0,"max_players":24,"Bots":0,"server_type":"Dedicated","server_os":"Linux","password":true,"vac":true,"version":"7961495","steam_id":85568392924742824,"keywords":["nocrits","nodmgspread","payload","uncletopia"],"game_id":440,"stv_port":27036,"stv_name":"Uncletopia | San Francisco | 3 | Stopwatch Beta | STV","players":null},{"server_id":20,"name":"Uncletopia | San Francisco | 4 | Community","name_short":"sfo-4","host":"sfo-1.us.uncletopia.com","port":27045,"enabled":true,"region":"us-west","cc":"us","latitude":37.77397,"longitude":-122.4313,"reserved":0,"last_update":"0001-01-01T00:00:00Z","name_a2s":"Uncletopia | San Francisco | 4 | Community","protocol":17,"map":"workshop/cp_bruhstbowl_b6.ugc2878604990","folder":"tf","game":"Team Fortress","app_id":440,"player_count":0,"max_players":24,"Bots":0,"server_type":"Dedicated","server_os":"Linux","password":true,"vac":true,"version":"7961495","steam_id":85568392924742826,"keywords":["cp","nocrits","nodmgspread","uncletopia"],"game_id":440,"stv_port":27046,"stv_name":"Uncletopia | San Francisco | 4 | Community | STV","players":null},{"server_id":141,"name":"Uncletopia | Sydney | 1 | All Maps","name_short":"syd-1","host":"syd-1.au.uncletopia.com","port":27015,"enabled":true,"region":"au","cc":"au","latitude":-33.865143,"longitude":151.2099,"reserved":0,"last_update":"0001-01-01T00:00:00Z","name_a2s":"Uncletopia | Sydney | 1 | All Maps","protocol":17,"map":"koth_highpass","folder":"tf","game":"Team Fortress","app_id":440,"player_count":0,"max_players":24,"Bots":0,"server_type":"Dedicated","server_os":"Linux","password":true,"vac":true,"version":"7961495","steam_id":85568392924470001,"keywords":["cp","nocrits","nodmgspread","uncletopia"],"game_id":440,"stv_port":27016,"stv_name":"Uncletopia | Sydney | 1 | All Maps | STV","players":null},{"server_id":123,"name":"Uncletopia | Sydney | 2 | All Maps","name_short":"syd-2","host":"syd-1.au.uncletopia.com","port":27025,"enabled":true,"region":"au","cc":"au","latitude":-33.865143,"longitude":151.2099,"reserved":0,"last_update":"0001-01-01T00:00:00Z","name_a2s":"Uncletopia | Sydney | 2 | All Maps","protocol":17,"map":"koth_cascade","folder":"tf","game":"Team Fortress","app_id":440,"player_count":0,"max_players":24,"Bots":0,"server_type":"Dedicated","server_os":"Linux","password":true,"vac":true,"version":"7961495","steam_id":85568392924470002,"keywords":["cp","nocrits","nodmgspread","uncletopia"],"game_id":440,"stv_port":27026,"stv_name":"Uncletopia | Sydney | 2 | All Maps | STV","players":null},{"server_id":395,"name":"Uncletopia | Sydney | 3 | All Maps","name_short":"syd-3","host":"syd-1.au.uncletopia.com","port":27035,"enabled":true,"region":"au","cc":"au","latitude":-33.865143,"longitude":151.2099,"reserved":0,"last_update":"0001-01-01T00:00:00Z","name_a2s":"Uncletopia | Sydney | 3 | All Maps","protocol":17,"map":"cp_altitude","folder":"tf","game":"Team Fortress","app_id":440,"player_count":15,"max_players":24,"Bots":0,"server_type":"Dedicated","server_os":"Linux","password":true,"vac":true,"version":"7961495","steam_id":85568392925194467,"keywords":["cp","nocrits","nodmgspread","uncletopia"],"game_id":440,"stv_port":27036,"stv_name":"Uncletopia | Sydney | 3 | All Maps | STV","players":[{"user_id":93,"name":"PenTor","steam_id":76561199273454595,"connected_time":70000000000,"state":"active","ping":187},{"user_id":58,"name":"Wigglytuff","steam_id":76561198011032527,"connected_time":2463000000000,"state":"active","ping":56},{"user_id":24,"name":"VyKK0iolet","steam_id":76561199439296450,"connected_time":5759000000000,"state":"active","ping":86},{"user_id":85,"name":"Office","steam_id":76561198059380714,"connected_time":796000000000,"state":"active","ping":72},{"user_id":31,"name":"wom","steam_id":76561199375834537,"connected_time":4776000000000,"state":"active","ping":132},{"user_id":84,"name":"rich","steam_id":76561198003594944,"connected_time":864000000000,"state":"active","ping":53},{"user_id":91,"name":"bren","steam_id":76561198171331910,"connected_time":152000000000,"state":"active","ping":49},{"user_id":70,"name":"Michaelsoft Binbows","steam_id":76561198422847304,"connected_time":1374000000000,"state":"active","ping":57},{"user_id":89,"name":"Golfing with Joel","steam_id":76561199161637215,"connected_time":559000000000,"state":"active","ping":94},{"user_id":56,"name":"payn.","steam_id":76561199277321828,"connected_time":2682000000000,"state":"active","ping":55},{"user_id":40,"name":"Pickled Cow","steam_id":76561198292517991,"connected_time":3583000000000,"state":"active","ping":43},{"user_id":60,"name":"TLatham22","steam_id":76561198368199532,"connected_time":2119000000000,"state":"active","ping":53},{"user_id":81,"name":"skinny loser man","steam_id":76561198094041769,"connected_time":910000000000,"state":"active","ping":30},{"user_id":86,"name":"Empol√©","steam_id":76561198363939040,"connected_time":762000000000,"state":"active","ping":81},{"user_id":79,"name":"Phins Up","steam_id":76561197998319441,"connected_time":979000000000,"state":"active","ping":78}]},{"server_id":396,"name":"Uncletopia | Sydney | 4 | All Maps","name_short":"syd-4","host":"syd-1.au.uncletopia.com","port":27045,"enabled":true,"region":"au","cc":"au","latitude":-33.865143,"longitude":151.2099,"reserved":0,"last_update":"0001-01-01T00:00:00Z","name_a2s":"Uncletopia | Sydney | 4 | All Maps","protocol":17,"map":"cp_snakewater_final1","folder":"tf","game":"Team Fortress","app_id":440,"player_count":0,"max_players":24,"Bots":0,"server_type":"Dedicated","server_os":"Linux","password":true,"vac":true,"version":"7961495","steam_id":85568392925397958,"keywords":["cp","nocrits","nodmgspread","uncletopia"],"game_id":440,"stv_port":27046,"stv_name":"Uncletopia | Sydney | 4 | All Maps | STV","players":null},{"server_id":58,"name":"Uncletopia | Sydney | 5 | Stopwatch Beta","name_short":"syd-5","host":"syd-1.au.uncletopia.com","port":27055,"enabled":true,"region":"au","cc":"au","latitude":-33.865143,"longitude":151.2099,"reserved":0,"last_update":"0001-01-01T00:00:00Z","name_a2s":"Uncletopia | Sydney | 5 | Stopwatch Beta","protocol":17,"map":"koth_viaduct","folder":"tf","game":"Team Fortress","app_id":440,"player_count":0,"max_players":24,"Bots":0,"server_type":"Dedicated","server_os":"Linux","password":true,"vac":true,"version":"7961495","steam_id":85568392925397959,"keywords":["cp","nocrits","nodmgspread","uncletopia"],"game_id":440,"stv_port":27056,"stv_name":"Uncletopia | Sydney | 5 | Stopwatch Beta | STV","players":null},{"server_id":59,"name":"Uncletopia | Sydney | 6 | Community","name_short":"syd-6","host":"syd-1.au.uncletopia.com","port":27065,"enabled":true,"region":"au","cc":"au","latitude":-33.865143,"longitude":151.2099,"reserved":0,"last_update":"0001-01-01T00:00:00Z","name_a2s":"Uncletopia | Sydney | 6 | Community","protocol":17,"map":"koth_cascade","folder":"tf","game":"Team Fortress","app_id":440,"player_count":0,"max_players":24,"Bots":0,"server_type":"Dedicated","server_os":"Linux","password":true,"vac":true,"version":"7961495","steam_id":85568392925397960,"keywords":["cp","nocrits","nodmgspread","uncletopia"],"game_id":440,"stv_port":27066,"stv_name":"Uncletopia | Sydney | 6 | Community | STV","players":null},{"server_id":49,"name":"Uncletopia | Warsaw | 1 | All Maps","name_short":"waw-1","host":"waw-1.pl.uncletopia.com","port":27015,"enabled":true,"region":"eu","cc":"pl","latitude":52.2297,"longitude":21.017532,"reserved":0,"last_update":"0001-01-01T00:00:00Z","name_a2s":"Uncletopia | Warsaw | 1 | All Maps","protocol":17,"map":"koth_viaduct","folder":"tf","game":"Team Fortress","app_id":440,"player_count":0,"max_players":24,"Bots":0,"server_type":"Dedicated","server_os":"Linux","password":true,"vac":true,"version":"7961495","steam_id":85568392925397850,"keywords":["cp","nocrits","nodmgspread","uncletopia"],"game_id":440,"stv_port":27016,"stv_name":"Uncletopia | Warsaw | 1 | All Maps | STV","players":null},{"server_id":50,"name":"Uncletopia | Warsaw | 2 | All Maps","name_short":"waw-2","host":"waw-1.pl.uncletopia.com","port":27025,"enabled":true,"region":"eu","cc":"pl","latitude":52.2297,"longitude":21.017532,"reserved":0,"last_update":"0001-01-01T00:00:00Z","name_a2s":"Uncletopia | Warsaw | 2 | All Maps","protocol":17,"map":"koth_cascade","folder":"tf","game":"Team Fortress","app_id":440,"player_count":0,"max_players":24,"Bots":0,"server_type":"Dedicated","server_os":"Linux","password":true,"vac":true,"version":"7961495","steam_id":85568392925397851,"keywords":["cp","nocrits","nodmgspread","uncletopia"],"game_id":440,"stv_port":27026,"stv_name":"Uncletopia | Warsaw | 2 | All Maps | STV","players":null},{"server_id":51,"name":"Uncletopia | Warsaw | 3 | All Maps","name_short":"waw-3","host":"waw-1.pl.uncletopia.com","port":27035,"enabled":true,"region":"eu","cc":"pl","latitude":52.2297,"longitude":21.017532,"reserved":0,"last_update":"0001-01-01T00:00:00Z","name_a2s":"Uncletopia | Warsaw | 3 | All Maps","protocol":17,"map":"pl_borneo","folder":"tf","game":"Team Fortress","app_id":440,"player_count":0,"max_players":24,"Bots":0,"server_type":"Dedicated","server_os":"Linux","password":true,"vac":true,"version":"7961495","steam_id":85568392925397852,"keywords":["nocrits","nodmgspread","payload","uncletopia"],"game_id":440,"stv_port":27036,"stv_name":"Uncletopia | Warsaw | 3 | All Maps | STV","players":null},{"server_id":52,"name":"Uncletopia | Warsaw | 4 | All Maps","name_short":"waw-4","host":"waw-1.pl.uncletopia.com","port":27045,"enabled":true,"region":"eu","cc":"pl","latitude":52.2297,"longitude":21.017532,"reserved":0,"last_update":"0001-01-01T00:00:00Z","name_a2s":"Uncletopia | Warsaw | 4 | All Maps","protocol":17,"map":"cp_altitude","folder":"tf","game":"Team Fortress","app_id":440,"player_count":0,"max_players":24,"Bots":0,"server_type":"Dedicated","server_os":"Linux","password":true,"vac":true,"version":"7961495","steam_id":85568392925397853,"keywords":["cp","nocrits","nodmgspread","uncletopia"],"game_id":440,"stv_port":27046,"stv_name":"Uncletopia | Warsaw | 4 | All Maps | STV","players":null},{"server_id":53,"name":"Uncletopia | Warsaw | 5 | Stopwatch Beta","name_short":"waw-5","host":"waw-1.pl.uncletopia.com","port":27055,"enabled":true,"region":"eu","cc":"pl","latitude":52.2297,"longitude":21.017532,"reserved":0,"last_update":"0001-01-01T00:00:00Z","name_a2s":"Uncletopia | Warsaw | 5 | Stopwatch Beta","protocol":17,"map":"cp_granary","folder":"tf","game":"Team Fortress","app_id":440,"player_count":0,"max_players":24,"Bots":0,"server_type":"Dedicated","server_os":"Linux","password":true,"vac":true,"version":"7961495","steam_id":85568392925397854,"keywords":["cp","nocrits","nodmgspread","uncletopia"],"game_id":440,"stv_port":27056,"stv_name":"Uncletopia | Warsaw | 5 | Stopwatch Beta | STV","players":null},{"server_id":54,"name":"Uncletopia | Warsaw | 6 | Community","name_short":"waw-6","host":"waw-1.pl.uncletopia.com","port":27065,"enabled":true,"region":"eu","cc":"pl","latitude":52.2297,"longitude":21.017532,"reserved":0,"last_update":"0001-01-01T00:00:00Z","name_a2s":"Uncletopia | Warsaw | 6 | Community","protocol":17,"map":"workshop/koth_product_final.ugc454272353","folder":"tf","game":"Team Fortress","app_id":440,"player_count":0,"max_players":24,"Bots":0,"server_type":"Dedicated","server_os":"Linux","password":true,"vac":true,"version":"7961495","steam_id":85568392925397856,"keywords":["cp","nocrits","nodmgspread","uncletopia"],"game_id":440,"stv_port":27066,"stv_name":"Uncletopia | Warsaw | 6 | Community | STV","players":null}]}