{"status":true,"message":"","result":[{"server_id":9,"name":"Uncletopia | Atlanta | 1 | All Maps","name_short":"atl-1","host":"atl-1.us.uncletopia.com","port":27015,"enabled":true,"region":"us-east","cc":"us","latitude":33.753746,"longitude":-84.38633,"reserved":0,"last_update":"0001-01-01T00:00:00Z","name_a2s":"Uncletopia | Atlanta | 1 | All Maps","protocol":17,"map":"pl_frontier_final","folder":"tf","game":"Team Fortress","app_id":440,"player_count":24,"max_players":24,"Bots":0,"server_type":"Dedicated","server_os":"Linux","password":true,"vac":true,"version":"7961495","steam_id":85568392924469982,"keywords":["nocrits","nodmgspread","payload","uncletopia"],"game_id":440,"stv_port":27016,"stv_name":"Uncletopia | Atlanta | 1 | All Maps | STV","players":[{"user_id":121,"name":"I enjoy the spy class","steam_id":76561199122145635,"connected_time":366000000000,"state":"active","ping":62},{"user_id":80,"name":"t.tv/ibbKitty  ∑:3","steam_id":76561198110858518,"connected_time":4967000000000,"state":"active","ping":74},{"user_id":12,"name":"Ashes!","steam_id":76561197998475441,"connected_time":10150000000000,"state":"active","ping":63},{"user_id":87,"name":"Sunny D+","steam_id":76561197999371052,"connected_time":4671000000000,"state":"active","ping":76},{"user_id":16,"name":"metalfan666","steam_id":76561198386344068,"connected_time":9812000000000,"state":"active","ping":64},{"user_id":83,"name":"MaHy","steam_id":76561199228640619,"connected_time":4927000000000,"state":"active","ping":65},{"user_id":108,"name":"Brown_Dream","steam_id":76561198975766145,"connected_time":2257000000000,"state":"active","ping":74},{"user_id":68,"name":"Boxpipe","steam_id":76561197964501915,"connected_time":6228000000000,"state":"active","ping":84},{"user_id":120,"name":"Sinta","steam_id":76561198098398841,"connected_time":587000000000,"state":"active","ping":59},{"user_id":117,"name":"FallenMeeps","steam_id":76561199170916789,"connected_time":596000000000,"state":"active","ping":79},{"user_id":76,"name":"sansa musa","steam_id":76561198163723555,"connected_time":5121000000000,"state":"active","ping":72},{"user_id":104,"name":"Λlxium","steam_id":76561198131272900,"connected_time":2536000000000,"state":"active","ping":83},{"user_id":99,"name":"Wolffkran","steam_id":76561198003018041,"connected_time":3020000000000,"state":"active","ping":91},{"user_id":124,"name":"*‧˚kitsu ʚ♥ɞ","steam_id":76561198091741658,"connected_time":2000000000,"state":"spawning","ping":79},{"user_id":113,"name":"fishe","steam_id":76561198406114836,"connected_time":1484000000000,"state":"active","ping":58},{"user_id":111,"name":"jpuck","steam_id":76561198025018960,"connected_time":1673000000000,"state":"active","ping":45},{"user_id":125,"name":"com lag","steam_id":76561198019019392,"connected_time":2000000000,"state":"spawning","ping":67},{"user_id":110,"name":"KhorneBread ︻デ 一","steam_id":76561198097069958,"connected_time":1970000000000,"state":"active","ping":77},{"user_id":118,"name":"MinimanC","steam_id":76561198071475084,"connected_time":596000000000,"state":"active","ping":78},{"user_id":102,"name":"gun slippin under","steam_id":76561198275265806,"connected_time":2603000000000,"state":"active","ping":57},{"user_id":106,"name":"Night time Dan","steam_id":76561199022178492,"connected_time":2287000000000,"state":"active","ping":51},{"user_id":115,"name":"Blue","steam_id":76561198799259811,"connected_time":736000000000,"state":"active","ping":70},{"user_id":89,"name":"Xuey","steam_id":76561199120960187,"connected_time":4518000000000,"state":"active","ping":81},{"user_id":123,"name":"Hyper","steam_id":76561199102864718,"connected_time":356000000000,"state":"active","ping":80}]},{"server_id":104,"name":"Uncletopia | Atlanta | 2 | All Maps","name_short":"atl-2","host":"atl-1.us.uncletopia.com","port":27025,"enabled":true,"region":"us-east","cc":"us","latitude":33.753746,"longitude":-84.38633,"reserved":0,"last_update":"0001-01-01T00:00:00Z","name_a2s":"Uncletopia | Atlanta | 2 | All Maps","protocol":17,"map":"koth_suijin","folder":"tf","game":"Team Fortress","app_id":440,"player_count":0,"max_players":24,"Bots":0,"server_type":"Dedicated","server_os":"Linux","password":true,"vac":true,"version":"7961495","steam_id":85568392924469983,"keywords":["cp","nocrits","nodmgspread","uncletopia"],"game_id":440,"stv_port":27026,"stv_name":"Uncletopia | Atlanta | 2 | All Maps | STV","players":null},{"server_id":400,"name":"Uncletopia | Atlanta | 3 | Stopwatch","name_short":"atl-3","host":"atl-1.us.uncletopia.com","port":27035,"enabled":true,"region":"us-east","cc":"us","latitude":33.753746,"longitude":-84.38633,"reserved":0,"last_update":"0001-01-01T00:00:00Z","name_a2s":"Uncletopia | Atlanta | 3 | Stopwatch","protocol":17,"map":"workshop/pl_badwater_pro_v12.ugc2142942074","folder":"tf","game":"Team Fortress","app_id":440,"player_count":21,"max_players":24,"Bots":0,"server_type":"Dedicated","server_os":"Linux","password":true,"vac":true,"version":"7961495","steam_id":85568392924515187,"keywords":["nocrits","nodmgspread","payload","uncletopia"],"game_id":440,"stv_port":27036,"stv_name":"Uncletopia | Atlanta | 3 | Stopwatch | STV","players":[{"user_id":197,"name":"cuerpo destrozado en la calle","steam_id":76561198194471251,"connected_time":1200000000000,"state":"spawning","ping":36},{"user_id":207,"name":"stivanaker","steam_id":76561198346276579,"connected_time":610000000000,"state":"spawning","ping":149},{"user_id":210,"name":"Sleepy","steam_id":76561198978688451,"connected_time":317000000000,"state":"spawning","ping":51},{"user_id":208,"name":"ts","steam_id":76561198384120999,"connected_time":551000000000,"state":"spawning","ping":67},{"user_id":196,"name":"freyja","steam_id":76561198249206656,"connected_time":1224000000000,"state":"spawning","ping":87},{"user_id":185,"name":"dietcokefan42","steam_id":76561198135307995,"connected_time":2216000000000,"state":"spawning","ping":50},{"user_id":211,"name":"comet sooicidy","steam_id":76561198025173479,"connected_time":280000000000,"state":"spawning","ping":67},{"user_id":206,"name":"e0e0","steam_id":76561198293839750,"connected_time":805000000000,"state":"spawning","ping":56},{"user_id":160,"name":"Dick to ball ratio","steam_id":76561198072205512,"connected_time":4149000000000,"state":"spawning","ping":101},{"user_id":167,"name":"VampBoiClique","steam_id":76561198100942212,"connected_time":3477000000000,"state":"spawning","ping":60},{"user_id":216,"name":"snugglebug","steam_id":76561199489391928,"connected_time":59000000000,"state":"spawning","ping":74},{"user_id":218,"name":"Lost CS2 player","steam_id":76561198892387723,"connected_time":28000000000,"state":"spawning","ping":63},{"user_id":201,"name":"lego star wars on the psp","steam_id":76561198148014773,"connected_time":1187000000000,"state":"spawning","ping":60},{"user_id":184,"name":"nines","steam_id":76561198078992548,"connected_time":2435000000000,"state":"spawning","ping":54},{"user_id":175,"name":"Leeous","steam_id":76561198081083248,"connected_time":2982000000000,"state":"spawning","ping":67},{"user_id":169,"name":"Grandma Fleece","steam_id":76561199013752329,"connected_time":3415000000000,"state":"spawning","ping":73},{"user_id":189,"name":"Heathcliff","steam_id":76561198044288534,"connected_time":1822000000000,"state":"spawning","ping":51},{"user_id":215,"name":"JNGthree","steam_id":76561198166002579,"connected_time":105000000000,"state":"spawning","ping":78},{"user_id":127,"name":"SCATTER","steam_id":76561198405168492,"connected_time":6514000000000,"state":"spawning","ping":98},{"user_id":200,"name":"Timmy The Tyrant","steam_id":76561199156409732,"connected_time":1193000000000,"state":"spawning","ping":55},{"user_id":204,"name":"nettles","steam_id":76561199238923581,"connected_time":980000000000,"state":"spawning","ping":116}]},{"server_id":401,"name":"Uncletopia | Atlanta | 4 | Community","name_short":"atl-4","host":"atl-1.us.uncletopia.com","port":27045,"enabled":true,"region":"us-east","cc":"us","latitude":33.753746,"longitude":-84.38633,"reserved":0,"last_update":"0001-01-01T00:00:00Z","name_a2s":"Uncletopia | Atlanta | 4 | Community","protocol":17,"map":"workshop/pl_phoenix_b4a.ugc2969509359","folder":"tf","game":"Team Fortress","app_id":440,"player_count":0,"max_players":24,"Bots":0,"server_type":"Dedicated","server_os":"Linux","password":true,"vac":true,"version":"7961495","steam_id":85568392924515188,"keywords":["nocrits","nodmgspread","payload","uncletopia"],"game_id":440,"stv_port":27046,"stv_name":"Uncletopia | Atlanta | 4 | Community | STV","players":null},{"server_id":2,"name":"Uncletopia | Chicago | 1 | All Maps","name_short":"chi-1","host":"chi-1.us.uncletopia.com","port":27015,"enabled":true,"region":"us-central","cc":"us","latitude":41.881832,"longitude":-87.62318,"reserved":0,"last_update":"0001-01-01T00:00:00Z","name_a2s":"Uncletopia | Chicago | 1 | All Maps","protocol":17,"map":"cp_process_final","folder":"tf","game":"Team Fortress","app_id":440,"player_count":24,"max_players":24,"Bots":0,"server_type":"Dedicated","server_os":"Linux","password":true,"vac":true,"version":"7961495","steam_id":85568392924469984,"keywords":["cp","nocrits","nodmgspread","uncletopia"],"game_id":440,"stv_port":27016,"stv_name":"Uncletopia | Chicago | 1 | All Maps | STV","players":[{"user_id":11,"name":"rat eater","steam_id":76561199216874750,"connected_time":1964000000000,"state":"active","ping":59},{"user_id":21,"name":"Temper","steam_id":76561199042184132,"connected_time":946000000000,"state":"active","ping":72},{"user_id":13,"name":"supbreak20","steam_id":76561199121826901,"connected_time":1469000000000,"state":"active","ping":77},{"user_id":14,"name":"Verily","steam_id":76561198200558318,"connected_time":1469000000000,"state":"active","ping":83},{"user_id":15,"name":"Dr.StrangeGlove","steam_id":76561198286114229,"connected_time":1394000000000,"state":"active","ping":82},{"user_id":49,"name":"MausWaffles","steam_id":76561198193160991,"connected_time":16000000000,"state":"spawning","ping":81},{"user_id":46,"name":"Gibs Degrossi","steam_id":76561198066152609,"connected_time":207000000000,"state":"active","ping":53},{"user_id":23,"name":"mdharsy","steam_id":76561198065831053,"connected_time":896000000000,"state":"active","ping":59},{"user_id":20,"name":"Natsuki the Scunt","steam_id":76561199175922684,"connected_time":983000000000,"state":"active","ping":116},{"user_id":24,"name":"Josh05jacob10","steam_id":76561199434688521,"connected_time":880000000000,"state":"active","ping":66},{"user_id":25,"name":"NUt","steam_id":76561198031007966,"connected_time":877000000000,"state":"active","ping":79},{"user_id":31,"name":"Osteo-Oligarch","steam_id":76561198164731896,"connected_time":640000000000,"state":"active","ping":78},{"user_id":27,"name":"capybara","steam_id":76561198798828328,"connected_time":820000000000,"state":"active","ping":56},{"user_id":28,"name":"lordstinkdemon666","steam_id":76561198073914311,"connected_time":783000000000,"state":"active","ping":92},{"user_id":29,"name":"toucan","steam_id":76561198016562343,"connected_time":731000000000,"state":"active","ping":62},{"user_id":30,"name":"redzach","steam_id":76561198444094359,"connected_time":720000000000,"state":"active","ping":53},{"user_id":33,"name":"drift","steam_id":76561198093781093,"connected_time":636000000000,"state":"active","ping":49},{"user_id":38,"name":"Adam9","steam_id":76561198272853331,"connected_time":554000000000,"state":"active","ping":68},{"user_id":35,"name":"Pyrofrost","steam_id":76561198273492467,"connected_time":612000000000,"state":"active","ping":57},{"user_id":39,"name":"jerma but crying and lesbian","steam_id":76561198110661425,"connected_time":533000000000,"state":"active","ping":91},{"user_id":47,"name":"Disqrace","steam_id":76561198147436653,"connected_time":201000000000,"state":"active","ping":143},{"user_id":45,"name":"Kookaburra","steam_id":76561198119555082,"connected_time":343000000000,"state":"active","ping":68},{"user_id":42,"name":"soup","steam_id":76561198309226058,"connected_time":469000000000,"state":"active","ping":172},{"user_id":48,"name":"dictator putski","steam_id":76561198118821862,"connected_time":200000000000,"state":"active","ping":149}]},{"server_id":106,"name":"Uncletopia | Chicago | 2 | All Maps","name_short":"chi-2","host":"chi-1.us.uncletopia.com","port":27025,"enabled":true,"region":"us-central","cc":"us","latitude":41.881832,"longitude":-87.62318,"reserved":0,"last_update":"0001-01-01T00:00:00Z","name_a2s":"Uncletopia | Chicago | 2 | All Maps","protocol":17,"map":"cp_gorge","folder":"tf","game":"Team Fortress","app_id":440,"player_count":24,"max_players":24,"Bots":0,"server_type":"Dedicated","server_os":"Linux","password":true,"vac":true,"version":"7961495","steam_id":85568392924469985,"keywords":["cp","nocrits","nodmgspread","uncletopia"],"game_id":440,"stv_port":27026,"stv_name":"Uncletopia | Chicago | 2 | All Maps | STV","players":[{"user_id":342,"name":"Huntpk","steam_id":76561198340591674,"connected_time":62000000000,"state":"active","ping":80},{"user_id":197,"name":"ุ","steam_id":76561198118480346,"connected_time":11815000000000,"state":"active","ping":64},{"user_id":260,"name":"boykissing? YES PLEASE!","steam_id":76561198063970639,"connected_time":5848000000000,"state":"active","ping":65},{"user_id":318,"name":"Wavecheck#drownsyndrome","steam_id":76561198132068284,"connected_time":1118000000000,"state":"active","ping":73},{"user_id":326,"name":"Paul_Mc","steam_id":76561199031955413,"connected_time":1059000000000,"state":"active","ping":66},{"user_id":311,"name":"Fake","steam_id":76561198282894422,"connected_time":2763000000000,"state":"active","ping":63},{"user_id":301,"name":"PowerGem3000","steam_id":76561198944644691,"connected_time":3054000000000,"state":"active","ping":117},{"user_id":340,"name":"Mr. Tickle","steam_id":76561198126684647,"connected_time":605000000000,"state":"active","ping":88},{"user_id":289,"name":"Scooty.","steam_id":76561198138990283,"connected_time":4566000000000,"state":"active","ping":64},{"user_id":307,"name":"Orb","steam_id":76561198353963523,"connected_time":3014000000000,"state":"active","ping":91},{"user_id":321,"name":"Reed","steam_id":76561198102058669,"connected_time":1087000000000,"state":"active","ping":62},{"user_id":312,"name":"Whoopsy","steam_id":76561198128103529,"connected_time":2735000000000,"state":"active","ping":71},{"user_id":317,"name":"BurgerPizza","steam_id":76561198151256410,"connected_time":1676000000000,"state":"active","ping":138},{"user_id":320,"name":"ṽ⧉ cookie","steam_id":76561197998884823,"connected_time":1100000000000,"state":"active","ping":68},{"user_id":339,"name":"Aztea","steam_id":76561198982089893,"connected_time":864000000000,"state":"active","ping":84},{"user_id":258,"name":"crab","steam_id":76561199094011002,"connected_time":5994000000000,"state":"active","ping":52},{"user_id":308,"name":"Anyar","steam_id":76561198160174097,"connected_time":2926000000000,"state":"active","ping":75},{"user_id":341,"name":"The Washer of Dishes","steam_id":76561198028157625,"connected_time":420000000000,"state":"active","ping":97},{"user_id":309,"name":"a_person_159","steam_id":76561199024416326,"connected_time":2889000000000,"state":"active","ping":65},{"user_id":310,"name":"kapooya","steam_id":76561198353456379,"connected_time":2807000000000,"state":"active","ping":61},{"user_id":294,"name":"slimeball","steam_id":76561198165332029,"connected_time":3876000000000,"state":"active","ping":45},{"user_id":287,"name":"Alshek","steam_id":76561198115594676,"connected_time":4747000000000,"state":"active","ping":59},{"user_id":277,"name":"Yeti™","steam_id":76561199151545966,"connected_time":5012000000000,"state":"active","ping":71},{"user_id":334,"name":"TheSnipersHat","steam_id":76561198057684066,"connected_time":1004000000000,"state":"active","ping":50}]},{"server_id":402,"name":"Uncletopia | Chicago | 3 | All Maps","name_short":"chi-3","host":"chi-1.us.uncletopia.com","port":27035,"enabled":true,"region":"us-central","cc":"us","latitude":41.881832,"longitude":-87.62318,"reserved":0,"last_update":"0001-01-01T00:00:00Z","name_a2s":"Uncletopia | Chicago | 3 | All Maps","protocol":17,"map":"cp_gorge","folder":"tf","game":"Team Fortress","app_id":440,"player_count":0,"max_players":24,"Bots":0,"server_type":"Dedicated","server_os":"Linux","password":true,"vac":true,"version":"7961495","steam_id":85568392924515191,"keywords":["cp","nocrits","nodmgspread","uncletopia"],"game_id":440,"stv_port":27036,"stv_name":"Uncletopia | Chicago | 3 | All Maps | STV","players":null},{"server_id":403,"name":"Uncletopia | Chicago | 4 | All Maps","name_short":"chi-4","host":"chi-1.us.uncletopia.com","port":27045,"enabled":true,"region":"us-central","cc":"us","latitude":41.881832,"longitude":-87.62318,"reserved":0,"last_update":"0001-01-01T00:00:00Z","name_a2s":"Uncletopia | Chicago | 4 | All Maps","protocol":17,"map":"koth_viaduct","folder":"tf","game":"Team Fortress","app_id":440,"player_count":0,"max_players":24,"Bots":0,"server_type":"Dedicated","server_os":"Linux","password":true,"vac":true,"version":"7961495","steam_id":85568392924515193,"keywords":["cp","nocrits","nodmgspread","uncletopia"],"game_id":440,"stv_port":27046,"stv_name":"Uncletopia | Chicago | 4 | All Maps | STV","players":null},{"server_id":36,"name":"Uncletopia | Chicago | 5 | All Maps","name_short":"chi-5","host":"chi-2.us.uncletopia.com","port":27015,"enabled":true,"region":"us-central","cc":"us","latitude":41.881832,"longitude":-87.62318,"reserved":0,"last_update":"0001-01-01T00:00:00Z","name_a2s":"Uncletopia | Chicago | 5 | All Maps","protocol":17,"map":"cp_mercenarypark","folder":"tf","game":"Team Fortress","app_id":440,"player_count":0,"max_players":24,"Bots":0,"server_type":"Dedicated","server_os":"Linux","password":true,"vac":true,"version":"7961495","steam_id":85568392924866362,"keywords":["cp","nocrits","nodmgspread","uncletopia"],"game_id":440,"stv_port":27016,"stv_name":"Uncletopia | Chicago | 5 | All Maps | STV","players":null},{"server_id":37,"name":"Uncletopia | Chicago | 6 | All Maps","name_short":"chi-6","host":"chi-2.us.uncletopia.com","port":27025,"enabled":true,"region":"us-central","cc":"us","latitude":41.881832,"longitude":-87.62318,"reserved":0,"last_update":"0001-01-01T00:00:00Z","name_a2s":"Uncletopia | Chicago | 6 | All Maps","protocol":17,"map":"cp_sunshine","folder":"tf","game":"Team Fortress","app_id":440,"player_count":0,"max_players":24,"Bots":0,"server_type":"Dedicated","server_os":"Linux","password":true,"vac":true,"version":"7961495","steam_id":85568392924866363,"keywords":["cp","nocrits","nodmgspread","uncletopia"],"game_id":440,"stv_port":27026,"stv_name":"Uncletopia | Chicago | 6 | All Maps | STV","players":null},{"server_id":38,"name":"Uncletopia | Chicago | 7 | Stopwatch","name_short":"chi-7","host":"chi-2.us.uncletopia.com","port":27035,"enabled":true,"region":"us-central","cc":"us","latitude":41.881832,"longitude":-87.62318,"reserved":0,"last_update":"0001-01-01T00:00:00Z","name_a2s":"Uncletopia | Chicago | 7 | Stopwatch","protocol":17,"map":"cp_granary","folder":"tf","game":"Team Fortress","app_id":440,"player_count":0,"max_players":24,"Bots":0,"server_type":"Dedicated","server_os":"Linux","password":true,"vac":true,"version":"7961495","steam_id":85568392924866364,"keywords":["cp","nocrits","nodmgspread","uncletopia"],"game_id":440,"stv_port":27036,"stv_name":"Uncletopia | Chicago | 7 | Stopwatch | STV","players":null},{"server_id":39,"name":"Uncletopia | Chicago | 8 | Community","name_short":"chi-8","host":"chi-2.us.uncletopia.com","port":27045,"enabled":true,"region":"us-central","cc":"us","latitude":41.881832,"longitude":-87.62318,"reserved":0,"last_update":"0001-01-01T00:00:00Z","name_a2s":"Uncletopia | Chicago | 8 | Community","protocol":17,"map":"workshop/cp_caldera_rc3.ugc2834196889","folder":"tf","game":"Team Fortress","app_id":440,"player_count":0,"max_players":24,"Bots":0,"server_type":"Dedicated","server_os":"Linux","password":true,"vac":true,"version":"7961495","steam_id":85568392924866365,"keywords":["cp","nocrits","nodmgspread","uncletopia"],"game_id":440,"stv_port":27046,"stv_name":"Uncletopia | Chicago | 8 | Community | STV","players":null},{"server_id":8,"name":"Uncletopia | Dallas | 1 | All Maps","name_short":"dal-1","host":"dal-1.us.uncletopia.com","port":27015,"enabled":true,"region":"us-central","cc":"us","latitude":32.779167,"longitude":-96.80889,"reserved":0,"last_update":"0001-01-01T00:00:00Z","name_a2s":"Uncletopia | Dallas | 1 | All Maps","protocol":17,"map":"koth_lakeside_final","folder":"tf","game":"Team Fortress","app_id":440,"player_count":0,"max_players":24,"Bots":0,"server_type":"Dedicated","server_os":"Linux","password":true,"vac":true,"version":"7961495","steam_id":85568392924469986,"keywords":["cp","nocrits","nodmgspread","uncletopia"],"game_id":440,"stv_port":27016,"stv_name":"Uncletopia | Dallas | 1 | All Maps | STV","players":null},{"server_id":108,"name":"Uncletopia | Dallas | 2 | All Maps","name_short":"dal-2","host":"dal-1.us.uncletopia.com","port":27025,"enabled":true,"region":"us-central","cc":"us","latitude":32.779167,"longitude":-96.80889,"reserved":0,"last_update":"0001-01-01T00:00:00Z","name_a2s":"Uncletopia | Dallas | 2 | All Maps","protocol":17,"map":"cp_sunshine","folder":"tf","game":"Team Fortress","app_id":440,"player_count":0,"max_players":24,"Bots":0,"server_type":"Dedicated","server_os":"Linux","password":true,"vac":true,"version":"7961495","steam_id":85568392924469988,"keywords":["cp","nocrits","nodmgspread","uncletopia"],"game_id":440,"stv_port":27026,"stv_name":"Uncletopia | Dallas | 2 | All Maps | STV","players":null},{"server_id":404,"name":"Uncletopia | Dallas | 3 | All Maps","name_short":"dal-3","host":"dal-1.us.uncletopia.com","port":27035,"enabled":true,"region":"us-central","cc":"us","latitude":32.779167,"longitude":-96.80889,"reserved":0,"last_update":"0001-01-01T00:00:00Z","name_a2s":"Uncletopia | Dallas | 3 | All Maps","protocol":17,"map":"cp_process_final","folder":"tf","game":"Team Fortress","app_id":440,"player_count":0,"max_players":24,"Bots":0,"server_type":"Dedicated","server_os":"Linux","password":true,"vac":true,"version":"7961495","steam_id":85568392924515219,"keywords":["cp","nocrits","nodmgspread","uncletopia"],"game_id":440,"stv_port":27036,"stv_name":"Uncletopia | Dallas | 3 | All Maps | STV","players":null},{"server_id":405,"name":"Uncletopia | Dallas | 4 | Community","name_short":"dal-4","host":"dal-1.us.uncletopia.com","port":27045,"enabled":true,"region":"us-central","cc":"us","latitude":32.779167,"longitude":-96.80889,"reserved":0,"last_update":"0001-01-01T00:00:00Z","name_a2s":"Uncletopia | Dallas | 4 | Community","protocol":17,"map":"workshop/pl_jinn_rc2.ugc2964570577","folder":"tf","game":"Team Fortress","app_id":440,"player_count":23,"max_players":24,"Bots":0,"server_type":"Dedicated","server_os":"Linux","password":true,"vac":true,"version":"7961495","steam_id":85568392924515220,"keywords":["nocrits","nodmgspread","payload","uncletopia"],"game_id":440,"stv_port":27046,"stv_name":"Uncletopia | Dallas | 4 | Community | STV","players":[{"user_id":150,"name":"AFunkyPigeon","steam_id":76561199350099870,"connected_time":1599000000000,"state":"active","ping":67},{"user_id":173,"name":"rodrick rules hardback cover","steam_id":76561198823526581,"connected_time":89000000000,"state":"active","ping":94},{"user_id":127,"name":"Metbol","steam_id":76561198001362410,"connected_time":3476000000000,"state":"active","ping":80},{"user_id":160,"name":"Open Mailbox","steam_id":76561198051933580,"connected_time":957000000000,"state":"active","ping":101},{"user_id":106,"name":"Tony","steam_id":76561198169799653,"connected_time":4925000000000,"state":"active","ping":60},{"user_id":142,"name":"Grumpy Bird","steam_id":76561198819881664,"connected_time":2412000000000,"state":"active","ping":90},{"user_id":49,"name":"nefarious criminal","steam_id":76561198077506415,"connected_time":8427000000000,"state":"active","ping":77},{"user_id":152,"name":"PapaSmurf","steam_id":76561199201107408,"connected_time":1526000000000,"state":"active","ping":82},{"user_id":50,"name":"Gimme your Teeth","steam_id":76561198240523882,"connected_time":8427000000000,"state":"active","ping":75},{"user_id":117,"name":"greenpeace","steam_id":76561197983221708,"connected_time":3919000000000,"state":"active","ping":94},{"user_id":157,"name":"I LOVE GOONING","steam_id":76561199097367107,"connected_time":1261000000000,"state":"active","ping":79},{"user_id":168,"name":"Hamlindigo Blue™","steam_id":76561198116337540,"connected_time":313000000000,"state":"active","ping":75},{"user_id":144,"name":"Firedust19","steam_id":76561198153238631,"connected_time":2265000000000,"state":"active","ping":91},{"user_id":145,"name":"᲼᲼᲼","steam_id":76561198845246815,"connected_time":2155000000000,"state":"active","ping":77},{"user_id":163,"name":"pathulhu","steam_id":76561198323941614,"connected_time":792000000000,"state":"active","ping":44},{"user_id":153,"name":"Drunk Heroism","steam_id":76561198053788253,"connected_time":1502000000000,"state":"active","ping":94},{"user_id":164,"name":"Embie","steam_id":76561198358221011,"connected_time":740000000000,"state":"active","ping":117},{"user_id":154,"name":"Spare(8)Ball","steam_id":76561197982432995,"connected_time":1446000000000,"state":"active","ping":89},{"user_id":172,"name":"bungus","steam_id":76561198119604836,"connected_time":129000000000,"state":"active","ping":97},{"user_id":166,"name":"PlatinumBass™","steam_id":76561198267504292,"connected_time":729000000000,"state":"active","ping":104},{"user_id":118,"name":"Shadoe","steam_id":76561198218577281,"connected_time":3872000000000,"state":"active","ping":75},{"user_id":158,"name":"ThiccKomodoAss","steam_id":76561198037830114,"connected_time":1259000000000,"state":"active","ping":80},{"user_id":159,"name":"Joan The Kisaragi Cat","steam_id":76561199370650064,"connected_time":1206000000000,"state":"active","ping":65}]},{"server_id":5,"name":"Uncletopia | Frankfurt | 1 | All Maps","name_short":"frk-1","host":"frk-1.de.uncletopia.com","port":27015,"enabled":true,"region":"eu","cc":"de","latitude":50.110924,"longitude":8.682127,"reserved":0,"last_update":"0001-01-01T00:00:00Z","name_a2s":"Uncletopia | Frankfurt | 1 | All Maps","protocol":17,"map":"pl_swiftwater_final1","folder":"tf","game":"Team Fortress","app_id":440,"player_count":23,"max_players":24,"Bots":0,"server_type":"Dedicated","server_os":"Linux","password":true,"vac":true,"version":"7961495","steam_id":85568392924469989,"keywords":["nocrits","nodmgspread","payload","uncletopia"],"game_id":440,"stv_port":27016,"stv_name":"Uncletopia | Frankfurt | 1 | All Maps | STV","players":[{"user_id":394,"name":"eep","steam_id":76561198111134021,"connected_time":177000000000,"state":"active","ping":76},{"user_id":360,"name":"WHUSSKEY","steam_id":76561198137827441,"connected_time":1878000000000,"state":"active","ping":66},{"user_id":402,"name":"Sheev","steam_id":76561198828371209,"connected_time":37000000000,"state":"active","ping":71},{"user_id":393,"name":"ХАН ЗАМАЙ","steam_id":76561198992528373,"connected_time":214000000000,"state":"active","ping":66},{"user_id":332,"name":"Jeremy265","steam_id":76561199004316549,"connected_time":2995000000000,"state":"active","ping":125},{"user_id":390,"name":"ALL BALLS NO SHAFT","steam_id":76561198028701695,"connected_time":574000000000,"state":"active","ping":53},{"user_id":382,"name":"Çanak yalayıcı","steam_id":76561198113677852,"connected_time":1029000000000,"state":"active","ping":80},{"user_id":398,"name":"adil jay","steam_id":76561198182233723,"connected_time":133000000000,"state":"active","ping":133},{"user_id":375,"name":"Optimist 50","steam_id":76561198039631442,"connected_time":1354000000000,"state":"active","ping":85},{"user_id":369,"name":"ANGHENFILOD","steam_id":76561199492622823,"connected_time":1604000000000,"state":"active","ping":49},{"user_id":389,"name":"Veirū Viseris","steam_id":76561197989857176,"connected_time":614000000000,"state":"active","ping":76},{"user_id":364,"name":"✦ Xayira ✦","steam_id":76561198079566786,"connected_time":1842000000000,"state":"active","ping":65},{"user_id":399,"name":"dog?","steam_id":76561199232839385,"connected_time":128000000000,"state":"active","ping":87},{"user_id":297,"name":"Uselss Joe","steam_id":76561198275853629,"connected_time":5123000000000,"state":"active","ping":47},{"user_id":381,"name":"LivEssense","steam_id":76561198052476979,"connected_time":1069000000000,"state":"active","ping":75},{"user_id":403,"name":"[fool] tiia","steam_id":76561198046196005,"connected_time":23000000000,"state":"active","ping":45},{"user_id":395,"name":"meZzo82","steam_id":76561199094017865,"connected_time":159000000000,"state":"active","ping":59},{"user_id":396,"name":"t99","steam_id":76561198276103501,"connected_time":157000000000,"state":"active","ping":77},{"user_id":400,"name":"HANoi","steam_id":76561198144300192,"connected_time":125000000000,"state":"active","ping":74},{"user_id":404,"name":"Javier dorsaless","steam_id":76561198179324075,"connected_time":4000000000,"state":"spawning","ping":67},{"user_id":345,"name":"Dolmio","steam_id":76561198057071489,"connected_time":2647000000000,"state":"active","ping":60},{"user_id":405,"name":"Dyon B.","steam_id":76561198285690526,"connected_time":3000000000,"state":"spawning","ping":59},{"user_id":392,"name":"purpul bastard","steam_id":76561198214429607,"connected_time":239000000000,"state":"active","ping":78}]},{"server_id":110,"name":"Uncletopia | Frankfurt | 2 | All Maps","name_short":"frk-2","host":"frk-1.de.uncletopia.com","port":27025,"enabled":true,"region":"eu","cc":"de","latitude":50.110924,"longitude":8.682127,"reserved":0,"last_update":"0001-01-01T00:00:00Z","name_a2s":"Uncletopia | Frankfurt | 2 | All Maps","protocol":17,"map":"koth_viaduct","folder":"tf","game":"Team Fortress","app_id":440,"player_count":24,"max_players":24,"Bots":0,"server_type":"Dedicated","server_os":"Linux","password":true,"vac":true,"version":"7961495","steam_id":85568392924469990,"keywords":["cp","nocrits","nodmgspread","uncletopia"],"game_id":440,"stv_port":27026,"stv_name":"Uncletopia | Frankfurt | 2 | All Maps | STV","players":[{"user_id":201,"name":"Tomato","steam_id":76561199124472513,"connected_time":773000000000,"state":"active","ping":105},{"user_id":194,"name":"Randomly Colored Master","steam_id":76561198015126961,"connected_time":908000000000,"state":"active","ping":104},{"user_id":193,"name":"András","steam_id":76561198096947288,"connected_time":920000000000,"state":"active","ping":58},{"user_id":167,"name":"please do not the cat","steam_id":76561198089003514,"connected_time":2944000000000,"state":"active","ping":45},{"user_id":189,"name":"Davido01","steam_id":76561198089406245,"connected_time":1166000000000,"state":"active","ping":62},{"user_id":195,"name":"Warrior555MainsGanon","steam_id":76561198388627786,"connected_time":888000000000,"state":"active","ping":65},{"user_id":169,"name":"Pabs :D","steam_id":76561198000016962,"connected_time":2784000000000,"state":"active","ping":53},{"user_id":191,"name":"Egor Pomidor","steam_id":76561199175688390,"connected_time":965000000000,"state":"active","ping":76},{"user_id":144,"name":"0xDEADBEEF","steam_id":76561199075416111,"connected_time":5236000000000,"state":"active","ping":96},{"user_id":202,"name":"tafelpoot","steam_id":76561198080036024,"connected_time":768000000000,"state":"active","ping":61},{"user_id":198,"name":"zzz","steam_id":76561199167288279,"connected_time":867000000000,"state":"active","ping":73},{"user_id":171,"name":"тукку ирма","steam_id":76561197998715016,"connected_time":2644000000000,"state":"active","ping":63},{"user_id":173,"name":"EtoGeek","steam_id":76561198020304242,"connected_time":2467000000000,"state":"active","ping":62},{"user_id":209,"name":"dood999","steam_id":76561198111596916,"connected_time":729000000000,"state":"active","ping":63},{"user_id":199,"name":"Lao","steam_id":76561198004528684,"connected_time":856000000000,"state":"active","ping":71},{"user_id":200,"name":"sork","steam_id":76561198082446459,"connected_time":797000000000,"state":"active","ping":65},{"user_id":212,"name":"jeff","steam_id":76561198272815746,"connected_time":546000000000,"state":"active","ping":55},{"user_id":215,"name":"Five Finger Discount","steam_id":76561197994556857,"connected_time":364000000000,"state":"active","ping":63},{"user_id":206,"name":"Hugeeツ #TendonXhairs","steam_id":76561198245495152,"connected_time":759000000000,"state":"active","ping":68},{"user_id":141,"name":":)","steam_id":76561198039964082,"connected_time":5539000000000,"state":"active","ping":62},{"user_id":178,"name":"AbuMshMsh","steam_id":76561198291184871,"connected_time":2090000000000,"state":"active","ping":125},{"user_id":210,"name":"Dakeyras","steam_id":76561198057069564,"connected_time":688000000000,"state":"active","ping":103},{"user_id":211,"name":"Vorkytaka","steam_id":76561198002998620,"connected_time":600000000000,"state":"active","ping":62},{"user_id":214,"name":"DVS","steam_id":76561198062909843,"connected_time":448000000000,"state":"active","ping":46}]},{"server_id":308,"name":"Uncletopia | Frankfurt | 3 | All Maps","name_short":"frk-3","host":"frk-1.de.uncletopia.com","port":27035,"enabled":true,"region":"eu","cc":"de","latitude":50.110924,"longitude":8.682127,"reserved":0,"last_update":"0001-01-01T00:00:00Z","name_a2s":"Uncletopia | Frankfurt | 3 | All Maps","protocol":17,"map":"pl_snowycoast","folder":"tf","game":"Team Fortress","app_id":440,"player_count":24,"max_players":24,"Bots":0,"server_type":"Dedicated","server_os":"Linux","password":true,"vac":true,"version":"7961495","steam_id":85568392924504274,"keywords":["nocrits","nodmgspread","payload","uncletopia"],"game_id":440,"stv_port":27036,"stv_name":"Uncletopia | Frankfurt | 3 | All Maps | STV","players":[{"user_id":226,"name":"actualofficeman","steam_id":76561198364649987,"connected_time":2563000000000,"state":"active","ping":64},{"user_id":236,"name":"Milfshake","steam_id":76561198208740557,"connected_time":738000000000,"state":"active","ping":47},{"user_id":210,"name":"breadbear \u003c3","steam_id":76561198036895007,"connected_time":3977000000000,"state":"active","ping":79},{"user_id":223,"name":"TKN_Paps997","steam_id":76561198419868465,"connected_time":2596000000000,"state":"active","ping":83},{"user_id":234,"name":"George W Bush","steam_id":76561198846784757,"connected_time":1276000000000,"state":"active","ping":63},{"user_id":228,"name":"Eric Catman","steam_id":76561198802117294,"connected_time":2251000000000,"state":"active","ping":93},{"user_id":162,"name":"yush","steam_id":76561198121688934,"connected_time":6567000000000,"state":"active","ping":76},{"user_id":237,"name":"Prox","steam_id":76561198351490981,"connected_time":725000000000,"state":"active","ping":45},{"user_id":235,"name":"Monkey","steam_id":76561199008411791,"connected_time":766000000000,"state":"active","ping":57},{"user_id":222,"name":"FoxyTheFish","steam_id":76561199074190919,"connected_time":2701000000000,"state":"active","ping":49},{"user_id":213,"name":"Nick","steam_id":76561198036109469,"connected_time":3901000000000,"state":"active","ping":91},{"user_id":250,"name":"tort","steam_id":76561198147246166,"connected_time":282000000000,"state":"active","ping":75},{"user_id":185,"name":"Garolt_Knight","steam_id":76561198957445537,"connected_time":4887000000000,"state":"active","ping":102},{"user_id":208,"name":"MHE_HOPM","steam_id":76561199073846518,"connected_time":4245000000000,"state":"active","ping":68},{"user_id":239,"name":"Brian","steam_id":76561198077756206,"connected_time":696000000000,"state":"active","ping":56},{"user_id":240,"name":"pablo","steam_id":76561198089285014,"connected_time":684000000000,"state":"active","ping":75},{"user_id":224,"name":"Yonio","steam_id":76561198408428132,"connected_time":2590000000000,"state":"active","ping":65},{"user_id":200,"name":"[HOL] Solringen","steam_id":76561198003584681,"connected_time":4564000000000,"state":"active","ping":71},{"user_id":241,"name":"Windows Vista Cruiser","steam_id":76561198064102233,"connected_time":680000000000,"state":"active","ping":58},{"user_id":249,"name":"Kewlan","steam_id":76561198042775020,"connected_time":351000000000,"state":"active","ping":80},{"user_id":245,"name":"Brown Tank","steam_id":76561198168067738,"connected_time":634000000000,"state":"active","ping":76},{"user_id":214,"name":"Jesus","steam_id":76561199106262610,"connected_time":3887000000000,"state":"active","ping":53},{"user_id":246,"name":"Dave The Sloth","steam_id":76561199135831355,"connected_time":620000000000,"state":"active","ping":61},{"user_id":248,"name":"A wild Jackdaw has apeared!","steam_id":76561198316333587,"connected_time":581000000000,"state":"active","ping":47}]},{"server_id":309,"name":"Uncletopia | Frankfurt | 4 | All Maps","name_short":"frk-4","host":"frk-1.de.uncletopia.com","port":27045,"enabled":true,"region":"eu","cc":"de","latitude":50.110924,"longitude":8.682127,"reserved":0,"last_update":"0001-01-01T00:00:00Z","name_a2s":"Uncletopia | Frankfurt | 4 | All Maps","protocol":17,"map":"pl_barnblitz","folder":"tf","game":"Team Fortress","app_id":440,"player_count":18,"max_players":24,"Bots":0,"server_type":"Dedicated","server_os":"Linux","password":true,"vac":true,"version":"7961495","steam_id":85568392924504275,"keywords":["nocrits","nodmgspread","payload","uncletopia"],"game_id":440,"stv_port":27046,"stv_name":"Uncletopia | Frankfurt | 4 | All Maps | STV","players":[{"user_id":29,"name":"GMsU | Smiley","steam_id":76561198121494414,"connected_time":1106000000000,"state":"active","ping":85},{"user_id":34,"name":"GMsU | DaLuigi","steam_id":76561198054486188,"connected_time":509000000000,"state":"active","ping":45},{"user_id":49,"name":"Giblob","steam_id":76561198261277204,"connected_time":42000000000,"state":"active","ping":82},{"user_id":37,"name":"applefrompear","steam_id":76561199258816743,"connected_time":382000000000,"state":"active","ping":86},{"user_id":38,"name":"Zoro (Hun)","steam_id":76561199367182571,"connected_time":317000000000,"state":"active","ping":59},{"user_id":23,"name":"GMsU | Rebikas","steam_id":76561198077053764,"connected_time":1559000000000,"state":"active","ping":40},{"user_id":39,"name":"Lukero","steam_id":76561198301594341,"connected_time":315000000000,"state":"active","ping":57},{"user_id":42,"name":"Cult of the Void","steam_id":76561199168680069,"connected_time":213000000000,"state":"active","ping":142},{"user_id":33,"name":"GMsU | Acoul","steam_id":76561198229222992,"connected_time":701000000000,"state":"active","ping":44},{"user_id":35,"name":"archimedes_the_crow","steam_id":76561199201085996,"connected_time":463000000000,"state":"active","ping":48},{"user_id":36,"name":"samii","steam_id":76561198190939217,"connected_time":444000000000,"state":"active","ping":58},{"user_id":41,"name":"NOne","steam_id":76561198002359947,"connected_time":267000000000,"state":"active","ping":74},{"user_id":43,"name":"NoobNixel","steam_id":76561199507673884,"connected_time":201000000000,"state":"active","ping":67},{"user_id":45,"name":"Chip","steam_id":76561198861519418,"connected_time":117000000000,"state":"active","ping":100},{"user_id":48,"name":"matvejisakov7","steam_id":76561199493568179,"connected_time":53000000000,"state":"active","ping":115},{"user_id":47,"name":"$799 Sak of Cheese","steam_id":76561198066642220,"connected_time":59000000000,"state":"active","ping":60},{"user_id":50,"name":"Technic","steam_id":76561198128096130,"connected_time":33000000000,"state":"active","ping":50},{"user_id":51,"name":"Tomatron","steam_id":76561197981248976,"connected_time":19000000000,"state":"active","ping":73}]},{"server_id":310,"name":"Uncletopia | Frankfurt | 5 | All Maps","name_short":"frk-5","host":"frk-1.de.uncletopia.com","port":27055,"enabled":true,"region":"eu","cc":"de","latitude":50.110924,"longitude":8.682127,"reserved":0,"last_update":"0001-01-01T00:00:00Z","name_a2s":"Uncletopia | Frankfurt | 5 | All Maps","protocol":17,"map":"cp_dustbowl","folder":"tf","game":"Team Fortress","app_id":440,"player_count":24,"max_players":24,"Bots":0,"server_type":"Dedicated","server_os":"Linux","password":true,"vac":true,"version":"7961495","steam_id":85568392924504277,"keywords":["cp","nocrits","nodmgspread","uncletopia"],"game_id":440,"stv_port":27056,"stv_name":"Uncletopia | Frankfurt | 5 | All Maps | STV","players":[{"user_id":696,"name":"Cranjis McBasketball","steam_id":76561198051290193,"connected_time":1176000000000,"state":"active","ping":60},{"user_id":688,"name":"❤Speedbump❤","steam_id":76561198388690313,"connected_time":1242000000000,"state":"active","ping":50},{"user_id":689,"name":"Sunduchek","steam_id":76561198067934157,"connected_time":1240000000000,"state":"active","ping":125},{"user_id":709,"name":"bigeon","steam_id":76561198078601337,"connected_time":71000000000,"state":"active","ping":78},{"user_id":693,"name":"wee bit depresso","steam_id":76561198097507847,"connected_time":1215000000000,"state":"active","ping":75},{"user_id":690,"name":"KALACH","steam_id":76561198028664460,"connected_time":1239000000000,"state":"active","ping":75},{"user_id":662,"name":"Skaza","steam_id":76561198010292540,"connected_time":2864000000000,"state":"active","ping":73},{"user_id":628,"name":"S@wKa","steam_id":76561198200160028,"connected_time":5269000000000,"state":"active","ping":62},{"user_id":710,"name":"arturtrindade1971","steam_id":76561199229325031,"connected_time":3000000000,"state":"spawning","ping":105},{"user_id":620,"name":"papa Sloath","steam_id":76561198046382160,"connected_time":5580000000000,"state":"active","ping":50},{"user_id":694,"name":"Peat","steam_id":76561197992168067,"connected_time":1202000000000,"state":"active","ping":73},{"user_id":701,"name":"Wee bit espresso","steam_id":76561198067204908,"connected_time":867000000000,"state":"active","ping":66},{"user_id":695,"name":"Gibbo","steam_id":76561198021814576,"connected_time":1193000000000,"state":"active","ping":72},{"user_id":674,"name":"Broken Ass","steam_id":76561198138002478,"connected_time":2591000000000,"state":"active","ping":67},{"user_id":703,"name":"Inky (she/her)","steam_id":76561198334042273,"connected_time":526000000000,"state":"active","ping":69},{"user_id":707,"name":"disposablesuperbread","steam_id":76561199074703607,"connected_time":421000000000,"state":"active","ping":67},{"user_id":704,"name":"Dicartal","steam_id":76561198295793592,"connected_time":507000000000,"state":"active","ping":132},{"user_id":706,"name":"new folder","steam_id":76561198035125667,"connected_time":495000000000,"state":"active","ping":78},{"user_id":697,"name":"0","steam_id":76561199293036742,"connected_time":1168000000000,"state":"active","ping":48},{"user_id":708,"name":"Irme","steam_id":76561198161590299,"connected_time":175000000000,"state":"active","ping":80},{"user_id":667,"name":"Woad Raider","steam_id":76561198215485788,"connected_time":2758000000000,"state":"active","ping":73},{"user_id":699,"name":"☆bladee☆dior☆f/w2016☆","steam_id":76561198082352159,"connected_time":1153000000000,"state":"active","ping":129},{"user_id":702,"name":"Tort","steam_id":76561198329646769,"connected_time":858000000000,"state":"active","ping":66},{"user_id":679,"name":"Doecheldorf","steam_id":76561198291628630,"connected_time":2436000000000,"state":"active","ping":63}]},{"server_id":311,"name":"Uncletopia | Frankfurt | 6 | All Maps","name_short":"frk-6","host":"frk-1.de.uncletopia.com","port":27065,"enabled":true,"region":"eu","cc":"de","latitude":50.110924,"longitude":8.682127,"reserved":0,"last_update":"0001-01-01T00:00:00Z","name_a2s":"Uncletopia | Frankfurt | 6 | All Maps","protocol":17,"map":"koth_highpass","folder":"tf","game":"Team Fortress","app_id":440,"player_count":8,"max_players":24,"Bots":0,"server_type":"Dedicated","server_os":"Linux","password":true,"vac":true,"version":"7961495","steam_id":85568392924504278,"keywords":["cp","nocrits","nodmgspread","uncletopia"],"game_id":440,"stv_port":27066,"stv_name":"Uncletopia | Frankfurt | 6 | All Maps | STV","players":[{"user_id":13,"name":"trans girl","steam_id":76561198864161505,"connected_time":988000000000,"state":"active","ping":60},{"user_id":12,"name":"Graham","steam_id":76561198062668942,"connected_time":1087000000000,"state":"active","ping":45},{"user_id":14,"name":"Transgender Girl Kisser","steam_id":76561198263263692,"connected_time":779000000000,"state":"active","ping":59},{"user_id":18,"name":"Waltism","steam_id":76561199447676489,"connected_time":298000000000,"state":"active","ping":80},{"user_id":17,"name":"burritoeater","steam_id":76561199124197813,"connected_time":461000000000,"state":"active","ping":89},{"user_id":19,"name":"Hjüvid 19","steam_id":76561198400090968,"connected_time":162000000000,"state":"active","ping":78},{"user_id":21,"name":"rabbit","steam_id":76561199466718294,"connected_time":124000000000,"state":"active","ping":74},{"user_id":23,"name":"Alyx","steam_id":76561198064654326,"connected_time":83000000000,"state":"active","ping":58}]},{"server_id":23,"name":"Uncletopia | Frankfurt | 7 | Stopwatch","name_short":"frk-7","host":"frk-1.de.uncletopia.com","port":27075,"enabled":true,"region":"eu","cc":"de","latitude":50.110924,"longitude":8.682127,"reserved":0,"last_update":"0001-01-01T00:00:00Z","name_a2s":"Uncletopia | Frankfurt | 7 | Stopwatch","protocol":17,"map":"workshop/cp_process_f12.ugc2302948105","folder":"tf","game":"Team Fortress","app_id":440,"player_count":0,"max_players":24,"Bots":0,"server_type":"Dedicated","server_os":"Linux","password":true,"vac":true,"version":"7961495","steam_id":85568392924742827,"keywords":["cp","nocrits","nodmgspread","uncletopia"],"game_id":440,"stv_port":27076,"stv_name":"Uncletopia | Frankfurt | 7 | Stopwatch | STV","players":null},{"server_id":24,"name":"Uncletopia | Frankfurt | 8 | Community","name_short":"frk-8","host":"frk-1.de.uncletopia.com","port":27085,"enabled":true,"region":"eu","cc":"de","latitude":50.110924,"longitude":8.682127,"reserved":0,"last_update":"0001-01-01T00:00:00Z","name_a2s":"Uncletopia | Frankfurt | 8 | Community","protocol":17,"map":"workshop/koth_relic_rc3.ugc2965301326","folder":"tf","game":"Team Fortress","app_id":440,"player_count":0,"max_players":24,"Bots":0,"server_type":"Dedicated","server_os":"Linux","password":true,"vac":true,"version":"7961495","steam_id":85568392924742828,"keywords":["cp","nocrits","nodmgspread","uncletopia"],"game_id":440,"stv_port":27086,"stv_name":"Uncletopia | Frankfurt | 8 | Community | STV","players":null},{"server_id":202,"name":"Uncletopia | Hong Kong | 1 | All Maps","name_short":"hgk-1","host":"hgk-1.hk.uncletopia.com","port":27015,"enabled":true,"region":"asia","cc":"hk","latitude":22.302711,"longitude":114.177216,"reserved":0,"last_update":"0001-01-01T00:00:00Z","name_a2s":"Uncletopia | Hong Kong | 1 | All Maps","protocol":17,"map":"cp_snakewater_final1","folder":"tf","game":"Team Fortress","app_id":440,"player_count":4,"max_players":24,"Bots":0,"server_type":"Dedicated","server_os":"Linux","password":true,"vac":true,"version":"7961495","steam_id":85568392924494504,"keywords":["cp","nocrits","nodmgspread","uncletopia"],"game_id":440,"stv_port":27016,"stv_name":"Uncletopia | Hong Kong | 1 | All Maps | STV","players":[{"user_id":410,"name":"lawsh","steam_id":76561199077904976,"connected_time":588000000000,"state":"active","ping":251},{"user_id":411,"name":"ywo","steam_id":76561198840274820,"connected_time":225000000000,"state":"active","ping":60},{"user_id":396,"name":"GAMA","steam_id":76561198049755630,"connected_time":3131000000000,"state":"active","ping":118},{"user_id":181,"name":"Impetus","steam_id":76561198213031155,"connected_time":24083000000000,"state":"active","ping":90}]},{"server_id":1,"name":"Uncletopia | Los Angeles | 1 | All Maps","name_short":"lax-1","host":"lax-1.us.uncletopia.com","port":27015,"enabled":true,"region":"us-west","cc":"us","latitude":33.94279,"longitude":-118.41004,"reserved":0,"last_update":"0001-01-01T00:00:00Z","name_a2s":"Uncletopia | Los Angeles | 1 | All Maps","protocol":17,"map":"koth_lakeside_final","folder":"tf","game":"Team Fortress","app_id":440,"player_count":0,"max_players":24,"Bots":0,"server_type":"Dedicated","server_os":"Linux","password":true,"vac":true,"version":"7961495","steam_id":85568392924469991,"keywords":["cp","nocrits","nodmgspread","uncletopia"],"game_id":440,"stv_port":27016,"stv_name":"Uncletopia | Los Angeles | 1 | All Maps | STV","players":null},{"server_id":112,"name":"Uncletopia | Los Angeles | 2 | All Maps","name_short":"lax-2","host":"lax-1.us.uncletopia.com","port":27025,"enabled":true,"region":"us-west","cc":"us","latitude":33.94279,"longitude":-118.41004,"reserved":0,"last_update":"0001-01-01T00:00:00Z","name_a2s":"Uncletopia | Los Angeles | 2 | All Maps","protocol":17,"map":"koth_lazarus","folder":"tf","game":"Team Fortress","app_id":440,"player_count":0,"max_players":24,"Bots":0,"server_type":"Dedicated","server_os":"Linux","password":true,"vac":true,"version":"7961495","steam_id":85568392924469992,"keywords":["cp","nocrits","nodmgspread","uncletopia"],"game_id":440,"stv_port":27026,"stv_name":"Uncletopia | Los Angeles | 2 | All Maps | STV","players":null},{"server_id":324,"name":"Uncletopia | Los Angeles | 3 | All Maps","name_short":"lax-3","host":"lax-1.us.uncletopia.com","port":27035,"enabled":true,"region":"us-west","cc":"us","latitude":33.94279,"longitude":-118.41004,"reserved":0,"last_update":"0001-01-01T00:00:00Z","name_a2s":"Uncletopia | Los Angeles | 3 | All Maps","protocol":17,"map":"pl_frontier_final","folder":"tf","game":"Team Fortress","app_id":440,"player_count":0,"max_players":24,"Bots":0,"server_type":"Dedicated","server_os":"Linux","password":true,"vac":true,"version":"7961495","steam_id":85568392924510198,"keywords":["nocrits","nodmgspread","payload","uncletopia"],"game_id":440,"stv_port":27036,"stv_name":"Uncletopia | Los Angeles | 3 | All Maps | STV","players":null},{"server_id":25,"name":"Uncletopia | Los Angeles | 4 | Stopwatch","name_short":"lax-4","host":"lax-1.us.uncletopia.com","port":27045,"enabled":true,"region":"us-west","cc":"us","latitude":33.94279,"longitude":-118.41004,"reserved":0,"last_update":"0001-01-01T00:00:00Z","name_a2s":"Uncletopia | Los Angeles | 4 | Stopwatch","protocol":17,"map":"pl_upward","folder":"tf","game":"Team Fortress","app_id":440,"player_count":0,"max_players":24,"Bots":0,"server_type":"Dedicated","server_os":"Linux","password":true,"vac":true,"version":"7961495","steam_id":85568392924510199,"keywords":["nocrits","nodmgspread","payload","uncletopia"],"game_id":440,"stv_port":27046,"stv_name":"Uncletopia | Los Angeles | 4 | Stopwatch | STV","players":null},{"server_id":11,"name":"Uncletopia | London | 1 | All Maps","name_short":"lon-1","host":"lon-1.uk.uncletopia.com","port":27015,"enabled":true,"region":"eu","cc":"gb","latitude":51.509865,"longitude":-0.118092,"reserved":0,"last_update":"0001-01-01T00:00:00Z","name_a2s":"Uncletopia | London | 1 | All Maps","protocol":17,"map":"koth_harvest_final","folder":"tf","game":"Team Fortress","app_id":440,"player_count":24,"max_players":24,"Bots":0,"server_type":"Dedicated","server_os":"Linux","password":true,"vac":true,"version":"7961495","steam_id":85568392924367362,"keywords":["cp","nocrits","nodmgspread","uncletopia"],"game_id":440,"stv_port":27016,"stv_name":"Uncletopia | London | 1 | All Maps | STV","players":[{"user_id":367,"name":"Laru","steam_id":76561197998838438,"connected_time":8618000000000,"state":"active","ping":84},{"user_id":480,"name":"Meowcoxi","steam_id":76561199407632710,"connected_time":449000000000,"state":"active","ping":52},{"user_id":420,"name":"dragonborn","steam_id":76561199224431243,"connected_time":3961000000000,"state":"active","ping":89},{"user_id":474,"name":"itransition UKRAINE","steam_id":76561198080912087,"connected_time":952000000000,"state":"active","ping":62},{"user_id":476,"name":"Aaron","steam_id":76561197990046953,"connected_time":775000000000,"state":"active","ping":57},{"user_id":370,"name":"Watch The Matrix 1999 HD online","steam_id":76561198168207306,"connected_time":8594000000000,"state":"active","ping":90},{"user_id":443,"name":"ʰᵘᵉ","steam_id":76561198446852844,"connected_time":1975000000000,"state":"active","ping":81},{"user_id":464,"name":"ber.","steam_id":76561197993892057,"connected_time":1200000000000,"state":"active","ping":90},{"user_id":481,"name":"The Boss","steam_id":76561198426522902,"connected_time":423000000000,"state":"active","ping":51},{"user_id":467,"name":"Lyra","steam_id":76561198043601838,"connected_time":1167000000000,"state":"active","ping":60},{"user_id":479,"name":"wk ohw","steam_id":76561198106049954,"connected_time":515000000000,"state":"active","ping":75},{"user_id":436,"name":"Jughead","steam_id":76561198000355410,"connected_time":2372000000000,"state":"active","ping":31},{"user_id":475,"name":"val.","steam_id":76561198039196844,"connected_time":951000000000,"state":"active","ping":154},{"user_id":429,"name":"Thinkpad X220","steam_id":76561198830840410,"connected_time":2790000000000,"state":"active","ping":95},{"user_id":437,"name":"amy","steam_id":76561198110757262,"connected_time":2363000000000,"state":"active","ping":53},{"user_id":262,"name":"Pride moth","steam_id":76561198799133372,"connected_time":17952000000000,"state":"active","ping":92},{"user_id":403,"name":"naah you off the Google+ perc","steam_id":76561198190583242,"connected_time":5488000000000,"state":"active","ping":83},{"user_id":427,"name":"Venwood","steam_id":76561198126973175,"connected_time":2869000000000,"state":"active","ping":49},{"user_id":478,"name":"meow meow meow","steam_id":76561199510115679,"connected_time":689000000000,"state":"active","ping":36},{"user_id":386,"name":"whimsy.","steam_id":76561198878171763,"connected_time":6843000000000,"state":"active","ping":52},{"user_id":430,"name":"shloup","steam_id":76561198072892783,"connected_time":2716000000000,"state":"active","ping":71},{"user_id":462,"name":"jüri","steam_id":76561198107460765,"connected_time":1748000000000,"state":"active","ping":47},{"user_id":432,"name":"⸸aura⸸","steam_id":76561198066258544,"connected_time":2673000000000,"state":"active","ping":58},{"user_id":470,"name":"Anus01","steam_id":76561198101884780,"connected_time":1136000000000,"state":"active","ping":75}]},{"server_id":114,"name":"Uncletopia | London | 2 | All Maps","name_short":"lon-2","host":"lon-1.uk.uncletopia.com","port":27025,"enabled":true,"region":"eu","cc":"gb","latitude":51.509865,"longitude":-0.118092,"reserved":0,"last_update":"0001-01-01T00:00:00Z","name_a2s":"Uncletopia | London | 2 | All Maps","protocol":17,"map":"pl_pier","folder":"tf","game":"Team Fortress","app_id":440,"player_count":24,"max_players":24,"Bots":0,"server_type":"Dedicated","server_os":"Linux","password":true,"vac":true,"version":"7961495","steam_id":85568392924470941,"keywords":["nocrits","nodmgspread","payload","uncletopia"],"game_id":440,"stv_port":27026,"stv_name":"Uncletopia | London | 2 | All Maps | STV","players":[{"user_id":79,"name":"Milk02","steam_id":76561199484753251,"connected_time":1002000000000,"state":"active","ping":131},{"user_id":8,"name":"Deez nuts","steam_id":76561199429562693,"connected_time":3575000000000,"state":"active","ping":71},{"user_id":9,"name":"Kenny_killer_69","steam_id":76561199465207725,"connected_time":3553000000000,"state":"active","ping":68},{"user_id":35,"name":"Sex Man TF2","steam_id":76561198798657045,"connected_time":2857000000000,"state":"active","ping":74},{"user_id":73,"name":"[P-roc] Lovely","steam_id":76561198074361075,"connected_time":1500000000000,"state":"active","ping":55},{"user_id":86,"name":"Hey, I´m Andy!","steam_id":76561198060337777,"connected_time":462000000000,"state":"active","ping":85},{"user_id":55,"name":"owlsie","steam_id":76561198094883280,"connected_time":2247000000000,"state":"active","ping":61},{"user_id":84,"name":"jur","steam_id":76561198096189399,"connected_time":571000000000,"state":"active","ping":58},{"user_id":77,"name":"literallyjasonx","steam_id":76561198835895387,"connected_time":1228000000000,"state":"active","ping":61},{"user_id":56,"name":"monky ♿","steam_id":76561198064440542,"connected_time":2144000000000,"state":"active","ping":49},{"user_id":25,"name":"Penguin in Poncho","steam_id":76561198307493773,"connected_time":3080000000000,"state":"active","ping":79},{"user_id":33,"name":"cister0","steam_id":76561198130195469,"connected_time":2963000000000,"state":"active","ping":75},{"user_id":27,"name":"SzczwanaKawia","steam_id":76561198151871852,"connected_time":3034000000000,"state":"active","ping":81},{"user_id":24,"name":"Nikkis","steam_id":76561198190420055,"connected_time":3113000000000,"state":"active","ping":83},{"user_id":28,"name":"BurningJoke","steam_id":76561199014358707,"connected_time":3023000000000,"state":"active","ping":59},{"user_id":60,"name":"[P-roc] Cmm Bert","steam_id":76561198016658674,"connected_time":2096000000000,"state":"active","ping":60},{"user_id":52,"name":"Boil em mash em","steam_id":76561198026508026,"connected_time":2318000000000,"state":"active","ping":72},{"user_id":80,"name":"Combat Wombat","steam_id":76561197994720068,"connected_time":858000000000,"state":"active","ping":65},{"user_id":38,"name":"BOTH | Sunshine","steam_id":76561198885528098,"connected_time":2830000000000,"state":"active","ping":118},{"user_id":85,"name":"Zamorocian","steam_id":76561198076604017,"connected_time":530000000000,"state":"active","ping":40},{"user_id":87,"name":"Burton","steam_id":76561198018848163,"connected_time":378000000000,"state":"active","ping":69},{"user_id":81,"name":"Balling","steam_id":76561198240320806,"connected_time":836000000000,"state":"active","ping":72},{"user_id":75,"name":"Zin","steam_id":76561199041369507,"connected_time":1489000000000,"state":"active","ping":129},{"user_id":76,"name":"Usagi Aloahaoe","steam_id":76561198981191925,"connected_time":1487000000000,"state":"active","ping":41}]},{"server_id":320,"name":"Uncletopia | London | 3 | All Maps","name_short":"lon-3","host":"lon-1.uk.uncletopia.com","port":27035,"enabled":true,"region":"eu","cc":"gb","latitude":51.509865,"longitude":-0.118092,"reserved":0,"last_update":"0001-01-01T00:00:00Z","name_a2s":"Uncletopia | London | 3 | All Maps","protocol":17,"map":"cp_sunshine","folder":"tf","game":"Team Fortress","app_id":440,"player_count":24,"max_players":24,"Bots":0,"server_type":"Dedicated","server_os":"Linux","password":true,"vac":true,"version":"7961495","steam_id":85568392924510192,"keywords":["cp","nocrits","nodmgspread","uncletopia"],"game_id":440,"stv_port":27036,"stv_name":"Uncletopia | London | 3 | All Maps | STV","players":[{"user_id":360,"name":"oupa pepe","steam_id":76561198079254320,"connected_time":445000000000,"state":"active","ping":74},{"user_id":338,"name":"marvi444","steam_id":76561198431534139,"connected_time":2608000000000,"state":"active","ping":59},{"user_id":280,"name":"Fat Pigeon","steam_id":76561198817940142,"connected_time":4383000000000,"state":"active","ping":45},{"user_id":357,"name":"mental","steam_id":76561198803089656,"connected_time":704000000000,"state":"active","ping":160},{"user_id":281,"name":"Oak","steam_id":76561198067315672,"connected_time":4300000000000,"state":"active","ping":40},{"user_id":279,"name":"night.s","steam_id":76561198326287823,"connected_time":4579000000000,"state":"active","ping":70},{"user_id":348,"name":"HawkBear","steam_id":76561198046062963,"connected_time":1482000000000,"state":"active","ping":143},{"user_id":361,"name":"AI | Davidoscki","steam_id":76561198129166046,"connected_time":200000000000,"state":"active","ping":98},{"user_id":349,"name":"Macron Démission","steam_id":76561198044356491,"connected_time":1027000000000,"state":"active","ping":52},{"user_id":362,"name":"Dantevicious","steam_id":76561198086021748,"connected_time":184000000000,"state":"active","ping":104},{"user_id":359,"name":"etc","steam_id":76561197998394797,"connected_time":639000000000,"state":"active","ping":57},{"user_id":235,"name":"Bruschetta","steam_id":76561198251927162,"connected_time":6949000000000,"state":"active","ping":67},{"user_id":356,"name":"Supercoxylac","steam_id":76561198376300138,"connected_time":756000000000,"state":"active","ping":62},{"user_id":346,"name":"WrytXander","steam_id":76561198067856323,"connected_time":1929000000000,"state":"active","ping":99},{"user_id":331,"name":"Urtaras","steam_id":76561198085604412,"connected_time":2767000000000,"state":"active","ping":47},{"user_id":351,"name":"Zaster","steam_id":76561198207862755,"connected_time":1010000000000,"state":"active","ping":50},{"user_id":285,"name":"Snowy","steam_id":76561198169992461,"connected_time":4185000000000,"state":"active","ping":39},{"user_id":344,"name":"Dispenser(Dispenser)","steam_id":76561199211831658,"connected_time":2035000000000,"state":"active","ping":50},{"user_id":267,"name":"Cöffee","steam_id":76561198115131952,"connected_time":5512000000000,"state":"active","ping":99},{"user_id":294,"name":"Nittugai","steam_id":76561198067366462,"connected_time":3923000000000,"state":"active","ping":60},{"user_id":352,"name":"UpsetPuppy11","steam_id":76561199060288033,"connected_time":1004000000000,"state":"active","ping":92},{"user_id":343,"name":"wtabs","steam_id":76561198831766743,"connected_time":2061000000000,"state":"active","ping":87},{"user_id":353,"name":"Givi Dedismtynelishvili","steam_id":76561199052275857,"connected_time":988000000000,"state":"active","ping":113},{"user_id":333,"name":"The Subway Scientist","steam_id":76561198193757646,"connected_time":2748000000000,"state":"active","ping":49}]},{"server_id":321,"name":"Uncletopia | London | 4 | All Maps","name_short":"lon-4","host":"lon-1.uk.uncletopia.com","port":27045,"enabled":true,"region":"eu","cc":"gb","latitude":51.509865,"longitude":-0.118092,"reserved":0,"last_update":"0001-01-01T00:00:00Z","name_a2s":"Uncletopia | London | 4 | All Maps","protocol":17,"map":"pl_badwater","folder":"tf","game":"Team Fortress","app_id":440,"player_count":24,"max_players":24,"Bots":0,"server_type":"Dedicated","server_os":"Linux","password":true,"vac":true,"version":"7961495","steam_id":85568392924510193,"keywords":["nocrits","nodmgspread","payload","uncletopia"],"game_id":440,"stv_port":27046,"stv_name":"Uncletopia | London | 4 | All Maps | STV","players":[{"user_id":299,"name":"Boki","steam_id":76561198044553351,"connected_time":765000000000,"state":"active","ping":68},{"user_id":300,"name":"Sir Cauterize","steam_id":76561198047079422,"connected_time":333000000000,"state":"active","ping":47},{"user_id":193,"name":"FJADL","steam_id":76561198237008214,"connected_time":7182000000000,"state":"active","ping":60},{"user_id":237,"name":"Michał","steam_id":76561198320346362,"connected_time":4396000000000,"state":"active","ping":74},{"user_id":248,"name":"Luuk","steam_id":76561198088266026,"connected_time":3693000000000,"state":"active","ping":45},{"user_id":267,"name":"JkauxxHQ","steam_id":76561198135428304,"connected_time":2288000000000,"state":"active","ping":91},{"user_id":258,"name":"Backstreet Badger","steam_id":76561199024411975,"connected_time":2730000000000,"state":"active","ping":98},{"user_id":294,"name":"Rogernuke","steam_id":76561198312815194,"connected_time":1296000000000,"state":"active","ping":68},{"user_id":301,"name":"Bobo","steam_id":76561198052308399,"connected_time":291000000000,"state":"active","ping":67},{"user_id":280,"name":"ｄｅｓｋｒａｙ","steam_id":76561198805536170,"connected_time":1691000000000,"state":"active","ping":82},{"user_id":273,"name":"DoomGuy","steam_id":76561198303785233,"connected_time":1830000000000,"state":"active","ping":118},{"user_id":290,"name":"[dopijus]","steam_id":76561198943009513,"connected_time":1449000000000,"state":"active","ping":99},{"user_id":297,"name":"LOBZIK","steam_id":76561198114830120,"connected_time":1024000000000,"state":"active","ping":75},{"user_id":303,"name":"Asuka Langley","steam_id":76561198405980575,"connected_time":281000000000,"state":"active","ping":74},{"user_id":296,"name":"gaming (official)","steam_id":76561198106012909,"connected_time":1070000000000,"state":"active","ping":90},{"user_id":215,"name":"Ark-e","steam_id":76561198261870909,"connected_time":5775000000000,"state":"active","ping":43},{"user_id":304,"name":"The Cool Ice Guy","steam_id":76561198146194820,"connected_time":262000000000,"state":"active","ping":59},{"user_id":281,"name":"Egg123","steam_id":76561198854045058,"connected_time":1688000000000,"state":"active","ping":74},{"user_id":278,"name":"BORGETENNISCLUB","steam_id":76561198049343723,"connected_time":1710000000000,"state":"active","ping":55},{"user_id":246,"name":"Decadence","steam_id":76561198206829379,"connected_time":4049000000000,"state":"active","ping":84},{"user_id":261,"name":"lumikko","steam_id":76561198112012468,"connected_time":2518000000000,"state":"active","ping":95},{"user_id":249,"name":"the shardy horse sauce","steam_id":76561198011450253,"connected_time":3688000000000,"state":"active","ping":51},{"user_id":272,"name":"antihuman","steam_id":76561198116027948,"connected_time":1993000000000,"state":"active","ping":84},{"user_id":257,"name":"bid","steam_id":76561198083863043,"connected_time":2754000000000,"state":"active","ping":45}]},{"server_id":21,"name":"Uncletopia | London | 5 | All Maps","name_short":"lon-5","host":"lon-1.uk.uncletopia.com","port":27055,"enabled":true,"region":"eu","cc":"gb","latitude":51.509865,"longitude":-0.118092,"reserved":0,"last_update":"0001-01-01T00:00:00Z","name_a2s":"Uncletopia | London | 5 | All Maps","protocol":17,"map":"koth_viaduct","folder":"tf","game":"Team Fortress","app_id":440,"player_count":0,"max_players":24,"Bots":0,"server_type":"Dedicated","server_os":"Linux","password":true,"vac":true,"version":"7961495","steam_id":85568392924742829,"keywords":["cp","nocrits","nodmgspread","uncletopia"],"game_id":440,"stv_port":27056,"stv_name":"Uncletopia | London | 5 | All Maps | STV","players":null},{"server_id":22,"name":"Uncletopia | London | 6 | All Maps","name_short":"lon-6","host":"lon-1.uk.uncletopia.com","port":27065,"enabled":true,"region":"eu","cc":"gb","latitude":51.509865,"longitude":-0.118092,"reserved":0,"last_update":"0001-01-01T00:00:00Z","name_a2s":"Uncletopia | London | 6 | All Maps","protocol":17,"map":"koth_viaduct","folder":"tf","game":"Team Fortress","app_id":440,"player_count":0,"max_players":24,"Bots":0,"server_type":"Dedicated","server_os":"Linux","password":true,"vac":true,"version":"7961495","steam_id":85568392924742830,"keywords":["cp","nocrits","nodmgspread","uncletopia"],"game_id":440,"stv_port":27066,"stv_name":"Uncletopia | London | 6 | All Maps | STV","players":null},{"server_id":40,"name":"Uncletopia | London | 7 | Stopwatch","name_short":"lon-7","host":"lon-1.uk.uncletopia.com","port":27075,"enabled":true,"region":"eu","cc":"gb","latitude":51.509865,"longitude":-0.118092,"reserved":0,"last_update":"0001-01-01T00:00:00Z","name_a2s":"Uncletopia | London | 7 | Stopwatch","protocol":17,"map":"workshop/cp_reckoner_rc6.ugc674719999","folder":"tf","game":"Team Fortress","app_id":440,"player_count":0,"max_players":24,"Bots":0,"server_type":"Dedicated","server_os":"Linux","password":true,"vac":true,"version":"7961495","steam_id":85568392924964314,"keywords":["cp","nocrits","nodmgspread","uncletopia"],"game_id":440,"stv_port":27076,"stv_name":"Uncletopia | London | 7 | Stopwatch | STV","players":null},{"server_id":41,"name":"Uncletopia | London | 8 | Community","name_short":"lon-8","host":"lon-1.uk.uncletopia.com","port":27085,"enabled":true,"region":"eu","cc":"gb","latitude":51.509865,"longitude":-0.118092,"reserved":0,"last_update":"0001-01-01T00:00:00Z","name_a2s":"Uncletopia | London | 8 | Community","protocol":17,"map":"workshop/pl_jinn_rc2.ugc2964570577","folder":"tf","game":"Team Fortress","app_id":440,"player_count":0,"max_players":24,"Bots":0,"server_type":"Dedicated","server_os":"Linux","password":true,"vac":true,"version":"7961495","steam_id":85568392924964315,"keywords":["nocrits","nodmgspread","payload","uncletopia"],"game_id":440,"stv_port":27086,"stv_name":"Uncletopia | London | 8 | Community | STV","players":null},{"server_id":300,"name":"Uncletopia | Montréal | 1 | One Thousand Uncles","name_short":"mtl-1","host":"mtl-1.ca.uncletopia.com","port":27015,"enabled":true,"region":"us-east","cc":"ca","latitude":45.50889,"longitude":-73.56167,"reserved":0,"last_update":"0001-01-01T00:00:00Z","name_a2s":"Uncletopia | Montréal | 1 | One Thousand Uncles","protocol":17,"map":"pl_barnblitz","folder":"tf","game":"Team Fortress","app_id":440,"player_count":23,"max_players":32,"Bots":20,"server_type":"Dedicated","server_os":"Linux","password":true,"vac":true,"version":"7961495","steam_id":85568392924500087,"keywords":["alltalk","bots","danepve","increased_maxplayers","norespawntime","payload","uncletopia"],"game_id":440,"stv_port":0,"stv_name":"","players":[{"user_id":91,"name":"abhorrence","steam_id":76561198208849751,"connected_time":1664000000000,"state":"active","ping":84},{"user_id":114,"name":"PapaRicka","steam_id":76561198156474931,"connected_time":586000000000,"state":"active","ping":62},{"user_id":116,"name":"Enzo","steam_id":76561197975076681,"connected_time":192000000000,"state":"active","ping":61},{"user_id":117,"name":"chiswola","steam_id":76561198046920142,"connected_time":137000000000,"state":"active","ping":88}]},{"server_id":301,"name":"Uncletopia | Montréal | 2 | One Thousand Uncles","name_short":"mtl-2","host":"mtl-1.ca.uncletopia.com","port":27025,"enabled":true,"region":"us-east","cc":"ca","latitude":45.50889,"longitude":-73.56167,"reserved":0,"last_update":"0001-01-01T00:00:00Z","name_a2s":"Uncletopia | Montréal | 2 | One Thousand Uncles","protocol":17,"map":"cp_mossrock","folder":"tf","game":"Team Fortress","app_id":440,"player_count":0,"max_players":32,"Bots":0,"server_type":"Dedicated","server_os":"Linux","password":true,"vac":true,"version":"7961495","steam_id":85568392924500088,"keywords":["alltalk","cp","danepve","increased_maxplayers","norespawntime","uncletopia"],"game_id":440,"stv_port":0,"stv_name":"","players":null},{"server_id":302,"name":"Uncletopia | Montréal | 3 | One Thousand Uncles","name_short":"mtl-3","host":"mtl-1.ca.uncletopia.com","port":27035,"enabled":true,"region":"us-east","cc":"ca","latitude":45.50889,"longitude":-73.56167,"reserved":0,"last_update":"0001-01-01T00:00:00Z","name_a2s":"Uncletopia | Montréal | 3 | One Thousand Uncles","protocol":17,"map":"pl_pier","folder":"tf","game":"Team Fortress","app_id":440,"player_count":0,"max_players":32,"Bots":0,"server_type":"Dedicated","server_os":"Linux","password":true,"vac":true,"version":"7961495","steam_id":85568392924500089,"keywords":["alltalk","danepve","increased_maxplayers","norespawntime","payload","uncletopia"],"game_id":440,"stv_port":0,"stv_name":"","players":null},{"server_id":13,"name":"Uncletopia | New York City | 1 | All Maps","name_short":"nyc-1","host":"nyc-1.us.uncletopia.com","port":27015,"enabled":true,"region":"us-east","cc":"us","latitude":40.73061,"longitude":-73.93524,"reserved":0,"last_update":"0001-01-01T00:00:00Z","name_a2s":"Uncletopia | New York City | 1 | All Maps","protocol":17,"map":"koth_harvest_final","folder":"tf","game":"Team Fortress","app_id":440,"player_count":24,"max_players":24,"Bots":0,"server_type":"Dedicated","server_os":"Linux","password":true,"vac":true,"version":"7961495","steam_id":85568392924469993,"keywords":["cp","nocrits","nodmgspread","uncletopia"],"game_id":440,"stv_port":27016,"stv_name":"Uncletopia | New York City | 1 | All Maps | STV","players":[{"user_id":71,"name":"Allegory for Us","steam_id":76561198158563931,"connected_time":154000000000,"state":"active","ping":72},{"user_id":20,"name":"Berb","steam_id":76561198193911899,"connected_time":2960000000000,"state":"active","ping":86},{"user_id":18,"name":"Markus Velafi","steam_id":76561198063193924,"connected_time":3266000000000,"state":"active","ping":63},{"user_id":67,"name":"Animal Facts (Leaves)","steam_id":76561198125084613,"connected_time":355000000000,"state":"active","ping":140},{"user_id":42,"name":"Duncan Idaho","steam_id":76561197988963861,"connected_time":2208000000000,"state":"active","ping":51},{"user_id":47,"name":"Sprucelass","steam_id":76561197998391724,"connected_time":1750000000000,"state":"active","ping":60},{"user_id":51,"name":"wool","steam_id":76561198869689933,"connected_time":1590000000000,"state":"active","ping":50},{"user_id":24,"name":"Hitlinemoss","steam_id":76561198155435669,"connected_time":2689000000000,"state":"active","ping":55},{"user_id":27,"name":"keffers","steam_id":76561198202338796,"connected_time":2596000000000,"state":"active","ping":91},{"user_id":68,"name":"Solid 16","steam_id":76561198956823243,"connected_time":337000000000,"state":"active","ping":58},{"user_id":62,"name":"Nathan Yeet","steam_id":76561198883966591,"connected_time":941000000000,"state":"active","ping":69},{"user_id":30,"name":"SalsaDaddy","steam_id":76561198358869108,"connected_time":2554000000000,"state":"active","ping":76},{"user_id":65,"name":"XtraCrums","steam_id":76561199230212648,"connected_time":444000000000,"state":"active","ping":62},{"user_id":58,"name":"JimmyJimbo","steam_id":76561198304818267,"connected_time":1101000000000,"state":"active","ping":89},{"user_id":70,"name":"Search117","steam_id":76561198021696780,"connected_time":195000000000,"state":"active","ping":113},{"user_id":52,"name":"frederick","steam_id":76561198037746805,"connected_time":1388000000000,"state":"active","ping":59},{"user_id":60,"name":"ambatukam","steam_id":76561198981135699,"connected_time":1030000000000,"state":"active","ping":110},{"user_id":72,"name":"✧.*Remzy✧.*","steam_id":76561199239412094,"connected_time":122000000000,"state":"active","ping":141},{"user_id":41,"name":"Pydro","steam_id":76561197995995820,"connected_time":2244000000000,"state":"active","ping":77},{"user_id":53,"name":"Virg","steam_id":76561198397721937,"connected_time":1353000000000,"state":"active","ping":84},{"user_id":66,"name":"ThatGamingKiwi","steam_id":76561199170522237,"connected_time":427000000000,"state":"active","ping":79},{"user_id":75,"name":"Shady Kitty (She/Her)","steam_id":76561198056312200,"connected_time":8000000000,"state":"spawning","ping":45},{"user_id":45,"name":"Renegaiden","steam_id":76561198060179109,"connected_time":2156000000000,"state":"active","ping":83},{"user_id":74,"name":"cavae","steam_id":76561199092677510,"connected_time":49000000000,"state":"active","ping":75}]},{"server_id":14,"name":"Uncletopia | New York City | 2 | All Maps","name_short":"nyc-2","host":"nyc-1.us.uncletopia.com","port":27025,"enabled":true,"region":"us-east","cc":"us","latitude":40.73061,"longitude":-73.93524,"reserved":0,"last_update":"0001-01-01T00:00:00Z","name_a2s":"Uncletopia | New York City | 2 | All Maps","protocol":17,"map":"cp_gorge","folder":"tf","game":"Team Fortress","app_id":440,"player_count":0,"max_players":24,"Bots":0,"server_type":"Dedicated","server_os":"Linux","password":true,"vac":true,"version":"7961495","steam_id":85568392924469994,"keywords":["cp","nocrits","nodmgspread","uncletopia"],"game_id":440,"stv_port":27026,"stv_name":"Uncletopia | New York City | 2 | All Maps | STV","players":null},{"server_id":15,"name":"Uncletopia | New York City | 3 | Stopwatch","name_short":"nyc-3","host":"nyc-1.us.uncletopia.com","port":27035,"enabled":true,"region":"us-east","cc":"us","latitude":40.73061,"longitude":-73.93524,"reserved":0,"last_update":"0001-01-01T00:00:00Z","name_a2s":"Uncletopia | New York City | 3 | Stopwatch","protocol":17,"map":"workshop/koth_bagel_rc6.ugc2514036946","folder":"tf","game":"Team Fortress","app_id":440,"player_count":0,"max_players":24,"Bots":0,"server_type":"Dedicated","server_os":"Linux","password":true,"vac":true,"version":"7961495","steam_id":85568392924742820,"keywords":["cp","nocrits","nodmgspread","uncletopia"],"game_id":440,"stv_port":27036,"stv_name":"Uncletopia | New York City | 3 | Stopwatch | STV","players":null},{"server_id":16,"name":"Uncletopia | New York City | 4 | Community","name_short":"nyc-4","host":"nyc-1.us.uncletopia.com","port":27045,"enabled":true,"region":"us-east","cc":"us","latitude":40.73061,"longitude":-73.93524,"reserved":0,"last_update":"0001-01-01T00:00:00Z","name_a2s":"Uncletopia | New York City | 4 | Community","protocol":17,"map":"workshop/cp_reckoner_rc6.ugc674719999","folder":"tf","game":"Team Fortress","app_id":440,"player_count":0,"max_players":24,"Bots":0,"server_type":"Dedicated","server_os":"Linux","password":true,"vac":true,"version":"7961495","steam_id":85568392924742821,"keywords":["cp","nocrits","nodmgspread","uncletopia"],"game_id":440,"stv_port":27046,"stv_name":"Uncletopia | New York City | 4 | Community | STV","players":null},{"server_id":142,"name":"Uncletopia | São Paulo | 1 | All Maps","name_short":"sao-1","host":"sao-1.br.uncletopia.com","port":27015,"enabled":true,"region":"sa","cc":"br","latitude":-23.533773,"longitude":-46.62529,"reserved":0,"last_update":"0001-01-01T00:00:00Z","name_a2s":"Uncletopia | São Paulo | 1 | All Maps","protocol":17,"map":"cp_mountainlab","folder":"tf","game":"Team Fortress","app_id":440,"player_count":0,"max_players":24,"Bots":0,"server_type":"Dedicated","server_os":"Linux","password":true,"vac":true,"version":"7961495","steam_id":85568392924469996,"keywords":["cp","nocrits","nodmgspread","uncletopia"],"game_id":440,"stv_port":27016,"stv_name":"Uncletopia | São Paulo | 1 | All Maps | STV","players":null},{"server_id":143,"name":"Uncletopia | São Paulo | 2 | Community","name_short":"sao-2","host":"sao-2.br.uncletopia.com","port":27015,"enabled":true,"region":"sa","cc":"br","latitude":-23.533773,"longitude":-46.62529,"reserved":0,"last_update":"0001-01-01T00:00:00Z","name_a2s":"Uncletopia | São Paulo | 2 | Community","protocol":17,"map":"workshop/koth_slaughter_rc1.ugc1712845210","folder":"tf","game":"Team Fortress","app_id":440,"player_count":0,"max_players":24,"Bots":0,"server_type":"Dedicated","server_os":"Linux","password":true,"vac":true,"version":"7961495","steam_id":85568392924485349,"keywords":["cp","nocrits","nodmgspread","uncletopia"],"game_id":440,"stv_port":27016,"stv_name":"Uncletopia | São Paulo | 2 | Community | STV","players":null},{"server_id":7,"name":"Uncletopia | Seattle | 1 | All Maps","name_short":"sea-1","host":"sea-1.us.uncletopia.com","port":27015,"enabled":true,"region":"us-west","cc":"us","latitude":47.608013,"longitude":-122.33517,"reserved":0,"last_update":"0001-01-01T00:00:00Z","name_a2s":"Uncletopia | Seattle | 1 | All Maps","protocol":17,"map":"koth_king","folder":"tf","game":"Team Fortress","app_id":440,"player_count":23,"max_players":24,"Bots":0,"server_type":"Dedicated","server_os":"Linux","password":true,"vac":true,"version":"7961495","steam_id":85568392924469997,"keywords":["cp","nocrits","nodmgspread","uncletopia"],"game_id":440,"stv_port":27016,"stv_name":"Uncletopia | Seattle | 1 | All Maps | STV","players":[{"user_id":211,"name":"goofy goober","steam_id":76561199024079388,"connected_time":1341000000000,"state":"active","ping":41},{"user_id":228,"name":"Hazel :3","steam_id":76561199247095754,"connected_time":107000000000,"state":"active","ping":73},{"user_id":220,"name":"Ori0n","steam_id":76561198333858062,"connected_time":378000000000,"state":"active","ping":106},{"user_id":187,"name":"motimhill","steam_id":76561198849982896,"connected_time":4205000000000,"state":"active","ping":142},{"user_id":147,"name":"Late Night Vaporwave","steam_id":76561198090419068,"connected_time":7035000000000,"state":"active","ping":65},{"user_id":199,"name":"DaddyGalaxy","steam_id":76561198139697796,"connected_time":2939000000000,"state":"active","ping":55},{"user_id":188,"name":"Meh","steam_id":76561198078187920,"connected_time":4189000000000,"state":"active","ping":131},{"user_id":215,"name":"zinnk","steam_id":76561198092081825,"connected_time":692000000000,"state":"active","ping":50},{"user_id":221,"name":"lorient","steam_id":76561198150831438,"connected_time":289000000000,"state":"active","ping":76},{"user_id":212,"name":"James","steam_id":76561198098325427,"connected_time":1299000000000,"state":"active","ping":75},{"user_id":229,"name":"Peppy","steam_id":76561198866629645,"connected_time":79000000000,"state":"active","ping":59},{"user_id":217,"name":"Incoming","steam_id":76561199062581310,"connected_time":658000000000,"state":"active","ping":98},{"user_id":222,"name":"Brain Magic","steam_id":76561198010201477,"connected_time":286000000000,"state":"active","ping":84},{"user_id":219,"name":"pluto","steam_id":76561198354990729,"connected_time":596000000000,"state":"active","ping":122},{"user_id":203,"name":"Daddy Topps","steam_id":76561198203594332,"connected_time":2665000000000,"state":"active","ping":32},{"user_id":179,"name":"BallisticAutistic1984","steam_id":76561198931301674,"connected_time":4441000000000,"state":"active","ping":113},{"user_id":223,"name":"ItsAChadKing","steam_id":76561199499464350,"connected_time":283000000000,"state":"active","ping":83},{"user_id":175,"name":"Nostic","steam_id":76561199508767541,"connected_time":5295000000000,"state":"active","ping":62},{"user_id":192,"name":"Yummy Kabobz","steam_id":76561198067661705,"connected_time":4096000000000,"state":"active","ping":114},{"user_id":193,"name":"라니","steam_id":76561198399201495,"connected_time":4090000000000,"state":"active","ping":115},{"user_id":227,"name":"TOTALLY HARDCORE","steam_id":76561198842311643,"connected_time":127000000000,"state":"active","ping":90},{"user_id":226,"name":"KhaosKomputer","steam_id":76561199353970793,"connected_time":138000000000,"state":"active","ping":86},{"user_id":162,"name":"t","steam_id":76561198203079416,"connected_time":5838000000000,"state":"active","ping":36}]},{"server_id":119,"name":"Uncletopia | Seattle | 2 | All Maps","name_short":"sea-2","host":"sea-1.us.uncletopia.com","port":27025,"enabled":true,"region":"us-west","cc":"us","latitude":47.608013,"longitude":-122.33517,"reserved":0,"last_update":"0001-01-01T00:00:00Z","name_a2s":"Uncletopia | Seattle | 2 | All Maps","protocol":17,"map":"cp_mountainlab","folder":"tf","game":"Team Fortress","app_id":440,"player_count":0,"max_players":24,"Bots":0,"server_type":"Dedicated","server_os":"Linux","password":true,"vac":true,"version":"7961495","steam_id":85568392924469998,"keywords":["cp","nocrits","nodmgspread","uncletopia"],"game_id":440,"stv_port":27026,"stv_name":"Uncletopia | Seattle | 2 | All Maps | STV","players":null},{"server_id":406,"name":"Uncletopia | Seattle | 3 | Stopwatch","name_short":"sea-3","host":"sea-1.us.uncletopia.com","port":27035,"enabled":true,"region":"us-west","cc":"us","latitude":47.608013,"longitude":-122.33517,"reserved":0,"last_update":"0001-01-01T00:00:00Z","name_a2s":"Uncletopia | Seattle | 3 | Stopwatch","protocol":17,"map":"cp_gullywash_final1","folder":"tf","game":"Team Fortress","app_id":440,"player_count":0,"max_players":24,"Bots":0,"server_type":"Dedicated","server_os":"Linux","password":true,"vac":true,"version":"7961495","steam_id":85568392924515217,"keywords":["cp","nocrits","nodmgspread","uncletopia"],"game_id":440,"stv_port":27036,"stv_name":"Uncletopia | Seattle | 3 | Stopwatch | STV","players":null},{"server_id":17,"name":"Uncletopia | San Francisco | 1 | All Maps","name_short":"sfo-1","host":"sfo-1.us.uncletopia.com","port":27015,"enabled":true,"region":"us-west","cc":"us","latitude":37.77397,"longitude":-122.4313,"reserved":0,"last_update":"0001-01-01T00:00:00Z","name_a2s":"Uncletopia | San Francisco | 1 | All Maps","protocol":17,"map":"cp_gullywash_final1","folder":"tf","game":"Team Fortress","app_id":440,"player_count":0,"max_players":24,"Bots":0,"server_type":"Dedicated","server_os":"Linux","password":true,"vac":true,"version":"7961495","steam_id":85568392924469999,"keywords":["cp","nocrits","nodmgspread","uncletopia"],"game_id":440,"stv_port":27016,"stv_name":"Uncletopia | San Francisco | 1 | All Maps | STV","players":null},{"server_id":18,"name":"Uncletopia | San Francisco | 2 | All Maps","name_short":"sfo-2","host":"sfo-1.us.uncletopia.com","port":27025,"enabled":true,"region":"us-west","cc":"us","latitude":37.77397,"longitude":-122.4313,"reserved":0,"last_update":"0001-01-01T00:00:00Z","name_a2s":"Uncletopia | San Francisco | 2 | All Maps","protocol":17,"map":"cp_sunshine","folder":"tf","game":"Team Fortress","app_id":440,"player_count":0,"max_players":24,"Bots":0,"server_type":"Dedicated","server_os":"Linux","password":true,"vac":true,"version":"7961495","steam_id":85568392924470000,"keywords":["cp","nocrits","nodmgspread","uncletopia"],"game_id":440,"stv_port":27026,"stv_name":"Uncletopia | San Francisco | 2 | All Maps | STV","players":null},{"server_id":19,"name":"Uncletopia | San Francisco | 3 | Stopwatch","name_short":"sfo-3","host":"sfo-1.us.uncletopia.com","port":27035,"enabled":true,"region":"us-west","cc":"us","latitude":37.77397,"longitude":-122.4313,"reserved":0,"last_update":"0001-01-01T00:00:00Z","name_a2s":"Uncletopia | San Francisco | 3 | Stopwatch","protocol":17,"map":"workshop/koth_clearcut_b15.ugc2107050255","folder":"tf","game":"Team Fortress","app_id":440,"player_count":0,"max_players":24,"Bots":0,"server_type":"Dedicated","server_os":"Linux","password":true,"vac":true,"version":"7961495","steam_id":85568392924742824,"keywords":["cp","nocrits","nodmgspread","uncletopia"],"game_id":440,"stv_port":27036,"stv_name":"Uncletopia | San Francisco | 3 | Stopwatch | STV","players":null},{"server_id":20,"name":"Uncletopia | San Francisco | 4 | Community","name_short":"sfo-4","host":"sfo-1.us.uncletopia.com","port":27045,"enabled":true,"region":"us-west","cc":"us","latitude":37.77397,"longitude":-122.4313,"reserved":0,"last_update":"0001-01-01T00:00:00Z","name_a2s":"Uncletopia | San Francisco | 4 | Community","protocol":17,"map":"workshop/cp_reckoner_rc6.ugc674719999","folder":"tf","game":"Team Fortress","app_id":440,"player_count":0,"max_players":24,"Bots":0,"server_type":"Dedicated","server_os":"Linux","password":true,"vac":true,"version":"7961495","steam_id":85568392924742826,"keywords":["cp","nocrits","nodmgspread","uncletopia"],"game_id":440,"stv_port":27046,"stv_name":"Uncletopia | San Francisco | 4 | Community | STV","players":null},{"server_id":141,"name":"Uncletopia | Sydney | 1 | All Maps","name_short":"syd-1","host":"syd-1.au.uncletopia.com","port":27015,"enabled":true,"region":"au","cc":"au","latitude":-33.865143,"longitude":151.2099,"reserved":0,"last_update":"0001-01-01T00:00:00Z","name_a2s":"Uncletopia | Sydney | 1 | All Maps","protocol":17,"map":"cp_dustbowl","folder":"tf","game":"Team Fortress","app_id":440,"player_count":0,"max_players":24,"Bots":0,"server_type":"Dedicated","server_os":"Linux","password":true,"vac":true,"version":"7961495","steam_id":85568392924470001,"keywords":["cp","nocrits","nodmgspread","uncletopia"],"game_id":440,"stv_port":27016,"stv_name":"Uncletopia | Sydney | 1 | All Maps | STV","players":null},{"server_id":123,"name":"Uncletopia | Sydney | 2 | All Maps","name_short":"syd-2","host":"syd-1.au.uncletopia.com","port":27025,"enabled":true,"region":"au","cc":"au","latitude":-33.865143,"longitude":151.2099,"reserved":0,"last_update":"0001-01-01T00:00:00Z","name_a2s":"Uncletopia | Sydney | 2 | All Maps","protocol":17,"map":"koth_highpass","folder":"tf","game":"Team Fortress","app_id":440,"player_count":0,"max_players":24,"Bots":0,"server_type":"Dedicated","server_os":"Linux","password":true,"vac":true,"version":"7961495","steam_id":85568392924470002,"keywords":["cp","nocrits","nodmgspread","uncletopia"],"game_id":440,"stv_port":27026,"stv_name":"Uncletopia | Sydney | 2 | All Maps | STV","players":null},{"server_id":395,"name":"Uncletopia | Sydney | 3 | All Maps","name_short":"syd-3","host":"syd-1.au.uncletopia.com","port":27035,"enabled":true,"region":"au","cc":"au","latitude":-33.865143,"longitude":151.2099,"reserved":0,"last_update":"0001-01-01T00:00:00Z","name_a2s":"Uncletopia | Sydney | 3 | All Maps","protocol":17,"map":"cp_process_final","folder":"tf","game":"Team Fortress","app_id":440,"player_count":0,"max_players":24,"Bots":0,"server_type":"Dedicated","server_os":"Linux","password":true,"vac":true,"version":"7961495","steam_id":85568392925194467,"keywords":["cp","nocrits","nodmgspread","uncletopia"],"game_id":440,"stv_port":27036,"stv_name":"Uncletopia | Sydney | 3 | All Maps | STV","players":null},{"server_id":396,"name":"Uncletopia | Sydney | 4 | All Maps","name_short":"syd-4","host":"syd-1.au.uncletopia.com","port":27045,"enabled":true,"region":"au","cc":"au","latitude":-33.865143,"longitude":151.2099,"reserved":0,"last_update":"0001-01-01T00:00:00Z","name_a2s":"Uncletopia | Sydney | 4 | All Maps","protocol":17,"map":"plr_bananabay","folder":"tf","game":"Team Fortress","app_id":440,"player_count":0,"max_players":24,"Bots":0,"server_type":"Dedicated","server_os":"Linux","password":true,"vac":true,"version":"7961495","steam_id":85568392925397958,"keywords":["nocrits","nodmgspread","payload","uncletopia"],"game_id":440,"stv_port":27046,"stv_name":"Uncletopia | Sydney | 4 | All Maps | STV","players":null},{"server_id":58,"name":"Uncletopia | Sydney | 5 | Stopwatch","name_short":"syd-5","host":"syd-1.au.uncletopia.com","port":27055,"enabled":true,"region":"au","cc":"au","latitude":-33.865143,"longitude":151.2099,"reserved":0,"last_update":"0001-01-01T00:00:00Z","name_a2s":"Uncletopia | Sydney | 5 | Stopwatch","protocol":17,"map":"workshop/pl_barnblitz_pro7.ugc582280235","folder":"tf","game":"Team Fortress","app_id":440,"player_count":0,"max_players":24,"Bots":0,"server_type":"Dedicated","server_os":"Linux","password":true,"vac":true,"version":"7961495","steam_id":85568392925397959,"keywords":["nocrits","nodmgspread","payload","uncletopia"],"game_id":440,"stv_port":27056,"stv_name":"Uncletopia | Sydney | 5 | Stopwatch | STV","players":null},{"server_id":59,"name":"Uncletopia | Sydney | 6 | Community","name_short":"syd-6","host":"syd-1.au.uncletopia.com","port":27065,"enabled":true,"region":"au","cc":"au","latitude":-33.865143,"longitude":151.2099,"reserved":0,"last_update":"0001-01-01T00:00:00Z","name_a2s":"Uncletopia | Sydney | 6 | Community","protocol":17,"map":"workshop/koth_soot_final1.ugc2969540689","folder":"tf","game":"Team Fortress","app_id":440,"player_count":0,"max_players":24,"Bots":0,"server_type":"Dedicated","server_os":"Linux","password":true,"vac":true,"version":"7961495","steam_id":85568392925397960,"keywords":["cp","nocrits","nodmgspread","uncletopia"],"game_id":440,"stv_port":27066,"stv_name":"Uncletopia | Sydney | 6 | Community | STV","players":null},{"server_id":49,"name":"Uncletopia | Warsaw | 1 | One Thousand Uncles","name_short":"waw-1","host":"waw-1.pl.uncletopia.com","port":27015,"enabled":true,"region":"eu","cc":"pl","latitude":52.2297,"longitude":21.017532,"reserved":0,"last_update":"0001-01-01T00:00:00Z","name_a2s":"Uncletopia | Warsaw | 1 | One Thousand Uncles","protocol":17,"map":"cp_egypt_final","folder":"tf","game":"Team Fortress","app_id":440,"player_count":28,"max_players":32,"Bots":20,"server_type":"Dedicated","server_os":"Linux","password":true,"vac":true,"version":"7961495","steam_id":85568392925397850,"keywords":["alltalk","bots","cp","danepve","increased_maxplayers","norespawntime","uncletopia"],"game_id":440,"stv_port":0,"stv_name":"","players":[{"user_id":2,"name":"[HK]我係香港人","steam_id":76561198165376815,"connected_time":3530000000000,"state":"active","ping":108},{"user_id":3,"name":"The Fire Pyro","steam_id":76561198300296457,"connected_time":3525000000000,"state":"active","ping":78},{"user_id":53,"name":"curian","steam_id":76561198040863263,"connected_time":630000000000,"state":"active","ping":124},{"user_id":45,"name":"egzior","steam_id":76561198363608921,"connected_time":1867000000000,"state":"active","ping":48},{"user_id":50,"name":"xanderomeister","steam_id":76561198882550389,"connected_time":877000000000,"state":"active","ping":71},{"user_id":47,"name":"Lowtidey","steam_id":76561198994887486,"connected_time":1687000000000,"state":"active","ping":128},{"user_id":54,"name":"Whät","steam_id":76561197999285844,"connected_time":328000000000,"state":"active","ping":92},{"user_id":42,"name":"Limner.exe","steam_id":76561199200274345,"connected_time":2234000000000,"state":"active","ping":182}]},{"server_id":50,"name":"Uncletopia | Warsaw | 2 | One Thousand Uncles","name_short":"waw-2","host":"waw-1.pl.uncletopia.com","port":27025,"enabled":true,"region":"eu","cc":"pl","latitude":52.2297,"longitude":21.017532,"reserved":0,"last_update":"0001-01-01T00:00:00Z","name_a2s":"Uncletopia | Warsaw | 2 | One Thousand Uncles","protocol":17,"map":"pl_barnblitz","folder":"tf","game":"Team Fortress","app_id":440,"player_count":30,"max_players":32,"Bots":20,"server_type":"Dedicated","server_os":"Linux","password":true,"vac":true,"version":"7961495","steam_id":85568392925397851,"keywords":["alltalk","bots","danepve","increased_maxplayers","norespawntime","payload","uncletopia"],"game_id":440,"stv_port":0,"stv_name":"","players":[{"user_id":325,"name":"Eradical","steam_id":76561199035578645,"connected_time":836000000000,"state":"active","ping":122},{"user_id":327,"name":"Hotdogs","steam_id":76561199112737347,"connected_time":234000000000,"state":"active","ping":126},{"user_id":264,"name":"sad bruh","steam_id":76561198150640861,"connected_time":4833000000000,"state":"active","ping":160},{"user_id":294,"name":"adv6","steam_id":76561198029789989,"connected_time":2740000000000,"state":"active","ping":78},{"user_id":259,"name":"momo","steam_id":76561198132750021,"connected_time":6568000000000,"state":"active","ping":68},{"user_id":326,"name":"lungdung","steam_id":76561199041919130,"connected_time":803000000000,"state":"active","ping":180},{"user_id":328,"name":"Sir Crust","steam_id":76561199122077146,"connected_time":234000000000,"state":"active","ping":84},{"user_id":270,"name":"dank pank","steam_id":76561198995052713,"connected_time":4035000000000,"state":"active","ping":51},{"user_id":329,"name":"Gustavo Fring","steam_id":76561199210435347,"connected_time":194000000000,"state":"active","ping":72},{"user_id":301,"name":"lelaki berkulit hitam besar","steam_id":76561199084680369,"connected_time":1441000000000,"state":"active","ping":35}]},{"server_id":51,"name":"Uncletopia | Warsaw | 3 | All Maps","name_short":"waw-3","host":"waw-1.pl.uncletopia.com","port":27035,"enabled":true,"region":"eu","cc":"pl","latitude":52.2297,"longitude":21.017532,"reserved":0,"last_update":"0001-01-01T00:00:00Z","name_a2s":"Uncletopia | Warsaw | 3 | All Maps","protocol":17,"map":"koth_viaduct","folder":"tf","game":"Team Fortress","app_id":440,"player_count":0,"max_players":24,"Bots":0,"server_type":"Dedicated","server_os":"Linux","password":true,"vac":true,"version":"7961495","steam_id":85568392925397852,"keywords":["cp","nocrits","nodmgspread","uncletopia"],"game_id":440,"stv_port":27036,"stv_name":"Uncletopia | Warsaw | 3 | All Maps | STV","players":null},{"server_id":52,"name":"Uncletopia | Warsaw | 4 | All Maps","name_short":"waw-4","host":"waw-1.pl.uncletopia.com","port":27045,"enabled":true,"region":"eu","cc":"pl","latitude":52.2297,"longitude":21.017532,"reserved":0,"last_update":"0001-01-01T00:00:00Z","name_a2s":"Uncletopia | Warsaw | 4 | All Maps","protocol":17,"map":"pl_borneo","folder":"tf","game":"Team Fortress","app_id":440,"player_count":23,"max_players":24,"Bots":0,"server_type":"Dedicated","server_os":"Linux","password":true,"vac":true,"version":"7961495","steam_id":85568392925397853,"keywords":["nocrits","nodmgspread","payload","uncletopia"],"game_id":440,"stv_port":27046,"stv_name":"Uncletopia | Warsaw | 4 | All Maps | STV","players":[{"user_id":84,"name":"pixelNERD","steam_id":76561198983633598,"connected_time":4896000000000,"state":"active","ping":63},{"user_id":116,"name":"soney","steam_id":76561198121177512,"connected_time":2879000000000,"state":"active","ping":78},{"user_id":158,"name":"typicalcrimson","steam_id":76561198295439747,"connected_time":231000000000,"state":"active","ping":58},{"user_id":124,"name":"Sad!","steam_id":76561198057537774,"connected_time":2357000000000,"state":"active","ping":87},{"user_id":153,"name":"xiiski","steam_id":76561198152387747,"connected_time":866000000000,"state":"active","ping":115},{"user_id":85,"name":"KaZiJa","steam_id":76561199084320808,"connected_time":4884000000000,"state":"active","ping":66},{"user_id":138,"name":"greggs #1 customer","steam_id":76561198046873337,"connected_time":2028000000000,"state":"active","ping":82},{"user_id":129,"name":"Dirtier Harry","steam_id":76561198134378108,"connected_time":2225000000000,"state":"active","ping":99},{"user_id":155,"name":"The Empire Ant","steam_id":76561198082466790,"connected_time":482000000000,"state":"active","ping":64},{"user_id":76,"name":"Reimu","steam_id":76561198101532240,"connected_time":5346000000000,"state":"active","ping":89},{"user_id":112,"name":"shlongy bongy","steam_id":76561198015876799,"connected_time":3163000000000,"state":"active","ping":42},{"user_id":126,"name":"Virgil","steam_id":76561198248786778,"connected_time":2268000000000,"state":"active","ping":134},{"user_id":147,"name":"herbal tea","steam_id":76561197980736364,"connected_time":1775000000000,"state":"active","ping":98},{"user_id":144,"name":"Zatusrex","steam_id":76561198104147805,"connected_time":1833000000000,"state":"active","ping":94},{"user_id":152,"name":"Big Mean Muther Hubbard","steam_id":76561199223016965,"connected_time":1488000000000,"state":"active","ping":81},{"user_id":100,"name":"mob","steam_id":76561198099696876,"connected_time":3859000000000,"state":"active","ping":83},{"user_id":132,"name":"GRRRR BARK BARK WOOF WOOF :3","steam_id":76561198010662796,"connected_time":2165000000000,"state":"active","ping":77},{"user_id":148,"name":"im practicing airshots","steam_id":76561198388318978,"connected_time":1719000000000,"state":"active","ping":84},{"user_id":154,"name":"GogsCrunchyNuts","steam_id":76561198150599213,"connected_time":518000000000,"state":"active","ping":152},{"user_id":151,"name":"Yodawg","steam_id":76561198261933946,"connected_time":1588000000000,"state":"active","ping":71},{"user_id":106,"name":"popeyes employee of the month","steam_id":76561198076219289,"connected_time":3812000000000,"state":"active","ping":66},{"user_id":150,"name":"tha","steam_id":76561198962375901,"connected_time":1684000000000,"state":"active","ping":143},{"user_id":142,"name":"vaditel'","steam_id":76561198828327628,"connected_time":1937000000000,"state":"active","ping":151}]},{"server_id":53,"name":"Uncletopia | Warsaw | 5 | Stopwatch","name_short":"waw-5","host":"waw-1.pl.uncletopia.com","port":27055,"enabled":true,"region":"eu","cc":"pl","latitude":52.2297,"longitude":21.017532,"reserved":0,"last_update":"0001-01-01T00:00:00Z","name_a2s":"Uncletopia | Warsaw | 5 | Stopwatch","protocol":17,"map":"koth_lakeside_final","folder":"tf","game":"Team Fortress","app_id":440,"player_count":0,"max_players":24,"Bots":0,"server_type":"Dedicated","server_os":"Linux","password":true,"vac":true,"version":"7961495","steam_id":85568392925397854,"keywords":["cp","nocrits","nodmgspread","uncletopia"],"game_id":440,"stv_port":27056,"stv_name":"Uncletopia | Warsaw | 5 | Stopwatch | STV","players":null},{"server_id":54,"name":"Uncletopia | Warsaw | 6 | Community","name_short":"waw-6","host":"waw-1.pl.uncletopia.com","port":27065,"enabled":true,"region":"eu","cc":"pl","latitude":52.2297,"longitude":21.017532,"reserved":0,"last_update":"0001-01-01T00:00:00Z","name_a2s":"Uncletopia | Warsaw | 6 | Community","protocol":17,"map":"workshop/pl_highwood_b19.ugc1769496557","folder":"tf","game":"Team Fortress","app_id":440,"player_count":0,"max_players":24,"Bots":0,"server_type":"Dedicated","server_os":"Linux","password":true,"vac":true,"version":"7961495","steam_id":85568392925397856,"keywords":["nocrits","nodmgspread","payload","uncletopia"],"game_id":440,"stv_port":27066,"stv_name":"Uncletopia | Warsaw | 6 | Community | STV","players":null}]}