{"status":true,"message":"","result":[{"server_id":9,"name":"Uncletopia | Atlanta | 1 | All Maps","name_short":"atl-1","host":"atl-1.us.uncletopia.com","port":27015,"enabled":true,"region":"us-east","cc":"us","latitude":33.753746,"longitude":-84.38633,"reserved":0,"last_update":"0001-01-01T00:00:00Z","name_a2s":"Uncletopia | Atlanta | 1 | All Maps","protocol":17,"map":"cp_sunshine","folder":"tf","game":"Team Fortress","app_id":440,"player_count":20,"max_players":24,"Bots":0,"server_type":"Dedicated","server_os":"Linux","password":true,"vac":true,"version":"7757534","steam_id":85568392924469982,"keywords":["cp","nocrits","nodmgspread","uncletopia"],"game_id":440,"stv_port":27016,"stv_name":"Uncletopia | Atlanta | 1 | All Maps | STV","players":[{"user_id":25,"name":"the-willy12","steam_id":76561199145029672,"connected_time":4492000000000,"state":"active","ping":85},{"user_id":26,"name":"abomination","steam_id":76561198167974713,"connected_time":4413000000000,"state":"active","ping":45},{"user_id":100,"name":"Portal2Player","steam_id":76561198062870114,"connected_time":66000000000,"state":"active","ping":70},{"user_id":86,"name":"Mazdamundi!","steam_id":76561198044691081,"connected_time":1063000000000,"state":"active","ping":33},{"user_id":93,"name":"skoops","steam_id":76561198083276946,"connected_time":731000000000,"state":"active","ping":60},{"user_id":33,"name":"So Hygienic! Washed gamer","steam_id":76561198321627268,"connected_time":3443000000000,"state":"active","ping":103},{"user_id":38,"name":"LORD MC CHUBS","steam_id":76561199396661854,"connected_time":2825000000000,"state":"active","ping":112},{"user_id":47,"name":"help me (im not good at engie)","steam_id":76561199197244143,"connected_time":2569000000000,"state":"active","ping":63},{"user_id":87,"name":"Kronk From Emperor's New Groove","steam_id":76561198054902110,"connected_time":1057000000000,"state":"active","ping":68},{"user_id":92,"name":"Cerabond","steam_id":76561199230915333,"connected_time":837000000000,"state":"active","ping":74},{"user_id":42,"name":"NUTPOLISHER","steam_id":76561199067799853,"connected_time":2726000000000,"state":"active","ping":54},{"user_id":90,"name":"BudTuggly","steam_id":76561198026873580,"connected_time":863000000000,"state":"active","ping":63},{"user_id":44,"name":"geoff","steam_id":76561198038448355,"connected_time":2670000000000,"state":"active","ping":60},{"user_id":95,"name":"ThatGamingKiwi","steam_id":76561199170522237,"connected_time":493000000000,"state":"active","ping":88},{"user_id":48,"name":"exclusively defensive shut-in","steam_id":76561199013337543,"connected_time":2555000000000,"state":"active","ping":45},{"user_id":82,"name":"yuuko","steam_id":76561198097711389,"connected_time":1306000000000,"state":"active","ping":91},{"user_id":99,"name":"xveb","steam_id":76561198286179200,"connected_time":197000000000,"state":"active","ping":89},{"user_id":98,"name":"miffed pocky","steam_id":76561198380244743,"connected_time":350000000000,"state":"active","ping":43},{"user_id":97,"name":"a","steam_id":76561198131245396,"connected_time":406000000000,"state":"active","ping":66},{"user_id":55,"name":"Your Benefactor","steam_id":76561198273275624,"connected_time":2429000000000,"state":"active","ping":74}]},{"server_id":104,"name":"Uncletopia | Atlanta | 2 | All Maps","name_short":"atl-2","host":"atl-1.us.uncletopia.com","port":27025,"enabled":true,"region":"us-east","cc":"us","latitude":33.753746,"longitude":-84.38633,"reserved":0,"last_update":"0001-01-01T00:00:00Z","name_a2s":"Uncletopia | Atlanta | 2 | All Maps","protocol":17,"map":"koth_cascade","folder":"tf","game":"Team Fortress","app_id":440,"player_count":0,"max_players":24,"Bots":0,"server_type":"Dedicated","server_os":"Linux","password":true,"vac":true,"version":"7757534","steam_id":85568392924469983,"keywords":["cp","nocrits","nodmgspread","uncletopia"],"game_id":440,"stv_port":27026,"stv_name":"Uncletopia | Atlanta | 2 | All Maps | STV","players":null},{"server_id":400,"name":"Uncletopia | Atlanta | 3 | Community","name_short":"atl-3","host":"atl-1.us.uncletopia.com","port":27035,"enabled":true,"region":"us-east","cc":"us","latitude":33.753746,"longitude":-84.38633,"reserved":0,"last_update":"0001-01-01T00:00:00Z","name_a2s":"Uncletopia | Atlanta | 3 | Community","protocol":17,"map":"workshop/cp_sulfur_rc2.ugc619869471","folder":"tf","game":"Team Fortress","app_id":440,"player_count":0,"max_players":24,"Bots":0,"server_type":"Dedicated","server_os":"Linux","password":true,"vac":true,"version":"7757534","steam_id":85568392924515187,"keywords":["cp","nocrits","nodmgspread","uncletopia"],"game_id":440,"stv_port":27036,"stv_name":"Uncletopia | Atlanta | 3 | Community | STV","players":null},{"server_id":401,"name":"Uncletopia | Atlanta | 4 | No Payload","name_short":"atl-4","host":"atl-1.us.uncletopia.com","port":27045,"enabled":true,"region":"us-east","cc":"us","latitude":33.753746,"longitude":-84.38633,"reserved":0,"last_update":"0001-01-01T00:00:00Z","name_a2s":"","protocol":0,"map":"","folder":"","game":"","app_id":0,"player_count":0,"max_players":0,"Bots":0,"server_type":"","server_os":"","password":false,"vac":false,"version":"","steam_id":0,"keywords":null,"game_id":0,"stv_port":0,"stv_name":"","players":null},{"server_id":2,"name":"Uncletopia | Chicago | 1 | All Maps","name_short":"chi-1","host":"chi-1.us.uncletopia.com","port":27015,"enabled":true,"region":"us-central","cc":"us","latitude":41.881832,"longitude":-87.62318,"reserved":0,"last_update":"0001-01-01T00:00:00Z","name_a2s":"Uncletopia | Chicago | 1 | All Maps","protocol":17,"map":"pl_pier","folder":"tf","game":"Team Fortress","app_id":440,"player_count":23,"max_players":24,"Bots":0,"server_type":"Dedicated","server_os":"Linux","password":true,"vac":true,"version":"7757534","steam_id":85568392924469984,"keywords":["nocrits","nodmgspread","payload","uncletopia"],"game_id":440,"stv_port":27016,"stv_name":"Uncletopia | Chicago | 1 | All Maps | STV","players":[{"user_id":3,"name":"alN","steam_id":76561198329171346,"connected_time":12614000000000,"state":"active","ping":46},{"user_id":153,"name":"boomboom","steam_id":76561199041878803,"connected_time":720000000000,"state":"active","ping":72},{"user_id":143,"name":"The Silkyest of Boys","steam_id":76561198320921269,"connected_time":1787000000000,"state":"active","ping":88},{"user_id":163,"name":"Mecha","steam_id":76561198014927379,"connected_time":218000000000,"state":"active","ping":66},{"user_id":106,"name":"bappo","steam_id":76561199294792123,"connected_time":4619000000000,"state":"active","ping":56},{"user_id":136,"name":"CHEEKY EUNUCH","steam_id":76561198990825232,"connected_time":2494000000000,"state":"active","ping":58},{"user_id":150,"name":"LucentOwl","steam_id":76561198140978957,"connected_time":1569000000000,"state":"active","ping":60},{"user_id":155,"name":"vanilla gorilla","steam_id":76561197989019617,"connected_time":610000000000,"state":"active","ping":45},{"user_id":156,"name":"Red","steam_id":76561198255311543,"connected_time":595000000000,"state":"active","ping":97},{"user_id":157,"name":"bookreader9063","steam_id":76561198864851219,"connected_time":575000000000,"state":"active","ping":84},{"user_id":128,"name":"solo","steam_id":76561198144270213,"connected_time":3076000000000,"state":"active","ping":46},{"user_id":149,"name":"jayzak24","steam_id":76561198354267509,"connected_time":1606000000000,"state":"active","ping":76},{"user_id":148,"name":"Smug Pug","steam_id":76561198059423334,"connected_time":1713000000000,"state":"active","ping":59},{"user_id":17,"name":"Bryguy","steam_id":76561198092096120,"connected_time":12579000000000,"state":"active","ping":43},{"user_id":108,"name":"Unikson","steam_id":76561198351504294,"connected_time":4257000000000,"state":"active","ping":56},{"user_id":160,"name":"I_amgeneric","steam_id":76561198058605649,"connected_time":356000000000,"state":"active","ping":63},{"user_id":165,"name":"Quibl","steam_id":76561199110591930,"connected_time":122000000000,"state":"active","ping":81},{"user_id":151,"name":"Fredrick","steam_id":76561197981419964,"connected_time":1117000000000,"state":"active","ping":68},{"user_id":105,"name":"GREG","steam_id":76561198073021168,"connected_time":5075000000000,"state":"active","ping":62},{"user_id":146,"name":"numa","steam_id":76561198856016840,"connected_time":1769000000000,"state":"active","ping":69},{"user_id":162,"name":"M4 SOPMOD II Enjoyer","steam_id":76561198155176802,"connected_time":295000000000,"state":"active","ping":75},{"user_id":159,"name":"BirBinGo","steam_id":76561198356529600,"connected_time":488000000000,"state":"active","ping":75},{"user_id":119,"name":"B.","steam_id":76561198040445907,"connected_time":3946000000000,"state":"active","ping":74}]},{"server_id":106,"name":"Uncletopia | Chicago | 2 | All Maps","name_short":"chi-2","host":"chi-1.us.uncletopia.com","port":27025,"enabled":true,"region":"us-central","cc":"us","latitude":41.881832,"longitude":-87.62318,"reserved":0,"last_update":"0001-01-01T00:00:00Z","name_a2s":"Uncletopia | Chicago | 2 | All Maps","protocol":17,"map":"koth_cascade","folder":"tf","game":"Team Fortress","app_id":440,"player_count":0,"max_players":24,"Bots":0,"server_type":"Dedicated","server_os":"Linux","password":true,"vac":true,"version":"7757534","steam_id":85568392924469985,"keywords":["cp","nocrits","nodmgspread","uncletopia"],"game_id":440,"stv_port":27026,"stv_name":"Uncletopia | Chicago | 2 | All Maps | STV","players":null},{"server_id":402,"name":"Uncletopia | Chicago | 3 | All Maps","name_short":"chi-3","host":"chi-1.us.uncletopia.com","port":27035,"enabled":true,"region":"us-central","cc":"us","latitude":41.881832,"longitude":-87.62318,"reserved":0,"last_update":"0001-01-01T00:00:00Z","name_a2s":"Uncletopia | Chicago | 3 | All Maps","protocol":17,"map":"koth_king","folder":"tf","game":"Team Fortress","app_id":440,"player_count":14,"max_players":24,"Bots":0,"server_type":"Dedicated","server_os":"Linux","password":true,"vac":true,"version":"7757534","steam_id":85568392924515191,"keywords":["cp","nocrits","nodmgspread","uncletopia"],"game_id":440,"stv_port":27036,"stv_name":"Uncletopia | Chicago | 3 | All Maps | STV","players":[{"user_id":13,"name":"Bangushonkle","steam_id":76561198218887511,"connected_time":2601000000000,"state":"active","ping":86},{"user_id":14,"name":"Vapor (fake)","steam_id":76561198850475407,"connected_time":2241000000000,"state":"active","ping":60},{"user_id":40,"name":"JTD1019","steam_id":76561198131179444,"connected_time":90000000000,"state":"active","ping":59},{"user_id":35,"name":"Dbruiser18","steam_id":76561199080550623,"connected_time":522000000000,"state":"active","ping":79},{"user_id":17,"name":"Cookie of Seduction","steam_id":76561198120329707,"connected_time":1393000000000,"state":"active","ping":71},{"user_id":30,"name":"comfy and cozy","steam_id":76561198860068961,"connected_time":529000000000,"state":"active","ping":60},{"user_id":34,"name":"Nickel","steam_id":76561199037745941,"connected_time":524000000000,"state":"active","ping":208},{"user_id":21,"name":"Mr.noob","steam_id":76561199200442395,"connected_time":981000000000,"state":"active","ping":165},{"user_id":25,"name":"Midi","steam_id":76561199179087677,"connected_time":797000000000,"state":"active","ping":54},{"user_id":26,"name":"jazztree14","steam_id":76561199239395356,"connected_time":683000000000,"state":"active","ping":61},{"user_id":36,"name":"22moo","steam_id":76561199075331630,"connected_time":493000000000,"state":"active","ping":66},{"user_id":37,"name":"apem","steam_id":76561198155568598,"connected_time":471000000000,"state":"active","ping":150},{"user_id":41,"name":"Ejaculation Zach","steam_id":76561198203765200,"connected_time":41000000000,"state":"active","ping":62},{"user_id":42,"name":"to sem ideia #savetf2","steam_id":76561199052177486,"connected_time":3000000000,"state":"spawning","ping":194}]},{"server_id":403,"name":"Uncletopia | Chicago | 4 | All Maps","name_short":"chi-4","host":"chi-1.us.uncletopia.com","port":27045,"enabled":true,"region":"us-central","cc":"us","latitude":41.881832,"longitude":-87.62318,"reserved":0,"last_update":"0001-01-01T00:00:00Z","name_a2s":"Uncletopia | Chicago | 4 | All Maps","protocol":17,"map":"koth_lakeside_final","folder":"tf","game":"Team Fortress","app_id":440,"player_count":0,"max_players":24,"Bots":0,"server_type":"Dedicated","server_os":"Linux","password":true,"vac":true,"version":"7757534","steam_id":85568392924515193,"keywords":["cp","nocrits","nodmgspread","uncletopia"],"game_id":440,"stv_port":27046,"stv_name":"Uncletopia | Chicago | 4 | All Maps | STV","players":null},{"server_id":36,"name":"Uncletopia | Chicago | 5 | All Maps","name_short":"chi-5","host":"chi-2.us.uncletopia.com","port":27015,"enabled":true,"region":"us-central","cc":"us","latitude":41.881832,"longitude":-87.62318,"reserved":0,"last_update":"0001-01-01T00:00:00Z","name_a2s":"Uncletopia | Chicago | 5 | All Maps","protocol":17,"map":"koth_cascade","folder":"tf","game":"Team Fortress","app_id":440,"player_count":0,"max_players":24,"Bots":0,"server_type":"Dedicated","server_os":"Linux","password":true,"vac":true,"version":"7757534","steam_id":85568392924866362,"keywords":["cp","nocrits","nodmgspread","uncletopia"],"game_id":440,"stv_port":27016,"stv_name":"Uncletopia | Chicago | 5 | All Maps | STV","players":null},{"server_id":37,"name":"Uncletopia | Chicago | 6 | All Maps","name_short":"chi-6","host":"chi-2.us.uncletopia.com","port":27025,"enabled":true,"region":"us-central","cc":"us","latitude":41.881832,"longitude":-87.62318,"reserved":0,"last_update":"0001-01-01T00:00:00Z","name_a2s":"Uncletopia | Chicago | 6 | All Maps","protocol":17,"map":"pl_upward","folder":"tf","game":"Team Fortress","app_id":440,"player_count":20,"max_players":24,"Bots":0,"server_type":"Dedicated","server_os":"Linux","password":true,"vac":true,"version":"7757534","steam_id":85568392924866363,"keywords":["nocrits","nodmgspread","payload","uncletopia"],"game_id":440,"stv_port":27026,"stv_name":"Uncletopia | Chicago | 6 | All Maps | STV","players":[{"user_id":89,"name":"Meeeeeddddddiiiiiiccccccc","steam_id":76561198092354979,"connected_time":358000000000,"state":"active","ping":59},{"user_id":86,"name":"Soull","steam_id":76561199188088471,"connected_time":900000000000,"state":"active","ping":82},{"user_id":54,"name":"AyoMingus","steam_id":76561198324639028,"connected_time":3180000000000,"state":"active","ping":69},{"user_id":84,"name":"[OMCB]Kaban","steam_id":76561197997039516,"connected_time":1110000000000,"state":"active","ping":169},{"user_id":87,"name":"gingergerman","steam_id":76561198160254549,"connected_time":896000000000,"state":"active","ping":66},{"user_id":88,"name":"Adam (Cursed Confetti Creature)","steam_id":76561198317690197,"connected_time":559000000000,"state":"active","ping":44},{"user_id":91,"name":"mio","steam_id":76561198239286750,"connected_time":104000000000,"state":"active","ping":74},{"user_id":90,"name":"Dr Kickass","steam_id":76561198069659186,"connected_time":339000000000,"state":"active","ping":57},{"user_id":70,"name":"Fanthxm177","steam_id":76561198831301188,"connected_time":2132000000000,"state":"active","ping":89},{"user_id":77,"name":"1coquo","steam_id":76561199107802470,"connected_time":1747000000000,"state":"active","ping":166},{"user_id":78,"name":"Everlost","steam_id":76561199011487960,"connected_time":1726000000000,"state":"active","ping":71},{"user_id":51,"name":"Sych06","steam_id":76561198798979302,"connected_time":3496000000000,"state":"active","ping":56},{"user_id":64,"name":"rotmone","steam_id":76561198846618797,"connected_time":2424000000000,"state":"active","ping":80},{"user_id":72,"name":"Deki","steam_id":76561198031914490,"connected_time":2103000000000,"state":"active","ping":155},{"user_id":26,"name":"whimsical little creature","steam_id":76561198271710504,"connected_time":5085000000000,"state":"active","ping":51},{"user_id":81,"name":"creeeeeee","steam_id":76561198392539722,"connected_time":1433000000000,"state":"active","ping":79},{"user_id":44,"name":"snark","steam_id":76561198132980859,"connected_time":4185000000000,"state":"active","ping":48},{"user_id":85,"name":"RagingBagon","steam_id":76561198255453127,"connected_time":1043000000000,"state":"active","ping":86},{"user_id":83,"name":"stub","steam_id":76561199060788308,"connected_time":1181000000000,"state":"active","ping":61},{"user_id":75,"name":"Fobby #Savetf2","steam_id":76561198047681469,"connected_time":1819000000000,"state":"active","ping":75}]},{"server_id":38,"name":"Uncletopia | Chicago | 7 | Stopwatch Beta","name_short":"chi-7","host":"chi-2.us.uncletopia.com","port":27035,"enabled":true,"region":"us-central","cc":"us","latitude":41.881832,"longitude":-87.62318,"reserved":0,"last_update":"0001-01-01T00:00:00Z","name_a2s":"Uncletopia | Chicago | 7 | Stopwatch Beta","protocol":17,"map":"pl_barnblitz","folder":"tf","game":"Team Fortress","app_id":440,"player_count":0,"max_players":24,"Bots":0,"server_type":"Dedicated","server_os":"Linux","password":true,"vac":true,"version":"7757534","steam_id":85568392924866364,"keywords":["nocrits","nodmgspread","payload","uncletopia"],"game_id":440,"stv_port":27036,"stv_name":"Uncletopia | Chicago | 7 | Stopwatch Beta | STV","players":null},{"server_id":39,"name":"Uncletopia | Chicago | 8 | Community","name_short":"chi-8","host":"chi-2.us.uncletopia.com","port":27045,"enabled":true,"region":"us-central","cc":"us","latitude":41.881832,"longitude":-87.62318,"reserved":0,"last_update":"0001-01-01T00:00:00Z","name_a2s":"Uncletopia | Chicago | 8 | Community","protocol":17,"map":"koth_cascade","folder":"tf","game":"Team Fortress","app_id":440,"player_count":0,"max_players":24,"Bots":0,"server_type":"Dedicated","server_os":"Linux","password":true,"vac":true,"version":"7757534","steam_id":85568392924866365,"keywords":["cp","nocrits","nodmgspread","uncletopia"],"game_id":440,"stv_port":27046,"stv_name":"Uncletopia | Chicago | 8 | Community | STV","players":null},{"server_id":8,"name":"Uncletopia | Dallas | 1 | All Maps","name_short":"dal-1","host":"dal-1.us.uncletopia.com","port":27015,"enabled":true,"region":"us-central","cc":"us","latitude":32.779167,"longitude":-96.80889,"reserved":0,"last_update":"0001-01-01T00:00:00Z","name_a2s":"Uncletopia | Dallas | 1 | All Maps","protocol":17,"map":"pl_barnblitz","folder":"tf","game":"Team Fortress","app_id":440,"player_count":24,"max_players":24,"Bots":0,"server_type":"Dedicated","server_os":"Linux","password":true,"vac":true,"version":"7757534","steam_id":85568392924469986,"keywords":["nocrits","nodmgspread","payload","uncletopia"],"game_id":440,"stv_port":27016,"stv_name":"Uncletopia | Dallas | 1 | All Maps | STV","players":[{"user_id":44,"name":"Abace","steam_id":76561198828725687,"connected_time":717000000000,"state":"active","ping":76},{"user_id":6,"name":"ShredMaan","steam_id":76561198429982138,"connected_time":2564000000000,"state":"active","ping":77},{"user_id":45,"name":"littleNoOne","steam_id":76561199026432524,"connected_time":647000000000,"state":"active","ping":106},{"user_id":46,"name":"Kid named download","steam_id":76561199192074448,"connected_time":590000000000,"state":"active","ping":100},{"user_id":22,"name":"CreativeUsername","steam_id":76561198186045503,"connected_time":1326000000000,"state":"active","ping":74},{"user_id":23,"name":"lucky","steam_id":76561198323426623,"connected_time":1320000000000,"state":"active","ping":93},{"user_id":47,"name":"Darling","steam_id":76561198127525888,"connected_time":576000000000,"state":"active","ping":55},{"user_id":17,"name":"IcyBabyBeluga","steam_id":76561198997668793,"connected_time":1703000000000,"state":"active","ping":118},{"user_id":15,"name":"Fishy","steam_id":76561198819316173,"connected_time":1861000000000,"state":"active","ping":118},{"user_id":24,"name":"|WS| Don't_Taze_Me_Bro","steam_id":76561198043289495,"connected_time":1251000000000,"state":"active","ping":76},{"user_id":43,"name":"sxl","steam_id":76561198150627999,"connected_time":756000000000,"state":"active","ping":100},{"user_id":40,"name":"Morattab","steam_id":76561199467853508,"connected_time":831000000000,"state":"active","ping":104},{"user_id":27,"name":"George","steam_id":76561198020046873,"connected_time":1189000000000,"state":"active","ping":80},{"user_id":28,"name":"•nubertz•","steam_id":76561199121806567,"connected_time":1166000000000,"state":"active","ping":161},{"user_id":29,"name":"MR.THE TOASTER","steam_id":76561199109565739,"connected_time":1150000000000,"state":"active","ping":86},{"user_id":30,"name":"Van","steam_id":76561198981768324,"connected_time":1145000000000,"state":"active","ping":103},{"user_id":32,"name":"he_who_grills","steam_id":76561198039626676,"connected_time":1007000000000,"state":"active","ping":85},{"user_id":33,"name":"lost in spaaaaace","steam_id":76561199085974120,"connected_time":1003000000000,"state":"active","ping":85},{"user_id":34,"name":"foozle","steam_id":76561198019003018,"connected_time":998000000000,"state":"active","ping":87},{"user_id":52,"name":"Blake...","steam_id":76561198064090974,"connected_time":210000000000,"state":"active","ping":104},{"user_id":50,"name":"Chafn","steam_id":76561197969386702,"connected_time":436000000000,"state":"active","ping":85},{"user_id":41,"name":"Nemcat.Jr","steam_id":76561198079821706,"connected_time":826000000000,"state":"active","ping":86},{"user_id":49,"name":"Rat Tard","steam_id":76561198850387282,"connected_time":471000000000,"state":"active","ping":70},{"user_id":51,"name":"the smiling zombie","steam_id":76561199246231090,"connected_time":410000000000,"state":"active","ping":79}]},{"server_id":108,"name":"Uncletopia | Dallas | 2 | All Maps","name_short":"dal-2","host":"dal-1.us.uncletopia.com","port":27025,"enabled":true,"region":"us-central","cc":"us","latitude":32.779167,"longitude":-96.80889,"reserved":0,"last_update":"0001-01-01T00:00:00Z","name_a2s":"Uncletopia | Dallas | 2 | All Maps","protocol":17,"map":"pl_snowycoast","folder":"tf","game":"Team Fortress","app_id":440,"player_count":0,"max_players":24,"Bots":0,"server_type":"Dedicated","server_os":"Linux","password":true,"vac":true,"version":"7757534","steam_id":85568392924469988,"keywords":["nocrits","nodmgspread","payload","uncletopia"],"game_id":440,"stv_port":27026,"stv_name":"Uncletopia | Dallas | 2 | All Maps | STV","players":null},{"server_id":5,"name":"Uncletopia | Frankfurt | 1 | All Maps","name_short":"frk-1","host":"frk-1.de.uncletopia.com","port":27015,"enabled":true,"region":"eu","cc":"de","latitude":50.110924,"longitude":8.682127,"reserved":0,"last_update":"0001-01-01T00:00:00Z","name_a2s":"Uncletopia | Frankfurt | 1 | All Maps","protocol":17,"map":"pl_swiftwater_final1","folder":"tf","game":"Team Fortress","app_id":440,"player_count":0,"max_players":24,"Bots":0,"server_type":"Dedicated","server_os":"Linux","password":true,"vac":true,"version":"7757534","steam_id":85568392924469989,"keywords":["nocrits","nodmgspread","payload","uncletopia"],"game_id":440,"stv_port":27016,"stv_name":"Uncletopia | Frankfurt | 1 | All Maps | STV","players":null},{"server_id":110,"name":"Uncletopia | Frankfurt | 2 | All Maps","name_short":"frk-2","host":"frk-1.de.uncletopia.com","port":27025,"enabled":true,"region":"eu","cc":"de","latitude":50.110924,"longitude":8.682127,"reserved":0,"last_update":"0001-01-01T00:00:00Z","name_a2s":"Uncletopia | Frankfurt | 2 | All Maps","protocol":17,"map":"pl_goldrush","folder":"tf","game":"Team Fortress","app_id":440,"player_count":24,"max_players":24,"Bots":0,"server_type":"Dedicated","server_os":"Linux","password":true,"vac":true,"version":"7757534","steam_id":85568392924469990,"keywords":["nocrits","nodmgspread","payload","uncletopia"],"game_id":440,"stv_port":27026,"stv_name":"Uncletopia | Frankfurt | 2 | All Maps | STV","players":[{"user_id":249,"name":"Rizziologist","steam_id":76561198089003514,"connected_time":1371000000000,"state":"active","ping":45},{"user_id":191,"name":"NormalCube","steam_id":76561198820007900,"connected_time":4418000000000,"state":"active","ping":49},{"user_id":192,"name":"lightning266","steam_id":76561198381387995,"connected_time":4405000000000,"state":"active","ping":49},{"user_id":222,"name":"BallinScout @EpicLAN","steam_id":76561198152443697,"connected_time":2655000000000,"state":"active","ping":63},{"user_id":251,"name":"Lieutenant Lead","steam_id":76561198336867604,"connected_time":5000000000,"state":"spawning","ping":44},{"user_id":230,"name":"Sex Man TF2","steam_id":76561198798657045,"connected_time":2295000000000,"state":"active","ping":75},{"user_id":233,"name":"Jiafei sexy products","steam_id":76561198404958854,"connected_time":2191000000000,"state":"active","ping":89},{"user_id":223,"name":"Dzieciol","steam_id":76561198160237556,"connected_time":2645000000000,"state":"active","ping":60},{"user_id":242,"name":"Max [FR]","steam_id":76561198444948331,"connected_time":1918000000000,"state":"active","ping":60},{"user_id":236,"name":"phonebooth","steam_id":76561198216835323,"connected_time":2100000000000,"state":"active","ping":70},{"user_id":237,"name":"Kolanciasty ♥","steam_id":76561198020042179,"connected_time":2090000000000,"state":"active","ping":80},{"user_id":232,"name":"efffcraft","steam_id":76561198306317166,"connected_time":2246000000000,"state":"active","ping":91},{"user_id":238,"name":"Akisян","steam_id":76561198078706435,"connected_time":2088000000000,"state":"active","ping":72},{"user_id":244,"name":"iIMOFIi","steam_id":76561199000483925,"connected_time":1801000000000,"state":"active","ping":173},{"user_id":248,"name":"White_Cheddar","steam_id":76561198097004871,"connected_time":1375000000000,"state":"active","ping":143},{"user_id":103,"name":"British Disapproval","steam_id":76561198001375260,"connected_time":10853000000000,"state":"active","ping":66},{"user_id":198,"name":"Toxicò","steam_id":76561199031920676,"connected_time":4227000000000,"state":"active","ping":78},{"user_id":215,"name":"port :o3","steam_id":76561198059151809,"connected_time":3353000000000,"state":"active","ping":69},{"user_id":239,"name":"SURPRISE","steam_id":76561198156432640,"connected_time":2083000000000,"state":"active","ping":86},{"user_id":188,"name":"Farmercy","steam_id":76561198000038039,"connected_time":4711000000000,"state":"active","ping":60},{"user_id":176,"name":"currently dying in tf2","steam_id":76561198110613175,"connected_time":5920000000000,"state":"active","ping":100},{"user_id":219,"name":"Voxil","steam_id":76561198013643001,"connected_time":3254000000000,"state":"active","ping":59},{"user_id":227,"name":"Acanda","steam_id":76561198123246537,"connected_time":2612000000000,"state":"active","ping":55},{"user_id":228,"name":"SoupStew","steam_id":76561199472425541,"connected_time":2574000000000,"state":"active","ping":84}]},{"server_id":308,"name":"Uncletopia | Frankfurt | 3 | All Maps","name_short":"frk-3","host":"frk-1.de.uncletopia.com","port":27035,"enabled":true,"region":"eu","cc":"de","latitude":50.110924,"longitude":8.682127,"reserved":0,"last_update":"0001-01-01T00:00:00Z","name_a2s":"Uncletopia | Frankfurt | 3 | All Maps","protocol":17,"map":"koth_lakeside_final","folder":"tf","game":"Team Fortress","app_id":440,"player_count":0,"max_players":24,"Bots":0,"server_type":"Dedicated","server_os":"Linux","password":true,"vac":true,"version":"7757534","steam_id":85568392924504274,"keywords":["cp","nocrits","nodmgspread","uncletopia"],"game_id":440,"stv_port":27036,"stv_name":"Uncletopia | Frankfurt | 3 | All Maps | STV","players":null},{"server_id":309,"name":"Uncletopia | Frankfurt | 4 | All Maps","name_short":"frk-4","host":"frk-1.de.uncletopia.com","port":27045,"enabled":true,"region":"eu","cc":"de","latitude":50.110924,"longitude":8.682127,"reserved":0,"last_update":"0001-01-01T00:00:00Z","name_a2s":"Uncletopia | Frankfurt | 4 | All Maps","protocol":17,"map":"pl_borneo","folder":"tf","game":"Team Fortress","app_id":440,"player_count":24,"max_players":24,"Bots":0,"server_type":"Dedicated","server_os":"Linux","password":true,"vac":true,"version":"7757534","steam_id":85568392924504275,"keywords":["nocrits","nodmgspread","payload","uncletopia"],"game_id":440,"stv_port":27046,"stv_name":"Uncletopia | Frankfurt | 4 | All Maps | STV","players":[{"user_id":402,"name":"The Friendly Pootineer","steam_id":76561199097297812,"connected_time":1387000000000,"state":"active","ping":67},{"user_id":409,"name":"AleXandriX","steam_id":76561198035203950,"connected_time":778000000000,"state":"active","ping":52},{"user_id":399,"name":"mmlock","steam_id":76561198069516191,"connected_time":1549000000000,"state":"active","ping":46},{"user_id":414,"name":"Wafes","steam_id":76561198065625467,"connected_time":454000000000,"state":"active","ping":110},{"user_id":400,"name":"followthenight","steam_id":76561198017619752,"connected_time":1417000000000,"state":"active","ping":74},{"user_id":332,"name":"Švarcas","steam_id":76561198841646694,"connected_time":7242000000000,"state":"active","ping":70},{"user_id":203,"name":"pajer0","steam_id":76561198002913482,"connected_time":14901000000000,"state":"active","ping":105},{"user_id":401,"name":"DanteVeliki","steam_id":76561198159403183,"connected_time":1416000000000,"state":"active","ping":73},{"user_id":395,"name":"lagzer","steam_id":76561198029295449,"connected_time":1952000000000,"state":"active","ping":69},{"user_id":418,"name":"Spilla","steam_id":76561198062344040,"connected_time":427000000000,"state":"active","ping":98},{"user_id":383,"name":"HOT LOIS","steam_id":76561198302623594,"connected_time":3343000000000,"state":"active","ping":91},{"user_id":289,"name":"Rin-Nakaret","steam_id":76561197971051188,"connected_time":9852000000000,"state":"active","ping":66},{"user_id":416,"name":"The Daniella","steam_id":76561198023075547,"connected_time":439000000000,"state":"active","ping":68},{"user_id":403,"name":"Skantaliarhs","steam_id":76561198370643382,"connected_time":1213000000000,"state":"active","ping":80},{"user_id":421,"name":"BlinkedUp","steam_id":76561198249985618,"connected_time":170000000000,"state":"active","ping":66},{"user_id":407,"name":"vdl","steam_id":76561198044583116,"connected_time":990000000000,"state":"active","ping":143},{"user_id":408,"name":"Chambersite","steam_id":76561198197022399,"connected_time":899000000000,"state":"active","ping":69},{"user_id":397,"name":"Tonne","steam_id":76561197970856766,"connected_time":1917000000000,"state":"active","ping":58},{"user_id":412,"name":"Rask","steam_id":76561198052934944,"connected_time":745000000000,"state":"active","ping":98},{"user_id":377,"name":"taffy☮","steam_id":76561198407578495,"connected_time":4085000000000,"state":"active","ping":168},{"user_id":420,"name":"Cheers Mate!","steam_id":76561198265192382,"connected_time":407000000000,"state":"active","ping":58},{"user_id":398,"name":"Sus Fring","steam_id":76561198821542489,"connected_time":1889000000000,"state":"active","ping":91},{"user_id":417,"name":"Rigby","steam_id":76561198021552128,"connected_time":439000000000,"state":"active","ping":102},{"user_id":334,"name":"Bulyto","steam_id":76561198043205202,"connected_time":7220000000000,"state":"active","ping":62}]},{"server_id":310,"name":"Uncletopia | Frankfurt | 5 | All Maps","name_short":"frk-5","host":"frk-1.de.uncletopia.com","port":27055,"enabled":true,"region":"eu","cc":"de","latitude":50.110924,"longitude":8.682127,"reserved":0,"last_update":"0001-01-01T00:00:00Z","name_a2s":"Uncletopia | Frankfurt | 5 | All Maps","protocol":17,"map":"koth_lakeside_final","folder":"tf","game":"Team Fortress","app_id":440,"player_count":6,"max_players":24,"Bots":0,"server_type":"Dedicated","server_os":"Linux","password":true,"vac":true,"version":"7757534","steam_id":85568392924504277,"keywords":["cp","nocrits","nodmgspread","uncletopia"],"game_id":440,"stv_port":27056,"stv_name":"Uncletopia | Frankfurt | 5 | All Maps | STV","players":[{"user_id":8,"name":"Datenegassie","steam_id":76561198089417032,"connected_time":1759000000000,"state":"active","ping":58},{"user_id":9,"name":"Mc.Zemiačik","steam_id":76561198150655135,"connected_time":1096000000000,"state":"active","ping":47},{"user_id":13,"name":"☆MiNTERRRRR☆","steam_id":76561198799866156,"connected_time":153000000000,"state":"active","ping":96},{"user_id":14,"name":"Big Shit","steam_id":76561198035734320,"connected_time":103000000000,"state":"active","ping":82},{"user_id":16,"name":"F","steam_id":76561199149462792,"connected_time":19000000000,"state":"active","ping":62},{"user_id":17,"name":"Kemalismus","steam_id":76561198394441106,"connected_time":1000000000,"state":"spawning","ping":91}]},{"server_id":311,"name":"Uncletopia | Frankfurt | 6 | All Maps","name_short":"frk-6","host":"frk-1.de.uncletopia.com","port":27065,"enabled":true,"region":"eu","cc":"de","latitude":50.110924,"longitude":8.682127,"reserved":0,"last_update":"0001-01-01T00:00:00Z","name_a2s":"Uncletopia | Frankfurt | 6 | All Maps","protocol":17,"map":"cp_process_final","folder":"tf","game":"Team Fortress","app_id":440,"player_count":24,"max_players":24,"Bots":0,"server_type":"Dedicated","server_os":"Linux","password":true,"vac":true,"version":"7757534","steam_id":85568392924504278,"keywords":["cp","nocrits","nodmgspread","uncletopia"],"game_id":440,"stv_port":27066,"stv_name":"Uncletopia | Frankfurt | 6 | All Maps | STV","players":[{"user_id":264,"name":"Private Sex","steam_id":76561199007574830,"connected_time":503000000000,"state":"active","ping":77},{"user_id":266,"name":"SwayMadalin","steam_id":76561198165934975,"connected_time":472000000000,"state":"active","ping":73},{"user_id":265,"name":"Bonca","steam_id":76561198137503531,"connected_time":502000000000,"state":"active","ping":76},{"user_id":260,"name":"roby","steam_id":76561198044660393,"connected_time":584000000000,"state":"active","ping":50},{"user_id":258,"name":"Doctor Mobius","steam_id":76561197971281806,"connected_time":751000000000,"state":"active","ping":63},{"user_id":263,"name":"Udinese Dion","steam_id":76561198067931573,"connected_time":539000000000,"state":"active","ping":45},{"user_id":267,"name":"The Cook","steam_id":76561198369335263,"connected_time":466000000000,"state":"active","ping":44},{"user_id":233,"name":"ijustsmokeandcry","steam_id":76561198044189114,"connected_time":3027000000000,"state":"active","ping":60},{"user_id":215,"name":"Icedoutskynight","steam_id":76561199203402299,"connected_time":3749000000000,"state":"active","ping":51},{"user_id":118,"name":"metamikko","steam_id":76561198324704234,"connected_time":10963000000000,"state":"active","ping":110},{"user_id":275,"name":"The noob who Upspikes","steam_id":76561198418538887,"connected_time":253000000000,"state":"active","ping":90},{"user_id":261,"name":"Animatic","steam_id":76561198186421601,"connected_time":573000000000,"state":"active","ping":191},{"user_id":283,"name":"skindiver376","steam_id":76561198056533071,"connected_time":9000000000,"state":"spawning","ping":58},{"user_id":235,"name":"Vershal Smershal","steam_id":76561198116223995,"connected_time":3017000000000,"state":"active","ping":60},{"user_id":269,"name":"KLAMA  ❤","steam_id":76561198351549661,"connected_time":402000000000,"state":"active","ping":74},{"user_id":253,"name":"The Bushman","steam_id":76561198152576682,"connected_time":1714000000000,"state":"active","ping":78},{"user_id":256,"name":"Jackriz","steam_id":76561198024882111,"connected_time":1157000000000,"state":"active","ping":75},{"user_id":278,"name":"hshs","steam_id":76561198314562513,"connected_time":171000000000,"state":"active","ping":62},{"user_id":262,"name":"MtnDew","steam_id":76561199100059743,"connected_time":559000000000,"state":"active","ping":111},{"user_id":241,"name":"Chuck van Chider","steam_id":76561198022104234,"connected_time":2508000000000,"state":"active","ping":76},{"user_id":274,"name":"Turk Scout","steam_id":76561198975267711,"connected_time":268000000000,"state":"active","ping":104},{"user_id":249,"name":"Bill_nye","steam_id":76561199216249214,"connected_time":1968000000000,"state":"active","ping":143},{"user_id":279,"name":"Edmost","steam_id":76561198090748165,"connected_time":79000000000,"state":"active","ping":65}]},{"server_id":23,"name":"Uncletopia | Frankfurt | 7 | Stopwatch Beta","name_short":"frk-7","host":"frk-1.de.uncletopia.com","port":27075,"enabled":true,"region":"eu","cc":"de","latitude":50.110924,"longitude":8.682127,"reserved":0,"last_update":"0001-01-01T00:00:00Z","name_a2s":"Uncletopia | Frankfurt | 7 | Stopwatch Beta","protocol":17,"map":"workshop/koth_ramjam_rc1.ugc459778887","folder":"tf","game":"Team Fortress","app_id":440,"player_count":0,"max_players":24,"Bots":0,"server_type":"Dedicated","server_os":"Linux","password":true,"vac":true,"version":"7757534","steam_id":85568392924742827,"keywords":["cp","nocrits","nodmgspread","uncletopia"],"game_id":440,"stv_port":27076,"stv_name":"Uncletopia | Frankfurt | 7 | Stopwatch Beta | STV","players":null},{"server_id":24,"name":"Uncletopia | Frankfurt | 8 | Community","name_short":"frk-8","host":"frk-1.de.uncletopia.com","port":27085,"enabled":true,"region":"eu","cc":"de","latitude":50.110924,"longitude":8.682127,"reserved":0,"last_update":"0001-01-01T00:00:00Z","name_a2s":"Uncletopia | Frankfurt | 8 | Community","protocol":17,"map":"workshop/pl_highwood_b13.ugc1769496557","folder":"tf","game":"Team Fortress","app_id":440,"player_count":22,"max_players":24,"Bots":0,"server_type":"Dedicated","server_os":"Linux","password":true,"vac":true,"version":"7757534","steam_id":85568392924742828,"keywords":["nocrits","nodmgspread","payload","uncletopia"],"game_id":440,"stv_port":27086,"stv_name":"Uncletopia | Frankfurt | 8 | Community | STV","players":[{"user_id":13,"name":"Avast AntiPony 9445","steam_id":76561197992046533,"connected_time":3655000000000,"state":"active","ping":52},{"user_id":17,"name":"CODSWOLOP","steam_id":76561199114598660,"connected_time":1734000000000,"state":"active","ping":130},{"user_id":16,"name":"Real Human Bean","steam_id":76561198169498648,"connected_time":1850000000000,"state":"active","ping":70},{"user_id":47,"name":"Django","steam_id":76561198090143282,"connected_time":684000000000,"state":"active","ping":69},{"user_id":63,"name":"oldy","steam_id":76561198031899043,"connected_time":38000000000,"state":"spawning","ping":238},{"user_id":61,"name":"Gio'sMonkey","steam_id":76561198892432223,"connected_time":153000000000,"state":"active","ping":66},{"user_id":53,"name":"Doofenschmirtz Gaming","steam_id":76561198061301085,"connected_time":361000000000,"state":"active","ping":48},{"user_id":27,"name":"BreadTeleporter","steam_id":76561198041456843,"connected_time":1383000000000,"state":"active","ping":73},{"user_id":25,"name":"orange_blossom","steam_id":76561198060141884,"connected_time":1426000000000,"state":"active","ping":57},{"user_id":50,"name":"ja","steam_id":76561199228540618,"connected_time":603000000000,"state":"active","ping":72},{"user_id":59,"name":"Wattoz","steam_id":76561198127779511,"connected_time":222000000000,"state":"active","ping":72},{"user_id":36,"name":"CKenny.js","steam_id":76561198063245962,"connected_time":975000000000,"state":"active","ping":87},{"user_id":54,"name":"Severus Slur","steam_id":76561197970869147,"connected_time":358000000000,"state":"active","ping":71},{"user_id":32,"name":"zagawii","steam_id":76561197999285844,"connected_time":1268000000000,"state":"active","ping":86},{"user_id":64,"name":"siena","steam_id":76561199239089214,"connected_time":4000000000,"state":"spawning","ping":89},{"user_id":55,"name":"MSE SFM","steam_id":76561199209005391,"connected_time":349000000000,"state":"active","ping":60},{"user_id":40,"name":"Cirilla.gif","steam_id":76561198090586031,"connected_time":885000000000,"state":"active","ping":81},{"user_id":62,"name":"The Death I Deservioli","steam_id":76561198320506848,"connected_time":136000000000,"state":"active","ping":61},{"user_id":56,"name":"3L","steam_id":76561198007208996,"connected_time":308000000000,"state":"active","ping":48},{"user_id":57,"name":"Loki das Highlandrind","steam_id":76561198008913131,"connected_time":279000000000,"state":"active","ping":62},{"user_id":44,"name":"romaniamanele2004","steam_id":76561198125546299,"connected_time":825000000000,"state":"active","ping":100},{"user_id":45,"name":"Malik794","steam_id":76561198967164437,"connected_time":805000000000,"state":"active","ping":107}]},{"server_id":202,"name":"Uncletopia | Hong Kong | 1 | All Maps","name_short":"hgk-1","host":"hgk-1.hk.uncletopia.com","port":27015,"enabled":true,"region":"asia","cc":"hk","latitude":22.302711,"longitude":114.177216,"reserved":0,"last_update":"0001-01-01T00:00:00Z","name_a2s":"Uncletopia | Hong Kong | 1 | All Maps","protocol":17,"map":"pl_pier","folder":"tf","game":"Team Fortress","app_id":440,"player_count":24,"max_players":24,"Bots":0,"server_type":"Dedicated","server_os":"Linux","password":true,"vac":true,"version":"7757534","steam_id":85568392924494504,"keywords":["nocrits","nodmgspread","payload","uncletopia"],"game_id":440,"stv_port":27016,"stv_name":"Uncletopia | Hong Kong | 1 | All Maps | STV","players":[{"user_id":595,"name":"F2P Strikes Again","steam_id":76561199480327796,"connected_time":171000000000,"state":"active","ping":90},{"user_id":563,"name":"wsc","steam_id":76561198375093234,"connected_time":2949000000000,"state":"active","ping":90},{"user_id":599,"name":"twitch.tv/vision515","steam_id":76561198065293729,"connected_time":10000000000,"state":"active","ping":150},{"user_id":582,"name":"killman47","steam_id":76561198348487408,"connected_time":1884000000000,"state":"active","ping":44},{"user_id":476,"name":"Stupid B","steam_id":76561198131423270,"connected_time":10679000000000,"state":"active","ping":115},{"user_id":578,"name":"Cock And Balls Torture Enjoyer ","steam_id":76561199058105528,"connected_time":2065000000000,"state":"active","ping":123},{"user_id":527,"name":"Kyo","steam_id":76561198088550274,"connected_time":7583000000000,"state":"active","ping":44},{"user_id":596,"name":"Jaysong","steam_id":76561198828599078,"connected_time":170000000000,"state":"active","ping":150},{"user_id":550,"name":"clori g offical accoun","steam_id":76561199146847474,"connected_time":4765000000000,"state":"active","ping":65},{"user_id":584,"name":"母の肉団子@hao123.com","steam_id":76561198069561896,"connected_time":836000000000,"state":"active","ping":44},{"user_id":580,"name":"炎技","steam_id":76561198322497572,"connected_time":2020000000000,"state":"active","ping":71},{"user_id":560,"name":"Othopeus","steam_id":76561198283534382,"connected_time":3037000000000,"state":"active","ping":121},{"user_id":444,"name":"Tyxant","steam_id":76561198091066056,"connected_time":13649000000000,"state":"active","ping":91},{"user_id":589,"name":"Your Casual Touhou Fan","steam_id":76561198843333708,"connected_time":811000000000,"state":"active","ping":72},{"user_id":549,"name":"Hipper Hipper","steam_id":76561198112889123,"connected_time":4837000000000,"state":"active","ping":54},{"user_id":597,"name":"yw","steam_id":76561199382726488,"connected_time":168000000000,"state":"active","ping":39},{"user_id":523,"name":"Milf (The fan O'Milk)","steam_id":76561198213031155,"connected_time":7801000000000,"state":"active","ping":97},{"user_id":590,"name":"Samoyed","steam_id":76561198299150410,"connected_time":737000000000,"state":"active","ping":105},{"user_id":591,"name":"shego","steam_id":76561198109141608,"connected_time":588000000000,"state":"active","ping":150},{"user_id":548,"name":"tiden2000","steam_id":76561198092969425,"connected_time":4997000000000,"state":"active","ping":108},{"user_id":558,"name":"JDSFE","steam_id":76561198975490851,"connected_time":4122000000000,"state":"active","ping":110},{"user_id":564,"name":"PapaFranku69","steam_id":76561199446266814,"connected_time":2743000000000,"state":"active","ping":100},{"user_id":586,"name":"Batbob","steam_id":76561198999413123,"connected_time":835000000000,"state":"active","ping":79},{"user_id":588,"name":"sáu thiện nhân","steam_id":76561199373637717,"connected_time":830000000000,"state":"active","ping":89}]},{"server_id":1,"name":"Uncletopia | Los Angeles | 1 | All Maps","name_short":"lax-1","host":"lax-1.us.uncletopia.com","port":27015,"enabled":true,"region":"us-west","cc":"us","latitude":33.94279,"longitude":-118.41004,"reserved":0,"last_update":"0001-01-01T00:00:00Z","name_a2s":"Uncletopia | Los Angeles | 1 | All Maps","protocol":17,"map":"koth_lakeside_final","folder":"tf","game":"Team Fortress","app_id":440,"player_count":0,"max_players":24,"Bots":0,"server_type":"Dedicated","server_os":"Linux","password":true,"vac":true,"version":"7757534","steam_id":85568392924469991,"keywords":["cp","nocrits","nodmgspread","uncletopia"],"game_id":440,"stv_port":27016,"stv_name":"Uncletopia | Los Angeles | 1 | All Maps | STV","players":null},{"server_id":112,"name":"Uncletopia | Los Angeles | 2 | All Maps","name_short":"lax-2","host":"lax-1.us.uncletopia.com","port":27025,"enabled":true,"region":"us-west","cc":"us","latitude":33.94279,"longitude":-118.41004,"reserved":0,"last_update":"0001-01-01T00:00:00Z","name_a2s":"Uncletopia | Los Angeles | 2 | All Maps","protocol":17,"map":"pl_badwater","folder":"tf","game":"Team Fortress","app_id":440,"player_count":0,"max_players":24,"Bots":0,"server_type":"Dedicated","server_os":"Linux","password":true,"vac":true,"version":"7757534","steam_id":85568392924469992,"keywords":["nocrits","nodmgspread","payload","uncletopia"],"game_id":440,"stv_port":27026,"stv_name":"Uncletopia | Los Angeles | 2 | All Maps | STV","players":null},{"server_id":324,"name":"Uncletopia | Los Angeles | 3 | All Maps","name_short":"lax-3","host":"lax-1.us.uncletopia.com","port":27035,"enabled":true,"region":"us-west","cc":"us","latitude":33.94279,"longitude":-118.41004,"reserved":0,"last_update":"0001-01-01T00:00:00Z","name_a2s":"Uncletopia | Los Angeles | 3 | All Maps","protocol":17,"map":"pl_barnblitz","folder":"tf","game":"Team Fortress","app_id":440,"player_count":0,"max_players":24,"Bots":0,"server_type":"Dedicated","server_os":"Linux","password":true,"vac":true,"version":"7757534","steam_id":85568392924510198,"keywords":["nocrits","nodmgspread","payload","uncletopia"],"game_id":440,"stv_port":27036,"stv_name":"Uncletopia | Los Angeles | 3 | All Maps | STV","players":null},{"server_id":25,"name":"Uncletopia | Los Angeles | 4 | Stopwatch Beta","name_short":"lax-4","host":"lax-1.us.uncletopia.com","port":27045,"enabled":true,"region":"us-west","cc":"us","latitude":33.94279,"longitude":-118.41004,"reserved":0,"last_update":"0001-01-01T00:00:00Z","name_a2s":"Uncletopia | Los Angeles | 4 | Stopwatch Beta","protocol":17,"map":"pl_swiftwater_final1","folder":"tf","game":"Team Fortress","app_id":440,"player_count":0,"max_players":24,"Bots":0,"server_type":"Dedicated","server_os":"Linux","password":true,"vac":true,"version":"7757534","steam_id":85568392924510199,"keywords":["nocrits","nodmgspread","payload","uncletopia"],"game_id":440,"stv_port":27046,"stv_name":"Uncletopia | Los Angeles | 4 | Stopwatch Beta | STV","players":null},{"server_id":11,"name":"Uncletopia | London | 1 | All Maps","name_short":"lon-1","host":"lon-1.uk.uncletopia.com","port":27015,"enabled":true,"region":"eu","cc":"gb","latitude":51.509865,"longitude":-0.118092,"reserved":0,"last_update":"0001-01-01T00:00:00Z","name_a2s":"Uncletopia | London | 1 | All Maps","protocol":17,"map":"cp_sunshine","folder":"tf","game":"Team Fortress","app_id":440,"player_count":24,"max_players":24,"Bots":0,"server_type":"Dedicated","server_os":"Linux","password":true,"vac":true,"version":"7757534","steam_id":85568392924367362,"keywords":["cp","nocrits","nodmgspread","uncletopia"],"game_id":440,"stv_port":27016,"stv_name":"Uncletopia | London | 1 | All Maps | STV","players":[{"user_id":321,"name":"mark","steam_id":76561198309246388,"connected_time":375000000000,"state":"active","ping":60},{"user_id":329,"name":"no1-","steam_id":76561198067524060,"connected_time":56000000000,"state":"active","ping":75},{"user_id":322,"name":"Fat Pigeon","steam_id":76561198817940142,"connected_time":373000000000,"state":"active","ping":50},{"user_id":272,"name":"Nomad994","steam_id":76561198051908201,"connected_time":5262000000000,"state":"active","ping":86},{"user_id":316,"name":"Chalky Blue","steam_id":76561199053378029,"connected_time":713000000000,"state":"active","ping":36},{"user_id":288,"name":"Bullet","steam_id":76561198827294634,"connected_time":2549000000000,"state":"active","ping":80},{"user_id":320,"name":"molly","steam_id":76561198029399151,"connected_time":426000000000,"state":"active","ping":65},{"user_id":249,"name":"ElMoustacho","steam_id":76561198126647314,"connected_time":7995000000000,"state":"active","ping":71},{"user_id":309,"name":"hellcase,com","steam_id":76561198089330547,"connected_time":1057000000000,"state":"active","ping":60},{"user_id":251,"name":"Azor","steam_id":76561198340344220,"connected_time":7676000000000,"state":"active","ping":81},{"user_id":310,"name":"omarantoniosanchezmosquera","steam_id":76561198118407436,"connected_time":1054000000000,"state":"active","ping":43},{"user_id":323,"name":"Egor Pomidor","steam_id":76561199175688390,"connected_time":358000000000,"state":"active","ping":90},{"user_id":296,"name":"Burger king foot lettuce","steam_id":76561198158457225,"connected_time":1973000000000,"state":"active","ping":58},{"user_id":274,"name":"unconditional love","steam_id":76561199026097466,"connected_time":4733000000000,"state":"active","ping":77},{"user_id":325,"name":"ToniGAM3S","steam_id":76561198128605351,"connected_time":348000000000,"state":"active","ping":67},{"user_id":277,"name":"KnugenIV","steam_id":76561198127091993,"connected_time":4281000000000,"state":"active","ping":61},{"user_id":326,"name":"static","steam_id":76561198836825741,"connected_time":343000000000,"state":"active","ping":45},{"user_id":312,"name":"cosmetical","steam_id":76561198444036574,"connected_time":1010000000000,"state":"active","ping":60},{"user_id":297,"name":"Hive","steam_id":76561199480966681,"connected_time":1972000000000,"state":"active","ping":75},{"user_id":327,"name":"Lag","steam_id":76561198159360376,"connected_time":335000000000,"state":"active","ping":48},{"user_id":328,"name":"hh","steam_id":76561198045407897,"connected_time":330000000000,"state":"active","ping":106},{"user_id":300,"name":"Nithle","steam_id":76561198025372740,"connected_time":1930000000000,"state":"active","ping":31},{"user_id":306,"name":"♥ aura ♥","steam_id":76561198066258544,"connected_time":1145000000000,"state":"active","ping":68}]},{"server_id":114,"name":"Uncletopia | London | 2 | All Maps","name_short":"lon-2","host":"lon-1.uk.uncletopia.com","port":27025,"enabled":true,"region":"eu","cc":"gb","latitude":51.509865,"longitude":-0.118092,"reserved":0,"last_update":"0001-01-01T00:00:00Z","name_a2s":"Uncletopia | London | 2 | All Maps","protocol":17,"map":"pl_borneo","folder":"tf","game":"Team Fortress","app_id":440,"player_count":24,"max_players":24,"Bots":0,"server_type":"Dedicated","server_os":"Linux","password":true,"vac":true,"version":"7757534","steam_id":85568392924470941,"keywords":["nocrits","nodmgspread","payload","uncletopia"],"game_id":440,"stv_port":27026,"stv_name":"Uncletopia | London | 2 | All Maps | STV","players":[{"user_id":152,"name":"Krefa12","steam_id":76561198268375393,"connected_time":2154000000000,"state":"active","ping":115},{"user_id":179,"name":"sAmasam","steam_id":76561198114953928,"connected_time":672000000000,"state":"active","ping":72},{"user_id":159,"name":"whyamialive","steam_id":76561199070008862,"connected_time":1952000000000,"state":"active","ping":34},{"user_id":173,"name":"Salih","steam_id":76561198287934839,"connected_time":938000000000,"state":"active","ping":59},{"user_id":158,"name":"Нікітрон","steam_id":76561198044401080,"connected_time":1966000000000,"state":"active","ping":65},{"user_id":169,"name":"Shadow Jesus","steam_id":76561198272980963,"connected_time":1227000000000,"state":"active","ping":54},{"user_id":174,"name":"yv.wallapop","steam_id":76561199228993903,"connected_time":920000000000,"state":"active","ping":86},{"user_id":175,"name":"Stoic","steam_id":76561199088506542,"connected_time":918000000000,"state":"active","ping":111},{"user_id":176,"name":"kapitan szczurros","steam_id":76561198156061143,"connected_time":907000000000,"state":"active","ping":100},{"user_id":189,"name":"Cypher","steam_id":76561197996967254,"connected_time":262000000000,"state":"active","ping":62},{"user_id":186,"name":"Civil Melon","steam_id":76561198988309618,"connected_time":506000000000,"state":"active","ping":76},{"user_id":181,"name":"DOMAIN","steam_id":76561199095640319,"connected_time":657000000000,"state":"active","ping":89},{"user_id":164,"name":"Duncle322","steam_id":76561198258257247,"connected_time":1750000000000,"state":"active","ping":83},{"user_id":167,"name":"R0mulone","steam_id":76561198352513792,"connected_time":1286000000000,"state":"active","ping":63},{"user_id":182,"name":"Mr. Hunts","steam_id":76561197981910397,"connected_time":579000000000,"state":"active","ping":61},{"user_id":142,"name":"Emma","steam_id":76561198076724979,"connected_time":2393000000000,"state":"active","ping":63},{"user_id":165,"name":"fetus eater #savetf2","steam_id":76561198294366854,"connected_time":1652000000000,"state":"active","ping":145},{"user_id":166,"name":"yard man","steam_id":76561198019477093,"connected_time":1318000000000,"state":"active","ping":76},{"user_id":148,"name":"Dabman","steam_id":76561199207417437,"connected_time":2226000000000,"state":"active","ping":106},{"user_id":170,"name":"haha u thought i spy","steam_id":76561198847191826,"connected_time":1210000000000,"state":"active","ping":69},{"user_id":184,"name":"WE NEED 5 BILLION ROCKETS","steam_id":76561199004923871,"connected_time":567000000000,"state":"active","ping":100},{"user_id":185,"name":"Thors","steam_id":76561197968739075,"connected_time":557000000000,"state":"active","ping":44},{"user_id":94,"name":"REN","steam_id":76561198000596385,"connected_time":5710000000000,"state":"active","ping":82},{"user_id":188,"name":"SkillFullNinja","steam_id":76561198376246441,"connected_time":502000000000,"state":"active","ping":123}]},{"server_id":320,"name":"Uncletopia | London | 3 | All Maps","name_short":"lon-3","host":"lon-1.uk.uncletopia.com","port":27035,"enabled":true,"region":"eu","cc":"gb","latitude":51.509865,"longitude":-0.118092,"reserved":0,"last_update":"0001-01-01T00:00:00Z","name_a2s":"Uncletopia | London | 3 | All Maps","protocol":17,"map":"pl_pier","folder":"tf","game":"Team Fortress","app_id":440,"player_count":24,"max_players":24,"Bots":0,"server_type":"Dedicated","server_os":"Linux","password":true,"vac":true,"version":"7757534","steam_id":85568392924510192,"keywords":["nocrits","nodmgspread","payload","uncletopia"],"game_id":440,"stv_port":27036,"stv_name":"Uncletopia | London | 3 | All Maps | STV","players":[{"user_id":68,"name":"weleenkerk","steam_id":76561198143969491,"connected_time":1458000000000,"state":"active","ping":66},{"user_id":15,"name":"nekographic","steam_id":76561198003178355,"connected_time":4028000000000,"state":"active","ping":69},{"user_id":46,"name":"jge","steam_id":76561198123186387,"connected_time":2815000000000,"state":"active","ping":63},{"user_id":81,"name":"slightly drunk","steam_id":76561199184873889,"connected_time":700000000000,"state":"active","ping":65},{"user_id":80,"name":"Dr Sex","steam_id":76561198029044617,"connected_time":743000000000,"state":"active","ping":46},{"user_id":83,"name":"DEad","steam_id":76561198023708262,"connected_time":552000000000,"state":"active","ping":76},{"user_id":71,"name":"FlameTheGame","steam_id":76561198841108519,"connected_time":1043000000000,"state":"active","ping":87},{"user_id":22,"name":"Mika","steam_id":76561199183780280,"connected_time":3731000000000,"state":"active","ping":70},{"user_id":75,"name":"smörgåstårta","steam_id":76561198149967445,"connected_time":910000000000,"state":"active","ping":35},{"user_id":29,"name":"꧁๖乡Ðe·SexyLion乡꧂","steam_id":76561198123539320,"connected_time":3525000000000,"state":"active","ping":96},{"user_id":25,"name":"holykyckling","steam_id":76561198040661615,"connected_time":3657000000000,"state":"active","ping":75},{"user_id":70,"name":"Dr.Sees [F2P]","steam_id":76561199219233587,"connected_time":1129000000000,"state":"active","ping":78},{"user_id":40,"name":"Dr. Mike Litoris","steam_id":76561197991205793,"connected_time":3093000000000,"state":"active","ping":79},{"user_id":67,"name":"bulgarian 2pac","steam_id":76561199191390558,"connected_time":1681000000000,"state":"active","ping":86},{"user_id":49,"name":"SaGe","steam_id":76561198267384908,"connected_time":2765000000000,"state":"active","ping":75},{"user_id":50,"name":"Antman","steam_id":76561198822067394,"connected_time":2764000000000,"state":"active","ping":98},{"user_id":76,"name":"SaladFromTheHell","steam_id":76561199017153269,"connected_time":893000000000,"state":"active","ping":99},{"user_id":58,"name":"leonardini.w","steam_id":76561199097963071,"connected_time":2355000000000,"state":"active","ping":91},{"user_id":78,"name":"AXAL","steam_id":76561198178250598,"connected_time":820000000000,"state":"active","ping":57},{"user_id":60,"name":"♦Silvia♦","steam_id":76561198373039444,"connected_time":2293000000000,"state":"active","ping":118},{"user_id":82,"name":"chssdk","steam_id":76561198262231733,"connected_time":680000000000,"state":"active","ping":74},{"user_id":64,"name":"Arentrir","steam_id":76561198334126785,"connected_time":2108000000000,"state":"active","ping":75},{"user_id":69,"name":"hbivnm","steam_id":76561197996468677,"connected_time":1440000000000,"state":"active","ping":60},{"user_id":85,"name":"PlushtrapDev","steam_id":76561199109026519,"connected_time":331000000000,"state":"active","ping":120}]},{"server_id":321,"name":"Uncletopia | London | 4 | All Maps","name_short":"lon-4","host":"lon-1.uk.uncletopia.com","port":27045,"enabled":true,"region":"eu","cc":"gb","latitude":51.509865,"longitude":-0.118092,"reserved":0,"last_update":"0001-01-01T00:00:00Z","name_a2s":"Uncletopia | London | 4 | All Maps","protocol":17,"map":"koth_viaduct","folder":"tf","game":"Team Fortress","app_id":440,"player_count":24,"max_players":24,"Bots":0,"server_type":"Dedicated","server_os":"Linux","password":true,"vac":true,"version":"7757534","steam_id":85568392924510193,"keywords":["cp","nocrits","nodmgspread","uncletopia"],"game_id":440,"stv_port":27046,"stv_name":"Uncletopia | London | 4 | All Maps | STV","players":[{"user_id":12,"name":"DaDemoBottleBoy","steam_id":76561199052375561,"connected_time":7747000000000,"state":"active","ping":63},{"user_id":71,"name":"tzlil","steam_id":76561198399916290,"connected_time":2623000000000,"state":"active","ping":108},{"user_id":68,"name":"Bisago!","steam_id":76561198181794353,"connected_time":3028000000000,"state":"active","ping":45},{"user_id":74,"name":"glyph","steam_id":76561197980736364,"connected_time":2393000000000,"state":"active","ping":144},{"user_id":30,"name":"Daga","steam_id":76561198055450219,"connected_time":5627000000000,"state":"active","ping":37},{"user_id":86,"name":"SirSangoor","steam_id":76561198044462559,"connected_time":2060000000000,"state":"active","ping":109},{"user_id":36,"name":"this za crazy fr..,","steam_id":76561198000535974,"connected_time":5163000000000,"state":"active","ping":88},{"user_id":58,"name":"john fortress","steam_id":76561198013237629,"connected_time":4142000000000,"state":"active","ping":92},{"user_id":31,"name":"Rang","steam_id":76561198066600372,"connected_time":5623000000000,"state":"active","ping":48},{"user_id":73,"name":"JOÃO MIGUEL","steam_id":76561198066297489,"connected_time":2466000000000,"state":"active","ping":75},{"user_id":75,"name":"I-I","steam_id":76561198267969436,"connected_time":2373000000000,"state":"active","ping":70},{"user_id":34,"name":"Hako","steam_id":76561198085317314,"connected_time":5512000000000,"state":"active","ping":75},{"user_id":38,"name":"MONSTER MANIAC","steam_id":76561198979214026,"connected_time":5133000000000,"state":"active","ping":85},{"user_id":95,"name":"-gunripp0r^be / Obelix^","steam_id":76561197999306879,"connected_time":1162000000000,"state":"active","ping":67},{"user_id":40,"name":"zvekan","steam_id":76561198381101196,"connected_time":5125000000000,"state":"active","ping":65},{"user_id":99,"name":"Greater Raisin","steam_id":76561198065716762,"connected_time":834000000000,"state":"active","ping":126},{"user_id":94,"name":"TheChezburger","steam_id":76561199139205413,"connected_time":1247000000000,"state":"active","ping":115},{"user_id":96,"name":"Stayprone","steam_id":76561197963491785,"connected_time":1160000000000,"state":"active","ping":71},{"user_id":98,"name":"diesel_carsuite","steam_id":76561198229903328,"connected_time":999000000000,"state":"active","ping":136},{"user_id":91,"name":"mcdonald sprite addict","steam_id":76561198261281668,"connected_time":1666000000000,"state":"active","ping":117},{"user_id":93,"name":"xX_NoiceMaster69_Xx","steam_id":76561198179315669,"connected_time":1341000000000,"state":"active","ping":56},{"user_id":100,"name":"Dracob Omrog","steam_id":76561197984661199,"connected_time":694000000000,"state":"active","ping":52},{"user_id":65,"name":"Jeffenthropus","steam_id":76561198134204248,"connected_time":3600000000000,"state":"active","ping":112},{"user_id":85,"name":"Jeerven","steam_id":76561198259189841,"connected_time":2220000000000,"state":"active","ping":72}]},{"server_id":21,"name":"Uncletopia | London | 5 | All Maps","name_short":"lon-5","host":"lon-1.uk.uncletopia.com","port":27055,"enabled":true,"region":"eu","cc":"gb","latitude":51.509865,"longitude":-0.118092,"reserved":0,"last_update":"0001-01-01T00:00:00Z","name_a2s":"Uncletopia | London | 5 | All Maps","protocol":17,"map":"koth_cascade","folder":"tf","game":"Team Fortress","app_id":440,"player_count":0,"max_players":24,"Bots":0,"server_type":"Dedicated","server_os":"Linux","password":true,"vac":true,"version":"7757534","steam_id":85568392924742829,"keywords":["cp","nocrits","nodmgspread","uncletopia"],"game_id":440,"stv_port":27056,"stv_name":"Uncletopia | London | 5 | All Maps | STV","players":null},{"server_id":22,"name":"Uncletopia | London | 6 | All Maps","name_short":"lon-6","host":"lon-1.uk.uncletopia.com","port":27065,"enabled":true,"region":"eu","cc":"gb","latitude":51.509865,"longitude":-0.118092,"reserved":0,"last_update":"0001-01-01T00:00:00Z","name_a2s":"Uncletopia | London | 6 | All Maps","protocol":17,"map":"pl_goldrush","folder":"tf","game":"Team Fortress","app_id":440,"player_count":24,"max_players":24,"Bots":0,"server_type":"Dedicated","server_os":"Linux","password":true,"vac":true,"version":"7757534","steam_id":85568392924742830,"keywords":["nocrits","nodmgspread","payload","uncletopia"],"game_id":440,"stv_port":27066,"stv_name":"Uncletopia | London | 6 | All Maps | STV","players":[{"user_id":152,"name":"FishGun","steam_id":76561198071210486,"connected_time":6318000000000,"state":"active","ping":86},{"user_id":233,"name":"ldshwt","steam_id":76561198090364357,"connected_time":1429000000000,"state":"active","ping":60},{"user_id":212,"name":"Dope","steam_id":76561198318858892,"connected_time":2500000000000,"state":"active","ping":68},{"user_id":243,"name":"blurst of times","steam_id":76561197972325640,"connected_time":554000000000,"state":"active","ping":46},{"user_id":244,"name":"Stupid Sexy Flanders","steam_id":76561198136311983,"connected_time":547000000000,"state":"active","ping":138},{"user_id":182,"name":"Gorogaz","steam_id":76561198207157679,"connected_time":4383000000000,"state":"active","ping":58},{"user_id":197,"name":"The Fiend","steam_id":76561199229771413,"connected_time":3334000000000,"state":"active","ping":157},{"user_id":242,"name":"Eggcracker","steam_id":76561199274850641,"connected_time":577000000000,"state":"active","ping":84},{"user_id":253,"name":"mike erhmentraut","steam_id":76561199025378498,"connected_time":321000000000,"state":"active","ping":45},{"user_id":156,"name":"Thenova","steam_id":76561198079893245,"connected_time":6033000000000,"state":"active","ping":85},{"user_id":254,"name":"Vollys","steam_id":76561198018077773,"connected_time":162000000000,"state":"active","ping":66},{"user_id":201,"name":"Tristan","steam_id":76561198061977405,"connected_time":3228000000000,"state":"active","ping":55},{"user_id":211,"name":"Sneikijs","steam_id":76561198052549308,"connected_time":2507000000000,"state":"active","ping":43},{"user_id":246,"name":"mixxxa_french","steam_id":76561198085098243,"connected_time":538000000000,"state":"active","ping":195},{"user_id":247,"name":"Jink","steam_id":76561197972822389,"connected_time":524000000000,"state":"active","ping":43},{"user_id":248,"name":"Koi","steam_id":76561198064411172,"connected_time":500000000000,"state":"active","ping":106},{"user_id":218,"name":"Crazy Ivan","steam_id":76561197993072059,"connected_time":2445000000000,"state":"active","ping":141},{"user_id":237,"name":"nvmHastee","steam_id":76561199371458295,"connected_time":970000000000,"state":"active","ping":84},{"user_id":249,"name":"Mr Weatherman","steam_id":76561198435297875,"connected_time":479000000000,"state":"active","ping":55},{"user_id":255,"name":"Hyperek","steam_id":76561198130797464,"connected_time":51000000000,"state":"active","ping":76},{"user_id":171,"name":"Skrilled Nuggets","steam_id":76561198087778963,"connected_time":5039000000000,"state":"active","ping":88},{"user_id":239,"name":"meatsoupcube","steam_id":76561198276802249,"connected_time":951000000000,"state":"active","ping":103},{"user_id":251,"name":"Even Rüüd","steam_id":76561197981144291,"connected_time":464000000000,"state":"active","ping":61},{"user_id":223,"name":"ThatTFguy","steam_id":76561198056794321,"connected_time":2130000000000,"state":"active","ping":61}]},{"server_id":40,"name":"Uncletopia | London | 7 | No Payload","name_short":"lon-7","host":"lon-1.uk.uncletopia.com","port":27075,"enabled":true,"region":"eu","cc":"gb","latitude":51.509865,"longitude":-0.118092,"reserved":0,"last_update":"0001-01-01T00:00:00Z","name_a2s":"Uncletopia | London | 7 | No Payload","protocol":17,"map":"koth_cascade","folder":"tf","game":"Team Fortress","app_id":440,"player_count":0,"max_players":24,"Bots":0,"server_type":"Dedicated","server_os":"Linux","password":true,"vac":true,"version":"7757534","steam_id":85568392924964314,"keywords":["cp","nocrits","nodmgspread","uncletopia"],"game_id":440,"stv_port":27076,"stv_name":"Uncletopia | London | 7 | No Payload | STV","players":null},{"server_id":41,"name":"Uncletopia | London | 8 | Community","name_short":"lon-8","host":"lon-1.uk.uncletopia.com","port":27085,"enabled":true,"region":"eu","cc":"gb","latitude":51.509865,"longitude":-0.118092,"reserved":0,"last_update":"0001-01-01T00:00:00Z","name_a2s":"Uncletopia | London | 8 | Community","protocol":17,"map":"workshop/cp_indulge.ugc528106646","folder":"tf","game":"Team Fortress","app_id":440,"player_count":0,"max_players":24,"Bots":0,"server_type":"Dedicated","server_os":"Linux","password":true,"vac":true,"version":"7757534","steam_id":85568392924964315,"keywords":["cp","nocrits","nodmgspread","uncletopia"],"game_id":440,"stv_port":27086,"stv_name":"Uncletopia | London | 8 | Community | STV","players":null},{"server_id":300,"name":"Uncletopia | Montréal | 1 | All Maps","name_short":"mtl-1","host":"mtl-1.ca.uncletopia.com","port":27015,"enabled":true,"region":"us-east","cc":"ca","latitude":45.50889,"longitude":-73.56167,"reserved":0,"last_update":"0001-01-01T00:00:00Z","name_a2s":"Uncletopia | Montréal | 1 | All Maps","protocol":17,"map":"cp_process_final","folder":"tf","game":"Team Fortress","app_id":440,"player_count":0,"max_players":24,"Bots":0,"server_type":"Dedicated","server_os":"Linux","password":true,"vac":true,"version":"7757534","steam_id":85568392924500087,"keywords":["cp","nocrits","nodmgspread","uncletopia"],"game_id":440,"stv_port":27016,"stv_name":"Uncletopia | Montréal | 1 | All Maps | STV","players":null},{"server_id":301,"name":"Uncletopia | Montréal | 2 | All Maps","name_short":"mtl-2","host":"mtl-1.ca.uncletopia.com","port":27025,"enabled":true,"region":"us-east","cc":"ca","latitude":45.50889,"longitude":-73.56167,"reserved":0,"last_update":"0001-01-01T00:00:00Z","name_a2s":"Uncletopia | Montréal | 2 | All Maps","protocol":17,"map":"pl_snowycoast","folder":"tf","game":"Team Fortress","app_id":440,"player_count":0,"max_players":24,"Bots":0,"server_type":"Dedicated","server_os":"Linux","password":true,"vac":true,"version":"7757534","steam_id":85568392924500088,"keywords":["nocrits","nodmgspread","payload","uncletopia"],"game_id":440,"stv_port":27026,"stv_name":"Uncletopia | Montréal | 2 | All Maps | STV","players":null},{"server_id":302,"name":"Uncletopia | Montréal | 3 | All Maps","name_short":"mtl-3","host":"mtl-1.ca.uncletopia.com","port":27035,"enabled":true,"region":"us-east","cc":"ca","latitude":45.50889,"longitude":-73.56167,"reserved":0,"last_update":"0001-01-01T00:00:00Z","name_a2s":"Uncletopia | Montréal | 3 | All Maps","protocol":17,"map":"pl_swiftwater_final1","folder":"tf","game":"Team Fortress","app_id":440,"player_count":5,"max_players":24,"Bots":0,"server_type":"Dedicated","server_os":"Linux","password":true,"vac":true,"version":"7757534","steam_id":85568392924500089,"keywords":["nocrits","nodmgspread","payload","uncletopia"],"game_id":440,"stv_port":27036,"stv_name":"Uncletopia | Montréal | 3 | All Maps | STV","players":[{"user_id":3,"name":"Alpha3280","steam_id":76561199234438502,"connected_time":460000000000,"state":"active","ping":83},{"user_id":4,"name":"randomraptor","steam_id":76561199013279381,"connected_time":437000000000,"state":"active","ping":89},{"user_id":5,"name":"Infinity","steam_id":76561198892732970,"connected_time":399000000000,"state":"active","ping":174},{"user_id":6,"name":"finobi","steam_id":76561199117185504,"connected_time":394000000000,"state":"active","ping":74},{"user_id":7,"name":"hoovy122","steam_id":76561199407164924,"connected_time":374000000000,"state":"active","ping":88}]},{"server_id":303,"name":"Uncletopia | Montréal | 4 | No Payload","name_short":"mtl-4","host":"mtl-1.ca.uncletopia.com","port":27045,"enabled":true,"region":"us-east","cc":"ca","latitude":45.50889,"longitude":-73.56167,"reserved":0,"last_update":"0001-01-01T00:00:00Z","name_a2s":"Uncletopia | Montréal | 4 | No Payload","protocol":17,"map":"pl_pier","folder":"tf","game":"Team Fortress","app_id":440,"player_count":0,"max_players":24,"Bots":0,"server_type":"Dedicated","server_os":"Linux","password":true,"vac":true,"version":"7757534","steam_id":85568392924500090,"keywords":["nocrits","nodmgspread","payload","uncletopia"],"game_id":440,"stv_port":27046,"stv_name":"Uncletopia | Montréal | 4 | No Payload | STV","players":null},{"server_id":13,"name":"Uncletopia | New York City | 1 | All Maps","name_short":"nyc-1","host":"nyc-1.us.uncletopia.com","port":27015,"enabled":true,"region":"us-east","cc":"us","latitude":40.73061,"longitude":-73.93524,"reserved":0,"last_update":"0001-01-01T00:00:00Z","name_a2s":"Uncletopia | New York City | 1 | All Maps","protocol":17,"map":"pl_upward","folder":"tf","game":"Team Fortress","app_id":440,"player_count":24,"max_players":24,"Bots":0,"server_type":"Dedicated","server_os":"Linux","password":true,"vac":true,"version":"7757534","steam_id":85568392924469993,"keywords":["nocrits","nodmgspread","payload","uncletopia"],"game_id":440,"stv_port":27016,"stv_name":"Uncletopia | New York City | 1 | All Maps | STV","players":[{"user_id":53,"name":"RandomInternetUser","steam_id":76561199230027049,"connected_time":2129000000000,"state":"active","ping":78},{"user_id":62,"name":"Wahooka","steam_id":76561197962240925,"connected_time":1328000000000,"state":"active","ping":43},{"user_id":76,"name":"Nic0","steam_id":76561198305690218,"connected_time":1117000000000,"state":"active","ping":53},{"user_id":85,"name":"Maggyver01","steam_id":76561198355680278,"connected_time":327000000000,"state":"active","ping":151},{"user_id":86,"name":"Unwavering Flavor","steam_id":76561198053306065,"connected_time":296000000000,"state":"active","ping":90},{"user_id":78,"name":"Zeek","steam_id":76561197987204351,"connected_time":605000000000,"state":"active","ping":44},{"user_id":64,"name":"Failtastic","steam_id":76561198994009973,"connected_time":1325000000000,"state":"active","ping":50},{"user_id":81,"name":"Pixelated","steam_id":76561198311739461,"connected_time":433000000000,"state":"active","ping":73},{"user_id":80,"name":"Poi","steam_id":76561198176914898,"connected_time":469000000000,"state":"active","ping":84},{"user_id":82,"name":"Seru","steam_id":76561199219827214,"connected_time":421000000000,"state":"active","ping":102},{"user_id":84,"name":"CJAIME01345","steam_id":76561199091599141,"connected_time":376000000000,"state":"active","ping":117},{"user_id":58,"name":"Gaskranx","steam_id":76561198020269547,"connected_time":1553000000000,"state":"active","ping":55},{"user_id":56,"name":"miniature fruitbasket","steam_id":76561198337692867,"connected_time":1658000000000,"state":"active","ping":65},{"user_id":92,"name":"doople","steam_id":76561198804673321,"connected_time":65000000000,"state":"active","ping":120},{"user_id":87,"name":"Zach Reeee","steam_id":76561198096698210,"connected_time":278000000000,"state":"active","ping":85},{"user_id":72,"name":"Rick Assley","steam_id":76561198365019199,"connected_time":1181000000000,"state":"active","ping":88},{"user_id":38,"name":"Albundy","steam_id":76561198075394127,"connected_time":3051000000000,"state":"active","ping":60},{"user_id":88,"name":"xXHeavyMain2023Xx","steam_id":76561199013499631,"connected_time":239000000000,"state":"active","ping":77},{"user_id":41,"name":"Deltaco","steam_id":76561198094572694,"connected_time":2851000000000,"state":"active","ping":125},{"user_id":89,"name":"Ian","steam_id":76561199078852180,"connected_time":236000000000,"state":"active","ping":58},{"user_id":55,"name":"CRAZY engineer","steam_id":76561198887937902,"connected_time":1781000000000,"state":"active","ping":50},{"user_id":93,"name":"Typs","steam_id":76561198011748555,"connected_time":60000000000,"state":"active","ping":165},{"user_id":91,"name":"baby powder muncha","steam_id":76561199443616930,"connected_time":132000000000,"state":"active","ping":58},{"user_id":71,"name":"Chaotic Rushu","steam_id":76561198170054407,"connected_time":1194000000000,"state":"active","ping":75}]},{"server_id":14,"name":"Uncletopia | New York City | 2 | All Maps","name_short":"nyc-2","host":"nyc-1.us.uncletopia.com","port":27025,"enabled":true,"region":"us-east","cc":"us","latitude":40.73061,"longitude":-73.93524,"reserved":0,"last_update":"0001-01-01T00:00:00Z","name_a2s":"Uncletopia | New York City | 2 | All Maps","protocol":17,"map":"koth_highpass","folder":"tf","game":"Team Fortress","app_id":440,"player_count":8,"max_players":24,"Bots":0,"server_type":"Dedicated","server_os":"Linux","password":true,"vac":true,"version":"7757534","steam_id":85568392924469994,"keywords":["cp","nocrits","nodmgspread","uncletopia"],"game_id":440,"stv_port":27026,"stv_name":"Uncletopia | New York City | 2 | All Maps | STV","players":[{"user_id":4,"name":"JL23","steam_id":76561198439162450,"connected_time":1905000000000,"state":"spawning","ping":125},{"user_id":6,"name":"Capn. Wing Ding","steam_id":76561198076068424,"connected_time":1805000000000,"state":"spawning","ping":112},{"user_id":8,"name":"Jellybean parody","steam_id":76561199211746777,"connected_time":1680000000000,"state":"spawning","ping":161},{"user_id":9,"name":"Bread Cat","steam_id":76561199086362207,"connected_time":1392000000000,"state":"spawning","ping":673},{"user_id":17,"name":"techturkey","steam_id":76561199154637989,"connected_time":164000000000,"state":"spawning","ping":201},{"user_id":16,"name":"Frog Man","steam_id":76561198388738763,"connected_time":472000000000,"state":"spawning","ping":239},{"user_id":15,"name":"nervcrafter48","steam_id":76561199402934738,"connected_time":665000000000,"state":"spawning","ping":233},{"user_id":19,"name":"fish 2","steam_id":76561199208652572,"connected_time":90000000000,"state":"spawning","ping":145}]},{"server_id":15,"name":"Uncletopia | New York City | 3 | Stopwatch Beta","name_short":"nyc-3","host":"nyc-1.us.uncletopia.com","port":27035,"enabled":true,"region":"us-east","cc":"us","latitude":40.73061,"longitude":-73.93524,"reserved":0,"last_update":"0001-01-01T00:00:00Z","name_a2s":"Uncletopia | New York City | 3 | Stopwatch Beta","protocol":17,"map":"pl_upward","folder":"tf","game":"Team Fortress","app_id":440,"player_count":0,"max_players":24,"Bots":0,"server_type":"Dedicated","server_os":"Linux","password":true,"vac":true,"version":"7757534","steam_id":85568392924742820,"keywords":["nocrits","nodmgspread","payload","uncletopia"],"game_id":440,"stv_port":27036,"stv_name":"Uncletopia | New York City | 3 | Stopwatch Beta | STV","players":null},{"server_id":16,"name":"Uncletopia | New York City | 4 | Community","name_short":"nyc-4","host":"nyc-1.us.uncletopia.com","port":27045,"enabled":true,"region":"us-east","cc":"us","latitude":40.73061,"longitude":-73.93524,"reserved":0,"last_update":"0001-01-01T00:00:00Z","name_a2s":"Uncletopia | New York City | 4 | Community","protocol":17,"map":"workshop/koth_product_final.ugc454272353","folder":"tf","game":"Team Fortress","app_id":440,"player_count":0,"max_players":24,"Bots":0,"server_type":"Dedicated","server_os":"Linux","password":true,"vac":true,"version":"7757534","steam_id":85568392924742821,"keywords":["cp","nocrits","nodmgspread","uncletopia"],"game_id":440,"stv_port":27046,"stv_name":"Uncletopia | New York City | 4 | Community | STV","players":null},{"server_id":142,"name":"Uncletopia | São Paulo | 1 | All Maps","name_short":"sao-1","host":"sao-1.br.uncletopia.com","port":27015,"enabled":true,"region":"sa","cc":"br","latitude":-23.533773,"longitude":-46.62529,"reserved":0,"last_update":"0001-01-01T00:00:00Z","name_a2s":"Uncletopia | São Paulo | 1 | All Maps","protocol":17,"map":"koth_lakeside_final","folder":"tf","game":"Team Fortress","app_id":440,"player_count":0,"max_players":24,"Bots":0,"server_type":"Dedicated","server_os":"Linux","password":true,"vac":true,"version":"7757534","steam_id":85568392924469996,"keywords":["cp","nocrits","nodmgspread","uncletopia"],"game_id":440,"stv_port":27016,"stv_name":"Uncletopia | São Paulo | 1 | All Maps | STV","players":null},{"server_id":143,"name":"Uncletopia | São Paulo | 2 | All Maps","name_short":"sao-2","host":"sao-2.br.uncletopia.com","port":27015,"enabled":true,"region":"sa","cc":"br","latitude":-23.533773,"longitude":-46.62529,"reserved":0,"last_update":"0001-01-01T00:00:00Z","name_a2s":"Uncletopia | São Paulo | 2 | All Maps","protocol":17,"map":"pl_borneo","folder":"tf","game":"Team Fortress","app_id":440,"player_count":0,"max_players":24,"Bots":0,"server_type":"Dedicated","server_os":"Linux","password":true,"vac":true,"version":"7757534","steam_id":85568392924485349,"keywords":["nocrits","nodmgspread","payload","uncletopia"],"game_id":440,"stv_port":27016,"stv_name":"Uncletopia | São Paulo | 2 | All Maps | STV","players":null},{"server_id":7,"name":"Uncletopia | Seattle | 1 | All Maps","name_short":"sea-1","host":"sea-1.us.uncletopia.com","port":27015,"enabled":true,"region":"us-west","cc":"us","latitude":47.608013,"longitude":-122.33517,"reserved":0,"last_update":"0001-01-01T00:00:00Z","name_a2s":"Uncletopia | Seattle | 1 | All Maps","protocol":17,"map":"pl_frontier_final","folder":"tf","game":"Team Fortress","app_id":440,"player_count":24,"max_players":24,"Bots":0,"server_type":"Dedicated","server_os":"Linux","password":true,"vac":true,"version":"7757534","steam_id":85568392924469997,"keywords":["nocrits","nodmgspread","payload","uncletopia"],"game_id":440,"stv_port":27016,"stv_name":"Uncletopia | Seattle | 1 | All Maps | STV","players":[{"user_id":66,"name":"ʀ.ʚɞ.","steam_id":76561198029580420,"connected_time":1798000000000,"state":"active","ping":167},{"user_id":27,"name":"gaming is for girls","steam_id":76561198240344950,"connected_time":3913000000000,"state":"active","ping":84},{"user_id":73,"name":"mobe","steam_id":76561198121633820,"connected_time":423000000000,"state":"active","ping":75},{"user_id":77,"name":"iAmTheFlyingCow","steam_id":76561198018684608,"connected_time":206000000000,"state":"active","ping":94},{"user_id":78,"name":"Cam","steam_id":76561198285054047,"connected_time":137000000000,"state":"active","ping":81},{"user_id":21,"name":"Cup O' Tea","steam_id":76561199181963791,"connected_time":4918000000000,"state":"active","ping":69},{"user_id":72,"name":"Sai","steam_id":76561198087773916,"connected_time":622000000000,"state":"active","ping":127},{"user_id":17,"name":"no","steam_id":76561198943235072,"connected_time":5085000000000,"state":"active","ping":176},{"user_id":62,"name":"123","steam_id":76561198106308056,"connected_time":2171000000000,"state":"active","ping":81},{"user_id":75,"name":"BreadQuest","steam_id":76561198082425960,"connected_time":354000000000,"state":"active","ping":45},{"user_id":34,"name":"Goose","steam_id":76561198036774894,"connected_time":3588000000000,"state":"active","ping":36},{"user_id":71,"name":"Thewaffleman141","steam_id":76561198083068694,"connected_time":1138000000000,"state":"active","ping":113},{"user_id":42,"name":"rive","steam_id":76561198216487540,"connected_time":3253000000000,"state":"active","ping":53},{"user_id":59,"name":"Rinka","steam_id":76561198973856312,"connected_time":2407000000000,"state":"active","ping":75},{"user_id":60,"name":"Altenon","steam_id":76561198038278472,"connected_time":2398000000000,"state":"active","ping":122},{"user_id":76,"name":"Weiland Davis \"water\" Freeman","steam_id":76561198376657037,"connected_time":232000000000,"state":"active","ping":80},{"user_id":79,"name":"DoctorHa","steam_id":76561198044026008,"connected_time":132000000000,"state":"active","ping":86},{"user_id":80,"name":"bigbuddy","steam_id":76561198055455772,"connected_time":108000000000,"state":"active","ping":125},{"user_id":47,"name":"boulder","steam_id":76561198347225801,"connected_time":2961000000000,"state":"active","ping":56},{"user_id":69,"name":"Rhutebeer","steam_id":76561198018302761,"connected_time":1557000000000,"state":"active","ping":146},{"user_id":81,"name":"Usman","steam_id":76561198430295625,"connected_time":103000000000,"state":"active","ping":106},{"user_id":70,"name":"Dice_Dwarf","steam_id":76561199020454907,"connected_time":1416000000000,"state":"active","ping":41},{"user_id":58,"name":"Gramma!","steam_id":76561198340989175,"connected_time":2587000000000,"state":"active","ping":129},{"user_id":61,"name":"dust | she/it","steam_id":76561198045218909,"connected_time":2226000000000,"state":"active","ping":44}]},{"server_id":119,"name":"Uncletopia | Seattle | 2 | All Maps","name_short":"sea-2","host":"sea-1.us.uncletopia.com","port":27025,"enabled":true,"region":"us-west","cc":"us","latitude":47.608013,"longitude":-122.33517,"reserved":0,"last_update":"0001-01-01T00:00:00Z","name_a2s":"Uncletopia | Seattle | 2 | All Maps","protocol":17,"map":"pl_badwater","folder":"tf","game":"Team Fortress","app_id":440,"player_count":7,"max_players":24,"Bots":0,"server_type":"Dedicated","server_os":"Linux","password":true,"vac":true,"version":"7757534","steam_id":85568392924469998,"keywords":["nocrits","nodmgspread","payload","uncletopia"],"game_id":440,"stv_port":27026,"stv_name":"Uncletopia | Seattle | 2 | All Maps | STV","players":[{"user_id":15,"name":"X FOR BREAKFAST","steam_id":76561198131526809,"connected_time":506000000000,"state":"active","ping":71},{"user_id":16,"name":"jregueiro08","steam_id":76561199251785909,"connected_time":331000000000,"state":"active","ping":107},{"user_id":6,"name":"I'mFromSpace","steam_id":76561198808969653,"connected_time":1476000000000,"state":"active","ping":59},{"user_id":14,"name":"CrackedSanity","steam_id":76561198279841251,"connected_time":1006000000000,"state":"active","ping":70},{"user_id":17,"name":"Bonk man","steam_id":76561199448097283,"connected_time":185000000000,"state":"active","ping":178},{"user_id":18,"name":"\"Generic Girl Name\"","steam_id":76561197984886863,"connected_time":45000000000,"state":"active","ping":61},{"user_id":19,"name":"Justy","steam_id":76561198044014069,"connected_time":41000000000,"state":"active","ping":75}]},{"server_id":406,"name":"Uncletopia | Seattle | 3 | Stopwatch Beta","name_short":"sea-3","host":"sea-1.us.uncletopia.com","port":27035,"enabled":true,"region":"us-west","cc":"us","latitude":47.608013,"longitude":-122.33517,"reserved":0,"last_update":"0001-01-01T00:00:00Z","name_a2s":"Uncletopia | Seattle | 3 | Stopwatch Beta","protocol":17,"map":"cp_dustbowl","folder":"tf","game":"Team Fortress","app_id":440,"player_count":0,"max_players":24,"Bots":0,"server_type":"Dedicated","server_os":"Linux","password":true,"vac":true,"version":"7757534","steam_id":85568392924515217,"keywords":["cp","nocrits","nodmgspread","uncletopia"],"game_id":440,"stv_port":27036,"stv_name":"Uncletopia | Seattle | 3 | Stopwatch Beta | STV","players":null},{"server_id":17,"name":"Uncletopia | San Francisco | 1 | All Maps","name_short":"sfo-1","host":"sfo-1.us.uncletopia.com","port":27015,"enabled":true,"region":"us-west","cc":"us","latitude":37.77397,"longitude":-122.4313,"reserved":0,"last_update":"0001-01-01T00:00:00Z","name_a2s":"Uncletopia | San Francisco | 1 | All Maps","protocol":17,"map":"pl_upward","folder":"tf","game":"Team Fortress","app_id":440,"player_count":0,"max_players":24,"Bots":0,"server_type":"Dedicated","server_os":"Linux","password":true,"vac":true,"version":"7757534","steam_id":85568392924469999,"keywords":["nocrits","nodmgspread","payload","uncletopia"],"game_id":440,"stv_port":27016,"stv_name":"Uncletopia | San Francisco | 1 | All Maps | STV","players":null},{"server_id":18,"name":"Uncletopia | San Francisco | 2 | All Maps","name_short":"sfo-2","host":"sfo-1.us.uncletopia.com","port":27025,"enabled":true,"region":"us-west","cc":"us","latitude":37.77397,"longitude":-122.4313,"reserved":0,"last_update":"0001-01-01T00:00:00Z","name_a2s":"Uncletopia | San Francisco | 2 | All Maps","protocol":17,"map":"koth_highpass","folder":"tf","game":"Team Fortress","app_id":440,"player_count":0,"max_players":24,"Bots":0,"server_type":"Dedicated","server_os":"Linux","password":true,"vac":true,"version":"7757534","steam_id":85568392924470000,"keywords":["cp","nocrits","nodmgspread","uncletopia"],"game_id":440,"stv_port":27026,"stv_name":"Uncletopia | San Francisco | 2 | All Maps | STV","players":null},{"server_id":19,"name":"Uncletopia | San Francisco | 3 | Stopwatch Beta","name_short":"sfo-3","host":"sfo-1.us.uncletopia.com","port":27035,"enabled":true,"region":"us-west","cc":"us","latitude":37.77397,"longitude":-122.4313,"reserved":0,"last_update":"0001-01-01T00:00:00Z","name_a2s":"Uncletopia | San Francisco | 3 | Stopwatch Beta","protocol":17,"map":"koth_lakeside_final","folder":"tf","game":"Team Fortress","app_id":440,"player_count":0,"max_players":24,"Bots":0,"server_type":"Dedicated","server_os":"Linux","password":true,"vac":true,"version":"7757534","steam_id":85568392924742824,"keywords":["cp","nocrits","nodmgspread","uncletopia"],"game_id":440,"stv_port":27036,"stv_name":"Uncletopia | San Francisco | 3 | Stopwatch Beta | STV","players":null},{"server_id":20,"name":"Uncletopia | San Francisco | 4 | Community","name_short":"sfo-4","host":"sfo-1.us.uncletopia.com","port":27045,"enabled":true,"region":"us-west","cc":"us","latitude":37.77397,"longitude":-122.4313,"reserved":0,"last_update":"0001-01-01T00:00:00Z","name_a2s":"Uncletopia | San Francisco | 4 | Community","protocol":17,"map":"cp_altitude","folder":"tf","game":"Team Fortress","app_id":440,"player_count":0,"max_players":24,"Bots":0,"server_type":"Dedicated","server_os":"Linux","password":true,"vac":true,"version":"7757534","steam_id":85568392924742826,"keywords":["cp","nocrits","nodmgspread","uncletopia"],"game_id":440,"stv_port":27046,"stv_name":"Uncletopia | San Francisco | 4 | Community | STV","players":null},{"server_id":141,"name":"Uncletopia | Sydney | 1 | All Maps","name_short":"syd-1","host":"syd-1.au.uncletopia.com","port":27015,"enabled":true,"region":"au","cc":"au","latitude":-33.865143,"longitude":151.2099,"reserved":0,"last_update":"0001-01-01T00:00:00Z","name_a2s":"Uncletopia | Sydney | 1 | All Maps","protocol":17,"map":"pl_badwater","folder":"tf","game":"Team Fortress","app_id":440,"player_count":20,"max_players":24,"Bots":0,"server_type":"Dedicated","server_os":"Linux","password":true,"vac":true,"version":"7757534","steam_id":85568392924470001,"keywords":["nocrits","nodmgspread","payload","uncletopia"],"game_id":440,"stv_port":27016,"stv_name":"Uncletopia | Sydney | 1 | All Maps | STV","players":[{"user_id":783,"name":"/wrist Chi Teng","steam_id":76561198043347809,"connected_time":6951000000000,"state":"active","ping":107},{"user_id":889,"name":"xbox turn off","steam_id":76561199097001672,"connected_time":337000000000,"state":"active","ping":79},{"user_id":872,"name":"Magma_Marshy","steam_id":76561198075499299,"connected_time":1676000000000,"state":"active","ping":48},{"user_id":891,"name":"Felix","steam_id":76561198885750059,"connected_time":239000000000,"state":"active","ping":37},{"user_id":816,"name":"THE Gunman.","steam_id":76561198160577231,"connected_time":4416000000000,"state":"active","ping":49},{"user_id":748,"name":"Kremmen","steam_id":76561198051368641,"connected_time":10378000000000,"state":"active","ping":64},{"user_id":874,"name":"Peace And Tranquility","steam_id":76561198378323783,"connected_time":1462000000000,"state":"active","ping":83},{"user_id":856,"name":"kisses you","steam_id":76561198288970258,"connected_time":2380000000000,"state":"active","ping":52},{"user_id":868,"name":"A threat unbeknownst","steam_id":76561198293776102,"connected_time":1846000000000,"state":"active","ping":52},{"user_id":830,"name":"The Chinese Government","steam_id":76561198149289267,"connected_time":3761000000000,"state":"active","ping":74},{"user_id":840,"name":"Soru","steam_id":76561198010844786,"connected_time":3337000000000,"state":"active","ping":66},{"user_id":885,"name":"mc.sleek","steam_id":76561198057602720,"connected_time":425000000000,"state":"active","ping":73},{"user_id":838,"name":"Naked","steam_id":76561198102863042,"connected_time":3365000000000,"state":"active","ping":39},{"user_id":853,"name":"Wampy","steam_id":76561199211235248,"connected_time":2648000000000,"state":"active","ping":52},{"user_id":782,"name":"xsu tren 200mg","steam_id":76561198837039086,"connected_time":7150000000000,"state":"active","ping":54},{"user_id":875,"name":"Loose Sweet Corn","steam_id":76561198130573355,"connected_time":1415000000000,"state":"active","ping":101},{"user_id":886,"name":"Le Flippers","steam_id":76561198061144091,"connected_time":419000000000,"state":"active","ping":47},{"user_id":855,"name":"Grumbo","steam_id":76561198169116395,"connected_time":2469000000000,"state":"active","ping":69},{"user_id":857,"name":"paper boat","steam_id":76561198046558051,"connected_time":2376000000000,"state":"active","ping":173},{"user_id":888,"name":"Kilking","steam_id":76561198843968881,"connected_time":416000000000,"state":"active","ping":64}]},{"server_id":123,"name":"Uncletopia | Sydney | 2 | All Maps","name_short":"syd-2","host":"syd-1.au.uncletopia.com","port":27025,"enabled":true,"region":"au","cc":"au","latitude":-33.865143,"longitude":151.2099,"reserved":0,"last_update":"0001-01-01T00:00:00Z","name_a2s":"Uncletopia | Sydney | 2 | All Maps","protocol":17,"map":"cp_altitude","folder":"tf","game":"Team Fortress","app_id":440,"player_count":0,"max_players":24,"Bots":0,"server_type":"Dedicated","server_os":"Linux","password":true,"vac":true,"version":"7757534","steam_id":85568392924470002,"keywords":["cp","nocrits","nodmgspread","uncletopia"],"game_id":440,"stv_port":27026,"stv_name":"Uncletopia | Sydney | 2 | All Maps | STV","players":null},{"server_id":395,"name":"Uncletopia | Sydney | 3 | All Maps","name_short":"syd-3","host":"syd-1.au.uncletopia.com","port":27035,"enabled":true,"region":"au","cc":"au","latitude":-33.865143,"longitude":151.2099,"reserved":0,"last_update":"0001-01-01T00:00:00Z","name_a2s":"Uncletopia | Sydney | 3 | All Maps","protocol":17,"map":"koth_lakeside_final","folder":"tf","game":"Team Fortress","app_id":440,"player_count":0,"max_players":24,"Bots":0,"server_type":"Dedicated","server_os":"Linux","password":true,"vac":true,"version":"7757534","steam_id":85568392925194467,"keywords":["cp","nocrits","nodmgspread","uncletopia"],"game_id":440,"stv_port":27036,"stv_name":"Uncletopia | Sydney | 3 | All Maps | STV","players":null},{"server_id":396,"name":"Uncletopia | Sydney | 4 | All Maps","name_short":"syd-4","host":"syd-1.au.uncletopia.com","port":27045,"enabled":true,"region":"au","cc":"au","latitude":-33.865143,"longitude":151.2099,"reserved":0,"last_update":"0001-01-01T00:00:00Z","name_a2s":"Uncletopia | Sydney | 4 | All Maps","protocol":17,"map":"koth_highpass","folder":"tf","game":"Team Fortress","app_id":440,"player_count":0,"max_players":24,"Bots":0,"server_type":"Dedicated","server_os":"Linux","password":true,"vac":true,"version":"7757534","steam_id":85568392925397958,"keywords":["cp","nocrits","nodmgspread","uncletopia"],"game_id":440,"stv_port":27046,"stv_name":"Uncletopia | Sydney | 4 | All Maps | STV","players":null},{"server_id":58,"name":"Uncletopia | Sydney | 5 | Stopwatch Beta","name_short":"syd-5","host":"syd-1.au.uncletopia.com","port":27055,"enabled":true,"region":"au","cc":"au","latitude":-33.865143,"longitude":151.2099,"reserved":0,"last_update":"0001-01-01T00:00:00Z","name_a2s":"Uncletopia | Sydney | 5 | Stopwatch Beta","protocol":17,"map":"pl_upward","folder":"tf","game":"Team Fortress","app_id":440,"player_count":0,"max_players":24,"Bots":0,"server_type":"Dedicated","server_os":"Linux","password":true,"vac":true,"version":"7757534","steam_id":85568392925397959,"keywords":["nocrits","nodmgspread","payload","uncletopia"],"game_id":440,"stv_port":27056,"stv_name":"Uncletopia | Sydney | 5 | Stopwatch Beta | STV","players":null},{"server_id":59,"name":"Uncletopia | Sydney | 6 | Community","name_short":"syd-6","host":"syd-1.au.uncletopia.com","port":27065,"enabled":true,"region":"au","cc":"au","latitude":-33.865143,"longitude":151.2099,"reserved":0,"last_update":"0001-01-01T00:00:00Z","name_a2s":"Uncletopia | Sydney | 6 | Community","protocol":17,"map":"workshop/cp_bruhstbowl_b5.ugc2878604990","folder":"tf","game":"Team Fortress","app_id":440,"player_count":0,"max_players":24,"Bots":0,"server_type":"Dedicated","server_os":"Linux","password":true,"vac":true,"version":"7757534","steam_id":85568392925397960,"keywords":["cp","nocrits","nodmgspread","uncletopia"],"game_id":440,"stv_port":27066,"stv_name":"Uncletopia | Sydney | 6 | Community | STV","players":null},{"server_id":49,"name":"Uncletopia | Warsaw | 1 | All Maps","name_short":"waw-1","host":"waw-1.pl.uncletopia.com","port":27015,"enabled":true,"region":"eu","cc":"pl","latitude":52.2297,"longitude":21.017532,"reserved":0,"last_update":"0001-01-01T00:00:00Z","name_a2s":"","protocol":0,"map":"","folder":"","game":"","app_id":0,"player_count":0,"max_players":0,"Bots":0,"server_type":"","server_os":"","password":false,"vac":false,"version":"","steam_id":0,"keywords":null,"game_id":0,"stv_port":0,"stv_name":"","players":null},{"server_id":50,"name":"Uncletopia | Warsaw | 2 | All Maps","name_short":"waw-2","host":"waw-1.pl.uncletopia.com","port":27025,"enabled":true,"region":"eu","cc":"pl","latitude":52.2297,"longitude":21.017532,"reserved":0,"last_update":"0001-01-01T00:00:00Z","name_a2s":"Uncletopia | Warsaw | 2 | All Maps","protocol":17,"map":"koth_viaduct","folder":"tf","game":"Team Fortress","app_id":440,"player_count":0,"max_players":24,"Bots":0,"server_type":"Dedicated","server_os":"Linux","password":true,"vac":true,"version":"7757534","steam_id":85568392925397851,"keywords":["cp","nocrits","nodmgspread","uncletopia"],"game_id":440,"stv_port":27026,"stv_name":"Uncletopia | Warsaw | 2 | All Maps | STV","players":null},{"server_id":51,"name":"Uncletopia | Warsaw | 3 | All Maps","name_short":"waw-3","host":"waw-1.pl.uncletopia.com","port":27035,"enabled":true,"region":"eu","cc":"pl","latitude":52.2297,"longitude":21.017532,"reserved":0,"last_update":"0001-01-01T00:00:00Z","name_a2s":"Uncletopia | Warsaw | 3 | All Maps","protocol":17,"map":"koth_viaduct","folder":"tf","game":"Team Fortress","app_id":440,"player_count":0,"max_players":24,"Bots":0,"server_type":"Dedicated","server_os":"Linux","password":true,"vac":true,"version":"7757534","steam_id":85568392925397852,"keywords":["cp","nocrits","nodmgspread","uncletopia"],"game_id":440,"stv_port":27036,"stv_name":"Uncletopia | Warsaw | 3 | All Maps | STV","players":null},{"server_id":52,"name":"Uncletopia | Warsaw | 4 | All Maps","name_short":"waw-4","host":"waw-1.pl.uncletopia.com","port":27045,"enabled":true,"region":"eu","cc":"pl","latitude":52.2297,"longitude":21.017532,"reserved":0,"last_update":"0001-01-01T00:00:00Z","name_a2s":"Uncletopia | Warsaw | 4 | All Maps","protocol":17,"map":"koth_highpass","folder":"tf","game":"Team Fortress","app_id":440,"player_count":0,"max_players":24,"Bots":0,"server_type":"Dedicated","server_os":"Linux","password":true,"vac":true,"version":"7757534","steam_id":85568392925397853,"keywords":["cp","nocrits","nodmgspread","uncletopia"],"game_id":440,"stv_port":27046,"stv_name":"Uncletopia | Warsaw | 4 | All Maps | STV","players":null},{"server_id":53,"name":"Uncletopia | Warsaw | 5 | Stopwatch Beta","name_short":"waw-5","host":"waw-1.pl.uncletopia.com","port":27055,"enabled":true,"region":"eu","cc":"pl","latitude":52.2297,"longitude":21.017532,"reserved":0,"last_update":"0001-01-01T00:00:00Z","name_a2s":"Uncletopia | Warsaw | 5 | Stopwatch Beta","protocol":17,"map":"pl_borneo","folder":"tf","game":"Team Fortress","app_id":440,"player_count":0,"max_players":24,"Bots":0,"server_type":"Dedicated","server_os":"Linux","password":true,"vac":true,"version":"7757534","steam_id":85568392925397854,"keywords":["nocrits","nodmgspread","payload","uncletopia"],"game_id":440,"stv_port":27056,"stv_name":"Uncletopia | Warsaw | 5 | Stopwatch Beta | STV","players":null},{"server_id":54,"name":"Uncletopia | Warsaw | 6 | Community","name_short":"waw-6","host":"waw-1.pl.uncletopia.com","port":27065,"enabled":true,"region":"eu","cc":"pl","latitude":52.2297,"longitude":21.017532,"reserved":0,"last_update":"0001-01-01T00:00:00Z","name_a2s":"Uncletopia | Warsaw | 6 | Community","protocol":17,"map":"koth_lakeside_final","folder":"tf","game":"Team Fortress","app_id":440,"player_count":0,"max_players":24,"Bots":0,"server_type":"Dedicated","server_os":"Linux","password":true,"vac":true,"version":"7757534","steam_id":85568392925397856,"keywords":["cp","nocrits","nodmgspread","uncletopia"],"game_id":440,"stv_port":27066,"stv_name":"Uncletopia | Warsaw | 6 | Community | STV","players":null}]}