{"status":true,"message":"","result":[{"server_id":9,"name":"Uncletopia | Atlanta | 1 | All Maps","name_short":"atl-1","host":"atl-1.us.uncletopia.com","port":27015,"enabled":true,"region":"us-east","cc":"us","latitude":33.753746,"longitude":-84.38633,"reserved":0,"last_update":"0001-01-01T00:00:00Z","name_a2s":"Uncletopia | Atlanta | 1 | All Maps","protocol":17,"map":"cp_powerhouse","folder":"tf","game":"Team Fortress","app_id":440,"player_count":24,"max_players":24,"Bots":0,"server_type":"Dedicated","server_os":"Linux","password":true,"vac":true,"version":"7882260","steam_id":85568392924469982,"keywords":["cp","nocrits","nodmgspread","uncletopia"],"game_id":440,"stv_port":27016,"stv_name":"Uncletopia | Atlanta | 1 | All Maps | STV","players":[{"user_id":229,"name":"bope","steam_id":76561198336174581,"connected_time":991000000000,"state":"active","ping":83},{"user_id":231,"name":"Waddlehi","steam_id":76561198072553840,"connected_time":776000000000,"state":"active","ping":76},{"user_id":230,"name":"Jabawakai","steam_id":76561198088881254,"connected_time":854000000000,"state":"active","ping":73},{"user_id":213,"name":"rawgust","steam_id":76561198004523887,"connected_time":2184000000000,"state":"active","ping":160},{"user_id":232,"name":"Smelvin","steam_id":76561198368704086,"connected_time":702000000000,"state":"active","ping":71},{"user_id":233,"name":"Magma","steam_id":76561198108261173,"connected_time":561000000000,"state":"active","ping":62},{"user_id":239,"name":"SirScarfy","steam_id":76561198194550097,"connected_time":373000000000,"state":"active","ping":55},{"user_id":248,"name":"TwoBit","steam_id":76561198062437559,"connected_time":43000000000,"state":"active","ping":97},{"user_id":215,"name":"souljaboytellem.com","steam_id":76561198111975583,"connected_time":2066000000000,"state":"active","ping":68},{"user_id":235,"name":"Ejaculation Zach","steam_id":76561198203765200,"connected_time":469000000000,"state":"active","ping":76},{"user_id":240,"name":"THIRDPIERCE","steam_id":76561198405366314,"connected_time":327000000000,"state":"active","ping":76},{"user_id":203,"name":"peace dog","steam_id":76561198267988522,"connected_time":3437000000000,"state":"active","ping":70},{"user_id":228,"name":"paetho YT","steam_id":76561198152690003,"connected_time":1045000000000,"state":"active","ping":45},{"user_id":242,"name":"homer","steam_id":76561198171491110,"connected_time":290000000000,"state":"active","ping":72},{"user_id":238,"name":"Charlie","steam_id":76561199098209171,"connected_time":424000000000,"state":"active","ping":61},{"user_id":167,"name":"An Unhappy Clown","steam_id":76561198175516514,"connected_time":5883000000000,"state":"active","ping":61},{"user_id":243,"name":"TeRm1nAtoR_","steam_id":76561198867046275,"connected_time":250000000000,"state":"active","ping":176},{"user_id":244,"name":"CamelyKonas","steam_id":76561198097672992,"connected_time":240000000000,"state":"active","ping":78},{"user_id":245,"name":"Famished_4U","steam_id":76561198074097875,"connected_time":222000000000,"state":"active","ping":62},{"user_id":246,"name":"TPScout","steam_id":76561198353808504,"connected_time":202000000000,"state":"active","ping":87},{"user_id":247,"name":"SomeRandomCat","steam_id":76561199107044061,"connected_time":150000000000,"state":"active","ping":61},{"user_id":226,"name":"b4rry","steam_id":76561198365887154,"connected_time":1362000000000,"state":"active","ping":75},{"user_id":249,"name":"dubious little creature","steam_id":76561198113251746,"connected_time":29000000000,"state":"active","ping":104},{"user_id":250,"name":"Geram","steam_id":76561198061979840,"connected_time":23000000000,"state":"spawning","ping":93}]},{"server_id":104,"name":"Uncletopia | Atlanta | 2 | All Maps","name_short":"atl-2","host":"atl-1.us.uncletopia.com","port":27025,"enabled":true,"region":"us-east","cc":"us","latitude":33.753746,"longitude":-84.38633,"reserved":0,"last_update":"0001-01-01T00:00:00Z","name_a2s":"Uncletopia | Atlanta | 2 | All Maps","protocol":17,"map":"cp_mountainlab","folder":"tf","game":"Team Fortress","app_id":440,"player_count":22,"max_players":24,"Bots":0,"server_type":"Dedicated","server_os":"Linux","password":true,"vac":true,"version":"7882260","steam_id":85568392924469983,"keywords":["cp","nocrits","nodmgspread","uncletopia"],"game_id":440,"stv_port":27026,"stv_name":"Uncletopia | Atlanta | 2 | All Maps | STV","players":[{"user_id":133,"name":"Vortiger","steam_id":76561198275813176,"connected_time":926000000000,"state":"active","ping":114},{"user_id":135,"name":"Poo","steam_id":76561198265144507,"connected_time":477000000000,"state":"active","ping":76},{"user_id":136,"name":"FUSION","steam_id":76561197972659738,"connected_time":211000000000,"state":"active","ping":50},{"user_id":121,"name":"InventorX","steam_id":76561198216912629,"connected_time":1863000000000,"state":"active","ping":60},{"user_id":122,"name":"scio","steam_id":76561199001930207,"connected_time":1853000000000,"state":"active","ping":67},{"user_id":130,"name":"aintnowaiyboi","steam_id":76561198301372369,"connected_time":1021000000000,"state":"active","ping":48},{"user_id":140,"name":"lconanl","steam_id":76561198071633770,"connected_time":32000000000,"state":"active","ping":171},{"user_id":108,"name":"lactose father","steam_id":76561199408853457,"connected_time":2762000000000,"state":"active","ping":167},{"user_id":112,"name":"MellowBoy-2354","steam_id":76561199080630632,"connected_time":2575000000000,"state":"active","ping":75},{"user_id":82,"name":"ALBINO LESBIAN MIDGET","steam_id":76561198122691714,"connected_time":4830000000000,"state":"active","ping":64},{"user_id":137,"name":"fruitpunch","steam_id":76561198156516161,"connected_time":202000000000,"state":"active","ping":60},{"user_id":129,"name":"Oopsie Daisy ‚ùã","steam_id":76561198042144492,"connected_time":1210000000000,"state":"active","ping":58},{"user_id":128,"name":"Quoony","steam_id":76561198001887015,"connected_time":1229000000000,"state":"active","ping":105},{"user_id":51,"name":"‚ô•Bunny‚ô•Slut‚ô•","steam_id":76561198206376851,"connected_time":6086000000000,"state":"active","ping":133},{"user_id":141,"name":"Ned","steam_id":76561198862694323,"connected_time":9000000000,"state":"spawning","ping":315},{"user_id":142,"name":"YOUNG UPGRADE","steam_id":76561198035474725,"connected_time":3000000000,"state":"spawning","ping":64},{"user_id":93,"name":"BarrowBaron","steam_id":76561198013633236,"connected_time":3689000000000,"state":"active","ping":91},{"user_id":95,"name":"Shush","steam_id":76561198123902813,"connected_time":3643000000000,"state":"active","ping":75},{"user_id":117,"name":"Queen Frau the Round","steam_id":76561197999942134,"connected_time":2145000000000,"state":"active","ping":63},{"user_id":105,"name":"gamerlegend47","steam_id":76561198122776598,"connected_time":2912000000000,"state":"active","ping":52},{"user_id":126,"name":"Juno","steam_id":76561198042417277,"connected_time":1817000000000,"state":"active","ping":102},{"user_id":132,"name":"Picbascassquiato","steam_id":76561198011487900,"connected_time":1003000000000,"state":"active","ping":93}]},{"server_id":400,"name":"Uncletopia | Atlanta | 3 | Community","name_short":"atl-3","host":"atl-1.us.uncletopia.com","port":27035,"enabled":true,"region":"us-east","cc":"us","latitude":33.753746,"longitude":-84.38633,"reserved":0,"last_update":"0001-01-01T00:00:00Z","name_a2s":"Uncletopia | Atlanta | 3 | Community","protocol":17,"map":"workshop/cp_croissant_final.ugc458840209","folder":"tf","game":"Team Fortress","app_id":440,"player_count":24,"max_players":24,"Bots":0,"server_type":"Dedicated","server_os":"Linux","password":true,"vac":true,"version":"7882260","steam_id":85568392924515187,"keywords":["cp","nocrits","nodmgspread","uncletopia"],"game_id":440,"stv_port":27036,"stv_name":"Uncletopia | Atlanta | 3 | Community | STV","players":[{"user_id":8,"name":"Pillow","steam_id":76561198043970197,"connected_time":3848000000000,"state":"active","ping":67},{"user_id":55,"name":"Null | Crack Clan","steam_id":76561198895762836,"connected_time":946000000000,"state":"active","ping":106},{"user_id":57,"name":"Meltman","steam_id":76561198010285646,"connected_time":815000000000,"state":"active","ping":106},{"user_id":33,"name":"pudl","steam_id":76561198043726592,"connected_time":2012000000000,"state":"active","ping":61},{"user_id":12,"name":"sassy loli","steam_id":76561198402316065,"connected_time":3177000000000,"state":"active","ping":89},{"user_id":13,"name":"bachphong760","steam_id":76561199433780443,"connected_time":3145000000000,"state":"active","ping":101},{"user_id":60,"name":"BoX_hEaD101","steam_id":76561198200875467,"connected_time":671000000000,"state":"active","ping":126},{"user_id":34,"name":"ItsBrieDude","steam_id":76561198051971306,"connected_time":1987000000000,"state":"active","ping":35},{"user_id":58,"name":"scrapheap","steam_id":76561198202407087,"connected_time":766000000000,"state":"active","ping":88},{"user_id":59,"name":"Typ0","steam_id":76561199032797300,"connected_time":730000000000,"state":"active","ping":73},{"user_id":64,"name":"jpduartelou","steam_id":76561199487318741,"connected_time":438000000000,"state":"active","ping":151},{"user_id":30,"name":"lucin","steam_id":76561198258062078,"connected_time":2245000000000,"state":"active","ping":60},{"user_id":35,"name":"Cheesi","steam_id":76561199417190840,"connected_time":1964000000000,"state":"active","ping":80},{"user_id":27,"name":"Heathcliff","steam_id":76561198044288534,"connected_time":2350000000000,"state":"active","ping":80},{"user_id":53,"name":"Stupid Rat","steam_id":76561198408747483,"connected_time":1235000000000,"state":"active","ping":69},{"user_id":62,"name":"Sky Tree","steam_id":76561198027103242,"connected_time":591000000000,"state":"active","ping":60},{"user_id":67,"name":"Dot","steam_id":76561198144984426,"connected_time":212000000000,"state":"active","ping":72},{"user_id":43,"name":"toastman","steam_id":76561198207073088,"connected_time":1816000000000,"state":"active","ping":94},{"user_id":40,"name":"freddy_fazbear","steam_id":76561199482822200,"connected_time":1909000000000,"state":"active","ping":85},{"user_id":65,"name":"Squishy","steam_id":76561198066798426,"connected_time":433000000000,"state":"active","ping":98},{"user_id":45,"name":"Doomagedden","steam_id":76561198272589475,"connected_time":1777000000000,"state":"active","ping":71},{"user_id":66,"name":"Sovontor","steam_id":76561198084699288,"connected_time":419000000000,"state":"active","ping":106},{"user_id":50,"name":"mel","steam_id":76561198215559840,"connected_time":1647000000000,"state":"active","ping":59},{"user_id":52,"name":"Aeront","steam_id":76561198072032723,"connected_time":1494000000000,"state":"active","ping":80}]},{"server_id":401,"name":"Uncletopia | Atlanta | 4 | No Payload","name_short":"atl-4","host":"atl-1.us.uncletopia.com","port":27045,"enabled":true,"region":"us-east","cc":"us","latitude":33.753746,"longitude":-84.38633,"reserved":0,"last_update":"0001-01-01T00:00:00Z","name_a2s":"","protocol":0,"map":"","folder":"","game":"","app_id":0,"player_count":0,"max_players":0,"Bots":0,"server_type":"","server_os":"","password":false,"vac":false,"version":"","steam_id":0,"keywords":null,"game_id":0,"stv_port":0,"stv_name":"","players":null},{"server_id":2,"name":"Uncletopia | Chicago | 1 | All Maps","name_short":"chi-1","host":"chi-1.us.uncletopia.com","port":27015,"enabled":true,"region":"us-central","cc":"us","latitude":41.881832,"longitude":-87.62318,"reserved":0,"last_update":"0001-01-01T00:00:00Z","name_a2s":"Uncletopia | Chicago | 1 | All Maps","protocol":17,"map":"pl_frontier_final","folder":"tf","game":"Team Fortress","app_id":440,"player_count":24,"max_players":24,"Bots":0,"server_type":"Dedicated","server_os":"Linux","password":true,"vac":true,"version":"7882260","steam_id":85568392924469984,"keywords":["nocrits","nodmgspread","payload","uncletopia"],"game_id":440,"stv_port":27016,"stv_name":"Uncletopia | Chicago | 1 | All Maps | STV","players":[{"user_id":335,"name":"vv","steam_id":76561198134813102,"connected_time":2378000000000,"state":"active","ping":60},{"user_id":357,"name":"Silly Scientist","steam_id":76561199199886079,"connected_time":169000000000,"state":"active","ping":79},{"user_id":328,"name":"SirJellyRolls","steam_id":76561198119277244,"connected_time":2468000000000,"state":"active","ping":77},{"user_id":330,"name":"Famelegion","steam_id":76561198958341424,"connected_time":2462000000000,"state":"active","ping":96},{"user_id":348,"name":"chipchip","steam_id":76561199483183459,"connected_time":797000000000,"state":"active","ping":98},{"user_id":354,"name":"Owl Pacino","steam_id":76561197979970666,"connected_time":388000000000,"state":"active","ping":53},{"user_id":312,"name":"PKBEAST_7","steam_id":76561198177136537,"connected_time":3277000000000,"state":"active","ping":87},{"user_id":331,"name":"Cicada Orchestra","steam_id":76561199226839783,"connected_time":2432000000000,"state":"active","ping":83},{"user_id":353,"name":"Lawnmower","steam_id":76561198186680197,"connected_time":401000000000,"state":"active","ping":95},{"user_id":334,"name":"Cottontail","steam_id":76561198213634567,"connected_time":2404000000000,"state":"active","ping":96},{"user_id":355,"name":"Sean Bae","steam_id":76561198036909521,"connected_time":387000000000,"state":"active","ping":75},{"user_id":343,"name":"Dr. Krazo","steam_id":76561198049236587,"connected_time":1481000000000,"state":"active","ping":75},{"user_id":337,"name":"seems_fishy","steam_id":76561199028846656,"connected_time":2338000000000,"state":"active","ping":65},{"user_id":351,"name":"Looking for BBW in stanfield nc","steam_id":76561199207371234,"connected_time":604000000000,"state":"active","ping":86},{"user_id":325,"name":"ray (the based god)","steam_id":76561198311984941,"connected_time":2535000000000,"state":"active","ping":60},{"user_id":273,"name":"Thundermonkey (SMOKE)","steam_id":76561198017631728,"connected_time":6830000000000,"state":"active","ping":62},{"user_id":344,"name":"dr peppah chug!","steam_id":76561198068835693,"connected_time":1480000000000,"state":"active","ping":88},{"user_id":340,"name":"n_sacco","steam_id":76561198432818448,"connected_time":2298000000000,"state":"active","ping":64},{"user_id":316,"name":"Zoot","steam_id":76561198121944243,"connected_time":3061000000000,"state":"active","ping":77},{"user_id":350,"name":"Smokey","steam_id":76561198093158117,"connected_time":674000000000,"state":"active","ping":61},{"user_id":341,"name":"Straight-Faced Orgasm","steam_id":76561198170007261,"connected_time":2281000000000,"state":"active","ping":92},{"user_id":275,"name":"What the fuck is Liechtenstein","steam_id":76561198882404753,"connected_time":6801000000000,"state":"active","ping":74},{"user_id":346,"name":"Maverick","steam_id":76561198322829814,"connected_time":1128000000000,"state":"active","ping":77},{"user_id":314,"name":"slep.py","steam_id":76561197988287144,"connected_time":3234000000000,"state":"active","ping":55}]},{"server_id":106,"name":"Uncletopia | Chicago | 2 | All Maps","name_short":"chi-2","host":"chi-1.us.uncletopia.com","port":27025,"enabled":true,"region":"us-central","cc":"us","latitude":41.881832,"longitude":-87.62318,"reserved":0,"last_update":"0001-01-01T00:00:00Z","name_a2s":"Uncletopia | Chicago | 2 | All Maps","protocol":17,"map":"pl_frontier_final","folder":"tf","game":"Team Fortress","app_id":440,"player_count":22,"max_players":24,"Bots":0,"server_type":"Dedicated","server_os":"Linux","password":true,"vac":true,"version":"7882260","steam_id":85568392924469985,"keywords":["nocrits","nodmgspread","payload","uncletopia"],"game_id":440,"stv_port":27026,"stv_name":"Uncletopia | Chicago | 2 | All Maps | STV","players":[{"user_id":197,"name":"TravelerFinis","steam_id":76561199181244690,"connected_time":964000000000,"state":"active","ping":96},{"user_id":179,"name":"Knight Minson","steam_id":76561198091567396,"connected_time":2561000000000,"state":"active","ping":60},{"user_id":190,"name":"Ibrahim","steam_id":76561198028320625,"connected_time":1623000000000,"state":"active","ping":70},{"user_id":182,"name":"MILKY","steam_id":76561199261620682,"connected_time":2487000000000,"state":"active","ping":147},{"user_id":183,"name":"Hadvar","steam_id":76561198081681234,"connected_time":2172000000000,"state":"active","ping":56},{"user_id":203,"name":"Huntpk","steam_id":76561198340591674,"connected_time":36000000000,"state":"active","ping":34},{"user_id":202,"name":"you lack sight","steam_id":76561198420227358,"connected_time":158000000000,"state":"active","ping":69},{"user_id":184,"name":"Flaming O'Gaming","steam_id":76561198044185725,"connected_time":2153000000000,"state":"active","ping":70},{"user_id":169,"name":"|WS| Don't_Taze_Me_Bro","steam_id":76561198043289495,"connected_time":3016000000000,"state":"active","ping":74},{"user_id":186,"name":"PiSs MaNn","steam_id":76561198946860609,"connected_time":2090000000000,"state":"active","ping":76},{"user_id":204,"name":"Hatsune Shoomsie","steam_id":76561198047405791,"connected_time":3000000000,"state":"spawning","ping":97},{"user_id":195,"name":"the","steam_id":76561198003226288,"connected_time":1130000000000,"state":"active","ping":59},{"user_id":200,"name":"MillerWhite","steam_id":76561198076060357,"connected_time":791000000000,"state":"active","ping":83},{"user_id":150,"name":"gaming elliptical","steam_id":76561198013456569,"connected_time":4509000000000,"state":"active","ping":47},{"user_id":192,"name":"Gaskranx","steam_id":76561198020269547,"connected_time":1584000000000,"state":"active","ping":69},{"user_id":188,"name":"Haminator","steam_id":76561198398918486,"connected_time":2073000000000,"state":"active","ping":74},{"user_id":164,"name":"‚ó¢‚ó§ Joker ‚ó¢‚ó§","steam_id":76561198038325384,"connected_time":3078000000000,"state":"active","ping":130},{"user_id":165,"name":"·πΩ‚ßâ cookie","steam_id":76561197998884823,"connected_time":3074000000000,"state":"active","ping":56},{"user_id":198,"name":"DeadErebus","steam_id":76561198286117045,"connected_time":904000000000,"state":"active","ping":35},{"user_id":193,"name":"TheSnipersHat","steam_id":76561198057684066,"connected_time":1254000000000,"state":"active","ping":54},{"user_id":196,"name":"[PFF] Giacomo","steam_id":76561198058560798,"connected_time":1068000000000,"state":"active","ping":47},{"user_id":199,"name":"chen","steam_id":76561198064872330,"connected_time":799000000000,"state":"active","ping":70}]},{"server_id":402,"name":"Uncletopia | Chicago | 3 | All Maps","name_short":"chi-3","host":"chi-1.us.uncletopia.com","port":27035,"enabled":true,"region":"us-central","cc":"us","latitude":41.881832,"longitude":-87.62318,"reserved":0,"last_update":"0001-01-01T00:00:00Z","name_a2s":"Uncletopia | Chicago | 3 | All Maps","protocol":17,"map":"pl_thundermountain","folder":"tf","game":"Team Fortress","app_id":440,"player_count":24,"max_players":24,"Bots":0,"server_type":"Dedicated","server_os":"Linux","password":true,"vac":true,"version":"7882260","steam_id":85568392924515191,"keywords":["nocrits","nodmgspread","payload","uncletopia"],"game_id":440,"stv_port":27036,"stv_name":"Uncletopia | Chicago | 3 | All Maps | STV","players":[{"user_id":298,"name":"Sheev Palpatine","steam_id":76561198252332430,"connected_time":487000000000,"state":"active","ping":75},{"user_id":251,"name":"Galaxy","steam_id":76561198035134466,"connected_time":3818000000000,"state":"active","ping":79},{"user_id":250,"name":"threethree","steam_id":76561198177354155,"connected_time":3906000000000,"state":"active","ping":37},{"user_id":288,"name":"MacchuPeachu","steam_id":76561199093242587,"connected_time":1098000000000,"state":"active","ping":77},{"user_id":290,"name":"pHsHy","steam_id":76561198013195018,"connected_time":828000000000,"state":"active","ping":74},{"user_id":247,"name":"Mindstrain","steam_id":76561199274044215,"connected_time":4180000000000,"state":"active","ping":107},{"user_id":302,"name":"ar√∞en","steam_id":76561198838757422,"connected_time":124000000000,"state":"active","ping":85},{"user_id":282,"name":"stupid ape","steam_id":76561198350027075,"connected_time":1824000000000,"state":"active","ping":56},{"user_id":186,"name":"Salty","steam_id":76561198019195732,"connected_time":7503000000000,"state":"active","ping":70},{"user_id":286,"name":"Dr Kickass","steam_id":76561198069659186,"connected_time":1221000000000,"state":"active","ping":59},{"user_id":303,"name":"«∞·∫ø≈£≈£ „ÉÖ","steam_id":76561198355883165,"connected_time":89000000000,"state":"active","ping":78},{"user_id":301,"name":"Empress","steam_id":76561198853239207,"connected_time":239000000000,"state":"active","ping":81},{"user_id":304,"name":"Varveer","steam_id":76561198218897383,"connected_time":35000000000,"state":"spawning","ping":87},{"user_id":281,"name":"Jo","steam_id":76561198060447015,"connected_time":1873000000000,"state":"active","ping":77},{"user_id":293,"name":"WaffleDog","steam_id":76561198107064568,"connected_time":723000000000,"state":"active","ping":45},{"user_id":296,"name":"ceres lfa","steam_id":76561198291976960,"connected_time":567000000000,"state":"active","ping":105},{"user_id":280,"name":"Tlaloc","steam_id":76561198375215983,"connected_time":2138000000000,"state":"active","ping":120},{"user_id":295,"name":"Makrovich","steam_id":76561198051945251,"connected_time":660000000000,"state":"active","ping":67},{"user_id":297,"name":"Mediocre Gaming","steam_id":76561199230467980,"connected_time":539000000000,"state":"active","ping":68},{"user_id":287,"name":"-œÄ- BakaD","steam_id":76561197960559169,"connected_time":1213000000000,"state":"active","ping":55},{"user_id":305,"name":"Quietsharp","steam_id":76561198277968438,"connected_time":10000000000,"state":"active","ping":150},{"user_id":300,"name":"[‚ÄΩ]SaimSS[‚ÄΩ]","steam_id":76561199025374371,"connected_time":318000000000,"state":"active","ping":183},{"user_id":245,"name":"your wickedness is cringe","steam_id":76561198016826181,"connected_time":4300000000000,"state":"active","ping":75}]},{"server_id":403,"name":"Uncletopia | Chicago | 4 | All Maps","name_short":"chi-4","host":"chi-1.us.uncletopia.com","port":27045,"enabled":true,"region":"us-central","cc":"us","latitude":41.881832,"longitude":-87.62318,"reserved":0,"last_update":"0001-01-01T00:00:00Z","name_a2s":"Uncletopia | Chicago | 4 | All Maps","protocol":17,"map":"koth_highpass","folder":"tf","game":"Team Fortress","app_id":440,"player_count":0,"max_players":24,"Bots":0,"server_type":"Dedicated","server_os":"Linux","password":true,"vac":true,"version":"7882260","steam_id":85568392924515193,"keywords":["cp","nocrits","nodmgspread","uncletopia"],"game_id":440,"stv_port":27046,"stv_name":"Uncletopia | Chicago | 4 | All Maps | STV","players":null},{"server_id":36,"name":"Uncletopia | Chicago | 5 | All Maps","name_short":"chi-5","host":"chi-2.us.uncletopia.com","port":27015,"enabled":true,"region":"us-central","cc":"us","latitude":41.881832,"longitude":-87.62318,"reserved":0,"last_update":"0001-01-01T00:00:00Z","name_a2s":"Uncletopia | Chicago | 5 | All Maps","protocol":17,"map":"pl_badwater","folder":"tf","game":"Team Fortress","app_id":440,"player_count":20,"max_players":24,"Bots":0,"server_type":"Dedicated","server_os":"Linux","password":true,"vac":true,"version":"7882260","steam_id":85568392924866362,"keywords":["nocrits","nodmgspread","payload","uncletopia"],"game_id":440,"stv_port":27016,"stv_name":"Uncletopia | Chicago | 5 | All Maps | STV","players":[{"user_id":17,"name":"Navis","steam_id":76561198996230924,"connected_time":1552000000000,"state":"spawning","ping":71},{"user_id":49,"name":"mio","steam_id":76561198239286750,"connected_time":88000000000,"state":"spawning","ping":62},{"user_id":50,"name":"shampoo","steam_id":76561198069600113,"connected_time":39000000000,"state":"connecting","ping":50},{"user_id":14,"name":"‡ºò ‚ãÜÀöüéßCaffeine‚òï*Àñ¬∞","steam_id":76561199259309294,"connected_time":1725000000000,"state":"spawning","ping":61},{"user_id":15,"name":"Belmore","steam_id":76561198009355231,"connected_time":1675000000000,"state":"spawning","ping":98},{"user_id":42,"name":"dude","steam_id":76561198323384949,"connected_time":758000000000,"state":"spawning","ping":99},{"user_id":51,"name":"Ozald","steam_id":76561199092019322,"connected_time":8000000000,"state":"spawning","ping":80},{"user_id":48,"name":"rept","steam_id":76561198022100969,"connected_time":102000000000,"state":"spawning","ping":602},{"user_id":25,"name":"PageBoiSkull","steam_id":76561198237353578,"connected_time":1203000000000,"state":"active","ping":188},{"user_id":26,"name":"that dick can piss","steam_id":76561198971285292,"connected_time":1196000000000,"state":"spawning","ping":64},{"user_id":47,"name":"Versuski","steam_id":76561198085193084,"connected_time":263000000000,"state":"spawning","ping":327},{"user_id":29,"name":"TEXAN DREAM","steam_id":76561198119067958,"connected_time":1109000000000,"state":"spawning","ping":84},{"user_id":31,"name":"crayonnipple","steam_id":76561198070253331,"connected_time":1104000000000,"state":"spawning","ping":301},{"user_id":35,"name":"drwwby","steam_id":76561198067741339,"connected_time":919000000000,"state":"spawning","ping":284},{"user_id":33,"name":"adami","steam_id":76561198800334731,"connected_time":994000000000,"state":"active","ping":95},{"user_id":46,"name":"basil smoking weed","steam_id":76561198119590214,"connected_time":486000000000,"state":"spawning","ping":65},{"user_id":44,"name":"balls","steam_id":76561198143694438,"connected_time":640000000000,"state":"spawning","ping":66},{"user_id":38,"name":"fordivinity","steam_id":76561198893541219,"connected_time":864000000000,"state":"spawning","ping":63},{"user_id":41,"name":"crabapples","steam_id":76561198075818655,"connected_time":781000000000,"state":"spawning","ping":50},{"user_id":43,"name":"caleb","steam_id":76561198080705528,"connected_time":681000000000,"state":"spawning","ping":53}]},{"server_id":37,"name":"Uncletopia | Chicago | 6 | All Maps","name_short":"chi-6","host":"chi-2.us.uncletopia.com","port":27025,"enabled":true,"region":"us-central","cc":"us","latitude":41.881832,"longitude":-87.62318,"reserved":0,"last_update":"0001-01-01T00:00:00Z","name_a2s":"Uncletopia | Chicago | 6 | All Maps","protocol":17,"map":"pl_frontier_final","folder":"tf","game":"Team Fortress","app_id":440,"player_count":0,"max_players":24,"Bots":0,"server_type":"Dedicated","server_os":"Linux","password":true,"vac":true,"version":"7882260","steam_id":85568392924866363,"keywords":["nocrits","nodmgspread","payload","uncletopia"],"game_id":440,"stv_port":27026,"stv_name":"Uncletopia | Chicago | 6 | All Maps | STV","players":null},{"server_id":38,"name":"Uncletopia | Chicago | 7 | Stopwatch Beta","name_short":"chi-7","host":"chi-2.us.uncletopia.com","port":27035,"enabled":true,"region":"us-central","cc":"us","latitude":41.881832,"longitude":-87.62318,"reserved":0,"last_update":"0001-01-01T00:00:00Z","name_a2s":"Uncletopia | Chicago | 7 | Stopwatch Beta","protocol":17,"map":"koth_lakeside_final","folder":"tf","game":"Team Fortress","app_id":440,"player_count":0,"max_players":24,"Bots":0,"server_type":"Dedicated","server_os":"Linux","password":true,"vac":true,"version":"7882260","steam_id":85568392924866364,"keywords":["cp","nocrits","nodmgspread","uncletopia"],"game_id":440,"stv_port":27036,"stv_name":"Uncletopia | Chicago | 7 | Stopwatch Beta | STV","players":null},{"server_id":39,"name":"Uncletopia | Chicago | 8 | Community","name_short":"chi-8","host":"chi-2.us.uncletopia.com","port":27045,"enabled":true,"region":"us-central","cc":"us","latitude":41.881832,"longitude":-87.62318,"reserved":0,"last_update":"0001-01-01T00:00:00Z","name_a2s":"Uncletopia | Chicago | 8 | Community","protocol":17,"map":"workshop/koth_product_final.ugc454272353","folder":"tf","game":"Team Fortress","app_id":440,"player_count":0,"max_players":24,"Bots":0,"server_type":"Dedicated","server_os":"Linux","password":true,"vac":true,"version":"7882260","steam_id":85568392924866365,"keywords":["cp","nocrits","nodmgspread","uncletopia"],"game_id":440,"stv_port":27046,"stv_name":"Uncletopia | Chicago | 8 | Community | STV","players":null},{"server_id":8,"name":"Uncletopia | Dallas | 1 | All Maps","name_short":"dal-1","host":"dal-1.us.uncletopia.com","port":27015,"enabled":true,"region":"us-central","cc":"us","latitude":32.779167,"longitude":-96.80889,"reserved":0,"last_update":"0001-01-01T00:00:00Z","name_a2s":"Uncletopia | Dallas | 1 | All Maps","protocol":17,"map":"cp_dustbowl","folder":"tf","game":"Team Fortress","app_id":440,"player_count":24,"max_players":24,"Bots":0,"server_type":"Dedicated","server_os":"Linux","password":true,"vac":true,"version":"7882260","steam_id":85568392924469986,"keywords":["cp","nocrits","nodmgspread","uncletopia"],"game_id":440,"stv_port":27016,"stv_name":"Uncletopia | Dallas | 1 | All Maps | STV","players":[{"user_id":205,"name":"mkl","steam_id":76561197986401685,"connected_time":3556000000000,"state":"active","ping":57},{"user_id":218,"name":"Alkimia","steam_id":76561198385763137,"connected_time":3248000000000,"state":"active","ping":122},{"user_id":193,"name":"Rusted Cake","steam_id":76561198209755931,"connected_time":4264000000000,"state":"active","ping":96},{"user_id":184,"name":"TurkeyJuice","steam_id":76561198193109422,"connected_time":4644000000000,"state":"active","ping":60},{"user_id":240,"name":"Pinetree w/ apples.","steam_id":76561198105411709,"connected_time":1940000000000,"state":"active","ping":108},{"user_id":181,"name":"Fresh0c0","steam_id":76561198271933283,"connected_time":5149000000000,"state":"active","ping":82},{"user_id":232,"name":"0x01FE","steam_id":76561198838881917,"connected_time":2700000000000,"state":"active","ping":64},{"user_id":195,"name":"Motreir","steam_id":76561198151717946,"connected_time":4195000000000,"state":"active","ping":85},{"user_id":242,"name":"Bogey","steam_id":76561198096227944,"connected_time":1851000000000,"state":"active","ping":46},{"user_id":201,"name":"crashymicsplody","steam_id":76561198213916765,"connected_time":3813000000000,"state":"active","ping":93},{"user_id":244,"name":"Amazon","steam_id":76561198156095880,"connected_time":1242000000000,"state":"active","ping":90},{"user_id":147,"name":"Greg Boberton 2012","steam_id":76561198983566026,"connected_time":7545000000000,"state":"active","ping":86},{"user_id":223,"name":"Flint","steam_id":76561198148412420,"connected_time":2816000000000,"state":"active","ping":74},{"user_id":167,"name":"Darling","steam_id":76561198127525888,"connected_time":5841000000000,"state":"active","ping":55},{"user_id":187,"name":"Wiggee","steam_id":76561197972792989,"connected_time":4593000000000,"state":"active","ping":48},{"user_id":241,"name":"BLOCKHEAD04","steam_id":76561198808224331,"connected_time":1887000000000,"state":"active","ping":128},{"user_id":247,"name":"IlTrashPanda","steam_id":76561198447864095,"connected_time":612000000000,"state":"active","ping":59},{"user_id":215,"name":"ChoiBoi9001","steam_id":76561199401392691,"connected_time":3329000000000,"state":"active","ping":78},{"user_id":230,"name":"Sbork","steam_id":76561198035681610,"connected_time":2725000000000,"state":"active","ping":109},{"user_id":235,"name":"Rhutebeer","steam_id":76561198018302761,"connected_time":2375000000000,"state":"active","ping":85},{"user_id":199,"name":"Sigiferd","steam_id":76561198148788110,"connected_time":4063000000000,"state":"active","ping":141},{"user_id":246,"name":"BBQcloroxwipes","steam_id":76561199044668449,"connected_time":1150000000000,"state":"active","ping":127},{"user_id":227,"name":"Grognak","steam_id":76561198044710527,"connected_time":2784000000000,"state":"active","ping":102},{"user_id":220,"name":"will smith","steam_id":76561198976876859,"connected_time":3054000000000,"state":"active","ping":89}]},{"server_id":108,"name":"Uncletopia | Dallas | 2 | All Maps","name_short":"dal-2","host":"dal-1.us.uncletopia.com","port":27025,"enabled":true,"region":"us-central","cc":"us","latitude":32.779167,"longitude":-96.80889,"reserved":0,"last_update":"0001-01-01T00:00:00Z","name_a2s":"Uncletopia | Dallas | 2 | All Maps","protocol":17,"map":"cp_snakewater_final1","folder":"tf","game":"Team Fortress","app_id":440,"player_count":20,"max_players":24,"Bots":0,"server_type":"Dedicated","server_os":"Linux","password":true,"vac":true,"version":"7882260","steam_id":85568392924469988,"keywords":["cp","nocrits","nodmgspread","uncletopia"],"game_id":440,"stv_port":27026,"stv_name":"Uncletopia | Dallas | 2 | All Maps | STV","players":[{"user_id":165,"name":"Jacob Hornberger 2016","steam_id":76561198204549723,"connected_time":314000000000,"state":"active","ping":122},{"user_id":156,"name":"dweaver","steam_id":76561198119610135,"connected_time":1401000000000,"state":"active","ping":65},{"user_id":127,"name":"Soul Garg Plushy","steam_id":76561198044480181,"connected_time":3804000000000,"state":"active","ping":74},{"user_id":153,"name":"squish","steam_id":76561198186417941,"connected_time":1692000000000,"state":"active","ping":62},{"user_id":157,"name":"Unlock The Shock (She/They)","steam_id":76561198823616667,"connected_time":1399000000000,"state":"active","ping":54},{"user_id":167,"name":"BroBama","steam_id":76561198203732587,"connected_time":82000000000,"state":"active","ping":87},{"user_id":137,"name":"Hollister's Tree","steam_id":76561198982631429,"connected_time":2687000000000,"state":"active","ping":56},{"user_id":67,"name":"Fresh Lychee","steam_id":76561198045399559,"connected_time":7452000000000,"state":"active","ping":73},{"user_id":147,"name":"Shinies","steam_id":76561198169459631,"connected_time":2257000000000,"state":"active","ping":43},{"user_id":151,"name":"MrStinkyCat","steam_id":76561198141354002,"connected_time":2012000000000,"state":"active","ping":75},{"user_id":149,"name":"DMM","steam_id":76561198065426171,"connected_time":2097000000000,"state":"active","ping":48},{"user_id":152,"name":"Weeb","steam_id":76561198333568146,"connected_time":1979000000000,"state":"active","ping":84},{"user_id":146,"name":"Stryder","steam_id":76561199387418697,"connected_time":2322000000000,"state":"active","ping":69},{"user_id":158,"name":"Lolxdloldx","steam_id":76561198136887125,"connected_time":1386000000000,"state":"active","ping":98},{"user_id":139,"name":"Proud Swift City Resident","steam_id":76561198036283992,"connected_time":2678000000000,"state":"active","ping":82},{"user_id":144,"name":"wmarriner66","steam_id":76561198045357592,"connected_time":2549000000000,"state":"active","ping":88},{"user_id":154,"name":"Spazz","steam_id":76561198036167494,"connected_time":1422000000000,"state":"active","ping":46},{"user_id":164,"name":"Swampy","steam_id":76561198255440803,"connected_time":361000000000,"state":"active","ping":82},{"user_id":166,"name":"brian eno","steam_id":76561198109901138,"connected_time":312000000000,"state":"active","ping":90},{"user_id":118,"name":"ham","steam_id":76561198130412963,"connected_time":4888000000000,"state":"active","ping":61}]},{"server_id":5,"name":"Uncletopia | Frankfurt | 1 | All Maps","name_short":"frk-1","host":"frk-1.de.uncletopia.com","port":27015,"enabled":true,"region":"eu","cc":"de","latitude":50.110924,"longitude":8.682127,"reserved":0,"last_update":"0001-01-01T00:00:00Z","name_a2s":"Uncletopia | Frankfurt | 1 | All Maps","protocol":17,"map":"pl_upward","folder":"tf","game":"Team Fortress","app_id":440,"player_count":24,"max_players":24,"Bots":0,"server_type":"Dedicated","server_os":"Linux","password":true,"vac":true,"version":"7882260","steam_id":85568392924469989,"keywords":["nocrits","nodmgspread","payload","uncletopia"],"game_id":440,"stv_port":27016,"stv_name":"Uncletopia | Frankfurt | 1 | All Maps | STV","players":[{"user_id":569,"name":"Master Of Noob","steam_id":76561198217926783,"connected_time":4242000000000,"state":"active","ping":69},{"user_id":609,"name":"LivEssense","steam_id":76561198052476979,"connected_time":2203000000000,"state":"active","ping":75},{"user_id":626,"name":"Floris","steam_id":76561198001717422,"connected_time":864000000000,"state":"active","ping":68},{"user_id":608,"name":"SlowMode","steam_id":76561198039631442,"connected_time":2251000000000,"state":"active","ping":76},{"user_id":548,"name":"Unseen","steam_id":76561198154670360,"connected_time":5770000000000,"state":"active","ping":75},{"user_id":622,"name":"Trucker McGubber","steam_id":76561198322960934,"connected_time":1481000000000,"state":"active","ping":58},{"user_id":610,"name":"Carl","steam_id":76561198045638738,"connected_time":2190000000000,"state":"active","ping":73},{"user_id":635,"name":"Dawidowski","steam_id":76561199137466824,"connected_time":515000000000,"state":"active","ping":68},{"user_id":633,"name":"D√•vid","steam_id":76561198184135755,"connected_time":592000000000,"state":"active","ping":63},{"user_id":602,"name":"EmptyBottle356","steam_id":76561197970915314,"connected_time":2546000000000,"state":"active","ping":67},{"user_id":638,"name":"Kodutah","steam_id":76561198203405574,"connected_time":285000000000,"state":"active","ping":60},{"user_id":594,"name":"Dr. Trustmeonthisone","steam_id":76561198009884765,"connected_time":2634000000000,"state":"active","ping":91},{"user_id":624,"name":"Fat scout","steam_id":76561199204477065,"connected_time":1123000000000,"state":"active","ping":61},{"user_id":639,"name":"manKe","steam_id":76561198008564860,"connected_time":215000000000,"state":"active","ping":61},{"user_id":632,"name":"Milk","steam_id":76561198125876588,"connected_time":709000000000,"state":"active","ping":53},{"user_id":629,"name":"shrivell","steam_id":76561198134512576,"connected_time":849000000000,"state":"active","ping":199},{"user_id":557,"name":"Flal","steam_id":76561198453819816,"connected_time":4829000000000,"state":"active","ping":63},{"user_id":636,"name":"WolfmanCZ","steam_id":76561199157141414,"connected_time":487000000000,"state":"active","ping":63},{"user_id":603,"name":"Bootywizard356","steam_id":76561199487381897,"connected_time":2542000000000,"state":"active","ping":108},{"user_id":620,"name":"S Ka Y","steam_id":76561197993423450,"connected_time":1597000000000,"state":"active","ping":52},{"user_id":538,"name":"NO end to POOTIS","steam_id":76561198144879361,"connected_time":6100000000000,"state":"active","ping":119},{"user_id":590,"name":"Dollar","steam_id":76561199250808808,"connected_time":2989000000000,"state":"active","ping":78},{"user_id":623,"name":"Û†Å≥‚Åß‚Åß Kruthal","steam_id":76561198245726582,"connected_time":1367000000000,"state":"active","ping":74},{"user_id":640,"name":"domek brexit geezerüá¨üáß","steam_id":76561198048447632,"connected_time":39000000000,"state":"spawning","ping":235}]},{"server_id":110,"name":"Uncletopia | Frankfurt | 2 | All Maps","name_short":"frk-2","host":"frk-1.de.uncletopia.com","port":27025,"enabled":true,"region":"eu","cc":"de","latitude":50.110924,"longitude":8.682127,"reserved":0,"last_update":"0001-01-01T00:00:00Z","name_a2s":"Uncletopia | Frankfurt | 2 | All Maps","protocol":17,"map":"koth_viaduct","folder":"tf","game":"Team Fortress","app_id":440,"player_count":7,"max_players":24,"Bots":0,"server_type":"Dedicated","server_os":"Linux","password":true,"vac":true,"version":"7882260","steam_id":85568392924469990,"keywords":["cp","nocrits","nodmgspread","uncletopia"],"game_id":440,"stv_port":27026,"stv_name":"Uncletopia | Frankfurt | 2 | All Maps | STV","players":[{"user_id":217,"name":"SW_Svit #savetf2","steam_id":76561199099715145,"connected_time":2172000000000,"state":"active","ping":57},{"user_id":218,"name":"supercharger832","steam_id":76561198871408515,"connected_time":2060000000000,"state":"active","ping":51},{"user_id":219,"name":"FanFish","steam_id":76561199389558024,"connected_time":1965000000000,"state":"active","ping":59},{"user_id":222,"name":"Walter Hartwell White Gaming","steam_id":76561198061996646,"connected_time":998000000000,"state":"active","ping":69},{"user_id":224,"name":"Fix","steam_id":76561198048000198,"connected_time":818000000000,"state":"active","ping":74},{"user_id":223,"name":"Footielego","steam_id":76561199025646486,"connected_time":979000000000,"state":"active","ping":73},{"user_id":225,"name":"Rare bulldog owner","steam_id":76561199407941086,"connected_time":494000000000,"state":"active","ping":62}]},{"server_id":308,"name":"Uncletopia | Frankfurt | 3 | All Maps","name_short":"frk-3","host":"frk-1.de.uncletopia.com","port":27035,"enabled":true,"region":"eu","cc":"de","latitude":50.110924,"longitude":8.682127,"reserved":0,"last_update":"0001-01-01T00:00:00Z","name_a2s":"Uncletopia | Frankfurt | 3 | All Maps","protocol":17,"map":"pl_barnblitz","folder":"tf","game":"Team Fortress","app_id":440,"player_count":24,"max_players":24,"Bots":0,"server_type":"Dedicated","server_os":"Linux","password":true,"vac":true,"version":"7882260","steam_id":85568392924504274,"keywords":["nocrits","nodmgspread","payload","uncletopia"],"game_id":440,"stv_port":27036,"stv_name":"Uncletopia | Frankfurt | 3 | All Maps | STV","players":[{"user_id":329,"name":"presidentialAIDS","steam_id":76561199257284077,"connected_time":707000000000,"state":"active","ping":143},{"user_id":315,"name":"Rotten Fetus","steam_id":76561198121790811,"connected_time":1506000000000,"state":"active","ping":112},{"user_id":317,"name":"Mr.Schnittlauch","steam_id":76561198295868113,"connected_time":1494000000000,"state":"active","ping":56},{"user_id":322,"name":"BING CHILLING","steam_id":76561198065438030,"connected_time":944000000000,"state":"active","ping":126},{"user_id":300,"name":"Omu norilor","steam_id":76561198453523560,"connected_time":2710000000000,"state":"active","ping":77},{"user_id":303,"name":"Rodia","steam_id":76561197968293161,"connected_time":2250000000000,"state":"active","ping":64},{"user_id":336,"name":"Roland Deschain","steam_id":76561198023296355,"connected_time":259000000000,"state":"active","ping":104},{"user_id":318,"name":"Miky Cage","steam_id":76561198348300121,"connected_time":1472000000000,"state":"active","ping":82},{"user_id":321,"name":"kamu","steam_id":76561198367337443,"connected_time":964000000000,"state":"active","ping":100},{"user_id":319,"name":"Luxotrics","steam_id":76561198053455161,"connected_time":999000000000,"state":"active","ping":73},{"user_id":323,"name":"Bulczany","steam_id":76561198116469727,"connected_time":915000000000,"state":"active","ping":84},{"user_id":297,"name":"Kapitan Polska","steam_id":76561197968069413,"connected_time":3187000000000,"state":"active","ping":81},{"user_id":311,"name":"smile","steam_id":76561198365841841,"connected_time":1805000000000,"state":"active","ping":73},{"user_id":324,"name":"Yahram Qiehpah","steam_id":76561198049533385,"connected_time":878000000000,"state":"active","ping":108},{"user_id":339,"name":"femboy gamer wife:3","steam_id":76561198152368271,"connected_time":98000000000,"state":"active","ping":96},{"user_id":283,"name":"Fifourche","steam_id":76561198078209480,"connected_time":4438000000000,"state":"active","ping":62},{"user_id":332,"name":"Fr1Zer","steam_id":76561198357086270,"connected_time":559000000000,"state":"active","ping":91},{"user_id":314,"name":"Ratatatatatatouille","steam_id":76561198182267098,"connected_time":1694000000000,"state":"active","ping":93},{"user_id":306,"name":"Moby Chick (F2P)","steam_id":76561198151152730,"connected_time":1919000000000,"state":"active","ping":107},{"user_id":325,"name":"ArtaKir","steam_id":76561198291746440,"connected_time":849000000000,"state":"active","ping":77},{"user_id":338,"name":"Dill Killem","steam_id":76561199071571354,"connected_time":203000000000,"state":"active","ping":77},{"user_id":327,"name":"Muppburg","steam_id":76561198031070682,"connected_time":805000000000,"state":"active","ping":69},{"user_id":305,"name":"Niggi","steam_id":76561198039866494,"connected_time":2218000000000,"state":"active","ping":61},{"user_id":331,"name":"Aight","steam_id":76561198300453404,"connected_time":656000000000,"state":"active","ping":100}]},{"server_id":309,"name":"Uncletopia | Frankfurt | 4 | All Maps","name_short":"frk-4","host":"frk-1.de.uncletopia.com","port":27045,"enabled":true,"region":"eu","cc":"de","latitude":50.110924,"longitude":8.682127,"reserved":0,"last_update":"0001-01-01T00:00:00Z","name_a2s":"Uncletopia | Frankfurt | 4 | All Maps","protocol":17,"map":"cp_dustbowl","folder":"tf","game":"Team Fortress","app_id":440,"player_count":24,"max_players":24,"Bots":0,"server_type":"Dedicated","server_os":"Linux","password":true,"vac":true,"version":"7882260","steam_id":85568392924504275,"keywords":["cp","nocrits","nodmgspread","uncletopia"],"game_id":440,"stv_port":27046,"stv_name":"Uncletopia | Frankfurt | 4 | All Maps | STV","players":[{"user_id":299,"name":"Inov","steam_id":76561198207364644,"connected_time":5102000000000,"state":"active","ping":84},{"user_id":352,"name":"ARROGANT","steam_id":76561198113089831,"connected_time":890000000000,"state":"active","ping":101},{"user_id":337,"name":"JonaMake","steam_id":76561198415629249,"connected_time":2098000000000,"state":"active","ping":104},{"user_id":364,"name":"David \"Crash\" Murphy","steam_id":76561198292845505,"connected_time":112000000000,"state":"active","ping":130},{"user_id":359,"name":"kallerannar","steam_id":76561199095701143,"connected_time":445000000000,"state":"active","ping":81},{"user_id":355,"name":"the scringly dingly","steam_id":76561198192179174,"connected_time":792000000000,"state":"active","ping":117},{"user_id":356,"name":"Aldridge","steam_id":76561198817906579,"connected_time":767000000000,"state":"active","ping":70},{"user_id":230,"name":":)","steam_id":76561198039964082,"connected_time":9840000000000,"state":"active","ping":54},{"user_id":362,"name":"USBug999","steam_id":76561199174677820,"connected_time":126000000000,"state":"active","ping":138},{"user_id":281,"name":"LOBZIK","steam_id":76561198114830120,"connected_time":7715000000000,"state":"active","ping":79},{"user_id":334,"name":"Pacanaz","steam_id":76561198011514552,"connected_time":2232000000000,"state":"active","ping":84},{"user_id":357,"name":"tralalaOuiOui","steam_id":76561197963471507,"connected_time":723000000000,"state":"active","ping":58},{"user_id":363,"name":"Doctor racism (OFFICIAL)","steam_id":76561199196316280,"connected_time":122000000000,"state":"active","ping":78},{"user_id":275,"name":"Ixsus\u003c3","steam_id":76561198094756869,"connected_time":8002000000000,"state":"active","ping":57},{"user_id":338,"name":"Punker","steam_id":76561198255964089,"connected_time":2096000000000,"state":"active","ping":109},{"user_id":323,"name":"Anadest","steam_id":76561198992528373,"connected_time":3456000000000,"state":"active","ping":82},{"user_id":350,"name":"Tonne","steam_id":76561197970856766,"connected_time":1124000000000,"state":"active","ping":59},{"user_id":365,"name":"Monsieur Patate","steam_id":76561198073950004,"connected_time":106000000000,"state":"active","ping":45},{"user_id":320,"name":"Littleyoshifan","steam_id":76561198445491045,"connected_time":3829000000000,"state":"active","ping":99},{"user_id":367,"name":"Swift","steam_id":76561199095622589,"connected_time":85000000000,"state":"active","ping":74},{"user_id":333,"name":"Laske","steam_id":76561198370905474,"connected_time":2243000000000,"state":"active","ping":75},{"user_id":372,"name":"Salih","steam_id":76561198287934839,"connected_time":18000000000,"state":"active","ping":53},{"user_id":286,"name":"0xDEADBEEF","steam_id":76561199075416111,"connected_time":7005000000000,"state":"active","ping":87},{"user_id":369,"name":"Jackie Chan","steam_id":76561199378865926,"connected_time":75000000000,"state":"active","ping":114}]},{"server_id":310,"name":"Uncletopia | Frankfurt | 5 | All Maps","name_short":"frk-5","host":"frk-1.de.uncletopia.com","port":27055,"enabled":true,"region":"eu","cc":"de","latitude":50.110924,"longitude":8.682127,"reserved":0,"last_update":"0001-01-01T00:00:00Z","name_a2s":"Uncletopia | Frankfurt | 5 | All Maps","protocol":17,"map":"pl_upward","folder":"tf","game":"Team Fortress","app_id":440,"player_count":24,"max_players":24,"Bots":0,"server_type":"Dedicated","server_os":"Linux","password":true,"vac":true,"version":"7882260","steam_id":85568392924504277,"keywords":["nocrits","nodmgspread","payload","uncletopia"],"game_id":440,"stv_port":27056,"stv_name":"Uncletopia | Frankfurt | 5 | All Maps | STV","players":[{"user_id":393,"name":"emesis green","steam_id":76561198059699043,"connected_time":887000000000,"state":"active","ping":74},{"user_id":302,"name":"Hexagon","steam_id":76561198151205758,"connected_time":6981000000000,"state":"active","ping":78},{"user_id":389,"name":"robokitten55","steam_id":76561199153659003,"connected_time":945000000000,"state":"active","ping":173},{"user_id":390,"name":"Shadow The Hedgehog","steam_id":76561198323622980,"connected_time":922000000000,"state":"active","ping":86},{"user_id":380,"name":"Skuld","steam_id":76561198064734905,"connected_time":2061000000000,"state":"active","ping":90},{"user_id":392,"name":"waizukaan","steam_id":76561198119210003,"connected_time":891000000000,"state":"active","ping":93},{"user_id":379,"name":"bad farter","steam_id":76561198261853441,"connected_time":2194000000000,"state":"active","ping":60},{"user_id":385,"name":"Cabbch","steam_id":76561198045955679,"connected_time":1796000000000,"state":"active","ping":60},{"user_id":342,"name":"Hercules","steam_id":76561198041164170,"connected_time":5231000000000,"state":"active","ping":60},{"user_id":370,"name":"killbind irl","steam_id":76561198180637374,"connected_time":2670000000000,"state":"active","ping":80},{"user_id":404,"name":"w presser","steam_id":76561197994600818,"connected_time":510000000000,"state":"active","ping":45},{"user_id":409,"name":"night.s","steam_id":76561198326287823,"connected_time":328000000000,"state":"active","ping":74},{"user_id":410,"name":"Mong","steam_id":76561198254497427,"connected_time":276000000000,"state":"active","ping":58},{"user_id":396,"name":"mark of the outsider","steam_id":76561198309246388,"connected_time":818000000000,"state":"active","ping":49},{"user_id":397,"name":"xxx768a (Ku≈Ñda)","steam_id":76561197971553196,"connected_time":813000000000,"state":"active","ping":74},{"user_id":400,"name":"astigmatic","steam_id":76561199103959197,"connected_time":682000000000,"state":"active","ping":99},{"user_id":401,"name":"Bobo","steam_id":76561198052308399,"connected_time":615000000000,"state":"active","ping":68},{"user_id":412,"name":"Vikeners","steam_id":76561198029239817,"connected_time":12000000000,"state":"active","ping":71},{"user_id":376,"name":"Ar|es","steam_id":76561198819160313,"connected_time":2559000000000,"state":"active","ping":84},{"user_id":406,"name":"Washed Up","steam_id":76561198347336086,"connected_time":469000000000,"state":"active","ping":86},{"user_id":407,"name":"I am bad in TF2 (not bot)","steam_id":76561199214000895,"connected_time":466000000000,"state":"active","ping":207},{"user_id":366,"name":"Darkf065","steam_id":76561199029257202,"connected_time":3361000000000,"state":"active","ping":101},{"user_id":355,"name":"Stridsvagn 122B PLSS","steam_id":76561197999285844,"connected_time":4336000000000,"state":"active","ping":89},{"user_id":323,"name":"Mr. Mundy","steam_id":76561198132008918,"connected_time":6158000000000,"state":"active","ping":73}]},{"server_id":311,"name":"Uncletopia | Frankfurt | 6 | All Maps","name_short":"frk-6","host":"frk-1.de.uncletopia.com","port":27065,"enabled":true,"region":"eu","cc":"de","latitude":50.110924,"longitude":8.682127,"reserved":0,"last_update":"0001-01-01T00:00:00Z","name_a2s":"Uncletopia | Frankfurt | 6 | All Maps","protocol":17,"map":"pl_barnblitz","folder":"tf","game":"Team Fortress","app_id":440,"player_count":24,"max_players":24,"Bots":0,"server_type":"Dedicated","server_os":"Linux","password":true,"vac":true,"version":"7882260","steam_id":85568392924504278,"keywords":["nocrits","nodmgspread","payload","uncletopia"],"game_id":440,"stv_port":27066,"stv_name":"Uncletopia | Frankfurt | 6 | All Maps | STV","players":[{"user_id":464,"name":"Bullet magnet (FIN)","steam_id":76561197975715220,"connected_time":8114000000000,"state":"spawning","ping":83},{"user_id":586,"name":"KrevTiz","steam_id":76561199043366861,"connected_time":512000000000,"state":"active","ping":179},{"user_id":554,"name":"B-17 FLYING FORTRESS","steam_id":76561199239974737,"connected_time":1753000000000,"state":"active","ping":95},{"user_id":594,"name":"Rexy the tea rex","steam_id":76561199337531826,"connected_time":263000000000,"state":"active","ping":89},{"user_id":588,"name":"alice","steam_id":76561198269200388,"connected_time":468000000000,"state":"active","ping":74},{"user_id":587,"name":"Sex Man TF2","steam_id":76561198798657045,"connected_time":485000000000,"state":"active","ping":101},{"user_id":576,"name":"Dr.Dag","steam_id":76561198301430910,"connected_time":988000000000,"state":"active","ping":77},{"user_id":589,"name":"Axe","steam_id":76561199229768972,"connected_time":466000000000,"state":"active","ping":136},{"user_id":533,"name":"antlionguard","steam_id":76561198072747143,"connected_time":4075000000000,"state":"spawning","ping":181},{"user_id":600,"name":"Commit Persona 3","steam_id":76561198060503243,"connected_time":14000000000,"state":"active","ping":47},{"user_id":577,"name":"Toni Pepperoni","steam_id":76561198814211030,"connected_time":959000000000,"state":"spawning","ping":198},{"user_id":524,"name":"szmen","steam_id":76561198072569764,"connected_time":4544000000000,"state":"active","ping":94},{"user_id":601,"name":"Conagher","steam_id":76561198217607996,"connected_time":11000000000,"state":"spawning","ping":86},{"user_id":582,"name":"Mike","steam_id":76561198228455736,"connected_time":784000000000,"state":"active","ping":67},{"user_id":597,"name":"Kleiner Engel","steam_id":76561198009922500,"connected_time":117000000000,"state":"active","ping":101},{"user_id":602,"name":"Remizer","steam_id":76561198799755616,"connected_time":2000000000,"state":"spawning","ping":81},{"user_id":603,"name":"flange","steam_id":76561198040182692,"connected_time":0,"state":"spawning","ping":25},{"user_id":590,"name":"rets","steam_id":76561198061551392,"connected_time":411000000000,"state":"spawning","ping":104},{"user_id":562,"name":"Racco Slava Ukraina","steam_id":76561198198855238,"connected_time":1432000000000,"state":"active","ping":52},{"user_id":598,"name":"Dinoboy2009","steam_id":76561198382755652,"connected_time":73000000000,"state":"spawning","ping":139},{"user_id":569,"name":"doctor sex","steam_id":76561197992018795,"connected_time":1225000000000,"state":"spawning","ping":72},{"user_id":591,"name":"QR code 78","steam_id":76561198073749509,"connected_time":379000000000,"state":"active","ping":64},{"user_id":571,"name":"frbuz","steam_id":76561198327135462,"connected_time":1222000000000,"state":"spawning","ping":174},{"user_id":599,"name":"cowboy","steam_id":76561198080361351,"connected_time":64000000000,"state":"active","ping":48}]},{"server_id":23,"name":"Uncletopia | Frankfurt | 7 | Stopwatch Beta","name_short":"frk-7","host":"frk-1.de.uncletopia.com","port":27075,"enabled":true,"region":"eu","cc":"de","latitude":50.110924,"longitude":8.682127,"reserved":0,"last_update":"0001-01-01T00:00:00Z","name_a2s":"Uncletopia | Frankfurt | 7 | Stopwatch Beta","protocol":17,"map":"pl_borneo","folder":"tf","game":"Team Fortress","app_id":440,"player_count":0,"max_players":24,"Bots":0,"server_type":"Dedicated","server_os":"Linux","password":true,"vac":true,"version":"7882260","steam_id":85568392924742827,"keywords":["nocrits","nodmgspread","payload","uncletopia"],"game_id":440,"stv_port":27076,"stv_name":"Uncletopia | Frankfurt | 7 | Stopwatch Beta | STV","players":null},{"server_id":24,"name":"Uncletopia | Frankfurt | 8 | Community","name_short":"frk-8","host":"frk-1.de.uncletopia.com","port":27085,"enabled":true,"region":"eu","cc":"de","latitude":50.110924,"longitude":8.682127,"reserved":0,"last_update":"0001-01-01T00:00:00Z","name_a2s":"Uncletopia | Frankfurt | 8 | Community","protocol":17,"map":"workshop/cp_reckoner_rc6.ugc674719999","folder":"tf","game":"Team Fortress","app_id":440,"player_count":0,"max_players":24,"Bots":0,"server_type":"Dedicated","server_os":"Linux","password":true,"vac":true,"version":"7882260","steam_id":85568392924742828,"keywords":["cp","nocrits","nodmgspread","uncletopia"],"game_id":440,"stv_port":27086,"stv_name":"Uncletopia | Frankfurt | 8 | Community | STV","players":null},{"server_id":202,"name":"Uncletopia | Hong Kong | 1 | All Maps","name_short":"hgk-1","host":"hgk-1.hk.uncletopia.com","port":27015,"enabled":true,"region":"asia","cc":"hk","latitude":22.302711,"longitude":114.177216,"reserved":0,"last_update":"0001-01-01T00:00:00Z","name_a2s":"Uncletopia | Hong Kong | 1 | All Maps","protocol":17,"map":"koth_highpass","folder":"tf","game":"Team Fortress","app_id":440,"player_count":0,"max_players":24,"Bots":0,"server_type":"Dedicated","server_os":"Linux","password":true,"vac":true,"version":"7882260","steam_id":85568392924494504,"keywords":["cp","nocrits","nodmgspread","uncletopia"],"game_id":440,"stv_port":27016,"stv_name":"Uncletopia | Hong Kong | 1 | All Maps | STV","players":null},{"server_id":1,"name":"Uncletopia | Los Angeles | 1 | All Maps","name_short":"lax-1","host":"lax-1.us.uncletopia.com","port":27015,"enabled":true,"region":"us-west","cc":"us","latitude":33.94279,"longitude":-118.41004,"reserved":0,"last_update":"0001-01-01T00:00:00Z","name_a2s":"Uncletopia | Los Angeles | 1 | All Maps","protocol":17,"map":"koth_lakeside_final","folder":"tf","game":"Team Fortress","app_id":440,"player_count":0,"max_players":24,"Bots":0,"server_type":"Dedicated","server_os":"Linux","password":true,"vac":true,"version":"7882260","steam_id":85568392924469991,"keywords":["cp","nocrits","nodmgspread","uncletopia"],"game_id":440,"stv_port":27016,"stv_name":"Uncletopia | Los Angeles | 1 | All Maps | STV","players":null},{"server_id":112,"name":"Uncletopia | Los Angeles | 2 | All Maps","name_short":"lax-2","host":"lax-1.us.uncletopia.com","port":27025,"enabled":true,"region":"us-west","cc":"us","latitude":33.94279,"longitude":-118.41004,"reserved":0,"last_update":"0001-01-01T00:00:00Z","name_a2s":"Uncletopia | Los Angeles | 2 | All Maps","protocol":17,"map":"pl_borneo","folder":"tf","game":"Team Fortress","app_id":440,"player_count":24,"max_players":24,"Bots":0,"server_type":"Dedicated","server_os":"Linux","password":true,"vac":true,"version":"7882260","steam_id":85568392924469992,"keywords":["nocrits","nodmgspread","payload","uncletopia"],"game_id":440,"stv_port":27026,"stv_name":"Uncletopia | Los Angeles | 2 | All Maps | STV","players":[{"user_id":30,"name":"StarGuyVI","steam_id":76561199366304746,"connected_time":780000000000,"state":"active","ping":106},{"user_id":38,"name":"Joe Biden (Deceased)","steam_id":76561198170427507,"connected_time":583000000000,"state":"active","ping":57},{"user_id":41,"name":"bunga unga","steam_id":76561198093353303,"connected_time":411000000000,"state":"active","ping":37},{"user_id":10,"name":"beans","steam_id":76561199082781884,"connected_time":1994000000000,"state":"active","ping":51},{"user_id":44,"name":"Uncle Dane Wannabe","steam_id":76561198851958868,"connected_time":291000000000,"state":"active","ping":51},{"user_id":18,"name":"Tejo","steam_id":76561198200617911,"connected_time":1579000000000,"state":"active","ping":68},{"user_id":42,"name":"@reallyBigBoss","steam_id":76561198137903950,"connected_time":378000000000,"state":"active","ping":131},{"user_id":20,"name":"Pudsla","steam_id":76561198258974036,"connected_time":1393000000000,"state":"active","ping":48},{"user_id":23,"name":"Pickle SANDWICH! With the FRIES","steam_id":76561198286957487,"connected_time":1295000000000,"state":"active","ping":105},{"user_id":24,"name":"$lime k‚úîng kawhi_4NIMEGURL^-^","steam_id":76561198283687382,"connected_time":1202000000000,"state":"active","ping":96},{"user_id":43,"name":"Ockulus","steam_id":76561199069638460,"connected_time":338000000000,"state":"active","ping":47},{"user_id":26,"name":"msay","steam_id":76561198170888029,"connected_time":1195000000000,"state":"active","ping":156},{"user_id":45,"name":"tyson","steam_id":76561198135028860,"connected_time":257000000000,"state":"active","ping":119},{"user_id":46,"name":"StaticusFinch","steam_id":76561198352499132,"connected_time":197000000000,"state":"active","ping":130},{"user_id":32,"name":"No Dwarf Left Behind","steam_id":76561199011894606,"connected_time":765000000000,"state":"active","ping":56},{"user_id":33,"name":"ForAPessimistImPrettyOptimistic","steam_id":76561198170128009,"connected_time":661000000000,"state":"active","ping":61},{"user_id":35,"name":"APOTATO","steam_id":76561198118199858,"connected_time":613000000000,"state":"active","ping":59},{"user_id":36,"name":"King0500","steam_id":76561198402396167,"connected_time":611000000000,"state":"active","ping":67},{"user_id":47,"name":"LocalShowerShitter","steam_id":76561198984737182,"connected_time":177000000000,"state":"active","ping":86},{"user_id":48,"name":"MaxiBoiTF2onYT #SaveTF2","steam_id":76561199004011076,"connected_time":146000000000,"state":"active","ping":60},{"user_id":49,"name":"Carpetspill","steam_id":76561198240023406,"connected_time":99000000000,"state":"active","ping":120},{"user_id":50,"name":"Meet The Kazoo","steam_id":76561199229748300,"connected_time":83000000000,"state":"active","ping":54},{"user_id":51,"name":"CopperBox","steam_id":76561198068217248,"connected_time":66000000000,"state":"active","ping":75},{"user_id":52,"name":"Gooper","steam_id":76561198324431783,"connected_time":15000000000,"state":"active","ping":55}]},{"server_id":324,"name":"Uncletopia | Los Angeles | 3 | All Maps","name_short":"lax-3","host":"lax-1.us.uncletopia.com","port":27035,"enabled":true,"region":"us-west","cc":"us","latitude":33.94279,"longitude":-118.41004,"reserved":0,"last_update":"0001-01-01T00:00:00Z","name_a2s":"Uncletopia | Los Angeles | 3 | All Maps","protocol":17,"map":"koth_harvest_final","folder":"tf","game":"Team Fortress","app_id":440,"player_count":18,"max_players":24,"Bots":0,"server_type":"Dedicated","server_os":"Linux","password":true,"vac":true,"version":"7882260","steam_id":85568392924510198,"keywords":["cp","nocrits","nodmgspread","uncletopia"],"game_id":440,"stv_port":27036,"stv_name":"Uncletopia | Los Angeles | 3 | All Maps | STV","players":[{"user_id":106,"name":"Nic0","steam_id":76561198305690218,"connected_time":1225000000000,"state":"active","ping":109},{"user_id":123,"name":"fart","steam_id":76561198206922028,"connected_time":5000000000,"state":"active","ping":37},{"user_id":86,"name":"darkness.danny3481","steam_id":76561198132808002,"connected_time":2601000000000,"state":"active","ping":39},{"user_id":119,"name":"Pah-Wraith Gul Dukat","steam_id":76561198033918106,"connected_time":357000000000,"state":"active","ping":38},{"user_id":111,"name":"trackin ops like NORAD","steam_id":76561198040675606,"connected_time":1039000000000,"state":"active","ping":74},{"user_id":90,"name":"Renz","steam_id":76561198118995036,"connected_time":2328000000000,"state":"active","ping":74},{"user_id":109,"name":"Artic_Ryuu","steam_id":76561198182194918,"connected_time":1131000000000,"state":"active","ping":30},{"user_id":112,"name":"Scrux","steam_id":76561198129763115,"connected_time":988000000000,"state":"active","ping":49},{"user_id":83,"name":"Coffee","steam_id":76561198154646418,"connected_time":2643000000000,"state":"active","ping":81},{"user_id":45,"name":"Elias","steam_id":76561198106431732,"connected_time":5721000000000,"state":"active","ping":82},{"user_id":115,"name":"Bobert The Great","steam_id":76561198021285638,"connected_time":676000000000,"state":"active","ping":39},{"user_id":121,"name":"the private","steam_id":76561198232500756,"connected_time":221000000000,"state":"active","ping":83},{"user_id":117,"name":"Choccy Milk","steam_id":76561198085333480,"connected_time":535000000000,"state":"active","ping":94},{"user_id":32,"name":"goblin64","steam_id":76561198969156830,"connected_time":6107000000000,"state":"spawning","ping":52},{"user_id":93,"name":"Dr. Bubs","steam_id":76561198011696595,"connected_time":2288000000000,"state":"active","ping":42},{"user_id":94,"name":"Snoopy","steam_id":76561198273735974,"connected_time":2244000000000,"state":"spawning","ping":88},{"user_id":108,"name":"i hate skial","steam_id":76561198021308963,"connected_time":1221000000000,"state":"active","ping":75},{"user_id":120,"name":"edgar","steam_id":76561198087200115,"connected_time":244000000000,"state":"active","ping":65}]},{"server_id":25,"name":"Uncletopia | Los Angeles | 4 | Stopwatch Beta","name_short":"lax-4","host":"lax-1.us.uncletopia.com","port":27045,"enabled":true,"region":"us-west","cc":"us","latitude":33.94279,"longitude":-118.41004,"reserved":0,"last_update":"0001-01-01T00:00:00Z","name_a2s":"Uncletopia | Los Angeles | 4 | Stopwatch Beta","protocol":17,"map":"koth_lakeside_final","folder":"tf","game":"Team Fortress","app_id":440,"player_count":0,"max_players":24,"Bots":0,"server_type":"Dedicated","server_os":"Linux","password":true,"vac":true,"version":"7882260","steam_id":85568392924510199,"keywords":["cp","nocrits","nodmgspread","uncletopia"],"game_id":440,"stv_port":27046,"stv_name":"Uncletopia | Los Angeles | 4 | Stopwatch Beta | STV","players":null},{"server_id":11,"name":"Uncletopia | London | 1 | All Maps","name_short":"lon-1","host":"lon-1.uk.uncletopia.com","port":27015,"enabled":true,"region":"eu","cc":"gb","latitude":51.509865,"longitude":-0.118092,"reserved":0,"last_update":"0001-01-01T00:00:00Z","name_a2s":"Uncletopia | London | 1 | All Maps","protocol":17,"map":"pl_badwater","folder":"tf","game":"Team Fortress","app_id":440,"player_count":24,"max_players":24,"Bots":0,"server_type":"Dedicated","server_os":"Linux","password":true,"vac":true,"version":"7882260","steam_id":85568392924367362,"keywords":["nocrits","nodmgspread","payload","uncletopia"],"game_id":440,"stv_port":27016,"stv_name":"Uncletopia | London | 1 | All Maps | STV","players":[{"user_id":623,"name":"AAlice","steam_id":76561198180361759,"connected_time":1023000000000,"state":"active","ping":44},{"user_id":526,"name":"‚ú™ qua ‚ú™","steam_id":76561198066408333,"connected_time":9446000000000,"state":"active","ping":75},{"user_id":632,"name":"hardway","steam_id":76561198272529254,"connected_time":269000000000,"state":"active","ping":56},{"user_id":626,"name":"Watermelon","steam_id":76561198078349914,"connected_time":523000000000,"state":"active","ping":45},{"user_id":598,"name":"Amoru","steam_id":76561198798161817,"connected_time":2827000000000,"state":"active","ping":88},{"user_id":621,"name":"d u k k i","steam_id":76561198071807437,"connected_time":1147000000000,"state":"active","ping":93},{"user_id":613,"name":"thebigcheif","steam_id":76561198236015392,"connected_time":2037000000000,"state":"active","ping":119},{"user_id":625,"name":"Mika","steam_id":76561199183780280,"connected_time":715000000000,"state":"active","ping":64},{"user_id":567,"name":"unconditional love","steam_id":76561199026097466,"connected_time":5822000000000,"state":"active","ping":70},{"user_id":578,"name":"Sandshee","steam_id":76561198088574666,"connected_time":5049000000000,"state":"active","ping":32},{"user_id":580,"name":"‚ô•aura‚ô•","steam_id":76561198066258544,"connected_time":4647000000000,"state":"active","ping":60},{"user_id":629,"name":"jimmy bob","steam_id":76561198319583692,"connected_time":347000000000,"state":"active","ping":60},{"user_id":633,"name":"Jonathan","steam_id":76561198087988880,"connected_time":195000000000,"state":"active","ping":60},{"user_id":611,"name":"My left foot itches","steam_id":76561198078411001,"connected_time":2132000000000,"state":"active","ping":85},{"user_id":617,"name":"mercurial","steam_id":76561198046227550,"connected_time":1228000000000,"state":"active","ping":45},{"user_id":609,"name":"Son Goku","steam_id":76561199383437138,"connected_time":2180000000000,"state":"active","ping":125},{"user_id":624,"name":"Dr.N3C","steam_id":76561198141325161,"connected_time":1004000000000,"state":"active","ping":67},{"user_id":599,"name":"Wafflesky","steam_id":76561198109973821,"connected_time":2782000000000,"state":"active","ping":64},{"user_id":616,"name":"exRage","steam_id":76561198449953655,"connected_time":1343000000000,"state":"active","ping":70},{"user_id":602,"name":"NoMaD994","steam_id":76561198051908201,"connected_time":2728000000000,"state":"active","ping":85},{"user_id":628,"name":"Sylvanas","steam_id":76561198154904165,"connected_time":488000000000,"state":"active","ping":111},{"user_id":630,"name":"Koli","steam_id":76561197992428783,"connected_time":300000000000,"state":"active","ping":61},{"user_id":631,"name":"Smokio","steam_id":76561198069650580,"connected_time":294000000000,"state":"active","ping":89},{"user_id":606,"name":"Moltisanti","steam_id":76561198139141045,"connected_time":2653000000000,"state":"active","ping":111}]},{"server_id":114,"name":"Uncletopia | London | 2 | All Maps","name_short":"lon-2","host":"lon-1.uk.uncletopia.com","port":27025,"enabled":true,"region":"eu","cc":"gb","latitude":51.509865,"longitude":-0.118092,"reserved":0,"last_update":"0001-01-01T00:00:00Z","name_a2s":"Uncletopia | London | 2 | All Maps","protocol":17,"map":"cp_mountainlab","folder":"tf","game":"Team Fortress","app_id":440,"player_count":24,"max_players":24,"Bots":0,"server_type":"Dedicated","server_os":"Linux","password":true,"vac":true,"version":"7882260","steam_id":85568392924470941,"keywords":["cp","nocrits","nodmgspread","uncletopia"],"game_id":440,"stv_port":27026,"stv_name":"Uncletopia | London | 2 | All Maps | STV","players":[{"user_id":125,"name":"UnusedEngine","steam_id":76561199281868902,"connected_time":388000000000,"state":"active","ping":45},{"user_id":102,"name":"Worm","steam_id":76561198296497176,"connected_time":1533000000000,"state":"active","ping":44},{"user_id":126,"name":"GMsU | Rebikas","steam_id":76561198077053764,"connected_time":378000000000,"state":"active","ping":52},{"user_id":84,"name":"One-Face","steam_id":76561197999384826,"connected_time":3195000000000,"state":"active","ping":60},{"user_id":53,"name":"I'm IN your AREAAAA","steam_id":76561198193357946,"connected_time":5186000000000,"state":"active","ping":94},{"user_id":98,"name":"Shark","steam_id":76561198205226501,"connected_time":2014000000000,"state":"active","ping":150},{"user_id":124,"name":"CollDragon","steam_id":76561198067534450,"connected_time":515000000000,"state":"active","ping":122},{"user_id":127,"name":"GMsU | Acoul","steam_id":76561198229222992,"connected_time":353000000000,"state":"active","ping":58},{"user_id":62,"name":"REN","steam_id":76561198000596385,"connected_time":4850000000000,"state":"active","ping":75},{"user_id":36,"name":"Gravy","steam_id":76561198029548074,"connected_time":6292000000000,"state":"active","ping":58},{"user_id":115,"name":"Portugeese :)","steam_id":76561199234795819,"connected_time":1297000000000,"state":"active","ping":92},{"user_id":38,"name":"Bayoyo","steam_id":76561199069591774,"connected_time":6071000000000,"state":"active","ping":82},{"user_id":104,"name":"Syringe Gun Only Medic","steam_id":76561198119372509,"connected_time":1466000000000,"state":"active","ping":85},{"user_id":119,"name":"Akiron","steam_id":76561199267799044,"connected_time":1091000000000,"state":"active","ping":98},{"user_id":128,"name":"GMsU | AuxiliusM","steam_id":76561198071903356,"connected_time":304000000000,"state":"active","ping":59},{"user_id":120,"name":"Marmac","steam_id":76561198120033210,"connected_time":981000000000,"state":"active","ping":82},{"user_id":129,"name":"LaserDisc_","steam_id":76561198048461220,"connected_time":284000000000,"state":"active","ping":85},{"user_id":130,"name":"Ellie","steam_id":76561198061489394,"connected_time":123000000000,"state":"active","ping":83},{"user_id":99,"name":"Foly","steam_id":76561198379383694,"connected_time":1998000000000,"state":"active","ping":63},{"user_id":96,"name":"Purps","steam_id":76561198053886680,"connected_time":2366000000000,"state":"active","ping":45},{"user_id":111,"name":"Andrew The Spy","steam_id":76561198253535854,"connected_time":1357000000000,"state":"active","ping":131},{"user_id":117,"name":"VR FORK","steam_id":76561198060800025,"connected_time":1231000000000,"state":"active","ping":84},{"user_id":114,"name":"yeh","steam_id":76561198058236308,"connected_time":1324000000000,"state":"active","ping":67},{"user_id":113,"name":"mikota","steam_id":76561199027728405,"connected_time":1337000000000,"state":"active","ping":80}]},{"server_id":320,"name":"Uncletopia | London | 3 | All Maps","name_short":"lon-3","host":"lon-1.uk.uncletopia.com","port":27035,"enabled":true,"region":"eu","cc":"gb","latitude":51.509865,"longitude":-0.118092,"reserved":0,"last_update":"0001-01-01T00:00:00Z","name_a2s":"Uncletopia | London | 3 | All Maps","protocol":17,"map":"cp_dustbowl","folder":"tf","game":"Team Fortress","app_id":440,"player_count":24,"max_players":24,"Bots":0,"server_type":"Dedicated","server_os":"Linux","password":true,"vac":true,"version":"7882260","steam_id":85568392924510192,"keywords":["cp","nocrits","nodmgspread","uncletopia"],"game_id":440,"stv_port":27036,"stv_name":"Uncletopia | London | 3 | All Maps | STV","players":[{"user_id":508,"name":"Agent Anti-FemPyro XI","steam_id":76561197981064341,"connected_time":1866000000000,"state":"active","ping":87},{"user_id":491,"name":"Woa","steam_id":76561198345683201,"connected_time":2787000000000,"state":"active","ping":44},{"user_id":457,"name":"MoonDroid","steam_id":76561198023027016,"connected_time":4348000000000,"state":"active","ping":47},{"user_id":480,"name":"BELADIT","steam_id":76561198011911501,"connected_time":3443000000000,"state":"active","ping":86},{"user_id":529,"name":"Michael","steam_id":76561198003146906,"connected_time":497000000000,"state":"active","ping":43},{"user_id":507,"name":"Wujek Cacek","steam_id":76561198010267943,"connected_time":1868000000000,"state":"active","ping":75},{"user_id":496,"name":"C√∂ffee","steam_id":76561198115131952,"connected_time":2302000000000,"state":"active","ping":100},{"user_id":527,"name":"Smile","steam_id":76561198049868098,"connected_time":531000000000,"state":"active","ping":74},{"user_id":533,"name":"John","steam_id":76561198903255436,"connected_time":296000000000,"state":"active","ping":44},{"user_id":497,"name":"brk559","steam_id":76561199095687349,"connected_time":2284000000000,"state":"active","ping":82},{"user_id":511,"name":"robbie","steam_id":76561198798195287,"connected_time":1798000000000,"state":"active","ping":51},{"user_id":525,"name":"snorrbrod","steam_id":76561198142389396,"connected_time":880000000000,"state":"active","ping":85},{"user_id":514,"name":"Hypenite","steam_id":76561198067589713,"connected_time":1681000000000,"state":"active","ping":82},{"user_id":516,"name":"Edgar","steam_id":76561198065255259,"connected_time":1631000000000,"state":"active","ping":59},{"user_id":530,"name":"Petight","steam_id":76561197999438798,"connected_time":479000000000,"state":"active","ping":31},{"user_id":431,"name":"MattyS","steam_id":76561198125923639,"connected_time":6657000000000,"state":"active","ping":55},{"user_id":517,"name":"fence_","steam_id":76561198150386379,"connected_time":1621000000000,"state":"active","ping":47},{"user_id":519,"name":"TheBeardedM1G","steam_id":76561198040208946,"connected_time":1581000000000,"state":"active","ping":41},{"user_id":520,"name":"BloodFuel","steam_id":76561198146340825,"connected_time":1567000000000,"state":"active","ping":107},{"user_id":521,"name":"Fengerros","steam_id":76561199008363999,"connected_time":1542000000000,"state":"active","ping":78},{"user_id":534,"name":"cra","steam_id":76561198285862099,"connected_time":268000000000,"state":"active","ping":35},{"user_id":503,"name":"Ritzy","steam_id":76561198381955342,"connected_time":2083000000000,"state":"active","ping":52},{"user_id":524,"name":"Ryde","steam_id":76561198296670426,"connected_time":1360000000000,"state":"active","ping":92}]},{"server_id":321,"name":"Uncletopia | London | 4 | All Maps","name_short":"lon-4","host":"lon-1.uk.uncletopia.com","port":27045,"enabled":true,"region":"eu","cc":"gb","latitude":51.509865,"longitude":-0.118092,"reserved":0,"last_update":"0001-01-01T00:00:00Z","name_a2s":"Uncletopia | London | 4 | All Maps","protocol":17,"map":"pl_hoodoo_final","folder":"tf","game":"Team Fortress","app_id":440,"player_count":19,"max_players":24,"Bots":0,"server_type":"Dedicated","server_os":"Linux","password":true,"vac":true,"version":"7882260","steam_id":85568392924510193,"keywords":["nocrits","nodmgspread","payload","uncletopia"],"game_id":440,"stv_port":27046,"stv_name":"Uncletopia | London | 4 | All Maps | STV","players":[{"user_id":160,"name":"DelaNo","steam_id":76561199125086655,"connected_time":12257000000000,"state":"active","ping":43},{"user_id":320,"name":"MEDiUM","steam_id":76561198112328561,"connected_time":1232000000000,"state":"active","ping":79},{"user_id":342,"name":"horizont","steam_id":76561198113565658,"connected_time":318000000000,"state":"active","ping":70},{"user_id":344,"name":"cof","steam_id":76561199128417805,"connected_time":63000000000,"state":"active","ping":55},{"user_id":334,"name":"mo√∞√∞e","steam_id":76561199006462039,"connected_time":761000000000,"state":"active","ping":69},{"user_id":347,"name":"Axter","steam_id":76561198118747192,"connected_time":21000000000,"state":"active","ping":88},{"user_id":345,"name":"Family guy try not to laugh","steam_id":76561198031455800,"connected_time":53000000000,"state":"active","ping":90},{"user_id":346,"name":"Cannabis Enjoyer","steam_id":76561198051685232,"connected_time":32000000000,"state":"active","ping":45},{"user_id":306,"name":"cislastar","steam_id":76561198027202375,"connected_time":1971000000000,"state":"active","ping":79},{"user_id":326,"name":"dotdotdot","steam_id":76561198057628751,"connected_time":1115000000000,"state":"active","ping":60},{"user_id":327,"name":"C.H.E.R.E.P.","steam_id":76561198026938595,"connected_time":1105000000000,"state":"active","ping":90},{"user_id":307,"name":"Likor","steam_id":76561198045743406,"connected_time":1832000000000,"state":"active","ping":68},{"user_id":328,"name":"hipster_doofus","steam_id":76561197970902697,"connected_time":1068000000000,"state":"active","ping":56},{"user_id":313,"name":"big stewie","steam_id":76561198147173457,"connected_time":1682000000000,"state":"active","ping":81},{"user_id":305,"name":"Pauxc","steam_id":76561198188346841,"connected_time":1981000000000,"state":"active","ping":78},{"user_id":339,"name":"Minik","steam_id":76561198134198970,"connected_time":451000000000,"state":"active","ping":41},{"user_id":240,"name":"Max Andrew","steam_id":76561198158955194,"connected_time":6879000000000,"state":"active","ping":55},{"user_id":318,"name":"CRIT","steam_id":76561199195096783,"connected_time":1400000000000,"state":"active","ping":64},{"user_id":286,"name":"Max Power","steam_id":76561198019269089,"connected_time":4026000000000,"state":"active","ping":56}]},{"server_id":21,"name":"Uncletopia | London | 5 | All Maps","name_short":"lon-5","host":"lon-1.uk.uncletopia.com","port":27055,"enabled":true,"region":"eu","cc":"gb","latitude":51.509865,"longitude":-0.118092,"reserved":0,"last_update":"0001-01-01T00:00:00Z","name_a2s":"Uncletopia | London | 5 | All Maps","protocol":17,"map":"pl_swiftwater_final1","folder":"tf","game":"Team Fortress","app_id":440,"player_count":2,"max_players":24,"Bots":0,"server_type":"Dedicated","server_os":"Linux","password":true,"vac":true,"version":"7882260","steam_id":85568392924742829,"keywords":["nocrits","nodmgspread","payload","uncletopia"],"game_id":440,"stv_port":27056,"stv_name":"Uncletopia | London | 5 | All Maps | STV","players":[{"user_id":48,"name":"ran is running","steam_id":76561199443185667,"connected_time":811000000000,"state":"active","ping":130},{"user_id":50,"name":"pl0nt","steam_id":76561198093176999,"connected_time":9000000000,"state":"spawning","ping":51}]},{"server_id":22,"name":"Uncletopia | London | 6 | All Maps","name_short":"lon-6","host":"lon-1.uk.uncletopia.com","port":27065,"enabled":true,"region":"eu","cc":"gb","latitude":51.509865,"longitude":-0.118092,"reserved":0,"last_update":"0001-01-01T00:00:00Z","name_a2s":"Uncletopia | London | 6 | All Maps","protocol":17,"map":"pl_barnblitz","folder":"tf","game":"Team Fortress","app_id":440,"player_count":24,"max_players":24,"Bots":0,"server_type":"Dedicated","server_os":"Linux","password":true,"vac":true,"version":"7882260","steam_id":85568392924742830,"keywords":["nocrits","nodmgspread","payload","uncletopia"],"game_id":440,"stv_port":27066,"stv_name":"Uncletopia | London | 6 | All Maps | STV","players":[{"user_id":422,"name":"xXn3lson_gamingXx","steam_id":76561198815271970,"connected_time":404000000000,"state":"active","ping":69},{"user_id":418,"name":"denimchicken","steam_id":76561197989061982,"connected_time":722000000000,"state":"active","ping":87},{"user_id":423,"name":"Frunz","steam_id":76561198119449463,"connected_time":281000000000,"state":"active","ping":57},{"user_id":397,"name":"remi, she wrote.","steam_id":76561198044045655,"connected_time":2219000000000,"state":"active","ping":82},{"user_id":384,"name":"harry","steam_id":76561199396513379,"connected_time":3673000000000,"state":"active","ping":67},{"user_id":410,"name":"muZ","steam_id":76561198060145190,"connected_time":1723000000000,"state":"active","ping":67},{"user_id":393,"name":"Wardruna96","steam_id":76561199057083828,"connected_time":2794000000000,"state":"active","ping":89},{"user_id":402,"name":"Hattmannen","steam_id":76561198340884902,"connected_time":1838000000000,"state":"active","ping":76},{"user_id":416,"name":"S.V.I.L.A.R","steam_id":76561198828348612,"connected_time":1209000000000,"state":"active","ping":102},{"user_id":359,"name":"Dagoth Ur","steam_id":76561198120500488,"connected_time":5816000000000,"state":"active","ping":52},{"user_id":403,"name":"Myrmodion","steam_id":76561198054746247,"connected_time":1832000000000,"state":"active","ping":77},{"user_id":332,"name":"[FP] Shiken","steam_id":76561198257905663,"connected_time":8200000000000,"state":"active","ping":61},{"user_id":411,"name":"DrExplosive","steam_id":76561198063678579,"connected_time":1666000000000,"state":"active","ping":31},{"user_id":421,"name":"D4SBOT","steam_id":76561198313297337,"connected_time":531000000000,"state":"active","ping":72},{"user_id":424,"name":"Defecticon","steam_id":76561198394837863,"connected_time":277000000000,"state":"active","ping":104},{"user_id":425,"name":"elijah","steam_id":76561198093936708,"connected_time":122000000000,"state":"active","ping":55},{"user_id":399,"name":"Tea guy","steam_id":76561198797847641,"connected_time":1960000000000,"state":"active","ping":64},{"user_id":391,"name":"U F Onion","steam_id":76561198843305350,"connected_time":2931000000000,"state":"active","ping":102},{"user_id":420,"name":"SpilledMilk","steam_id":76561198174123971,"connected_time":584000000000,"state":"active","ping":64},{"user_id":417,"name":"Dan","steam_id":76561198289353288,"connected_time":928000000000,"state":"active","ping":44},{"user_id":408,"name":"Wallace \"WanderBoar\" Browning","steam_id":76561198048832733,"connected_time":1747000000000,"state":"active","ping":74},{"user_id":426,"name":"Bluerage","steam_id":76561198059718660,"connected_time":113000000000,"state":"active","ping":55},{"user_id":339,"name":"Macaulay Cuckin","steam_id":76561198030842879,"connected_time":7273000000000,"state":"active","ping":44},{"user_id":412,"name":"D0kai","steam_id":76561198389271720,"connected_time":1493000000000,"state":"active","ping":54}]},{"server_id":40,"name":"Uncletopia | London | 7 | No Payload","name_short":"lon-7","host":"lon-1.uk.uncletopia.com","port":27075,"enabled":true,"region":"eu","cc":"gb","latitude":51.509865,"longitude":-0.118092,"reserved":0,"last_update":"0001-01-01T00:00:00Z","name_a2s":"Uncletopia | London | 7 | No Payload","protocol":17,"map":"cp_powerhouse","folder":"tf","game":"Team Fortress","app_id":440,"player_count":24,"max_players":24,"Bots":0,"server_type":"Dedicated","server_os":"Linux","password":true,"vac":true,"version":"7882260","steam_id":85568392924964314,"keywords":["cp","nocrits","nodmgspread","uncletopia"],"game_id":440,"stv_port":27076,"stv_name":"Uncletopia | London | 7 | No Payload | STV","players":[{"user_id":227,"name":"DrunkFuck","steam_id":76561198256328990,"connected_time":1340000000000,"state":"active","ping":75},{"user_id":237,"name":"Xanshi","steam_id":76561198152392309,"connected_time":1105000000000,"state":"active","ping":48},{"user_id":138,"name":"Marukuso","steam_id":76561198154229845,"connected_time":5596000000000,"state":"active","ping":60},{"user_id":219,"name":"Mak≈Çowicz","steam_id":76561198281831506,"connected_time":1716000000000,"state":"active","ping":85},{"user_id":242,"name":"UncleDane at home:","steam_id":76561198206980591,"connected_time":534000000000,"state":"active","ping":61},{"user_id":217,"name":"PASTAMAN!!!","steam_id":76561198995641765,"connected_time":1857000000000,"state":"active","ping":63},{"user_id":207,"name":"El_Kommadante","steam_id":76561198079551685,"connected_time":2292000000000,"state":"active","ping":61},{"user_id":230,"name":"k3n8k1","steam_id":76561199185253785,"connected_time":1265000000000,"state":"active","ping":53},{"user_id":176,"name":"IndigoJones","steam_id":76561198050284262,"connected_time":3849000000000,"state":"active","ping":50},{"user_id":139,"name":"Sham!","steam_id":76561198050434275,"connected_time":5592000000000,"state":"active","ping":54},{"user_id":239,"name":"Ratman","steam_id":76561198865416924,"connected_time":928000000000,"state":"active","ping":104},{"user_id":186,"name":"Sybille Sirky","steam_id":76561198082407725,"connected_time":3110000000000,"state":"active","ping":56},{"user_id":246,"name":"I Am Jos√© Mourinho","steam_id":76561198162672280,"connected_time":433000000000,"state":"active","ping":84},{"user_id":200,"name":"Celarvaa (cel-larva)","steam_id":76561198035024894,"connected_time":2507000000000,"state":"active","ping":73},{"user_id":233,"name":"Cum slave","steam_id":76561199035732179,"connected_time":1176000000000,"state":"active","ping":92},{"user_id":238,"name":"Egor Pomidor","steam_id":76561199175688390,"connected_time":1063000000000,"state":"active","ping":88},{"user_id":243,"name":"The.Real.Genesis","steam_id":76561198999652040,"connected_time":500000000000,"state":"active","ping":49},{"user_id":245,"name":"Mr.Duck","steam_id":76561197983710667,"connected_time":481000000000,"state":"active","ping":85},{"user_id":247,"name":"Superiumentarius","steam_id":76561198081642249,"connected_time":1000000000,"state":"spawning","ping":34},{"user_id":203,"name":"the_Qcumber","steam_id":76561199152515819,"connected_time":2361000000000,"state":"active","ping":72},{"user_id":240,"name":"Perci","steam_id":76561198097789669,"connected_time":922000000000,"state":"active","ping":68},{"user_id":223,"name":"darkwater","steam_id":76561197986978738,"connected_time":1576000000000,"state":"active","ping":55},{"user_id":116,"name":"M2rtRa","steam_id":76561198111036466,"connected_time":6835000000000,"state":"active","ping":79},{"user_id":236,"name":"Bottle O' Scrumpy","steam_id":76561199244250562,"connected_time":1132000000000,"state":"active","ping":108}]},{"server_id":41,"name":"Uncletopia | London | 8 | Community","name_short":"lon-8","host":"lon-1.uk.uncletopia.com","port":27085,"enabled":true,"region":"eu","cc":"gb","latitude":51.509865,"longitude":-0.118092,"reserved":0,"last_update":"0001-01-01T00:00:00Z","name_a2s":"Uncletopia | London | 8 | Community","protocol":17,"map":"workshop/koth_slaughter_rc1.ugc1712845210","folder":"tf","game":"Team Fortress","app_id":440,"player_count":0,"max_players":24,"Bots":0,"server_type":"Dedicated","server_os":"Linux","password":true,"vac":true,"version":"7882260","steam_id":85568392924964315,"keywords":["cp","nocrits","nodmgspread","uncletopia"],"game_id":440,"stv_port":27086,"stv_name":"Uncletopia | London | 8 | Community | STV","players":null},{"server_id":300,"name":"Uncletopia | Montr√©al | 1 | All Maps","name_short":"mtl-1","host":"mtl-1.ca.uncletopia.com","port":27015,"enabled":true,"region":"us-east","cc":"ca","latitude":45.50889,"longitude":-73.56167,"reserved":0,"last_update":"0001-01-01T00:00:00Z","name_a2s":"Uncletopia | Montr√©al | 1 | All Maps","protocol":17,"map":"pl_frontier_final","folder":"tf","game":"Team Fortress","app_id":440,"player_count":0,"max_players":24,"Bots":0,"server_type":"Dedicated","server_os":"Linux","password":true,"vac":true,"version":"7882260","steam_id":85568392924500087,"keywords":["nocrits","nodmgspread","payload","uncletopia"],"game_id":440,"stv_port":27016,"stv_name":"Uncletopia | Montr√©al | 1 | All Maps | STV","players":null},{"server_id":301,"name":"Uncletopia | Montr√©al | 2 | All Maps","name_short":"mtl-2","host":"mtl-1.ca.uncletopia.com","port":27025,"enabled":true,"region":"us-east","cc":"ca","latitude":45.50889,"longitude":-73.56167,"reserved":0,"last_update":"0001-01-01T00:00:00Z","name_a2s":"Uncletopia | Montr√©al | 2 | All Maps","protocol":17,"map":"pl_swiftwater_final1","folder":"tf","game":"Team Fortress","app_id":440,"player_count":0,"max_players":24,"Bots":0,"server_type":"Dedicated","server_os":"Linux","password":true,"vac":true,"version":"7882260","steam_id":85568392924500088,"keywords":["nocrits","nodmgspread","payload","uncletopia"],"game_id":440,"stv_port":27026,"stv_name":"Uncletopia | Montr√©al | 2 | All Maps | STV","players":null},{"server_id":302,"name":"Uncletopia | Montr√©al | 3 | All Maps","name_short":"mtl-3","host":"mtl-1.ca.uncletopia.com","port":27035,"enabled":true,"region":"us-east","cc":"ca","latitude":45.50889,"longitude":-73.56167,"reserved":0,"last_update":"0001-01-01T00:00:00Z","name_a2s":"Uncletopia | Montr√©al | 3 | All Maps","protocol":17,"map":"koth_harvest_final","folder":"tf","game":"Team Fortress","app_id":440,"player_count":0,"max_players":24,"Bots":0,"server_type":"Dedicated","server_os":"Linux","password":true,"vac":true,"version":"7882260","steam_id":85568392924500089,"keywords":["cp","nocrits","nodmgspread","uncletopia"],"game_id":440,"stv_port":27036,"stv_name":"Uncletopia | Montr√©al | 3 | All Maps | STV","players":null},{"server_id":303,"name":"Uncletopia | Montr√©al | 4 | No Payload","name_short":"mtl-4","host":"mtl-1.ca.uncletopia.com","port":27045,"enabled":true,"region":"us-east","cc":"ca","latitude":45.50889,"longitude":-73.56167,"reserved":0,"last_update":"0001-01-01T00:00:00Z","name_a2s":"Uncletopia | Montr√©al | 4 | No Payload","protocol":17,"map":"koth_highpass","folder":"tf","game":"Team Fortress","app_id":440,"player_count":0,"max_players":24,"Bots":0,"server_type":"Dedicated","server_os":"Linux","password":true,"vac":true,"version":"7882260","steam_id":85568392924500090,"keywords":["cp","nocrits","nodmgspread","uncletopia"],"game_id":440,"stv_port":27046,"stv_name":"Uncletopia | Montr√©al | 4 | No Payload | STV","players":null},{"server_id":13,"name":"Uncletopia | New York City | 1 | All Maps","name_short":"nyc-1","host":"nyc-1.us.uncletopia.com","port":27015,"enabled":true,"region":"us-east","cc":"us","latitude":40.73061,"longitude":-73.93524,"reserved":0,"last_update":"0001-01-01T00:00:00Z","name_a2s":"Uncletopia | New York City | 1 | All Maps","protocol":17,"map":"cp_steel","folder":"tf","game":"Team Fortress","app_id":440,"player_count":24,"max_players":24,"Bots":0,"server_type":"Dedicated","server_os":"Linux","password":true,"vac":true,"version":"7882260","steam_id":85568392924469993,"keywords":["cp","nocrits","nodmgspread","uncletopia"],"game_id":440,"stv_port":27016,"stv_name":"Uncletopia | New York City | 1 | All Maps | STV","players":[{"user_id":189,"name":"Myn","steam_id":76561198055438857,"connected_time":8088000000000,"state":"active","ping":58},{"user_id":291,"name":"Swifgz","steam_id":76561198162875756,"connected_time":59000000000,"state":"active","ping":46},{"user_id":271,"name":"tom mixtape","steam_id":76561198078400102,"connected_time":1074000000000,"state":"active","ping":73},{"user_id":238,"name":"ThisDOT","steam_id":76561199011823773,"connected_time":3595000000000,"state":"active","ping":102},{"user_id":198,"name":"A Puppy","steam_id":76561198828184456,"connected_time":7395000000000,"state":"active","ping":45},{"user_id":270,"name":"Bootes","steam_id":76561197968255551,"connected_time":1098000000000,"state":"active","ping":50},{"user_id":272,"name":"Mr.noob","steam_id":76561199200442395,"connected_time":1073000000000,"state":"active","ping":164},{"user_id":286,"name":"Draco6257","steam_id":76561199147322448,"connected_time":325000000000,"state":"active","ping":32},{"user_id":288,"name":"xd Clover","steam_id":76561198038905361,"connected_time":283000000000,"state":"active","ping":48},{"user_id":274,"name":"yellowcat","steam_id":76561198346054736,"connected_time":1065000000000,"state":"active","ping":66},{"user_id":234,"name":"Zixzs","steam_id":76561198055504126,"connected_time":4144000000000,"state":"active","ping":78},{"user_id":225,"name":"SublunarFox","steam_id":76561198886387474,"connected_time":4531000000000,"state":"active","ping":61},{"user_id":279,"name":"Auto_Correct","steam_id":76561198254988078,"connected_time":838000000000,"state":"active","ping":71},{"user_id":275,"name":"Clean Lines","steam_id":76561197960691518,"connected_time":1033000000000,"state":"active","ping":51},{"user_id":253,"name":"VISCERAL ASS","steam_id":76561198046130018,"connected_time":2536000000000,"state":"active","ping":61},{"user_id":276,"name":"Homunculus Gambino","steam_id":76561198158433378,"connected_time":1018000000000,"state":"active","ping":68},{"user_id":257,"name":"Karma","steam_id":76561198030565234,"connected_time":2373000000000,"state":"active","ping":53},{"user_id":260,"name":"Notorious G.R.A.N.D.E.","steam_id":76561198403861055,"connected_time":2246000000000,"state":"active","ping":170},{"user_id":289,"name":"in case of sentry ask for help","steam_id":76561198092704586,"connected_time":279000000000,"state":"active","ping":182},{"user_id":283,"name":"Trusty","steam_id":76561198035444237,"connected_time":396000000000,"state":"active","ping":56},{"user_id":290,"name":"Jade","steam_id":76561198136297393,"connected_time":264000000000,"state":"active","ping":69},{"user_id":292,"name":"ShempTheWolf/TTV","steam_id":76561198000403355,"connected_time":27000000000,"state":"active","ping":80},{"user_id":285,"name":"Chechens Spotted","steam_id":76561199028910893,"connected_time":343000000000,"state":"active","ping":67},{"user_id":267,"name":"Urbanzpinapple","steam_id":76561198115426938,"connected_time":1250000000000,"state":"active","ping":94}]},{"server_id":14,"name":"Uncletopia | New York City | 2 | All Maps","name_short":"nyc-2","host":"nyc-1.us.uncletopia.com","port":27025,"enabled":true,"region":"us-east","cc":"us","latitude":40.73061,"longitude":-73.93524,"reserved":0,"last_update":"0001-01-01T00:00:00Z","name_a2s":"Uncletopia | New York City | 2 | All Maps","protocol":17,"map":"cp_mountainlab","folder":"tf","game":"Team Fortress","app_id":440,"player_count":22,"max_players":24,"Bots":0,"server_type":"Dedicated","server_os":"Linux","password":true,"vac":true,"version":"7882260","steam_id":85568392924469994,"keywords":["cp","nocrits","nodmgspread","uncletopia"],"game_id":440,"stv_port":27026,"stv_name":"Uncletopia | New York City | 2 | All Maps | STV","players":[{"user_id":132,"name":"gritty 2024","steam_id":76561198165567310,"connected_time":3751000000000,"state":"active","ping":46},{"user_id":196,"name":"Virtual Zorua","steam_id":76561198196180302,"connected_time":131000000000,"state":"active","ping":53},{"user_id":65,"name":"foxxo","steam_id":76561198451014982,"connected_time":8517000000000,"state":"active","ping":56},{"user_id":193,"name":"Wigl","steam_id":76561198019324464,"connected_time":453000000000,"state":"active","ping":56},{"user_id":195,"name":"playguy carter","steam_id":76561198080679337,"connected_time":224000000000,"state":"active","ping":70},{"user_id":169,"name":"King Sans","steam_id":76561198294198517,"connected_time":2425000000000,"state":"active","ping":40},{"user_id":182,"name":"t.tv/stabslive","steam_id":76561198293116584,"connected_time":824000000000,"state":"active","ping":63},{"user_id":190,"name":"Mr. Durian","steam_id":76561198093813212,"connected_time":581000000000,"state":"active","ping":61},{"user_id":61,"name":"kiaan","steam_id":76561198060819695,"connected_time":8981000000000,"state":"active","ping":66},{"user_id":160,"name":"Speedy","steam_id":76561198080761661,"connected_time":2880000000000,"state":"active","ping":62},{"user_id":185,"name":"WANNA SPOON TONIGHT?","steam_id":76561199039152146,"connected_time":652000000000,"state":"active","ping":60},{"user_id":186,"name":"RhythmOSauce","steam_id":76561198343877400,"connected_time":649000000000,"state":"active","ping":115},{"user_id":194,"name":"Hate of War","steam_id":76561199178358956,"connected_time":262000000000,"state":"active","ping":128},{"user_id":172,"name":"suger1316","steam_id":76561199079999423,"connected_time":2334000000000,"state":"active","ping":67},{"user_id":173,"name":"The REAL Drake","steam_id":76561199070125903,"connected_time":2201000000000,"state":"active","ping":75},{"user_id":120,"name":"Cyrilthewonders","steam_id":76561198987020031,"connected_time":4518000000000,"state":"active","ping":64},{"user_id":175,"name":"ferlonso22","steam_id":76561199257118112,"connected_time":1793000000000,"state":"active","ping":95},{"user_id":189,"name":"skateboarding cat","steam_id":76561199035800539,"connected_time":592000000000,"state":"active","ping":36},{"user_id":191,"name":"Don't Fuckle with Shuckle","steam_id":76561199020102367,"connected_time":564000000000,"state":"active","ping":86},{"user_id":177,"name":"Norman","steam_id":76561198154715990,"connected_time":1679000000000,"state":"active","ping":104},{"user_id":164,"name":"hound","steam_id":76561198880258435,"connected_time":2507000000000,"state":"active","ping":94},{"user_id":135,"name":"funny man","steam_id":76561198858817216,"connected_time":3738000000000,"state":"active","ping":82}]},{"server_id":15,"name":"Uncletopia | New York City | 3 | Stopwatch Beta","name_short":"nyc-3","host":"nyc-1.us.uncletopia.com","port":27035,"enabled":true,"region":"us-east","cc":"us","latitude":40.73061,"longitude":-73.93524,"reserved":0,"last_update":"0001-01-01T00:00:00Z","name_a2s":"Uncletopia | New York City | 3 | Stopwatch Beta","protocol":17,"map":"pl_borneo","folder":"tf","game":"Team Fortress","app_id":440,"player_count":0,"max_players":24,"Bots":0,"server_type":"Dedicated","server_os":"Linux","password":true,"vac":true,"version":"7882260","steam_id":85568392924742820,"keywords":["nocrits","nodmgspread","payload","uncletopia"],"game_id":440,"stv_port":27036,"stv_name":"Uncletopia | New York City | 3 | Stopwatch Beta | STV","players":null},{"server_id":16,"name":"Uncletopia | New York City | 4 | Community","name_short":"nyc-4","host":"nyc-1.us.uncletopia.com","port":27045,"enabled":true,"region":"us-east","cc":"us","latitude":40.73061,"longitude":-73.93524,"reserved":0,"last_update":"0001-01-01T00:00:00Z","name_a2s":"Uncletopia | New York City | 4 | Community","protocol":17,"map":"cp_altitude","folder":"tf","game":"Team Fortress","app_id":440,"player_count":0,"max_players":24,"Bots":0,"server_type":"Dedicated","server_os":"Linux","password":true,"vac":true,"version":"7882260","steam_id":85568392924742821,"keywords":["cp","nocrits","nodmgspread","uncletopia"],"game_id":440,"stv_port":27046,"stv_name":"Uncletopia | New York City | 4 | Community | STV","players":null},{"server_id":142,"name":"Uncletopia | S√£o Paulo | 1 | All Maps","name_short":"sao-1","host":"sao-1.br.uncletopia.com","port":27015,"enabled":true,"region":"sa","cc":"br","latitude":-23.533773,"longitude":-46.62529,"reserved":0,"last_update":"0001-01-01T00:00:00Z","name_a2s":"Uncletopia | S√£o Paulo | 1 | All Maps","protocol":17,"map":"koth_viaduct","folder":"tf","game":"Team Fortress","app_id":440,"player_count":0,"max_players":24,"Bots":0,"server_type":"Dedicated","server_os":"Linux","password":true,"vac":true,"version":"7882260","steam_id":85568392924469996,"keywords":["cp","nocrits","nodmgspread","uncletopia"],"game_id":440,"stv_port":27016,"stv_name":"Uncletopia | S√£o Paulo | 1 | All Maps | STV","players":null},{"server_id":143,"name":"Uncletopia | S√£o Paulo | 2 | All Maps","name_short":"sao-2","host":"sao-2.br.uncletopia.com","port":27015,"enabled":true,"region":"sa","cc":"br","latitude":-23.533773,"longitude":-46.62529,"reserved":0,"last_update":"0001-01-01T00:00:00Z","name_a2s":"Uncletopia | S√£o Paulo | 2 | All Maps","protocol":17,"map":"koth_harvest_final","folder":"tf","game":"Team Fortress","app_id":440,"player_count":13,"max_players":24,"Bots":0,"server_type":"Dedicated","server_os":"Linux","password":true,"vac":true,"version":"7882260","steam_id":85568392924485349,"keywords":["cp","nocrits","nodmgspread","uncletopia"],"game_id":440,"stv_port":27016,"stv_name":"Uncletopia | S√£o Paulo | 2 | All Maps | STV","players":[{"user_id":141,"name":"yo","steam_id":76561198347518013,"connected_time":1554000000000,"state":"active","ping":86},{"user_id":160,"name":"The Hellgineer","steam_id":76561198349622940,"connected_time":113000000000,"state":"active","ping":252},{"user_id":161,"name":"‚òÖ","steam_id":76561199224870932,"connected_time":100000000000,"state":"active","ping":50},{"user_id":133,"name":"vacaloca25","steam_id":76561198082683352,"connected_time":2399000000000,"state":"active","ping":58},{"user_id":157,"name":"NickOfZueira","steam_id":76561198092792802,"connected_time":284000000000,"state":"active","ping":46},{"user_id":148,"name":"ekj75","steam_id":76561199063979966,"connected_time":890000000000,"state":"active","ping":145},{"user_id":149,"name":"SenhorFooca","steam_id":76561199269436074,"connected_time":846000000000,"state":"active","ping":57},{"user_id":151,"name":"Ricardo Ereto","steam_id":76561199022729585,"connected_time":699000000000,"state":"active","ping":56},{"user_id":152,"name":"TsukoLover","steam_id":76561199066360306,"connected_time":697000000000,"state":"active","ping":78},{"user_id":153,"name":"odeiominhavida899","steam_id":76561199483855852,"connected_time":680000000000,"state":"active","ping":40},{"user_id":158,"name":"üúè Morgana","steam_id":76561199407502201,"connected_time":231000000000,"state":"active","ping":52},{"user_id":162,"name":"locobenjaxxx12","steam_id":76561199192567776,"connected_time":66000000000,"state":"active","ping":89},{"user_id":68,"name":"Chuck McGill","steam_id":76561198359942758,"connected_time":7515000000000,"state":"active","ping":41}]},{"server_id":7,"name":"Uncletopia | Seattle | 1 | All Maps","name_short":"sea-1","host":"sea-1.us.uncletopia.com","port":27015,"enabled":true,"region":"us-west","cc":"us","latitude":47.608013,"longitude":-122.33517,"reserved":0,"last_update":"0001-01-01T00:00:00Z","name_a2s":"Uncletopia | Seattle | 1 | All Maps","protocol":17,"map":"cp_egypt_final","folder":"tf","game":"Team Fortress","app_id":440,"player_count":24,"max_players":24,"Bots":0,"server_type":"Dedicated","server_os":"Linux","password":true,"vac":true,"version":"7882260","steam_id":85568392924469997,"keywords":["cp","nocrits","nodmgspread","uncletopia"],"game_id":440,"stv_port":27016,"stv_name":"Uncletopia | Seattle | 1 | All Maps | STV","players":[{"user_id":93,"name":"Syrix","steam_id":76561198017328672,"connected_time":2343000000000,"state":"active","ping":105},{"user_id":116,"name":"MisterManne","steam_id":76561198106598600,"connected_time":889000000000,"state":"active","ping":56},{"user_id":113,"name":"sam1521","steam_id":76561198027264163,"connected_time":1180000000000,"state":"active","ping":119},{"user_id":120,"name":"‚úø corecore¬≤ Matador","steam_id":76561198106938500,"connected_time":584000000000,"state":"active","ping":87},{"user_id":112,"name":"The Sophons","steam_id":76561199386992993,"connected_time":1244000000000,"state":"active","ping":102},{"user_id":117,"name":"a cat plushie","steam_id":76561198080046542,"connected_time":655000000000,"state":"active","ping":49},{"user_id":61,"name":"PKDarkness","steam_id":76561198103180140,"connected_time":4900000000000,"state":"active","ping":134},{"user_id":92,"name":"dust | she/it","steam_id":76561198045218909,"connected_time":2408000000000,"state":"active","ping":39},{"user_id":126,"name":"ronald","steam_id":76561197960691622,"connected_time":15000000000,"state":"active","ping":73},{"user_id":124,"name":"Streamline","steam_id":76561198031098638,"connected_time":62000000000,"state":"active","ping":97},{"user_id":118,"name":"forest (italian)","steam_id":76561198157960257,"connected_time":605000000000,"state":"active","ping":32},{"user_id":114,"name":"Dreamzapp","steam_id":76561199084936632,"connected_time":1144000000000,"state":"active","ping":87},{"user_id":106,"name":"Spring Beans","steam_id":76561197978546259,"connected_time":1509000000000,"state":"active","ping":100},{"user_id":73,"name":"\u003c3Elise\u003c3","steam_id":76561198146435005,"connected_time":4123000000000,"state":"active","ping":70},{"user_id":123,"name":"Sailor","steam_id":76561199081983517,"connected_time":90000000000,"state":"active","ping":98},{"user_id":63,"name":"Byte The Protogen","steam_id":76561199229871383,"connected_time":4868000000000,"state":"active","ping":89},{"user_id":64,"name":"mooney","steam_id":76561199110622484,"connected_time":4860000000000,"state":"active","ping":65},{"user_id":109,"name":"gloobern","steam_id":76561198341190679,"connected_time":1282000000000,"state":"active","ping":68},{"user_id":50,"name":"oo","steam_id":76561198119626492,"connected_time":5804000000000,"state":"active","ping":67},{"user_id":70,"name":"a firm hand","steam_id":76561198042913843,"connected_time":4319000000000,"state":"active","ping":60},{"user_id":125,"name":"Diceroll","steam_id":76561199091191812,"connected_time":62000000000,"state":"active","ping":74},{"user_id":121,"name":"vfa","steam_id":76561198055729118,"connected_time":403000000000,"state":"active","ping":56},{"user_id":122,"name":"team foolery 2","steam_id":76561199118049168,"connected_time":162000000000,"state":"active","ping":79},{"user_id":74,"name":"lili","steam_id":76561199391478575,"connected_time":4032000000000,"state":"active","ping":67}]},{"server_id":119,"name":"Uncletopia | Seattle | 2 | All Maps","name_short":"sea-2","host":"sea-1.us.uncletopia.com","port":27025,"enabled":true,"region":"us-west","cc":"us","latitude":47.608013,"longitude":-122.33517,"reserved":0,"last_update":"0001-01-01T00:00:00Z","name_a2s":"Uncletopia | Seattle | 2 | All Maps","protocol":17,"map":"koth_lakeside_final","folder":"tf","game":"Team Fortress","app_id":440,"player_count":0,"max_players":24,"Bots":0,"server_type":"Dedicated","server_os":"Linux","password":true,"vac":true,"version":"7882260","steam_id":85568392924469998,"keywords":["cp","nocrits","nodmgspread","uncletopia"],"game_id":440,"stv_port":27026,"stv_name":"Uncletopia | Seattle | 2 | All Maps | STV","players":null},{"server_id":406,"name":"Uncletopia | Seattle | 3 | Stopwatch Beta","name_short":"sea-3","host":"sea-1.us.uncletopia.com","port":27035,"enabled":true,"region":"us-west","cc":"us","latitude":47.608013,"longitude":-122.33517,"reserved":0,"last_update":"0001-01-01T00:00:00Z","name_a2s":"Uncletopia | Seattle | 3 | Stopwatch Beta","protocol":17,"map":"koth_viaduct","folder":"tf","game":"Team Fortress","app_id":440,"player_count":0,"max_players":24,"Bots":0,"server_type":"Dedicated","server_os":"Linux","password":true,"vac":true,"version":"7882260","steam_id":85568392924515217,"keywords":["cp","nocrits","nodmgspread","uncletopia"],"game_id":440,"stv_port":27036,"stv_name":"Uncletopia | Seattle | 3 | Stopwatch Beta | STV","players":null},{"server_id":17,"name":"Uncletopia | San Francisco | 1 | All Maps","name_short":"sfo-1","host":"sfo-1.us.uncletopia.com","port":27015,"enabled":true,"region":"us-west","cc":"us","latitude":37.77397,"longitude":-122.4313,"reserved":0,"last_update":"0001-01-01T00:00:00Z","name_a2s":"Uncletopia | San Francisco | 1 | All Maps","protocol":17,"map":"koth_viaduct","folder":"tf","game":"Team Fortress","app_id":440,"player_count":0,"max_players":24,"Bots":0,"server_type":"Dedicated","server_os":"Linux","password":true,"vac":true,"version":"7882260","steam_id":85568392924469999,"keywords":["cp","nocrits","nodmgspread","uncletopia"],"game_id":440,"stv_port":27016,"stv_name":"Uncletopia | San Francisco | 1 | All Maps | STV","players":null},{"server_id":18,"name":"Uncletopia | San Francisco | 2 | All Maps","name_short":"sfo-2","host":"sfo-1.us.uncletopia.com","port":27025,"enabled":true,"region":"us-west","cc":"us","latitude":37.77397,"longitude":-122.4313,"reserved":0,"last_update":"0001-01-01T00:00:00Z","name_a2s":"Uncletopia | San Francisco | 2 | All Maps","protocol":17,"map":"pl_upward","folder":"tf","game":"Team Fortress","app_id":440,"player_count":18,"max_players":24,"Bots":0,"server_type":"Dedicated","server_os":"Linux","password":true,"vac":true,"version":"7882260","steam_id":85568392924470000,"keywords":["nocrits","nodmgspread","payload","uncletopia"],"game_id":440,"stv_port":27026,"stv_name":"Uncletopia | San Francisco | 2 | All Maps | STV","players":[{"user_id":290,"name":"greens beans","steam_id":76561198153611491,"connected_time":1917000000000,"state":"connecting","ping":72},{"user_id":233,"name":"JVKYSL","steam_id":76561199482157711,"connected_time":6502000000000,"state":"connecting","ping":89},{"user_id":313,"name":"CashBin","steam_id":76561199382865598,"connected_time":1120000000000,"state":"connecting","ping":97},{"user_id":319,"name":"bcizzo","steam_id":76561197994399953,"connected_time":265000000000,"state":"connecting","ping":64},{"user_id":321,"name":"VancouverBoi","steam_id":76561199065456542,"connected_time":128000000000,"state":"connecting","ping":75},{"user_id":322,"name":"Stan","steam_id":76561198209150708,"connected_time":87000000000,"state":"connecting","ping":82},{"user_id":271,"name":"Seshreb","steam_id":76561198846614634,"connected_time":3128000000000,"state":"connecting","ping":81},{"user_id":283,"name":"H _ N G M _ N","steam_id":76561198064662875,"connected_time":2706000000000,"state":"connecting","ping":62},{"user_id":323,"name":"great uncle Terry","steam_id":76561198001488041,"connected_time":62000000000,"state":"connecting","ping":106},{"user_id":315,"name":"deev nudth","steam_id":76561198829798572,"connected_time":532000000000,"state":"connecting","ping":97},{"user_id":296,"name":"Coolbreadguy","steam_id":76561198139544202,"connected_time":1769000000000,"state":"spawning","ping":54},{"user_id":281,"name":"A Can of Arizona Green Tea","steam_id":76561198062481133,"connected_time":2842000000000,"state":"connecting","ping":86},{"user_id":298,"name":"brian.dahlmann","steam_id":76561198360431651,"connected_time":1754000000000,"state":"connecting","ping":134},{"user_id":284,"name":"The Angel of Death","steam_id":76561198026079349,"connected_time":2673000000000,"state":"connecting","ping":95},{"user_id":312,"name":"nori_420","steam_id":76561199117134203,"connected_time":1427000000000,"state":"spawning","ping":76},{"user_id":316,"name":"CBUR","steam_id":76561198437498149,"connected_time":455000000000,"state":"connecting","ping":72}]},{"server_id":19,"name":"Uncletopia | San Francisco | 3 | Stopwatch Beta","name_short":"sfo-3","host":"sfo-1.us.uncletopia.com","port":27035,"enabled":true,"region":"us-west","cc":"us","latitude":37.77397,"longitude":-122.4313,"reserved":0,"last_update":"0001-01-01T00:00:00Z","name_a2s":"Uncletopia | San Francisco | 3 | Stopwatch Beta","protocol":17,"map":"pl_snowycoast","folder":"tf","game":"Team Fortress","app_id":440,"player_count":0,"max_players":24,"Bots":0,"server_type":"Dedicated","server_os":"Linux","password":true,"vac":true,"version":"7882260","steam_id":85568392924742824,"keywords":["nocrits","nodmgspread","payload","uncletopia"],"game_id":440,"stv_port":27036,"stv_name":"Uncletopia | San Francisco | 3 | Stopwatch Beta | STV","players":null},{"server_id":20,"name":"Uncletopia | San Francisco | 4 | Community","name_short":"sfo-4","host":"sfo-1.us.uncletopia.com","port":27045,"enabled":true,"region":"us-west","cc":"us","latitude":37.77397,"longitude":-122.4313,"reserved":0,"last_update":"0001-01-01T00:00:00Z","name_a2s":"Uncletopia | San Francisco | 4 | Community","protocol":17,"map":"workshop/cp_glacier_rc6.ugc2905735376","folder":"tf","game":"Team Fortress","app_id":440,"player_count":0,"max_players":24,"Bots":0,"server_type":"Dedicated","server_os":"Linux","password":true,"vac":true,"version":"7882260","steam_id":85568392924742826,"keywords":["cp","nocrits","nodmgspread","uncletopia"],"game_id":440,"stv_port":27046,"stv_name":"Uncletopia | San Francisco | 4 | Community | STV","players":null},{"server_id":141,"name":"Uncletopia | Sydney | 1 | All Maps","name_short":"syd-1","host":"syd-1.au.uncletopia.com","port":27015,"enabled":true,"region":"au","cc":"au","latitude":-33.865143,"longitude":151.2099,"reserved":0,"last_update":"0001-01-01T00:00:00Z","name_a2s":"Uncletopia | Sydney | 1 | All Maps","protocol":17,"map":"cp_altitude","folder":"tf","game":"Team Fortress","app_id":440,"player_count":0,"max_players":24,"Bots":0,"server_type":"Dedicated","server_os":"Linux","password":true,"vac":true,"version":"7882260","steam_id":85568392924470001,"keywords":["cp","nocrits","nodmgspread","uncletopia"],"game_id":440,"stv_port":27016,"stv_name":"Uncletopia | Sydney | 1 | All Maps | STV","players":null},{"server_id":123,"name":"Uncletopia | Sydney | 2 | All Maps","name_short":"syd-2","host":"syd-1.au.uncletopia.com","port":27025,"enabled":true,"region":"au","cc":"au","latitude":-33.865143,"longitude":151.2099,"reserved":0,"last_update":"0001-01-01T00:00:00Z","name_a2s":"Uncletopia | Sydney | 2 | All Maps","protocol":17,"map":"cp_snakewater_final1","folder":"tf","game":"Team Fortress","app_id":440,"player_count":0,"max_players":24,"Bots":0,"server_type":"Dedicated","server_os":"Linux","password":true,"vac":true,"version":"7882260","steam_id":85568392924470002,"keywords":["cp","nocrits","nodmgspread","uncletopia"],"game_id":440,"stv_port":27026,"stv_name":"Uncletopia | Sydney | 2 | All Maps | STV","players":null},{"server_id":395,"name":"Uncletopia | Sydney | 3 | All Maps","name_short":"syd-3","host":"syd-1.au.uncletopia.com","port":27035,"enabled":true,"region":"au","cc":"au","latitude":-33.865143,"longitude":151.2099,"reserved":0,"last_update":"0001-01-01T00:00:00Z","name_a2s":"Uncletopia | Sydney | 3 | All Maps","protocol":17,"map":"pl_badwater","folder":"tf","game":"Team Fortress","app_id":440,"player_count":0,"max_players":24,"Bots":0,"server_type":"Dedicated","server_os":"Linux","password":true,"vac":true,"version":"7882260","steam_id":85568392925194467,"keywords":["nocrits","nodmgspread","payload","uncletopia"],"game_id":440,"stv_port":27036,"stv_name":"Uncletopia | Sydney | 3 | All Maps | STV","players":null},{"server_id":396,"name":"Uncletopia | Sydney | 4 | All Maps","name_short":"syd-4","host":"syd-1.au.uncletopia.com","port":27045,"enabled":true,"region":"au","cc":"au","latitude":-33.865143,"longitude":151.2099,"reserved":0,"last_update":"0001-01-01T00:00:00Z","name_a2s":"Uncletopia | Sydney | 4 | All Maps","protocol":17,"map":"cp_altitude","folder":"tf","game":"Team Fortress","app_id":440,"player_count":4,"max_players":24,"Bots":0,"server_type":"Dedicated","server_os":"Linux","password":true,"vac":true,"version":"7882260","steam_id":85568392925397958,"keywords":["cp","nocrits","nodmgspread","uncletopia"],"game_id":440,"stv_port":27046,"stv_name":"Uncletopia | Sydney | 4 | All Maps | STV","players":[{"user_id":3,"name":"greekgoat","steam_id":76561199076897356,"connected_time":677000000000,"state":"active","ping":256},{"user_id":4,"name":"yellow spy","steam_id":76561199128050459,"connected_time":569000000000,"state":"active","ping":252},{"user_id":5,"name":"Avg aba player","steam_id":76561199212784204,"connected_time":549000000000,"state":"active","ping":262},{"user_id":6,"name":"Snipekid","steam_id":76561199385495976,"connected_time":218000000000,"state":"active","ping":274}]},{"server_id":58,"name":"Uncletopia | Sydney | 5 | Stopwatch Beta","name_short":"syd-5","host":"syd-1.au.uncletopia.com","port":27055,"enabled":true,"region":"au","cc":"au","latitude":-33.865143,"longitude":151.2099,"reserved":0,"last_update":"0001-01-01T00:00:00Z","name_a2s":"Uncletopia | Sydney | 5 | Stopwatch Beta","protocol":17,"map":"koth_viaduct","folder":"tf","game":"Team Fortress","app_id":440,"player_count":0,"max_players":24,"Bots":0,"server_type":"Dedicated","server_os":"Linux","password":true,"vac":true,"version":"7882260","steam_id":85568392925397959,"keywords":["cp","nocrits","nodmgspread","uncletopia"],"game_id":440,"stv_port":27056,"stv_name":"Uncletopia | Sydney | 5 | Stopwatch Beta | STV","players":null},{"server_id":59,"name":"Uncletopia | Sydney | 6 | Community","name_short":"syd-6","host":"syd-1.au.uncletopia.com","port":27065,"enabled":true,"region":"au","cc":"au","latitude":-33.865143,"longitude":151.2099,"reserved":0,"last_update":"0001-01-01T00:00:00Z","name_a2s":"Uncletopia | Sydney | 6 | Community","protocol":17,"map":"pl_upward","folder":"tf","game":"Team Fortress","app_id":440,"player_count":0,"max_players":24,"Bots":0,"server_type":"Dedicated","server_os":"Linux","password":true,"vac":true,"version":"7882260","steam_id":85568392925397960,"keywords":["nocrits","nodmgspread","payload","uncletopia"],"game_id":440,"stv_port":27066,"stv_name":"Uncletopia | Sydney | 6 | Community | STV","players":null},{"server_id":49,"name":"Uncletopia | Warsaw | 1 | All Maps","name_short":"waw-1","host":"waw-1.pl.uncletopia.com","port":27015,"enabled":true,"region":"eu","cc":"pl","latitude":52.2297,"longitude":21.017532,"reserved":0,"last_update":"0001-01-01T00:00:00Z","name_a2s":"","protocol":0,"map":"","folder":"","game":"","app_id":0,"player_count":0,"max_players":0,"Bots":0,"server_type":"","server_os":"","password":false,"vac":false,"version":"","steam_id":0,"keywords":null,"game_id":0,"stv_port":0,"stv_name":"","players":null},{"server_id":50,"name":"Uncletopia | Warsaw | 2 | All Maps","name_short":"waw-2","host":"waw-1.pl.uncletopia.com","port":27025,"enabled":true,"region":"eu","cc":"pl","latitude":52.2297,"longitude":21.017532,"reserved":0,"last_update":"0001-01-01T00:00:00Z","name_a2s":"Uncletopia | Warsaw | 2 | All Maps","protocol":17,"map":"koth_viaduct","folder":"tf","game":"Team Fortress","app_id":440,"player_count":0,"max_players":24,"Bots":0,"server_type":"Dedicated","server_os":"Linux","password":true,"vac":true,"version":"7882260","steam_id":85568392925397851,"keywords":["cp","nocrits","nodmgspread","uncletopia"],"game_id":440,"stv_port":27026,"stv_name":"Uncletopia | Warsaw | 2 | All Maps | STV","players":null},{"server_id":51,"name":"Uncletopia | Warsaw | 3 | All Maps","name_short":"waw-3","host":"waw-1.pl.uncletopia.com","port":27035,"enabled":true,"region":"eu","cc":"pl","latitude":52.2297,"longitude":21.017532,"reserved":0,"last_update":"0001-01-01T00:00:00Z","name_a2s":"Uncletopia | Warsaw | 3 | All Maps","protocol":17,"map":"pl_swiftwater_final1","folder":"tf","game":"Team Fortress","app_id":440,"player_count":0,"max_players":24,"Bots":0,"server_type":"Dedicated","server_os":"Linux","password":true,"vac":true,"version":"7882260","steam_id":85568392925397852,"keywords":["nocrits","nodmgspread","payload","uncletopia"],"game_id":440,"stv_port":27036,"stv_name":"Uncletopia | Warsaw | 3 | All Maps | STV","players":null},{"server_id":52,"name":"Uncletopia | Warsaw | 4 | All Maps","name_short":"waw-4","host":"waw-1.pl.uncletopia.com","port":27045,"enabled":true,"region":"eu","cc":"pl","latitude":52.2297,"longitude":21.017532,"reserved":0,"last_update":"0001-01-01T00:00:00Z","name_a2s":"Uncletopia | Warsaw | 4 | All Maps","protocol":17,"map":"koth_cascade","folder":"tf","game":"Team Fortress","app_id":440,"player_count":0,"max_players":24,"Bots":0,"server_type":"Dedicated","server_os":"Linux","password":true,"vac":true,"version":"7882260","steam_id":85568392925397853,"keywords":["cp","nocrits","nodmgspread","uncletopia"],"game_id":440,"stv_port":27046,"stv_name":"Uncletopia | Warsaw | 4 | All Maps | STV","players":null},{"server_id":53,"name":"Uncletopia | Warsaw | 5 | Stopwatch Beta","name_short":"waw-5","host":"waw-1.pl.uncletopia.com","port":27055,"enabled":true,"region":"eu","cc":"pl","latitude":52.2297,"longitude":21.017532,"reserved":0,"last_update":"0001-01-01T00:00:00Z","name_a2s":"Uncletopia | Warsaw | 5 | Stopwatch Beta","protocol":17,"map":"cp_granary","folder":"tf","game":"Team Fortress","app_id":440,"player_count":0,"max_players":24,"Bots":0,"server_type":"Dedicated","server_os":"Linux","password":true,"vac":true,"version":"7882260","steam_id":85568392925397854,"keywords":["cp","nocrits","nodmgspread","uncletopia"],"game_id":440,"stv_port":27056,"stv_name":"Uncletopia | Warsaw | 5 | Stopwatch Beta | STV","players":null},{"server_id":54,"name":"Uncletopia | Warsaw | 6 | Community","name_short":"waw-6","host":"waw-1.pl.uncletopia.com","port":27065,"enabled":true,"region":"eu","cc":"pl","latitude":52.2297,"longitude":21.017532,"reserved":0,"last_update":"0001-01-01T00:00:00Z","name_a2s":"Uncletopia | Warsaw | 6 | Community","protocol":17,"map":"workshop/koth_bagel_rc6.ugc2514036946","folder":"tf","game":"Team Fortress","app_id":440,"player_count":0,"max_players":24,"Bots":0,"server_type":"Dedicated","server_os":"Linux","password":true,"vac":true,"version":"7882260","steam_id":85568392925397856,"keywords":["cp","nocrits","nodmgspread","uncletopia"],"game_id":440,"stv_port":27066,"stv_name":"Uncletopia | Warsaw | 6 | Community | STV","players":null}]}