{"status":true,"message":"","result":[{"server_id":2,"name":"Uncletopia | Chicago | 1 | All Maps","name_short":"chi-1","host":"chi-1.us.uncletopia.com","port":27015,"enabled":true,"region":"us-central","cc":"us","latitude":41.881832,"longitude":-87.62318,"reserved":0,"last_update":"0001-01-01T00:00:00Z","name_a2s":"Uncletopia | Chicago | 1 | All Maps","protocol":17,"map":"koth_highpass","folder":"tf","game":"Team Fortress","app_id":440,"player_count":24,"max_players":24,"Bots":0,"server_type":"Dedicated","server_os":"Linux","password":true,"vac":true,"version":"7961495","steam_id":85568392924469984,"keywords":["cp","nocrits","nodmgspread","uncletopia"],"game_id":440,"stv_port":27016,"stv_name":"Uncletopia | Chicago | 1 | All Maps | STV","players":[{"user_id":519,"name":"TheAlmightyG","steam_id":76561198235946096,"connected_time":3115000000000,"state":"active","ping":87},{"user_id":513,"name":"Celestial Bodies","steam_id":76561198212572955,"connected_time":3685000000000,"state":"active","ping":78},{"user_id":494,"name":"kentrell jr.","steam_id":76561198136642793,"connected_time":5896000000000,"state":"active","ping":75},{"user_id":544,"name":"crispy","steam_id":76561198971106376,"connected_time":916000000000,"state":"active","ping":45},{"user_id":536,"name":"Swash","steam_id":76561197969421355,"connected_time":1819000000000,"state":"active","ping":61},{"user_id":543,"name":"JoeFalco","steam_id":76561198064005012,"connected_time":939000000000,"state":"active","ping":76},{"user_id":546,"name":"DragonFalcon™","steam_id":76561198044559930,"connected_time":155000000000,"state":"active","ping":84},{"user_id":545,"name":"reero","steam_id":76561198071785065,"connected_time":746000000000,"state":"active","ping":56},{"user_id":501,"name":"filter in the backwoods","steam_id":76561198136146032,"connected_time":5128000000000,"state":"active","ping":60},{"user_id":551,"name":"lamadre07","steam_id":76561198067337453,"connected_time":120000000000,"state":"active","ping":99},{"user_id":553,"name":"TÖZI","steam_id":76561198045268695,"connected_time":112000000000,"state":"active","ping":85},{"user_id":554,"name":"shae2007","steam_id":76561199442299675,"connected_time":104000000000,"state":"active","ping":74},{"user_id":549,"name":"Griffin","steam_id":76561198159339442,"connected_time":131000000000,"state":"active","ping":65},{"user_id":534,"name":"hej","steam_id":76561197996366940,"connected_time":1951000000000,"state":"active","ping":60},{"user_id":522,"name":"Wizard Raccoon","steam_id":76561198072562591,"connected_time":3101000000000,"state":"active","ping":76},{"user_id":526,"name":"geo","steam_id":76561198048748626,"connected_time":2114000000000,"state":"active","ping":97},{"user_id":555,"name":"DetectiveHorse","steam_id":76561198278726152,"connected_time":103000000000,"state":"active","ping":68},{"user_id":548,"name":"NOLSEY","steam_id":76561198108959504,"connected_time":134000000000,"state":"active","ping":46},{"user_id":556,"name":"Jeff","steam_id":76561199003107869,"connected_time":67000000000,"state":"active","ping":99},{"user_id":542,"name":"targeted individual","steam_id":76561198057076267,"connected_time":1048000000000,"state":"active","ping":73},{"user_id":532,"name":"Commodore","steam_id":76561198042112852,"connected_time":2034000000000,"state":"active","ping":65},{"user_id":439,"name":"unc havin a fent battle","steam_id":76561198144766439,"connected_time":12610000000000,"state":"active","ping":53},{"user_id":535,"name":"a","steam_id":76561198215559840,"connected_time":1940000000000,"state":"active","ping":68},{"user_id":550,"name":"cucumper","steam_id":76561198079504588,"connected_time":130000000000,"state":"active","ping":65}]},{"server_id":106,"name":"Uncletopia | Chicago | 2 | All Maps","name_short":"chi-2","host":"chi-1.us.uncletopia.com","port":27025,"enabled":true,"region":"us-central","cc":"us","latitude":41.881832,"longitude":-87.62318,"reserved":0,"last_update":"0001-01-01T00:00:00Z","name_a2s":"Uncletopia | Chicago | 2 | All Maps","protocol":17,"map":"pl_swiftwater_final1","folder":"tf","game":"Team Fortress","app_id":440,"player_count":24,"max_players":24,"Bots":0,"server_type":"Dedicated","server_os":"Linux","password":true,"vac":true,"version":"7961495","steam_id":85568392924469985,"keywords":["nocrits","nodmgspread","payload","uncletopia"],"game_id":440,"stv_port":27026,"stv_name":"Uncletopia | Chicago | 2 | All Maps | STV","players":[{"user_id":658,"name":"Owixan","steam_id":76561198074990070,"connected_time":7217000000000,"state":"active","ping":35},{"user_id":731,"name":"Finding Mwocha","steam_id":76561198860068961,"connected_time":975000000000,"state":"active","ping":64},{"user_id":718,"name":"FenderBender","steam_id":76561198106379456,"connected_time":1743000000000,"state":"active","ping":115},{"user_id":733,"name":"MADHEAD347","steam_id":76561199475145723,"connected_time":922000000000,"state":"active","ping":86},{"user_id":720,"name":"Marvelous","steam_id":76561199083888017,"connected_time":1709000000000,"state":"active","ping":142},{"user_id":734,"name":"bobby wasabi","steam_id":76561198380018244,"connected_time":331000000000,"state":"active","ping":70},{"user_id":704,"name":"Esteban Delsin","steam_id":76561198433519639,"connected_time":3427000000000,"state":"active","ping":127},{"user_id":684,"name":"Thingy","steam_id":76561198140161202,"connected_time":5735000000000,"state":"active","ping":72},{"user_id":646,"name":"Giggles™","steam_id":76561198058708019,"connected_time":9040000000000,"state":"active","ping":56},{"user_id":723,"name":"Violent Cheesestring","steam_id":76561198381005105,"connected_time":1646000000000,"state":"active","ping":91},{"user_id":724,"name":"B.E.L.C.","steam_id":76561198162815864,"connected_time":1645000000000,"state":"active","ping":74},{"user_id":683,"name":"DRUNK KAYLA","steam_id":76561198044916925,"connected_time":5902000000000,"state":"active","ping":61},{"user_id":639,"name":"Alecto","steam_id":76561198042476864,"connected_time":10296000000000,"state":"active","ping":48},{"user_id":725,"name":"Dorito","steam_id":76561198086609717,"connected_time":1641000000000,"state":"active","ping":82},{"user_id":706,"name":"Bodhi","steam_id":76561198103230995,"connected_time":3416000000000,"state":"active","ping":81},{"user_id":698,"name":"5mech","steam_id":76561198979167520,"connected_time":3465000000000,"state":"active","ping":57},{"user_id":732,"name":"Olly","steam_id":76561198054273611,"connected_time":955000000000,"state":"active","ping":66},{"user_id":641,"name":"kite","steam_id":76561198346516392,"connected_time":10171000000000,"state":"active","ping":68},{"user_id":728,"name":"Hot shoulder","steam_id":76561198453824178,"connected_time":1532000000000,"state":"active","ping":134},{"user_id":715,"name":"mwocha","steam_id":76561198136778702,"connected_time":2424000000000,"state":"active","ping":90},{"user_id":703,"name":"Doofenshmirtz Evil Inc.","steam_id":76561198439793697,"connected_time":3455000000000,"state":"active","ping":77},{"user_id":726,"name":"Smiles","steam_id":76561198107197973,"connected_time":1618000000000,"state":"active","ping":60},{"user_id":701,"name":"reis","steam_id":76561199232952016,"connected_time":3462000000000,"state":"active","ping":175},{"user_id":708,"name":"Jaydyn","steam_id":76561198140326797,"connected_time":3373000000000,"state":"active","ping":80}]},{"server_id":402,"name":"Uncletopia | Chicago | 3 | All Maps","name_short":"chi-3","host":"chi-1.us.uncletopia.com","port":27035,"enabled":true,"region":"us-central","cc":"us","latitude":41.881832,"longitude":-87.62318,"reserved":0,"last_update":"0001-01-01T00:00:00Z","name_a2s":"Uncletopia | Chicago | 3 | All Maps","protocol":17,"map":"pl_upward","folder":"tf","game":"Team Fortress","app_id":440,"player_count":24,"max_players":24,"Bots":0,"server_type":"Dedicated","server_os":"Linux","password":true,"vac":true,"version":"7961495","steam_id":85568392924515191,"keywords":["nocrits","nodmgspread","payload","uncletopia"],"game_id":440,"stv_port":27036,"stv_name":"Uncletopia | Chicago | 3 | All Maps | STV","players":[{"user_id":546,"name":"YahYeeterson","steam_id":76561198120480906,"connected_time":639000000000,"state":"active","ping":107},{"user_id":553,"name":"seldom","steam_id":76561198166193756,"connected_time":580000000000,"state":"active","ping":64},{"user_id":557,"name":"(pro) semitic ye","steam_id":76561198068830312,"connected_time":121000000000,"state":"active","ping":47},{"user_id":538,"name":"com lag","steam_id":76561198019019392,"connected_time":2234000000000,"state":"active","ping":39},{"user_id":555,"name":"e namo","steam_id":76561199077126146,"connected_time":171000000000,"state":"active","ping":90},{"user_id":549,"name":"Fargo","steam_id":76561198044703931,"connected_time":625000000000,"state":"active","ping":67},{"user_id":512,"name":"caption cool","steam_id":76561197990612056,"connected_time":4549000000000,"state":"active","ping":46},{"user_id":531,"name":"glankinator","steam_id":76561198354077256,"connected_time":2565000000000,"state":"active","ping":45},{"user_id":544,"name":"only a spoonful","steam_id":76561198113180616,"connected_time":908000000000,"state":"active","ping":68},{"user_id":560,"name":"roto","steam_id":76561198138735860,"connected_time":101000000000,"state":"active","ping":70},{"user_id":551,"name":"eat Pant","steam_id":76561197974965536,"connected_time":616000000000,"state":"active","ping":59},{"user_id":556,"name":"red","steam_id":76561198090531755,"connected_time":163000000000,"state":"active","ping":65},{"user_id":540,"name":"Sarbanes-Oxley","steam_id":76561197975898479,"connected_time":1946000000000,"state":"active","ping":80},{"user_id":539,"name":"Predicta","steam_id":76561198017630616,"connected_time":2208000000000,"state":"active","ping":48},{"user_id":552,"name":"Irritated Duck","steam_id":76561198247792076,"connected_time":615000000000,"state":"active","ping":149},{"user_id":559,"name":"yes","steam_id":76561198884284647,"connected_time":112000000000,"state":"active","ping":90},{"user_id":465,"name":"2cats_2curious","steam_id":76561198027143149,"connected_time":9167000000000,"state":"active","ping":43},{"user_id":492,"name":"The Sydney Sleeper Itself","steam_id":76561198180251763,"connected_time":5584000000000,"state":"active","ping":69},{"user_id":523,"name":"viagra addict","steam_id":76561198017705248,"connected_time":3382000000000,"state":"active","ping":46},{"user_id":529,"name":"Kimba","steam_id":76561199092078325,"connected_time":2592000000000,"state":"active","ping":85},{"user_id":561,"name":"An Erect Penis :)","steam_id":76561198086477485,"connected_time":100000000000,"state":"active","ping":39},{"user_id":562,"name":"HE’S IN THE GODDAMN WALLS","steam_id":76561198363267009,"connected_time":3000000000,"state":"spawning","ping":67},{"user_id":493,"name":"Brett Favre","steam_id":76561198202195792,"connected_time":5547000000000,"state":"active","ping":57},{"user_id":510,"name":"YORCHspartan117","steam_id":76561198272955205,"connected_time":4585000000000,"state":"active","ping":90}]},{"server_id":403,"name":"Uncletopia | Chicago | 4 | All Maps","name_short":"chi-4","host":"chi-1.us.uncletopia.com","port":27045,"enabled":true,"region":"us-central","cc":"us","latitude":41.881832,"longitude":-87.62318,"reserved":0,"last_update":"0001-01-01T00:00:00Z","name_a2s":"Uncletopia | Chicago | 4 | All Maps","protocol":17,"map":"cp_dustbowl","folder":"tf","game":"Team Fortress","app_id":440,"player_count":24,"max_players":24,"Bots":0,"server_type":"Dedicated","server_os":"Linux","password":true,"vac":true,"version":"7961495","steam_id":85568392924515193,"keywords":["cp","nocrits","nodmgspread","uncletopia"],"game_id":440,"stv_port":27046,"stv_name":"Uncletopia | Chicago | 4 | All Maps | STV","players":[{"user_id":957,"name":"wise","steam_id":76561198030066204,"connected_time":879000000000,"state":"active","ping":49},{"user_id":966,"name":"mogwaihudson","steam_id":76561199486770715,"connected_time":88000000000,"state":"active","ping":140},{"user_id":956,"name":"Danmar33","steam_id":76561198056453091,"connected_time":882000000000,"state":"active","ping":49},{"user_id":958,"name":"Rez LeRoux","steam_id":76561198451503538,"connected_time":863000000000,"state":"active","ping":67},{"user_id":933,"name":"Elon Tusk","steam_id":76561198977359400,"connected_time":1938000000000,"state":"active","ping":65},{"user_id":930,"name":"GruntRule","steam_id":76561198039987143,"connected_time":2004000000000,"state":"active","ping":80},{"user_id":892,"name":"spartanman284","steam_id":76561198952947651,"connected_time":7031000000000,"state":"active","ping":72},{"user_id":959,"name":"The Sinister Potion","steam_id":76561198131280715,"connected_time":862000000000,"state":"active","ping":72},{"user_id":931,"name":"eeper","steam_id":76561198057884377,"connected_time":2003000000000,"state":"active","ping":53},{"user_id":934,"name":"x.x","steam_id":76561198867798847,"connected_time":1896000000000,"state":"active","ping":90},{"user_id":952,"name":"balzblue","steam_id":76561198430991819,"connected_time":1178000000000,"state":"active","ping":45},{"user_id":928,"name":"lost in spaaaaace","steam_id":76561199085974120,"connected_time":2155000000000,"state":"active","ping":76},{"user_id":951,"name":"grunting male","steam_id":76561198024657987,"connected_time":1214000000000,"state":"active","ping":82},{"user_id":955,"name":"MoistyS0ck","steam_id":76561198978135009,"connected_time":919000000000,"state":"active","ping":70},{"user_id":937,"name":"bald man on a plane to turkey","steam_id":76561198060296782,"connected_time":1863000000000,"state":"active","ping":109},{"user_id":938,"name":"lp","steam_id":76561198058469527,"connected_time":1861000000000,"state":"active","ping":70},{"user_id":953,"name":"Komada337","steam_id":76561198153971124,"connected_time":1172000000000,"state":"active","ping":73},{"user_id":941,"name":"wunkem","steam_id":76561198055948497,"connected_time":1838000000000,"state":"active","ping":59},{"user_id":960,"name":"Gluestick","steam_id":76561199013430308,"connected_time":852000000000,"state":"active","ping":86},{"user_id":950,"name":"SirJameston","steam_id":76561198035674306,"connected_time":1445000000000,"state":"active","ping":56},{"user_id":961,"name":"dig","steam_id":76561198050061475,"connected_time":848000000000,"state":"active","ping":73},{"user_id":946,"name":"The Heart","steam_id":76561198271979288,"connected_time":1742000000000,"state":"active","ping":37},{"user_id":964,"name":"Tetra","steam_id":76561198012329955,"connected_time":270000000000,"state":"active","ping":104},{"user_id":963,"name":"Reckless Klondike","steam_id":76561198060904416,"connected_time":562000000000,"state":"active","ping":75}]},{"server_id":36,"name":"Uncletopia | Chicago | 5 | All Maps","name_short":"chi-5","host":"chi-2.us.uncletopia.com","port":27015,"enabled":true,"region":"us-central","cc":"us","latitude":41.881832,"longitude":-87.62318,"reserved":0,"last_update":"0001-01-01T00:00:00Z","name_a2s":"Uncletopia | Chicago | 5 | All Maps","protocol":17,"map":"cp_dustbowl","folder":"tf","game":"Team Fortress","app_id":440,"player_count":24,"max_players":24,"Bots":0,"server_type":"Dedicated","server_os":"Linux","password":true,"vac":true,"version":"7961495","steam_id":85568392924866362,"keywords":["cp","nocrits","nodmgspread","uncletopia"],"game_id":440,"stv_port":27016,"stv_name":"Uncletopia | Chicago | 5 | All Maps | STV","players":[{"user_id":484,"name":"thatguy_luigi","steam_id":76561198968055462,"connected_time":610000000000,"state":"active","ping":103},{"user_id":456,"name":"JFK GAMING","steam_id":76561198025593142,"connected_time":2930000000000,"state":"active","ping":50},{"user_id":403,"name":"raya","steam_id":76561198051504581,"connected_time":7729000000000,"state":"active","ping":70},{"user_id":457,"name":"Huh?","steam_id":76561198119768703,"connected_time":2929000000000,"state":"active","ping":46},{"user_id":470,"name":"Olhado","steam_id":76561198390880200,"connected_time":1581000000000,"state":"active","ping":83},{"user_id":474,"name":"A Shiny Meat Bicycle","steam_id":76561198358757709,"connected_time":848000000000,"state":"active","ping":96},{"user_id":475,"name":"It's all chill now","steam_id":76561198093368703,"connected_time":819000000000,"state":"active","ping":121},{"user_id":476,"name":"two-bit Thief","steam_id":76561199202681534,"connected_time":815000000000,"state":"active","ping":98},{"user_id":469,"name":"shadowking","steam_id":76561199284698401,"connected_time":1632000000000,"state":"active","ping":94},{"user_id":477,"name":"BU Baggead","steam_id":76561198852902827,"connected_time":795000000000,"state":"active","ping":52},{"user_id":489,"name":"Makina","steam_id":76561198057475567,"connected_time":270000000000,"state":"active","ping":70},{"user_id":490,"name":"hashmap","steam_id":76561198043794014,"connected_time":107000000000,"state":"active","ping":58},{"user_id":450,"name":"Masonicle","steam_id":76561198192327657,"connected_time":3261000000000,"state":"active","ping":73},{"user_id":472,"name":"Kyle H. McCloud","steam_id":76561198025050432,"connected_time":1364000000000,"state":"active","ping":84},{"user_id":487,"name":"Fred","steam_id":76561197983870604,"connected_time":450000000000,"state":"active","ping":88},{"user_id":441,"name":"Observer","steam_id":76561198326814067,"connected_time":4233000000000,"state":"active","ping":65},{"user_id":444,"name":"chiswola","steam_id":76561198046920142,"connected_time":4158000000000,"state":"active","ping":83},{"user_id":401,"name":"tingle shitmouth","steam_id":76561198055109192,"connected_time":8007000000000,"state":"active","ping":60},{"user_id":480,"name":"MERCHANT","steam_id":76561198210010549,"connected_time":768000000000,"state":"active","ping":100},{"user_id":473,"name":"Biscuit","steam_id":76561198034318885,"connected_time":872000000000,"state":"active","ping":151},{"user_id":481,"name":"The Collective(Hypnotist)","steam_id":76561198170423483,"connected_time":749000000000,"state":"active","ping":71},{"user_id":482,"name":"Mike Bean Burritos","steam_id":76561198173430607,"connected_time":730000000000,"state":"active","ping":91},{"user_id":342,"name":"Pizza","steam_id":76561198118748364,"connected_time":14173000000000,"state":"active","ping":82},{"user_id":483,"name":"minecraft","steam_id":76561198104345201,"connected_time":686000000000,"state":"active","ping":70}]},{"server_id":37,"name":"Uncletopia | Chicago | 6 | All Maps","name_short":"chi-6","host":"chi-2.us.uncletopia.com","port":27025,"enabled":true,"region":"us-central","cc":"us","latitude":41.881832,"longitude":-87.62318,"reserved":0,"last_update":"0001-01-01T00:00:00Z","name_a2s":"Uncletopia | Chicago | 6 | All Maps","protocol":17,"map":"pl_swiftwater_final1","folder":"tf","game":"Team Fortress","app_id":440,"player_count":24,"max_players":24,"Bots":0,"server_type":"Dedicated","server_os":"Linux","password":true,"vac":true,"version":"7961495","steam_id":85568392924866363,"keywords":["nocrits","nodmgspread","payload","uncletopia"],"game_id":440,"stv_port":27026,"stv_name":"Uncletopia | Chicago | 6 | All Maps | STV","players":[{"user_id":641,"name":"ang","steam_id":76561198435151254,"connected_time":94000000000,"state":"active","ping":107},{"user_id":636,"name":"Rabid Ham","steam_id":76561198154931014,"connected_time":810000000000,"state":"active","ping":102},{"user_id":642,"name":"Day-Date","steam_id":76561198081148684,"connected_time":91000000000,"state":"active","ping":59},{"user_id":608,"name":"The Pontian","steam_id":76561198059493316,"connected_time":2474000000000,"state":"active","ping":45},{"user_id":637,"name":"ceres","steam_id":76561198291976960,"connected_time":241000000000,"state":"active","ping":105},{"user_id":629,"name":"Architect","steam_id":76561198015242016,"connected_time":1244000000000,"state":"active","ping":47},{"user_id":633,"name":"L to the OG","steam_id":76561199215811448,"connected_time":1132000000000,"state":"active","ping":84},{"user_id":631,"name":"Milk carton","steam_id":76561198967876347,"connected_time":1194000000000,"state":"active","ping":101},{"user_id":610,"name":"SaaxoM","steam_id":76561198208256603,"connected_time":2343000000000,"state":"active","ping":93},{"user_id":635,"name":"Crit-A-Cola enjoyer","steam_id":76561199100884248,"connected_time":917000000000,"state":"active","ping":104},{"user_id":639,"name":"lite","steam_id":76561198041535914,"connected_time":155000000000,"state":"active","ping":92},{"user_id":615,"name":"jinx ♥","steam_id":76561198144414129,"connected_time":2099000000000,"state":"active","ping":89},{"user_id":553,"name":"workin for snapple","steam_id":76561198013732450,"connected_time":6684000000000,"state":"active","ping":47},{"user_id":604,"name":"comon","steam_id":76561198125063586,"connected_time":2692000000000,"state":"active","ping":45},{"user_id":632,"name":"99999999 説明を見て","steam_id":76561199163884669,"connected_time":1190000000000,"state":"active","ping":107},{"user_id":643,"name":"Discourse","steam_id":76561198984286678,"connected_time":45000000000,"state":"active","ping":60},{"user_id":644,"name":"★ Arya","steam_id":76561198134100211,"connected_time":28000000000,"state":"active","ping":74},{"user_id":645,"name":"glue inhaler","steam_id":76561199085645300,"connected_time":28000000000,"state":"spawning","ping":80},{"user_id":596,"name":"jooby","steam_id":76561198131065492,"connected_time":2904000000000,"state":"active","ping":60},{"user_id":640,"name":"Bagoool","steam_id":76561198065368286,"connected_time":108000000000,"state":"active","ping":81},{"user_id":619,"name":"b4rry","steam_id":76561198365887154,"connected_time":2076000000000,"state":"active","ping":74},{"user_id":537,"name":"Balerion the Black Dread","steam_id":76561198003728369,"connected_time":7299000000000,"state":"active","ping":60},{"user_id":638,"name":"incredirocks","steam_id":76561198061079993,"connected_time":233000000000,"state":"active","ping":53},{"user_id":625,"name":"goober","steam_id":76561198344499440,"connected_time":1837000000000,"state":"active","ping":81}]},{"server_id":38,"name":"Uncletopia | Chicago | 7 | Stopwatch Beta","name_short":"chi-7","host":"chi-2.us.uncletopia.com","port":27035,"enabled":true,"region":"us-central","cc":"us","latitude":41.881832,"longitude":-87.62318,"reserved":0,"last_update":"0001-01-01T00:00:00Z","name_a2s":"Uncletopia | Chicago | 7 | Stopwatch Beta","protocol":17,"map":"workshop/pl_barnblitz_pro7.ugc582280235","folder":"tf","game":"Team Fortress","app_id":440,"player_count":0,"max_players":24,"Bots":0,"server_type":"Dedicated","server_os":"Linux","password":true,"vac":true,"version":"7961495","steam_id":85568392924866364,"keywords":["nocrits","nodmgspread","payload","uncletopia"],"game_id":440,"stv_port":27036,"stv_name":"Uncletopia | Chicago | 7 | Stopwatch Beta | STV","players":null},{"server_id":39,"name":"Uncletopia | Chicago | 8 | Community","name_short":"chi-8","host":"chi-2.us.uncletopia.com","port":27045,"enabled":true,"region":"us-central","cc":"us","latitude":41.881832,"longitude":-87.62318,"reserved":0,"last_update":"0001-01-01T00:00:00Z","name_a2s":"Uncletopia | Chicago | 8 | Community","protocol":17,"map":"workshop/cp_glacier_rc6.ugc2905735376","folder":"tf","game":"Team Fortress","app_id":440,"player_count":24,"max_players":24,"Bots":0,"server_type":"Dedicated","server_os":"Linux","password":true,"vac":true,"version":"7961495","steam_id":85568392924866365,"keywords":["cp","nocrits","nodmgspread","uncletopia"],"game_id":440,"stv_port":27046,"stv_name":"Uncletopia | Chicago | 8 | Community | STV","players":[{"user_id":412,"name":"kaputon","steam_id":76561198146299782,"connected_time":91000000000,"state":"active","ping":74},{"user_id":375,"name":"Security Chief Boper","steam_id":76561198218558897,"connected_time":2026000000000,"state":"active","ping":114},{"user_id":411,"name":"CloudVic","steam_id":76561198118868716,"connected_time":140000000000,"state":"active","ping":75},{"user_id":400,"name":"Malone. Water Malone","steam_id":76561197999855169,"connected_time":361000000000,"state":"active","ping":66},{"user_id":385,"name":"Scoundrel","steam_id":76561198056672372,"connected_time":1312000000000,"state":"active","ping":71},{"user_id":270,"name":"YASAI JUICE","steam_id":76561198131971992,"connected_time":9746000000000,"state":"active","ping":39},{"user_id":386,"name":"JPSS","steam_id":76561199239530493,"connected_time":1019000000000,"state":"active","ping":86},{"user_id":397,"name":"_Ati","steam_id":76561198339777801,"connected_time":483000000000,"state":"active","ping":102},{"user_id":401,"name":"haxxorman","steam_id":76561199155156400,"connected_time":350000000000,"state":"active","ping":57},{"user_id":395,"name":"Thomas","steam_id":76561198064273772,"connected_time":574000000000,"state":"active","ping":80},{"user_id":402,"name":"brutus","steam_id":76561198138207742,"connected_time":323000000000,"state":"active","ping":78},{"user_id":403,"name":"Falcor","steam_id":76561198088330242,"connected_time":320000000000,"state":"active","ping":45},{"user_id":404,"name":"Big Boobs","steam_id":76561198401455467,"connected_time":316000000000,"state":"active","ping":113},{"user_id":372,"name":"primordialheath","steam_id":76561199386942638,"connected_time":2080000000000,"state":"active","ping":55},{"user_id":360,"name":"Nyx","steam_id":76561198100929724,"connected_time":3267000000000,"state":"active","ping":87},{"user_id":367,"name":"+]3DR[+Flavor","steam_id":76561198835926330,"connected_time":2293000000000,"state":"active","ping":114},{"user_id":405,"name":"Sgt. Satire","steam_id":76561198104193483,"connected_time":311000000000,"state":"active","ping":124},{"user_id":313,"name":"SuperEnderGuy","steam_id":76561198352732164,"connected_time":5592000000000,"state":"active","ping":116},{"user_id":399,"name":"8bean","steam_id":76561198239138132,"connected_time":427000000000,"state":"active","ping":58},{"user_id":280,"name":"iyed","steam_id":76561198982141827,"connected_time":9147000000000,"state":"active","ping":69},{"user_id":406,"name":"Haunted Astolfo Bean Plushie","steam_id":76561198158992615,"connected_time":294000000000,"state":"active","ping":110},{"user_id":408,"name":"girthmilk","steam_id":76561198054799782,"connected_time":238000000000,"state":"active","ping":94},{"user_id":410,"name":"JBOOGY1201","steam_id":76561199347248028,"connected_time":186000000000,"state":"active","ping":85},{"user_id":378,"name":"Juturna","steam_id":76561198300226970,"connected_time":1881000000000,"state":"active","ping":85}]},{"server_id":8,"name":"Uncletopia | Dallas | 1 | All Maps","name_short":"dal-1","host":"dal-1.us.uncletopia.com","port":27015,"enabled":true,"region":"us-central","cc":"us","latitude":32.779167,"longitude":-96.80889,"reserved":0,"last_update":"0001-01-01T00:00:00Z","name_a2s":"Uncletopia | Dallas | 1 | All Maps","protocol":17,"map":"pl_borneo","folder":"tf","game":"Team Fortress","app_id":440,"player_count":24,"max_players":24,"Bots":0,"server_type":"Dedicated","server_os":"Linux","password":true,"vac":true,"version":"7961495","steam_id":85568392924469986,"keywords":["nocrits","nodmgspread","payload","uncletopia"],"game_id":440,"stv_port":27016,"stv_name":"Uncletopia | Dallas | 1 | All Maps | STV","players":[{"user_id":810,"name":"slowdance","steam_id":76561198097427947,"connected_time":1871000000000,"state":"active","ping":121},{"user_id":700,"name":"LampMan","steam_id":76561198079857527,"connected_time":9494000000000,"state":"active","ping":53},{"user_id":811,"name":"flootsmcdoots","steam_id":76561198124744765,"connected_time":1855000000000,"state":"active","ping":100},{"user_id":799,"name":"FI LO","steam_id":76561198976530881,"connected_time":2553000000000,"state":"active","ping":67},{"user_id":812,"name":"jeffus","steam_id":76561199347238848,"connected_time":1852000000000,"state":"active","ping":100},{"user_id":822,"name":"lil parma","steam_id":76561198035922275,"connected_time":478000000000,"state":"active","ping":45},{"user_id":801,"name":"Bocchers From Bocchi The Rock","steam_id":76561198986388085,"connected_time":2310000000000,"state":"active","ping":104},{"user_id":803,"name":"Antifa Supersoldier","steam_id":76561198141816516,"connected_time":2181000000000,"state":"active","ping":43},{"user_id":787,"name":"The Benefactor","steam_id":76561198307247913,"connected_time":3262000000000,"state":"active","ping":77},{"user_id":779,"name":"Shrederatershan","steam_id":76561199211707598,"connected_time":3779000000000,"state":"active","ping":87},{"user_id":807,"name":"SomeRandomBetaFish","steam_id":76561198827731399,"connected_time":2028000000000,"state":"active","ping":100},{"user_id":823,"name":"mellowhype","steam_id":76561198040675606,"connected_time":309000000000,"state":"active","ping":56},{"user_id":756,"name":"choppa凸(►˛◄'!)","steam_id":76561198123236186,"connected_time":5298000000000,"state":"active","ping":75},{"user_id":795,"name":"Pan-Demonica","steam_id":76561198294350105,"connected_time":2918000000000,"state":"active","ping":70},{"user_id":817,"name":"inax","steam_id":76561198398677744,"connected_time":1635000000000,"state":"active","ping":116},{"user_id":813,"name":"A Can of AriZona Green Tea","steam_id":76561198062481133,"connected_time":1847000000000,"state":"active","ping":74},{"user_id":781,"name":"Sahbi (she/they)","steam_id":76561199196292242,"connected_time":3676000000000,"state":"active","ping":68},{"user_id":770,"name":"schmuck","steam_id":76561198143789773,"connected_time":4323000000000,"state":"active","ping":54},{"user_id":796,"name":"jerma but crying and lesbian","steam_id":76561198110661425,"connected_time":2807000000000,"state":"active","ping":75},{"user_id":797,"name":"Snivy64","steam_id":76561198423445376,"connected_time":2643000000000,"state":"active","ping":68},{"user_id":819,"name":"Transformouse","steam_id":76561198004669368,"connected_time":1575000000000,"state":"active","ping":60},{"user_id":418,"name":"fleepore (:","steam_id":76561199238295034,"connected_time":17655000000000,"state":"active","ping":73},{"user_id":814,"name":"Michaelpc1","steam_id":76561198088365519,"connected_time":1843000000000,"state":"active","ping":90},{"user_id":821,"name":"EverythingZen","steam_id":76561198257384503,"connected_time":545000000000,"state":"active","ping":64}]},{"server_id":108,"name":"Uncletopia | Dallas | 2 | All Maps","name_short":"dal-2","host":"dal-1.us.uncletopia.com","port":27025,"enabled":true,"region":"us-central","cc":"us","latitude":32.779167,"longitude":-96.80889,"reserved":0,"last_update":"0001-01-01T00:00:00Z","name_a2s":"Uncletopia | Dallas | 2 | All Maps","protocol":17,"map":"pl_swiftwater_final1","folder":"tf","game":"Team Fortress","app_id":440,"player_count":24,"max_players":24,"Bots":0,"server_type":"Dedicated","server_os":"Linux","password":true,"vac":true,"version":"7961495","steam_id":85568392924469988,"keywords":["nocrits","nodmgspread","payload","uncletopia"],"game_id":440,"stv_port":27026,"stv_name":"Uncletopia | Dallas | 2 | All Maps | STV","players":[{"user_id":724,"name":"Pippermint","steam_id":76561198292091925,"connected_time":3956000000000,"state":"active","ping":75},{"user_id":770,"name":"Soap","steam_id":76561197994893383,"connected_time":223000000000,"state":"active","ping":72},{"user_id":760,"name":"plink","steam_id":76561198057829889,"connected_time":1408000000000,"state":"active","ping":57},{"user_id":772,"name":"No_Dictators","steam_id":76561199065777321,"connected_time":60000000000,"state":"active","ping":57},{"user_id":766,"name":"Sgt. Pepper","steam_id":76561198063674627,"connected_time":323000000000,"state":"active","ping":76},{"user_id":758,"name":"GLG.Liz","steam_id":76561198021957956,"connected_time":1533000000000,"state":"active","ping":48},{"user_id":757,"name":"s p a c e k a t","steam_id":76561198066852209,"connected_time":1544000000000,"state":"active","ping":57},{"user_id":756,"name":"GLG MUTT","steam_id":76561198147785541,"connected_time":1666000000000,"state":"active","ping":59},{"user_id":715,"name":"Sup m8","steam_id":76561198081659121,"connected_time":5356000000000,"state":"active","ping":44},{"user_id":712,"name":"IlTrashPanda","steam_id":76561198447864095,"connected_time":5465000000000,"state":"active","ping":66},{"user_id":745,"name":"SizableChap","steam_id":76561199148162904,"connected_time":2690000000000,"state":"active","ping":93},{"user_id":743,"name":"Kng","steam_id":76561198993248203,"connected_time":2887000000000,"state":"active","ping":81},{"user_id":767,"name":"funky town","steam_id":76561198068105712,"connected_time":317000000000,"state":"active","ping":90},{"user_id":769,"name":"charm","steam_id":76561198126751384,"connected_time":300000000000,"state":"active","ping":60},{"user_id":703,"name":"errant","steam_id":76561197961758410,"connected_time":6534000000000,"state":"active","ping":44},{"user_id":765,"name":"uncletopia dallas 2 player","steam_id":76561198412786186,"connected_time":480000000000,"state":"active","ping":61},{"user_id":771,"name":"pl_chicago","steam_id":76561198055626638,"connected_time":101000000000,"state":"active","ping":118},{"user_id":706,"name":"Saiki k on meth","steam_id":76561199187226776,"connected_time":6427000000000,"state":"active","ping":54},{"user_id":730,"name":"Zorlovo","steam_id":76561198006443283,"connected_time":3709000000000,"state":"active","ping":74},{"user_id":732,"name":"RockMan","steam_id":76561199228684720,"connected_time":3656000000000,"state":"active","ping":59},{"user_id":751,"name":"Rafl","steam_id":76561198055222756,"connected_time":2303000000000,"state":"active","ping":48},{"user_id":768,"name":"Discount Santa (and He is free)","steam_id":76561198269347992,"connected_time":313000000000,"state":"active","ping":86},{"user_id":742,"name":"Giselle","steam_id":76561198162593640,"connected_time":2910000000000,"state":"active","ping":103},{"user_id":761,"name":"gabagool","steam_id":76561198012131766,"connected_time":1324000000000,"state":"active","ping":60}]},{"server_id":5,"name":"Uncletopia | Frankfurt | 1 | All Maps","name_short":"frk-1","host":"frk-1.de.uncletopia.com","port":27015,"enabled":true,"region":"eu","cc":"de","latitude":50.110924,"longitude":8.682127,"reserved":0,"last_update":"0001-01-01T00:00:00Z","name_a2s":"Uncletopia | Frankfurt | 1 | All Maps","protocol":17,"map":"cp_altitude","folder":"tf","game":"Team Fortress","app_id":440,"player_count":0,"max_players":24,"Bots":0,"server_type":"Dedicated","server_os":"Linux","password":true,"vac":true,"version":"7961495","steam_id":85568392924469989,"keywords":["cp","nocrits","nodmgspread","uncletopia"],"game_id":440,"stv_port":27016,"stv_name":"Uncletopia | Frankfurt | 1 | All Maps | STV","players":null},{"server_id":110,"name":"Uncletopia | Frankfurt | 2 | All Maps","name_short":"frk-2","host":"frk-1.de.uncletopia.com","port":27025,"enabled":true,"region":"eu","cc":"de","latitude":50.110924,"longitude":8.682127,"reserved":0,"last_update":"0001-01-01T00:00:00Z","name_a2s":"Uncletopia | Frankfurt | 2 | All Maps","protocol":17,"map":"cp_sunshine","folder":"tf","game":"Team Fortress","app_id":440,"player_count":0,"max_players":24,"Bots":0,"server_type":"Dedicated","server_os":"Linux","password":true,"vac":true,"version":"7961495","steam_id":85568392924469990,"keywords":["cp","nocrits","nodmgspread","uncletopia"],"game_id":440,"stv_port":27026,"stv_name":"Uncletopia | Frankfurt | 2 | All Maps | STV","players":null},{"server_id":308,"name":"Uncletopia | Frankfurt | 3 | All Maps","name_short":"frk-3","host":"frk-1.de.uncletopia.com","port":27035,"enabled":true,"region":"eu","cc":"de","latitude":50.110924,"longitude":8.682127,"reserved":0,"last_update":"0001-01-01T00:00:00Z","name_a2s":"Uncletopia | Frankfurt | 3 | All Maps","protocol":17,"map":"cp_mountainlab","folder":"tf","game":"Team Fortress","app_id":440,"player_count":0,"max_players":24,"Bots":0,"server_type":"Dedicated","server_os":"Linux","password":true,"vac":true,"version":"7961495","steam_id":85568392924504274,"keywords":["cp","nocrits","nodmgspread","uncletopia"],"game_id":440,"stv_port":27036,"stv_name":"Uncletopia | Frankfurt | 3 | All Maps | STV","players":null},{"server_id":309,"name":"Uncletopia | Frankfurt | 4 | All Maps","name_short":"frk-4","host":"frk-1.de.uncletopia.com","port":27045,"enabled":true,"region":"eu","cc":"de","latitude":50.110924,"longitude":8.682127,"reserved":0,"last_update":"0001-01-01T00:00:00Z","name_a2s":"Uncletopia | Frankfurt | 4 | All Maps","protocol":17,"map":"cp_process_final","folder":"tf","game":"Team Fortress","app_id":440,"player_count":0,"max_players":24,"Bots":0,"server_type":"Dedicated","server_os":"Linux","password":true,"vac":true,"version":"7961495","steam_id":85568392924504275,"keywords":["cp","nocrits","nodmgspread","uncletopia"],"game_id":440,"stv_port":27046,"stv_name":"Uncletopia | Frankfurt | 4 | All Maps | STV","players":null},{"server_id":310,"name":"Uncletopia | Frankfurt | 5 | All Maps","name_short":"frk-5","host":"frk-1.de.uncletopia.com","port":27055,"enabled":true,"region":"eu","cc":"de","latitude":50.110924,"longitude":8.682127,"reserved":0,"last_update":"0001-01-01T00:00:00Z","name_a2s":"Uncletopia | Frankfurt | 5 | All Maps","protocol":17,"map":"koth_viaduct","folder":"tf","game":"Team Fortress","app_id":440,"player_count":0,"max_players":24,"Bots":0,"server_type":"Dedicated","server_os":"Linux","password":true,"vac":true,"version":"7961495","steam_id":85568392924504277,"keywords":["cp","nocrits","nodmgspread","uncletopia"],"game_id":440,"stv_port":27056,"stv_name":"Uncletopia | Frankfurt | 5 | All Maps | STV","players":null},{"server_id":311,"name":"Uncletopia | Frankfurt | 6 | All Maps","name_short":"frk-6","host":"frk-1.de.uncletopia.com","port":27065,"enabled":true,"region":"eu","cc":"de","latitude":50.110924,"longitude":8.682127,"reserved":0,"last_update":"0001-01-01T00:00:00Z","name_a2s":"Uncletopia | Frankfurt | 6 | All Maps","protocol":17,"map":"pl_pier","folder":"tf","game":"Team Fortress","app_id":440,"player_count":0,"max_players":24,"Bots":0,"server_type":"Dedicated","server_os":"Linux","password":true,"vac":true,"version":"7961495","steam_id":85568392924504278,"keywords":["nocrits","nodmgspread","payload","uncletopia"],"game_id":440,"stv_port":27066,"stv_name":"Uncletopia | Frankfurt | 6 | All Maps | STV","players":null},{"server_id":23,"name":"Uncletopia | Frankfurt | 7 | Stopwatch Beta","name_short":"frk-7","host":"frk-1.de.uncletopia.com","port":27075,"enabled":true,"region":"eu","cc":"de","latitude":50.110924,"longitude":8.682127,"reserved":0,"last_update":"0001-01-01T00:00:00Z","name_a2s":"Uncletopia | Frankfurt | 7 | Stopwatch Beta","protocol":17,"map":"koth_cascade","folder":"tf","game":"Team Fortress","app_id":440,"player_count":0,"max_players":24,"Bots":0,"server_type":"Dedicated","server_os":"Linux","password":true,"vac":true,"version":"7961495","steam_id":85568392924742827,"keywords":["cp","nocrits","nodmgspread","uncletopia"],"game_id":440,"stv_port":27076,"stv_name":"Uncletopia | Frankfurt | 7 | Stopwatch Beta | STV","players":null},{"server_id":24,"name":"Uncletopia | Frankfurt | 8 | Community","name_short":"frk-8","host":"frk-1.de.uncletopia.com","port":27085,"enabled":true,"region":"eu","cc":"de","latitude":50.110924,"longitude":8.682127,"reserved":0,"last_update":"0001-01-01T00:00:00Z","name_a2s":"Uncletopia | Frankfurt | 8 | Community","protocol":17,"map":"cp_process_final","folder":"tf","game":"Team Fortress","app_id":440,"player_count":0,"max_players":24,"Bots":0,"server_type":"Dedicated","server_os":"Linux","password":true,"vac":true,"version":"7961495","steam_id":85568392924742828,"keywords":["cp","nocrits","nodmgspread","uncletopia"],"game_id":440,"stv_port":27086,"stv_name":"Uncletopia | Frankfurt | 8 | Community | STV","players":null},{"server_id":202,"name":"Uncletopia | Hong Kong | 1 | All Maps","name_short":"hgk-1","host":"hgk-1.hk.uncletopia.com","port":27015,"enabled":true,"region":"asia","cc":"hk","latitude":22.302711,"longitude":114.177216,"reserved":0,"last_update":"0001-01-01T00:00:00Z","name_a2s":"Uncletopia | Hong Kong | 1 | All Maps","protocol":17,"map":"koth_highpass","folder":"tf","game":"Team Fortress","app_id":440,"player_count":0,"max_players":24,"Bots":0,"server_type":"Dedicated","server_os":"Linux","password":true,"vac":true,"version":"7961495","steam_id":85568392924494504,"keywords":["cp","nocrits","nodmgspread","uncletopia"],"game_id":440,"stv_port":27016,"stv_name":"Uncletopia | Hong Kong | 1 | All Maps | STV","players":null},{"server_id":1,"name":"Uncletopia | Los Angeles | 1 | All Maps","name_short":"lax-1","host":"lax-1.us.uncletopia.com","port":27015,"enabled":true,"region":"us-west","cc":"us","latitude":33.94279,"longitude":-118.41004,"reserved":0,"last_update":"0001-01-01T00:00:00Z","name_a2s":"Uncletopia | Los Angeles | 1 | All Maps","protocol":17,"map":"pl_pier","folder":"tf","game":"Team Fortress","app_id":440,"player_count":24,"max_players":24,"Bots":0,"server_type":"Dedicated","server_os":"Linux","password":true,"vac":true,"version":"7961495","steam_id":85568392924469991,"keywords":["nocrits","nodmgspread","payload","uncletopia"],"game_id":440,"stv_port":27016,"stv_name":"Uncletopia | Los Angeles | 1 | All Maps | STV","players":[{"user_id":569,"name":"mechanicvirus","steam_id":76561198038161480,"connected_time":792000000000,"state":"active","ping":56},{"user_id":549,"name":"CPTforever","steam_id":76561198237767198,"connected_time":2065000000000,"state":"active","ping":46},{"user_id":555,"name":"Goldensliv","steam_id":76561198161673891,"connected_time":1552000000000,"state":"active","ping":31},{"user_id":558,"name":"30-50 feral hogs","steam_id":76561198073587145,"connected_time":1157000000000,"state":"active","ping":88},{"user_id":574,"name":"thug shaker mind control","steam_id":76561198984612489,"connected_time":202000000000,"state":"active","ping":46},{"user_id":533,"name":"HiddenEgg","steam_id":76561199045105518,"connected_time":3079000000000,"state":"active","ping":46},{"user_id":478,"name":"Sprit ♥","steam_id":76561198268780781,"connected_time":6727000000000,"state":"active","ping":94},{"user_id":546,"name":"a cat plushie","steam_id":76561198080046542,"connected_time":2169000000000,"state":"active","ping":64},{"user_id":552,"name":"Keamy","steam_id":76561199471434875,"connected_time":1638000000000,"state":"active","ping":67},{"user_id":543,"name":"werolat","steam_id":76561197960544784,"connected_time":2195000000000,"state":"active","ping":65},{"user_id":568,"name":"ball scratcher","steam_id":76561198133963493,"connected_time":861000000000,"state":"active","ping":50},{"user_id":576,"name":"JawnyMac","steam_id":76561198179529599,"connected_time":112000000000,"state":"active","ping":63},{"user_id":577,"name":"Ronnie Pickering!","steam_id":76561198041842118,"connected_time":42000000000,"state":"active","ping":59},{"user_id":523,"name":"HeroOfTime","steam_id":76561199096218001,"connected_time":3619000000000,"state":"active","ping":56},{"user_id":561,"name":"El Güey","steam_id":76561197970450546,"connected_time":1097000000000,"state":"active","ping":89},{"user_id":522,"name":"Pyrotek⁴","steam_id":76561198072747672,"connected_time":3643000000000,"state":"active","ping":44},{"user_id":567,"name":"porksoda","steam_id":76561198021451377,"connected_time":869000000000,"state":"active","ping":76},{"user_id":556,"name":"SAP","steam_id":76561198005186905,"connected_time":1478000000000,"state":"active","ping":85},{"user_id":572,"name":"Ralph Kramden (Slim Charles)","steam_id":76561197981687895,"connected_time":385000000000,"state":"active","ping":60},{"user_id":550,"name":"NobodyMonkey","steam_id":76561198318360972,"connected_time":1923000000000,"state":"active","ping":54},{"user_id":563,"name":"||BassMan||","steam_id":76561198279865229,"connected_time":1056000000000,"state":"active","ping":86},{"user_id":564,"name":"Fernando","steam_id":76561198443038047,"connected_time":1054000000000,"state":"active","ping":56},{"user_id":575,"name":"naturia","steam_id":76561198092317849,"connected_time":199000000000,"state":"active","ping":47},{"user_id":541,"name":"Just a Good Friend","steam_id":76561198140052403,"connected_time":2259000000000,"state":"active","ping":51}]},{"server_id":112,"name":"Uncletopia | Los Angeles | 2 | All Maps","name_short":"lax-2","host":"lax-1.us.uncletopia.com","port":27025,"enabled":true,"region":"us-west","cc":"us","latitude":33.94279,"longitude":-118.41004,"reserved":0,"last_update":"0001-01-01T00:00:00Z","name_a2s":"Uncletopia | Los Angeles | 2 | All Maps","protocol":17,"map":"pl_barnblitz","folder":"tf","game":"Team Fortress","app_id":440,"player_count":24,"max_players":24,"Bots":0,"server_type":"Dedicated","server_os":"Linux","password":true,"vac":true,"version":"7961495","steam_id":85568392924469992,"keywords":["nocrits","nodmgspread","payload","uncletopia"],"game_id":440,"stv_port":27026,"stv_name":"Uncletopia | Los Angeles | 2 | All Maps | STV","players":[{"user_id":291,"name":"Type Three Dabeetus","steam_id":76561198062710038,"connected_time":2936000000000,"state":"active","ping":53},{"user_id":297,"name":"lol","steam_id":76561198026491738,"connected_time":2331000000000,"state":"active","ping":54},{"user_id":326,"name":"PainInTheRuss","steam_id":76561197977960543,"connected_time":526000000000,"state":"active","ping":52},{"user_id":286,"name":"Vlone","steam_id":76561199119064542,"connected_time":3287000000000,"state":"active","ping":63},{"user_id":272,"name":"Vriska","steam_id":76561198942104681,"connected_time":4575000000000,"state":"active","ping":59},{"user_id":311,"name":"Awesome Biscuit :0","steam_id":76561199123614910,"connected_time":1748000000000,"state":"active","ping":60},{"user_id":261,"name":"UltraBron James","steam_id":76561198066091050,"connected_time":5054000000000,"state":"active","ping":73},{"user_id":313,"name":"THICCBEEF GRANDPA","steam_id":76561197993550572,"connected_time":1614000000000,"state":"active","ping":114},{"user_id":266,"name":"proud_asian","steam_id":76561198977973083,"connected_time":4960000000000,"state":"active","ping":100},{"user_id":322,"name":"Fatpoob","steam_id":76561198056730096,"connected_time":782000000000,"state":"active","ping":98},{"user_id":318,"name":"puffer","steam_id":76561199049164456,"connected_time":1218000000000,"state":"active","ping":72},{"user_id":328,"name":"DarkMewMew","steam_id":76561199471715552,"connected_time":185000000000,"state":"active","ping":71},{"user_id":327,"name":"Livin' Like Larry","steam_id":76561198313360974,"connected_time":416000000000,"state":"active","ping":49},{"user_id":274,"name":"UnusualTofu","steam_id":76561198060103750,"connected_time":4422000000000,"state":"active","ping":58},{"user_id":314,"name":"crotuslovershanks","steam_id":76561199091300223,"connected_time":1613000000000,"state":"active","ping":117},{"user_id":294,"name":"Zaiah","steam_id":76561198377588247,"connected_time":2418000000000,"state":"active","ping":84},{"user_id":296,"name":"-L","steam_id":76561198046074220,"connected_time":2401000000000,"state":"active","ping":35},{"user_id":283,"name":"Herbal Infusion","steam_id":76561198146881319,"connected_time":4170000000000,"state":"active","ping":55},{"user_id":312,"name":"Chin, Bruce Lee's Relative","steam_id":76561198240105522,"connected_time":1682000000000,"state":"active","ping":101},{"user_id":316,"name":"TwoForFlinching","steam_id":76561198073814209,"connected_time":1238000000000,"state":"active","ping":89},{"user_id":277,"name":"Killing_Moon","steam_id":76561198028185566,"connected_time":4349000000000,"state":"active","ping":50},{"user_id":292,"name":"MF! Langrad","steam_id":76561197963819667,"connected_time":2430000000000,"state":"active","ping":83},{"user_id":306,"name":"Ian","steam_id":76561198159334435,"connected_time":1912000000000,"state":"active","ping":166},{"user_id":285,"name":"WhatAmIDoing","steam_id":76561199060028126,"connected_time":3565000000000,"state":"active","ping":71}]},{"server_id":324,"name":"Uncletopia | Los Angeles | 3 | All Maps","name_short":"lax-3","host":"lax-1.us.uncletopia.com","port":27035,"enabled":true,"region":"us-west","cc":"us","latitude":33.94279,"longitude":-118.41004,"reserved":0,"last_update":"0001-01-01T00:00:00Z","name_a2s":"Uncletopia | Los Angeles | 3 | All Maps","protocol":17,"map":"pl_badwater","folder":"tf","game":"Team Fortress","app_id":440,"player_count":24,"max_players":24,"Bots":0,"server_type":"Dedicated","server_os":"Linux","password":true,"vac":true,"version":"7961495","steam_id":85568392924510198,"keywords":["nocrits","nodmgspread","payload","uncletopia"],"game_id":440,"stv_port":27036,"stv_name":"Uncletopia | Los Angeles | 3 | All Maps | STV","players":[{"user_id":250,"name":"Konata gaming","steam_id":76561198069220874,"connected_time":2486000000000,"state":"active","ping":59},{"user_id":256,"name":"Ugly Mick Mars (Plz Duel Me)","steam_id":76561198051504563,"connected_time":2349000000000,"state":"active","ping":89},{"user_id":252,"name":"ferby","steam_id":76561198028229594,"connected_time":2393000000000,"state":"active","ping":53},{"user_id":273,"name":"GreenApples","steam_id":76561198120559543,"connected_time":1229000000000,"state":"active","ping":51},{"user_id":204,"name":"Mer","steam_id":76561198192171041,"connected_time":6527000000000,"state":"active","ping":167},{"user_id":243,"name":"NEBULA","steam_id":76561198086878595,"connected_time":2795000000000,"state":"active","ping":63},{"user_id":274,"name":"Hindmost","steam_id":76561199081837220,"connected_time":1217000000000,"state":"active","ping":100},{"user_id":275,"name":"Edwon","steam_id":76561198319902846,"connected_time":1213000000000,"state":"active","ping":44},{"user_id":245,"name":"ROGUE-PLANET","steam_id":76561198116023052,"connected_time":2742000000000,"state":"active","ping":79},{"user_id":276,"name":"Dullahan","steam_id":76561198119668908,"connected_time":1211000000000,"state":"active","ping":57},{"user_id":253,"name":"Demoman","steam_id":76561198101850500,"connected_time":2384000000000,"state":"active","ping":66},{"user_id":265,"name":"Grape Juice","steam_id":76561198380337568,"connected_time":1689000000000,"state":"active","ping":92},{"user_id":281,"name":"spurious george","steam_id":76561198043558709,"connected_time":554000000000,"state":"active","ping":75},{"user_id":202,"name":"Florist","steam_id":76561198009121060,"connected_time":6765000000000,"state":"active","ping":73},{"user_id":272,"name":"level 7 firemancer","steam_id":76561198209571677,"connected_time":1295000000000,"state":"active","ping":91},{"user_id":271,"name":"dave","steam_id":76561198135961731,"connected_time":1424000000000,"state":"active","ping":91},{"user_id":277,"name":"phon","steam_id":76561198140659236,"connected_time":1197000000000,"state":"active","ping":39},{"user_id":268,"name":"Ducks","steam_id":76561198130038345,"connected_time":1640000000000,"state":"active","ping":86},{"user_id":283,"name":"DORK","steam_id":76561198037384555,"connected_time":384000000000,"state":"active","ping":64},{"user_id":270,"name":"Nediah101","steam_id":76561198129458849,"connected_time":1447000000000,"state":"active","ping":68},{"user_id":241,"name":"Doctor™","steam_id":76561198134309750,"connected_time":3001000000000,"state":"active","ping":123},{"user_id":280,"name":"Frank Accardi","steam_id":76561198017275707,"connected_time":645000000000,"state":"active","ping":71},{"user_id":282,"name":"asmr eater (deaf)","steam_id":76561198067053408,"connected_time":416000000000,"state":"active","ping":50},{"user_id":258,"name":"PinguEnjoyer6","steam_id":76561199186723516,"connected_time":2329000000000,"state":"active","ping":45}]},{"server_id":25,"name":"Uncletopia | Los Angeles | 4 | Stopwatch Beta","name_short":"lax-4","host":"lax-1.us.uncletopia.com","port":27045,"enabled":true,"region":"us-west","cc":"us","latitude":33.94279,"longitude":-118.41004,"reserved":0,"last_update":"0001-01-01T00:00:00Z","name_a2s":"Uncletopia | Los Angeles | 4 | Stopwatch Beta","protocol":17,"map":"koth_lakeside_final","folder":"tf","game":"Team Fortress","app_id":440,"player_count":0,"max_players":24,"Bots":0,"server_type":"Dedicated","server_os":"Linux","password":true,"vac":true,"version":"7961495","steam_id":85568392924510199,"keywords":["cp","nocrits","nodmgspread","uncletopia"],"game_id":440,"stv_port":27046,"stv_name":"Uncletopia | Los Angeles | 4 | Stopwatch Beta | STV","players":null},{"server_id":11,"name":"Uncletopia | London | 1 | All Maps","name_short":"lon-1","host":"lon-1.uk.uncletopia.com","port":27015,"enabled":true,"region":"eu","cc":"gb","latitude":51.509865,"longitude":-0.118092,"reserved":0,"last_update":"0001-01-01T00:00:00Z","name_a2s":"Uncletopia | London | 1 | All Maps","protocol":17,"map":"koth_highpass","folder":"tf","game":"Team Fortress","app_id":440,"player_count":0,"max_players":24,"Bots":0,"server_type":"Dedicated","server_os":"Linux","password":true,"vac":true,"version":"7961495","steam_id":85568392924367362,"keywords":["cp","nocrits","nodmgspread","uncletopia"],"game_id":440,"stv_port":27016,"stv_name":"Uncletopia | London | 1 | All Maps | STV","players":null},{"server_id":114,"name":"Uncletopia | London | 2 | All Maps","name_short":"lon-2","host":"lon-1.uk.uncletopia.com","port":27025,"enabled":true,"region":"eu","cc":"gb","latitude":51.509865,"longitude":-0.118092,"reserved":0,"last_update":"0001-01-01T00:00:00Z","name_a2s":"Uncletopia | London | 2 | All Maps","protocol":17,"map":"cp_process_final","folder":"tf","game":"Team Fortress","app_id":440,"player_count":10,"max_players":24,"Bots":0,"server_type":"Dedicated","server_os":"Linux","password":true,"vac":true,"version":"7961495","steam_id":85568392924470941,"keywords":["cp","nocrits","nodmgspread","uncletopia"],"game_id":440,"stv_port":27026,"stv_name":"Uncletopia | London | 2 | All Maps | STV","players":[{"user_id":623,"name":"hot guy","steam_id":76561198083063005,"connected_time":884000000000,"state":"active","ping":33},{"user_id":627,"name":"zFn","steam_id":76561197997440377,"connected_time":307000000000,"state":"active","ping":85},{"user_id":615,"name":"bebeda blacked out","steam_id":76561198277943630,"connected_time":1585000000000,"state":"active","ping":67},{"user_id":621,"name":"The Funny Cat-Heaby","steam_id":76561198439978112,"connected_time":986000000000,"state":"active","ping":93},{"user_id":628,"name":"Engineer Gaming","steam_id":76561198840761529,"connected_time":119000000000,"state":"active","ping":150},{"user_id":617,"name":"problack","steam_id":76561198000514719,"connected_time":1422000000000,"state":"active","ping":67},{"user_id":629,"name":"CruceaÎnsângerată","steam_id":76561198171026253,"connected_time":79000000000,"state":"active","ping":90},{"user_id":580,"name":"beebo","steam_id":76561199120277007,"connected_time":4555000000000,"state":"active","ping":42},{"user_id":572,"name":"minn","steam_id":76561198099101232,"connected_time":5643000000000,"state":"active","ping":64},{"user_id":514,"name":"Borat","steam_id":76561198122226417,"connected_time":10730000000000,"state":"active","ping":45}]},{"server_id":320,"name":"Uncletopia | London | 3 | All Maps","name_short":"lon-3","host":"lon-1.uk.uncletopia.com","port":27035,"enabled":true,"region":"eu","cc":"gb","latitude":51.509865,"longitude":-0.118092,"reserved":0,"last_update":"0001-01-01T00:00:00Z","name_a2s":"Uncletopia | London | 3 | All Maps","protocol":17,"map":"koth_cascade","folder":"tf","game":"Team Fortress","app_id":440,"player_count":0,"max_players":24,"Bots":0,"server_type":"Dedicated","server_os":"Linux","password":true,"vac":true,"version":"7961495","steam_id":85568392924510192,"keywords":["cp","nocrits","nodmgspread","uncletopia"],"game_id":440,"stv_port":27036,"stv_name":"Uncletopia | London | 3 | All Maps | STV","players":null},{"server_id":321,"name":"Uncletopia | London | 4 | All Maps","name_short":"lon-4","host":"lon-1.uk.uncletopia.com","port":27045,"enabled":true,"region":"eu","cc":"gb","latitude":51.509865,"longitude":-0.118092,"reserved":0,"last_update":"0001-01-01T00:00:00Z","name_a2s":"Uncletopia | London | 4 | All Maps","protocol":17,"map":"koth_viaduct","folder":"tf","game":"Team Fortress","app_id":440,"player_count":0,"max_players":24,"Bots":0,"server_type":"Dedicated","server_os":"Linux","password":true,"vac":true,"version":"7961495","steam_id":85568392924510193,"keywords":["cp","nocrits","nodmgspread","uncletopia"],"game_id":440,"stv_port":27046,"stv_name":"Uncletopia | London | 4 | All Maps | STV","players":null},{"server_id":21,"name":"Uncletopia | London | 5 | All Maps","name_short":"lon-5","host":"lon-1.uk.uncletopia.com","port":27055,"enabled":true,"region":"eu","cc":"gb","latitude":51.509865,"longitude":-0.118092,"reserved":0,"last_update":"0001-01-01T00:00:00Z","name_a2s":"Uncletopia | London | 5 | All Maps","protocol":17,"map":"cp_sunshine","folder":"tf","game":"Team Fortress","app_id":440,"player_count":0,"max_players":24,"Bots":0,"server_type":"Dedicated","server_os":"Linux","password":true,"vac":true,"version":"7961495","steam_id":85568392924742829,"keywords":["cp","nocrits","nodmgspread","uncletopia"],"game_id":440,"stv_port":27056,"stv_name":"Uncletopia | London | 5 | All Maps | STV","players":null},{"server_id":22,"name":"Uncletopia | London | 6 | All Maps","name_short":"lon-6","host":"lon-1.uk.uncletopia.com","port":27065,"enabled":true,"region":"eu","cc":"gb","latitude":51.509865,"longitude":-0.118092,"reserved":0,"last_update":"0001-01-01T00:00:00Z","name_a2s":"Uncletopia | London | 6 | All Maps","protocol":17,"map":"cp_dustbowl","folder":"tf","game":"Team Fortress","app_id":440,"player_count":0,"max_players":24,"Bots":0,"server_type":"Dedicated","server_os":"Linux","password":true,"vac":true,"version":"7961495","steam_id":85568392924742830,"keywords":["cp","nocrits","nodmgspread","uncletopia"],"game_id":440,"stv_port":27066,"stv_name":"Uncletopia | London | 6 | All Maps | STV","players":null},{"server_id":40,"name":"Uncletopia | London | 7 | No Payload","name_short":"lon-7","host":"lon-1.uk.uncletopia.com","port":27075,"enabled":true,"region":"eu","cc":"gb","latitude":51.509865,"longitude":-0.118092,"reserved":0,"last_update":"0001-01-01T00:00:00Z","name_a2s":"Uncletopia | London | 7 | No Payload","protocol":17,"map":"koth_nucleus","folder":"tf","game":"Team Fortress","app_id":440,"player_count":0,"max_players":24,"Bots":0,"server_type":"Dedicated","server_os":"Linux","password":true,"vac":true,"version":"7961495","steam_id":85568392924964314,"keywords":["cp","nocrits","nodmgspread","uncletopia"],"game_id":440,"stv_port":27076,"stv_name":"Uncletopia | London | 7 | No Payload | STV","players":null},{"server_id":41,"name":"Uncletopia | London | 8 | Community","name_short":"lon-8","host":"lon-1.uk.uncletopia.com","port":27085,"enabled":true,"region":"eu","cc":"gb","latitude":51.509865,"longitude":-0.118092,"reserved":0,"last_update":"0001-01-01T00:00:00Z","name_a2s":"Uncletopia | London | 8 | Community","protocol":17,"map":"workshop/koth_bagel_rc6.ugc2514036946","folder":"tf","game":"Team Fortress","app_id":440,"player_count":0,"max_players":24,"Bots":0,"server_type":"Dedicated","server_os":"Linux","password":true,"vac":true,"version":"7961495","steam_id":85568392924964315,"keywords":["cp","nocrits","nodmgspread","uncletopia"],"game_id":440,"stv_port":27086,"stv_name":"Uncletopia | London | 8 | Community | STV","players":null},{"server_id":300,"name":"Uncletopia | Montréal | 1 | All Maps","name_short":"mtl-1","host":"mtl-1.ca.uncletopia.com","port":27015,"enabled":true,"region":"us-east","cc":"ca","latitude":45.50889,"longitude":-73.56167,"reserved":0,"last_update":"0001-01-01T00:00:00Z","name_a2s":"Uncletopia | Montréal | 1 | All Maps","protocol":17,"map":"koth_highpass","folder":"tf","game":"Team Fortress","app_id":440,"player_count":0,"max_players":24,"Bots":0,"server_type":"Dedicated","server_os":"Linux","password":true,"vac":true,"version":"7961495","steam_id":85568392924500087,"keywords":["cp","nocrits","nodmgspread","uncletopia"],"game_id":440,"stv_port":27016,"stv_name":"Uncletopia | Montréal | 1 | All Maps | STV","players":null},{"server_id":301,"name":"Uncletopia | Montréal | 2 | All Maps","name_short":"mtl-2","host":"mtl-1.ca.uncletopia.com","port":27025,"enabled":true,"region":"us-east","cc":"ca","latitude":45.50889,"longitude":-73.56167,"reserved":0,"last_update":"0001-01-01T00:00:00Z","name_a2s":"Uncletopia | Montréal | 2 | All Maps","protocol":17,"map":"pl_borneo","folder":"tf","game":"Team Fortress","app_id":440,"player_count":21,"max_players":24,"Bots":0,"server_type":"Dedicated","server_os":"Linux","password":true,"vac":true,"version":"7961495","steam_id":85568392924500088,"keywords":["nocrits","nodmgspread","payload","uncletopia"],"game_id":440,"stv_port":27026,"stv_name":"Uncletopia | Montréal | 2 | All Maps | STV","players":[{"user_id":87,"name":"Name.code.goku","steam_id":76561199229574640,"connected_time":480000000000,"state":"active","ping":125},{"user_id":93,"name":"Local H00ligan","steam_id":76561198448802335,"connected_time":229000000000,"state":"active","ping":64},{"user_id":89,"name":"Clubs","steam_id":76561198059235131,"connected_time":460000000000,"state":"active","ping":82},{"user_id":94,"name":"spicy popeyes chicken sandwich","steam_id":76561198104086771,"connected_time":213000000000,"state":"active","ping":117},{"user_id":92,"name":"Thequirka","steam_id":76561198968058652,"connected_time":415000000000,"state":"active","ping":116},{"user_id":36,"name":"Coach Nebula","steam_id":76561198034552198,"connected_time":5060000000000,"state":"active","ping":77},{"user_id":95,"name":"Belts the Puppet","steam_id":76561198322969864,"connected_time":208000000000,"state":"active","ping":87},{"user_id":96,"name":"A Rope, for big pits","steam_id":76561198068044782,"connected_time":193000000000,"state":"active","ping":54},{"user_id":86,"name":"SlickMcClick","steam_id":76561198119479800,"connected_time":889000000000,"state":"active","ping":69},{"user_id":97,"name":"Makies Okami","steam_id":76561198009634808,"connected_time":160000000000,"state":"active","ping":126},{"user_id":81,"name":"Asura","steam_id":76561198197227615,"connected_time":1345000000000,"state":"active","ping":58},{"user_id":98,"name":"CoRot-7 B","steam_id":76561199013689510,"connected_time":125000000000,"state":"active","ping":70},{"user_id":99,"name":"tim-","steam_id":76561199119101315,"connected_time":122000000000,"state":"active","ping":61},{"user_id":100,"name":"Dan","steam_id":76561198205054883,"connected_time":117000000000,"state":"active","ping":125},{"user_id":101,"name":"Pizza Party","steam_id":76561198165730754,"connected_time":67000000000,"state":"active","ping":72},{"user_id":102,"name":"VOICES IN MY HEAD","steam_id":76561198357238486,"connected_time":4000000000,"state":"spawning","ping":56},{"user_id":34,"name":"Inevitable","steam_id":76561198210050169,"connected_time":5120000000000,"state":"active","ping":49},{"user_id":35,"name":"Ineffable","steam_id":76561198968869068,"connected_time":5085000000000,"state":"active","ping":93},{"user_id":37,"name":"single mother of 24/24 ctf_2for","steam_id":76561198034096805,"connected_time":5056000000000,"state":"active","ping":77},{"user_id":39,"name":"your mom calls me princess too","steam_id":76561198020400899,"connected_time":5016000000000,"state":"active","ping":88},{"user_id":40,"name":"Poopie Babie","steam_id":76561198047500494,"connected_time":5010000000000,"state":"active","ping":78}]},{"server_id":302,"name":"Uncletopia | Montréal | 3 | All Maps","name_short":"mtl-3","host":"mtl-1.ca.uncletopia.com","port":27035,"enabled":true,"region":"us-east","cc":"ca","latitude":45.50889,"longitude":-73.56167,"reserved":0,"last_update":"0001-01-01T00:00:00Z","name_a2s":"Uncletopia | Montréal | 3 | All Maps","protocol":17,"map":"koth_lakeside_final","folder":"tf","game":"Team Fortress","app_id":440,"player_count":0,"max_players":24,"Bots":0,"server_type":"Dedicated","server_os":"Linux","password":true,"vac":true,"version":"7961495","steam_id":85568392924500089,"keywords":["cp","nocrits","nodmgspread","uncletopia"],"game_id":440,"stv_port":27036,"stv_name":"Uncletopia | Montréal | 3 | All Maps | STV","players":null},{"server_id":303,"name":"Uncletopia | Montréal | 4 | No Payload","name_short":"mtl-4","host":"mtl-1.ca.uncletopia.com","port":27045,"enabled":true,"region":"us-east","cc":"ca","latitude":45.50889,"longitude":-73.56167,"reserved":0,"last_update":"0001-01-01T00:00:00Z","name_a2s":"Uncletopia | Montréal | 4 | No Payload","protocol":17,"map":"cp_gravelpit","folder":"tf","game":"Team Fortress","app_id":440,"player_count":0,"max_players":24,"Bots":0,"server_type":"Dedicated","server_os":"Linux","password":true,"vac":true,"version":"7961495","steam_id":85568392924500090,"keywords":["cp","nocrits","nodmgspread","uncletopia"],"game_id":440,"stv_port":27046,"stv_name":"Uncletopia | Montréal | 4 | No Payload | STV","players":null},{"server_id":13,"name":"Uncletopia | New York City | 1 | All Maps","name_short":"nyc-1","host":"nyc-1.us.uncletopia.com","port":27015,"enabled":true,"region":"us-east","cc":"us","latitude":40.73061,"longitude":-73.93524,"reserved":0,"last_update":"0001-01-01T00:00:00Z","name_a2s":"Uncletopia | New York City | 1 | All Maps","protocol":17,"map":"koth_lakeside_final","folder":"tf","game":"Team Fortress","app_id":440,"player_count":19,"max_players":24,"Bots":0,"server_type":"Dedicated","server_os":"Linux","password":true,"vac":true,"version":"7961495","steam_id":85568392924469993,"keywords":["cp","nocrits","nodmgspread","uncletopia"],"game_id":440,"stv_port":27016,"stv_name":"Uncletopia | New York City | 1 | All Maps | STV","players":[{"user_id":468,"name":"The One True Luke","steam_id":76561198180891187,"connected_time":105000000000,"state":"active","ping":52},{"user_id":465,"name":"Bewen","steam_id":76561198325334261,"connected_time":196000000000,"state":"active","ping":39},{"user_id":397,"name":"A Puppy","steam_id":76561198828184456,"connected_time":4268000000000,"state":"active","ping":47},{"user_id":428,"name":"Mr. Durian","steam_id":76561198093813212,"connected_time":2057000000000,"state":"active","ping":63},{"user_id":438,"name":"Mak","steam_id":76561198856016840,"connected_time":1241000000000,"state":"active","ping":46},{"user_id":302,"name":"Periculosum PhD in Funny","steam_id":76561198123370914,"connected_time":11792000000000,"state":"active","ping":87},{"user_id":455,"name":"Trotsky Gaming","steam_id":76561199101638460,"connected_time":658000000000,"state":"active","ping":87},{"user_id":441,"name":"Ping","steam_id":76561198072947773,"connected_time":1071000000000,"state":"active","ping":71},{"user_id":467,"name":"M4 SOPMOD II Enjoyer","steam_id":76561198155176802,"connected_time":128000000000,"state":"active","ping":61},{"user_id":469,"name":"Cool Guy Mcgee","steam_id":76561198353638422,"connected_time":104000000000,"state":"active","ping":102},{"user_id":466,"name":"Elite_Friendly","steam_id":76561198819972127,"connected_time":184000000000,"state":"active","ping":105},{"user_id":444,"name":"dumb niko","steam_id":76561199309929040,"connected_time":1019000000000,"state":"active","ping":119},{"user_id":470,"name":"Iwantexpresso","steam_id":76561198975831340,"connected_time":57000000000,"state":"active","ping":257},{"user_id":471,"name":"Maulty","steam_id":76561199281728493,"connected_time":17000000000,"state":"active","ping":107},{"user_id":453,"name":"Yummy Kabobz","steam_id":76561198067661705,"connected_time":741000000000,"state":"active","ping":54},{"user_id":457,"name":"Amauri","steam_id":76561198130809137,"connected_time":610000000000,"state":"active","ping":79},{"user_id":435,"name":"4jess20","steam_id":76561199488852383,"connected_time":1315000000000,"state":"active","ping":63},{"user_id":460,"name":"MonkeyBoo","steam_id":76561199002344384,"connected_time":509000000000,"state":"active","ping":88},{"user_id":461,"name":"tyg","steam_id":76561198056246867,"connected_time":498000000000,"state":"active","ping":50}]},{"server_id":14,"name":"Uncletopia | New York City | 2 | All Maps","name_short":"nyc-2","host":"nyc-1.us.uncletopia.com","port":27025,"enabled":true,"region":"us-east","cc":"us","latitude":40.73061,"longitude":-73.93524,"reserved":0,"last_update":"0001-01-01T00:00:00Z","name_a2s":"Uncletopia | New York City | 2 | All Maps","protocol":17,"map":"pl_upward","folder":"tf","game":"Team Fortress","app_id":440,"player_count":24,"max_players":24,"Bots":0,"server_type":"Dedicated","server_os":"Linux","password":true,"vac":true,"version":"7961495","steam_id":85568392924469994,"keywords":["nocrits","nodmgspread","payload","uncletopia"],"game_id":440,"stv_port":27026,"stv_name":"Uncletopia | New York City | 2 | All Maps | STV","players":[{"user_id":651,"name":"Peepster","steam_id":76561198297854733,"connected_time":3096000000000,"state":"active","ping":85},{"user_id":644,"name":"DanFango","steam_id":76561198078300753,"connected_time":3716000000000,"state":"active","ping":71},{"user_id":678,"name":"honk","steam_id":76561198050398028,"connected_time":959000000000,"state":"active","ping":82},{"user_id":653,"name":"CrunchCisco","steam_id":76561199162724832,"connected_time":3080000000000,"state":"active","ping":88},{"user_id":685,"name":"Spike Bones","steam_id":76561198234926120,"connected_time":413000000000,"state":"active","ping":88},{"user_id":669,"name":"ImmortalProphet","steam_id":76561198012352477,"connected_time":1822000000000,"state":"active","ping":59},{"user_id":588,"name":"Terror-Billy #SaveTF2","steam_id":76561198328141870,"connected_time":9852000000000,"state":"active","ping":65},{"user_id":655,"name":"Glitchy stick","steam_id":76561199013429386,"connected_time":3037000000000,"state":"active","ping":62},{"user_id":676,"name":"MonkaS Madlad","steam_id":76561198086575617,"connected_time":978000000000,"state":"active","ping":42},{"user_id":675,"name":"ash","steam_id":76561198127890645,"connected_time":1310000000000,"state":"active","ping":76},{"user_id":684,"name":"Lore","steam_id":76561198098407538,"connected_time":526000000000,"state":"active","ping":61},{"user_id":689,"name":"bikerkid207","steam_id":76561198390782783,"connected_time":378000000000,"state":"active","ping":51},{"user_id":680,"name":"Si1entSn1pa","steam_id":76561198170095479,"connected_time":920000000000,"state":"active","ping":83},{"user_id":581,"name":"Sableye","steam_id":76561198061247147,"connected_time":10466000000000,"state":"active","ping":73},{"user_id":657,"name":"Bee's","steam_id":76561198041888432,"connected_time":3006000000000,"state":"active","ping":99},{"user_id":679,"name":"ntjohn","steam_id":76561198043367011,"connected_time":932000000000,"state":"active","ping":75},{"user_id":687,"name":"Minnie","steam_id":76561198091052019,"connected_time":397000000000,"state":"active","ping":46},{"user_id":688,"name":"man in your closet","steam_id":76561199019744442,"connected_time":387000000000,"state":"active","ping":124},{"user_id":682,"name":"Autodidact","steam_id":76561198042575938,"connected_time":576000000000,"state":"active","ping":64},{"user_id":672,"name":"Apetometrist","steam_id":76561198045391635,"connected_time":1744000000000,"state":"active","ping":74},{"user_id":692,"name":"overload_screeb","steam_id":76561198078633225,"connected_time":358000000000,"state":"active","ping":127},{"user_id":683,"name":"Soull","steam_id":76561199188088471,"connected_time":554000000000,"state":"active","ping":70},{"user_id":668,"name":"Trey The Awesome","steam_id":76561198370718264,"connected_time":1899000000000,"state":"active","ping":75},{"user_id":671,"name":"David De Bergerac","steam_id":76561198010306294,"connected_time":1813000000000,"state":"active","ping":83}]},{"server_id":15,"name":"Uncletopia | New York City | 3 | Stopwatch Beta","name_short":"nyc-3","host":"nyc-1.us.uncletopia.com","port":27035,"enabled":true,"region":"us-east","cc":"us","latitude":40.73061,"longitude":-73.93524,"reserved":0,"last_update":"0001-01-01T00:00:00Z","name_a2s":"Uncletopia | New York City | 3 | Stopwatch Beta","protocol":17,"map":"pl_borneo","folder":"tf","game":"Team Fortress","app_id":440,"player_count":0,"max_players":24,"Bots":0,"server_type":"Dedicated","server_os":"Linux","password":true,"vac":true,"version":"7961495","steam_id":85568392924742820,"keywords":["nocrits","nodmgspread","payload","uncletopia"],"game_id":440,"stv_port":27036,"stv_name":"Uncletopia | New York City | 3 | Stopwatch Beta | STV","players":null},{"server_id":16,"name":"Uncletopia | New York City | 4 | Community","name_short":"nyc-4","host":"nyc-1.us.uncletopia.com","port":27045,"enabled":true,"region":"us-east","cc":"us","latitude":40.73061,"longitude":-73.93524,"reserved":0,"last_update":"0001-01-01T00:00:00Z","name_a2s":"Uncletopia | New York City | 4 | Community","protocol":17,"map":"workshop/pl_divulgence_b4b.ugc2884808746","folder":"tf","game":"Team Fortress","app_id":440,"player_count":0,"max_players":24,"Bots":0,"server_type":"Dedicated","server_os":"Linux","password":true,"vac":true,"version":"7961495","steam_id":85568392924742821,"keywords":["nocrits","nodmgspread","payload","uncletopia"],"game_id":440,"stv_port":27046,"stv_name":"Uncletopia | New York City | 4 | Community | STV","players":null},{"server_id":142,"name":"Uncletopia | São Paulo | 1 | All Maps","name_short":"sao-1","host":"sao-1.br.uncletopia.com","port":27015,"enabled":true,"region":"sa","cc":"br","latitude":-23.533773,"longitude":-46.62529,"reserved":0,"last_update":"0001-01-01T00:00:00Z","name_a2s":"Uncletopia | São Paulo | 1 | All Maps","protocol":17,"map":"koth_lakeside_final","folder":"tf","game":"Team Fortress","app_id":440,"player_count":0,"max_players":24,"Bots":0,"server_type":"Dedicated","server_os":"Linux","password":true,"vac":true,"version":"7961495","steam_id":85568392924469996,"keywords":["cp","nocrits","nodmgspread","uncletopia"],"game_id":440,"stv_port":27016,"stv_name":"Uncletopia | São Paulo | 1 | All Maps | STV","players":null},{"server_id":143,"name":"Uncletopia | São Paulo | 2 | All Maps","name_short":"sao-2","host":"sao-2.br.uncletopia.com","port":27015,"enabled":true,"region":"sa","cc":"br","latitude":-23.533773,"longitude":-46.62529,"reserved":0,"last_update":"0001-01-01T00:00:00Z","name_a2s":"Uncletopia | São Paulo | 2 | All Maps","protocol":17,"map":"pl_snowycoast","folder":"tf","game":"Team Fortress","app_id":440,"player_count":0,"max_players":24,"Bots":0,"server_type":"Dedicated","server_os":"Linux","password":true,"vac":true,"version":"7961495","steam_id":85568392924485349,"keywords":["nocrits","nodmgspread","payload","uncletopia"],"game_id":440,"stv_port":27016,"stv_name":"Uncletopia | São Paulo | 2 | All Maps | STV","players":null},{"server_id":7,"name":"Uncletopia | Seattle | 1 | All Maps","name_short":"sea-1","host":"sea-1.us.uncletopia.com","port":27015,"enabled":true,"region":"us-west","cc":"us","latitude":47.608013,"longitude":-122.33517,"reserved":0,"last_update":"0001-01-01T00:00:00Z","name_a2s":"Uncletopia | Seattle | 1 | All Maps","protocol":17,"map":"pl_pier","folder":"tf","game":"Team Fortress","app_id":440,"player_count":24,"max_players":24,"Bots":0,"server_type":"Dedicated","server_os":"Linux","password":true,"vac":true,"version":"7961495","steam_id":85568392924469997,"keywords":["nocrits","nodmgspread","payload","uncletopia"],"game_id":440,"stv_port":27016,"stv_name":"Uncletopia | Seattle | 1 | All Maps | STV","players":[{"user_id":500,"name":"Ayayayayayahuasca","steam_id":76561199002906056,"connected_time":786000000000,"state":"active","ping":49},{"user_id":509,"name":"Potato Knishes","steam_id":76561198063539547,"connected_time":487000000000,"state":"active","ping":57},{"user_id":516,"name":"Arsonist Goose","steam_id":76561198147441830,"connected_time":326000000000,"state":"active","ping":71},{"user_id":453,"name":"ZaniZ","steam_id":76561198161467000,"connected_time":4242000000000,"state":"active","ping":29},{"user_id":454,"name":"tr","steam_id":76561198046944222,"connected_time":4211000000000,"state":"active","ping":44},{"user_id":439,"name":"mike, isntrorywashere","steam_id":76561198225411004,"connected_time":5638000000000,"state":"active","ping":74},{"user_id":480,"name":"Cyaniday","steam_id":76561198302051082,"connected_time":2397000000000,"state":"active","ping":70},{"user_id":485,"name":"Wolverine475","steam_id":76561198137136788,"connected_time":2149000000000,"state":"active","ping":116},{"user_id":510,"name":"An Old Lady","steam_id":76561198047480318,"connected_time":487000000000,"state":"active","ping":67},{"user_id":476,"name":"rat gets the cheese","steam_id":76561198031234032,"connected_time":2621000000000,"state":"active","ping":95},{"user_id":498,"name":"--)YawgMoss(-- \"The Salt\"","steam_id":76561198072971649,"connected_time":868000000000,"state":"active","ping":63},{"user_id":511,"name":"rad killl raccoon","steam_id":76561198980975595,"connected_time":481000000000,"state":"active","ping":68},{"user_id":486,"name":"mac_cheese","steam_id":76561198071334162,"connected_time":1952000000000,"state":"active","ping":45},{"user_id":507,"name":"trackpad gaming | f2p","steam_id":76561198840414371,"connected_time":495000000000,"state":"active","ping":49},{"user_id":445,"name":"lusty","steam_id":76561198138478947,"connected_time":4787000000000,"state":"active","ping":43},{"user_id":414,"name":"Luca","steam_id":76561198125087140,"connected_time":6847000000000,"state":"active","ping":50},{"user_id":416,"name":"korkskrou","steam_id":76561198422156430,"connected_time":6384000000000,"state":"active","ping":46},{"user_id":484,"name":"Willow/Grimm","steam_id":76561198878525867,"connected_time":2203000000000,"state":"active","ping":85},{"user_id":488,"name":"shane","steam_id":76561198060491451,"connected_time":1678000000000,"state":"active","ping":83},{"user_id":514,"name":"Wafflemuscle","steam_id":76561198868628982,"connected_time":359000000000,"state":"active","ping":52},{"user_id":504,"name":"amoeba","steam_id":76561198970261784,"connected_time":514000000000,"state":"active","ping":55},{"user_id":471,"name":"Faye (she/her)","steam_id":76561198112184924,"connected_time":2650000000000,"state":"active","ping":148},{"user_id":508,"name":"forest (minecraft npc)","steam_id":76561198157960257,"connected_time":494000000000,"state":"active","ping":40},{"user_id":518,"name":"Y2K ^_^","steam_id":76561199191855486,"connected_time":39000000000,"state":"active","ping":62}]},{"server_id":119,"name":"Uncletopia | Seattle | 2 | All Maps","name_short":"sea-2","host":"sea-1.us.uncletopia.com","port":27025,"enabled":true,"region":"us-west","cc":"us","latitude":47.608013,"longitude":-122.33517,"reserved":0,"last_update":"0001-01-01T00:00:00Z","name_a2s":"Uncletopia | Seattle | 2 | All Maps","protocol":17,"map":"pl_swiftwater_final1","folder":"tf","game":"Team Fortress","app_id":440,"player_count":24,"max_players":24,"Bots":0,"server_type":"Dedicated","server_os":"Linux","password":true,"vac":true,"version":"7961495","steam_id":85568392924469998,"keywords":["nocrits","nodmgspread","payload","uncletopia"],"game_id":440,"stv_port":27026,"stv_name":"Uncletopia | Seattle | 2 | All Maps | STV","players":[{"user_id":271,"name":"amarok","steam_id":76561198954000327,"connected_time":1886000000000,"state":"active","ping":61},{"user_id":280,"name":"el muchacho","steam_id":76561198282632562,"connected_time":1171000000000,"state":"active","ping":114},{"user_id":257,"name":"MaDeuce","steam_id":76561198110732835,"connected_time":3715000000000,"state":"active","ping":65},{"user_id":267,"name":"KILLER FLY","steam_id":76561198846480611,"connected_time":2077000000000,"state":"active","ping":41},{"user_id":275,"name":"DoctorDucky","steam_id":76561198356434380,"connected_time":1497000000000,"state":"active","ping":81},{"user_id":277,"name":"ta}","steam_id":76561198145784505,"connected_time":1390000000000,"state":"active","ping":76},{"user_id":289,"name":"DontCallMeYuki","steam_id":76561198972117348,"connected_time":327000000000,"state":"active","ping":68},{"user_id":290,"name":"Ira","steam_id":76561198855586261,"connected_time":254000000000,"state":"active","ping":100},{"user_id":225,"name":"Neophyte","steam_id":76561198027183394,"connected_time":6505000000000,"state":"active","ping":113},{"user_id":254,"name":"delight","steam_id":76561197980280272,"connected_time":3772000000000,"state":"active","ping":50},{"user_id":272,"name":"Throws Before Bros󠀡","steam_id":76561197992905530,"connected_time":1802000000000,"state":"active","ping":71},{"user_id":292,"name":"MagicalBoyChan","steam_id":76561198024776873,"connected_time":75000000000,"state":"active","ping":69},{"user_id":233,"name":"Funbearable ʕ •ᴥ•ʔ","steam_id":76561197968272094,"connected_time":5684000000000,"state":"active","ping":46},{"user_id":291,"name":"Skabbety","steam_id":76561198168044257,"connected_time":250000000000,"state":"active","ping":44},{"user_id":283,"name":"Mr defrost","steam_id":76561198322125657,"connected_time":684000000000,"state":"active","ping":71},{"user_id":230,"name":"Sleuth","steam_id":76561198418288939,"connected_time":6154000000000,"state":"active","ping":78},{"user_id":285,"name":"warren","steam_id":76561198136331136,"connected_time":413000000000,"state":"active","ping":135},{"user_id":281,"name":"Forty","steam_id":76561198257410181,"connected_time":1093000000000,"state":"active","ping":52},{"user_id":262,"name":"Sea WiZards | AvocadoAdvocator","steam_id":76561198014226433,"connected_time":3419000000000,"state":"active","ping":67},{"user_id":284,"name":"ilun","steam_id":76561198042913843,"connected_time":683000000000,"state":"active","ping":61},{"user_id":206,"name":"type \"bad med\" to kick","steam_id":76561198076402476,"connected_time":8163000000000,"state":"active","ping":87},{"user_id":287,"name":"BlazedBunny","steam_id":76561198243610560,"connected_time":341000000000,"state":"active","ping":76},{"user_id":248,"name":"Grand","steam_id":76561198290143399,"connected_time":4588000000000,"state":"active","ping":77},{"user_id":255,"name":"Truffles","steam_id":76561198095868800,"connected_time":3772000000000,"state":"active","ping":118}]},{"server_id":406,"name":"Uncletopia | Seattle | 3 | Stopwatch Beta","name_short":"sea-3","host":"sea-1.us.uncletopia.com","port":27035,"enabled":true,"region":"us-west","cc":"us","latitude":47.608013,"longitude":-122.33517,"reserved":0,"last_update":"0001-01-01T00:00:00Z","name_a2s":"Uncletopia | Seattle | 3 | Stopwatch Beta","protocol":17,"map":"koth_highpass","folder":"tf","game":"Team Fortress","app_id":440,"player_count":0,"max_players":24,"Bots":0,"server_type":"Dedicated","server_os":"Linux","password":true,"vac":true,"version":"7961495","steam_id":85568392924515217,"keywords":["cp","nocrits","nodmgspread","uncletopia"],"game_id":440,"stv_port":27036,"stv_name":"Uncletopia | Seattle | 3 | Stopwatch Beta | STV","players":null},{"server_id":17,"name":"Uncletopia | San Francisco | 1 | All Maps","name_short":"sfo-1","host":"sfo-1.us.uncletopia.com","port":27015,"enabled":true,"region":"us-west","cc":"us","latitude":37.77397,"longitude":-122.4313,"reserved":0,"last_update":"0001-01-01T00:00:00Z","name_a2s":"Uncletopia | San Francisco | 1 | All Maps","protocol":17,"map":"pl_frontier_final","folder":"tf","game":"Team Fortress","app_id":440,"player_count":0,"max_players":24,"Bots":0,"server_type":"Dedicated","server_os":"Linux","password":true,"vac":true,"version":"7932396","steam_id":85568392924469999,"keywords":["nocrits","nodmgspread","payload","uncletopia"],"game_id":440,"stv_port":27016,"stv_name":"Uncletopia | San Francisco | 1 | All Maps | STV","players":null},{"server_id":18,"name":"Uncletopia | San Francisco | 2 | All Maps","name_short":"sfo-2","host":"sfo-1.us.uncletopia.com","port":27025,"enabled":true,"region":"us-west","cc":"us","latitude":37.77397,"longitude":-122.4313,"reserved":0,"last_update":"0001-01-01T00:00:00Z","name_a2s":"Uncletopia | San Francisco | 2 | All Maps","protocol":17,"map":"cp_snakewater_final1","folder":"tf","game":"Team Fortress","app_id":440,"player_count":0,"max_players":24,"Bots":0,"server_type":"Dedicated","server_os":"Linux","password":true,"vac":true,"version":"7932396","steam_id":85568392924470000,"keywords":["cp","nocrits","nodmgspread","uncletopia"],"game_id":440,"stv_port":27026,"stv_name":"Uncletopia | San Francisco | 2 | All Maps | STV","players":null},{"server_id":19,"name":"Uncletopia | San Francisco | 3 | Stopwatch Beta","name_short":"sfo-3","host":"sfo-1.us.uncletopia.com","port":27035,"enabled":true,"region":"us-west","cc":"us","latitude":37.77397,"longitude":-122.4313,"reserved":0,"last_update":"0001-01-01T00:00:00Z","name_a2s":"Uncletopia | San Francisco | 3 | Stopwatch Beta","protocol":17,"map":"koth_lakeside_final","folder":"tf","game":"Team Fortress","app_id":440,"player_count":0,"max_players":24,"Bots":0,"server_type":"Dedicated","server_os":"Linux","password":true,"vac":true,"version":"7932396","steam_id":85568392924742824,"keywords":["cp","nocrits","nodmgspread","uncletopia"],"game_id":440,"stv_port":27036,"stv_name":"Uncletopia | San Francisco | 3 | Stopwatch Beta | STV","players":null},{"server_id":20,"name":"Uncletopia | San Francisco | 4 | Community","name_short":"sfo-4","host":"sfo-1.us.uncletopia.com","port":27045,"enabled":true,"region":"us-west","cc":"us","latitude":37.77397,"longitude":-122.4313,"reserved":0,"last_update":"0001-01-01T00:00:00Z","name_a2s":"Uncletopia | San Francisco | 4 | Community","protocol":17,"map":"pl_borneo","folder":"tf","game":"Team Fortress","app_id":440,"player_count":0,"max_players":24,"Bots":0,"server_type":"Dedicated","server_os":"Linux","password":true,"vac":true,"version":"7932396","steam_id":85568392924742826,"keywords":["nocrits","nodmgspread","payload","uncletopia"],"game_id":440,"stv_port":27046,"stv_name":"Uncletopia | San Francisco | 4 | Community | STV","players":null},{"server_id":141,"name":"Uncletopia | Sydney | 1 | All Maps","name_short":"syd-1","host":"syd-1.au.uncletopia.com","port":27015,"enabled":true,"region":"au","cc":"au","latitude":-33.865143,"longitude":151.2099,"reserved":0,"last_update":"0001-01-01T00:00:00Z","name_a2s":"Uncletopia | Sydney | 1 | All Maps","protocol":17,"map":"pl_thundermountain","folder":"tf","game":"Team Fortress","app_id":440,"player_count":24,"max_players":24,"Bots":0,"server_type":"Dedicated","server_os":"Linux","password":true,"vac":true,"version":"7961495","steam_id":85568392924470001,"keywords":["nocrits","nodmgspread","payload","uncletopia"],"game_id":440,"stv_port":27016,"stv_name":"Uncletopia | Sydney | 1 | All Maps | STV","players":[{"user_id":62,"name":"Pompadouraus","steam_id":76561198327530525,"connected_time":3547000000000,"state":"active","ping":74},{"user_id":102,"name":"binds","steam_id":76561198205033844,"connected_time":447000000000,"state":"active","ping":58},{"user_id":85,"name":"Okie Dokie","steam_id":76561198125237921,"connected_time":1474000000000,"state":"active","ping":47},{"user_id":91,"name":"NiceName","steam_id":76561198398046309,"connected_time":1185000000000,"state":"active","ping":65},{"user_id":97,"name":"Autistic Raptor","steam_id":76561198354523762,"connected_time":1072000000000,"state":"active","ping":60},{"user_id":101,"name":"Meerkat","steam_id":76561198298662979,"connected_time":540000000000,"state":"active","ping":25},{"user_id":65,"name":"robor","steam_id":76561198084686835,"connected_time":3111000000000,"state":"active","ping":58},{"user_id":103,"name":"opium","steam_id":76561199184547017,"connected_time":417000000000,"state":"active","ping":44},{"user_id":81,"name":"BobTheHuminoid","steam_id":76561199241312725,"connected_time":1656000000000,"state":"active","ping":61},{"user_id":104,"name":"Psalm 118:10-17","steam_id":76561198305904806,"connected_time":416000000000,"state":"active","ping":55},{"user_id":105,"name":"Penguin Wielder","steam_id":76561198169038889,"connected_time":378000000000,"state":"active","ping":60},{"user_id":92,"name":"koyaa","steam_id":76561198047484772,"connected_time":1139000000000,"state":"active","ping":63},{"user_id":82,"name":"Zort","steam_id":76561198056414289,"connected_time":1653000000000,"state":"active","ping":64},{"user_id":98,"name":"callum.jones2008","steam_id":76561198050053720,"connected_time":979000000000,"state":"active","ping":72},{"user_id":66,"name":"ibus","steam_id":76561199026701614,"connected_time":3052000000000,"state":"active","ping":67},{"user_id":87,"name":"Tofu","steam_id":76561198025637573,"connected_time":1424000000000,"state":"active","ping":36},{"user_id":67,"name":"Hippity_Hoppity","steam_id":76561198861050395,"connected_time":3036000000000,"state":"active","ping":66},{"user_id":109,"name":"RAINY","steam_id":76561198009848533,"connected_time":36000000000,"state":"active","ping":58},{"user_id":110,"name":"little raw meat boy","steam_id":76561199248254676,"connected_time":25000000000,"state":"active","ping":59},{"user_id":45,"name":"Beangodhiann","steam_id":76561198189663681,"connected_time":4129000000000,"state":"active","ping":68},{"user_id":94,"name":"Zieria","steam_id":76561199261811388,"connected_time":1110000000000,"state":"active","ping":44},{"user_id":106,"name":"Motormouth","steam_id":76561197980851839,"connected_time":318000000000,"state":"active","ping":86},{"user_id":107,"name":"Rivial","steam_id":76561198161736615,"connected_time":220000000000,"state":"active","ping":69},{"user_id":100,"name":"JP","steam_id":76561198026221737,"connected_time":790000000000,"state":"active","ping":47}]},{"server_id":123,"name":"Uncletopia | Sydney | 2 | All Maps","name_short":"syd-2","host":"syd-1.au.uncletopia.com","port":27025,"enabled":true,"region":"au","cc":"au","latitude":-33.865143,"longitude":151.2099,"reserved":0,"last_update":"0001-01-01T00:00:00Z","name_a2s":"Uncletopia | Sydney | 2 | All Maps","protocol":17,"map":"koth_viaduct","folder":"tf","game":"Team Fortress","app_id":440,"player_count":0,"max_players":24,"Bots":0,"server_type":"Dedicated","server_os":"Linux","password":true,"vac":true,"version":"7961495","steam_id":85568392924470002,"keywords":["cp","nocrits","nodmgspread","uncletopia"],"game_id":440,"stv_port":27026,"stv_name":"Uncletopia | Sydney | 2 | All Maps | STV","players":null},{"server_id":395,"name":"Uncletopia | Sydney | 3 | All Maps","name_short":"syd-3","host":"syd-1.au.uncletopia.com","port":27035,"enabled":true,"region":"au","cc":"au","latitude":-33.865143,"longitude":151.2099,"reserved":0,"last_update":"0001-01-01T00:00:00Z","name_a2s":"Uncletopia | Sydney | 3 | All Maps","protocol":17,"map":"pl_borneo","folder":"tf","game":"Team Fortress","app_id":440,"player_count":0,"max_players":24,"Bots":0,"server_type":"Dedicated","server_os":"Linux","password":true,"vac":true,"version":"7961495","steam_id":85568392925194467,"keywords":["nocrits","nodmgspread","payload","uncletopia"],"game_id":440,"stv_port":27036,"stv_name":"Uncletopia | Sydney | 3 | All Maps | STV","players":null},{"server_id":396,"name":"Uncletopia | Sydney | 4 | All Maps","name_short":"syd-4","host":"syd-1.au.uncletopia.com","port":27045,"enabled":true,"region":"au","cc":"au","latitude":-33.865143,"longitude":151.2099,"reserved":0,"last_update":"0001-01-01T00:00:00Z","name_a2s":"Uncletopia | Sydney | 4 | All Maps","protocol":17,"map":"koth_cascade","folder":"tf","game":"Team Fortress","app_id":440,"player_count":0,"max_players":24,"Bots":0,"server_type":"Dedicated","server_os":"Linux","password":true,"vac":true,"version":"7961495","steam_id":85568392925397958,"keywords":["cp","nocrits","nodmgspread","uncletopia"],"game_id":440,"stv_port":27046,"stv_name":"Uncletopia | Sydney | 4 | All Maps | STV","players":null},{"server_id":58,"name":"Uncletopia | Sydney | 5 | Stopwatch Beta","name_short":"syd-5","host":"syd-1.au.uncletopia.com","port":27055,"enabled":true,"region":"au","cc":"au","latitude":-33.865143,"longitude":151.2099,"reserved":0,"last_update":"0001-01-01T00:00:00Z","name_a2s":"Uncletopia | Sydney | 5 | Stopwatch Beta","protocol":17,"map":"koth_viaduct","folder":"tf","game":"Team Fortress","app_id":440,"player_count":0,"max_players":24,"Bots":0,"server_type":"Dedicated","server_os":"Linux","password":true,"vac":true,"version":"7961495","steam_id":85568392925397959,"keywords":["cp","nocrits","nodmgspread","uncletopia"],"game_id":440,"stv_port":27056,"stv_name":"Uncletopia | Sydney | 5 | Stopwatch Beta | STV","players":null},{"server_id":59,"name":"Uncletopia | Sydney | 6 | Community","name_short":"syd-6","host":"syd-1.au.uncletopia.com","port":27065,"enabled":true,"region":"au","cc":"au","latitude":-33.865143,"longitude":151.2099,"reserved":0,"last_update":"0001-01-01T00:00:00Z","name_a2s":"Uncletopia | Sydney | 6 | Community","protocol":17,"map":"workshop/koth_ramjam_rc1.ugc459778887","folder":"tf","game":"Team Fortress","app_id":440,"player_count":0,"max_players":24,"Bots":0,"server_type":"Dedicated","server_os":"Linux","password":true,"vac":true,"version":"7961495","steam_id":85568392925397960,"keywords":["cp","nocrits","nodmgspread","uncletopia"],"game_id":440,"stv_port":27066,"stv_name":"Uncletopia | Sydney | 6 | Community | STV","players":null},{"server_id":49,"name":"Uncletopia | Warsaw | 1 | All Maps","name_short":"waw-1","host":"waw-1.pl.uncletopia.com","port":27015,"enabled":true,"region":"eu","cc":"pl","latitude":52.2297,"longitude":21.017532,"reserved":0,"last_update":"0001-01-01T00:00:00Z","name_a2s":"","protocol":0,"map":"","folder":"","game":"","app_id":0,"player_count":0,"max_players":0,"Bots":0,"server_type":"","server_os":"","password":false,"vac":false,"version":"","steam_id":0,"keywords":null,"game_id":0,"stv_port":0,"stv_name":"","players":null},{"server_id":50,"name":"Uncletopia | Warsaw | 2 | All Maps","name_short":"waw-2","host":"waw-1.pl.uncletopia.com","port":27025,"enabled":true,"region":"eu","cc":"pl","latitude":52.2297,"longitude":21.017532,"reserved":0,"last_update":"0001-01-01T00:00:00Z","name_a2s":"Uncletopia | Warsaw | 2 | All Maps","protocol":17,"map":"cp_mountainlab","folder":"tf","game":"Team Fortress","app_id":440,"player_count":0,"max_players":24,"Bots":0,"server_type":"Dedicated","server_os":"Linux","password":true,"vac":true,"version":"7961495","steam_id":85568392925397851,"keywords":["cp","nocrits","nodmgspread","uncletopia"],"game_id":440,"stv_port":27026,"stv_name":"Uncletopia | Warsaw | 2 | All Maps | STV","players":null},{"server_id":51,"name":"Uncletopia | Warsaw | 3 | All Maps","name_short":"waw-3","host":"waw-1.pl.uncletopia.com","port":27035,"enabled":true,"region":"eu","cc":"pl","latitude":52.2297,"longitude":21.017532,"reserved":0,"last_update":"0001-01-01T00:00:00Z","name_a2s":"Uncletopia | Warsaw | 3 | All Maps","protocol":17,"map":"pl_barnblitz","folder":"tf","game":"Team Fortress","app_id":440,"player_count":0,"max_players":24,"Bots":0,"server_type":"Dedicated","server_os":"Linux","password":true,"vac":true,"version":"7961495","steam_id":85568392925397852,"keywords":["nocrits","nodmgspread","payload","uncletopia"],"game_id":440,"stv_port":27036,"stv_name":"Uncletopia | Warsaw | 3 | All Maps | STV","players":null},{"server_id":52,"name":"Uncletopia | Warsaw | 4 | All Maps","name_short":"waw-4","host":"waw-1.pl.uncletopia.com","port":27045,"enabled":true,"region":"eu","cc":"pl","latitude":52.2297,"longitude":21.017532,"reserved":0,"last_update":"0001-01-01T00:00:00Z","name_a2s":"Uncletopia | Warsaw | 4 | All Maps","protocol":17,"map":"cp_dustbowl","folder":"tf","game":"Team Fortress","app_id":440,"player_count":0,"max_players":24,"Bots":0,"server_type":"Dedicated","server_os":"Linux","password":true,"vac":true,"version":"7961495","steam_id":85568392925397853,"keywords":["cp","nocrits","nodmgspread","uncletopia"],"game_id":440,"stv_port":27046,"stv_name":"Uncletopia | Warsaw | 4 | All Maps | STV","players":null},{"server_id":53,"name":"Uncletopia | Warsaw | 5 | Stopwatch Beta","name_short":"waw-5","host":"waw-1.pl.uncletopia.com","port":27055,"enabled":true,"region":"eu","cc":"pl","latitude":52.2297,"longitude":21.017532,"reserved":0,"last_update":"0001-01-01T00:00:00Z","name_a2s":"Uncletopia | Warsaw | 5 | Stopwatch Beta","protocol":17,"map":"pl_snowycoast","folder":"tf","game":"Team Fortress","app_id":440,"player_count":0,"max_players":24,"Bots":0,"server_type":"Dedicated","server_os":"Linux","password":true,"vac":true,"version":"7961495","steam_id":85568392925397854,"keywords":["nocrits","nodmgspread","payload","uncletopia"],"game_id":440,"stv_port":27056,"stv_name":"Uncletopia | Warsaw | 5 | Stopwatch Beta | STV","players":null},{"server_id":54,"name":"Uncletopia | Warsaw | 6 | Community","name_short":"waw-6","host":"waw-1.pl.uncletopia.com","port":27065,"enabled":true,"region":"eu","cc":"pl","latitude":52.2297,"longitude":21.017532,"reserved":0,"last_update":"0001-01-01T00:00:00Z","name_a2s":"Uncletopia | Warsaw | 6 | Community","protocol":17,"map":"pl_borneo","folder":"tf","game":"Team Fortress","app_id":440,"player_count":0,"max_players":24,"Bots":0,"server_type":"Dedicated","server_os":"Linux","password":true,"vac":true,"version":"7961495","steam_id":85568392925397856,"keywords":["nocrits","nodmgspread","payload","uncletopia"],"game_id":440,"stv_port":27066,"stv_name":"Uncletopia | Warsaw | 6 | Community | STV","players":null}]}