{"status":true,"message":"","result":[{"server_id":9,"name":"Uncletopia | Atlanta | 1 | All Maps","name_short":"atl-1","host":"atl-1.us.uncletopia.com","port":27015,"enabled":true,"region":"us-east","cc":"us","latitude":33.753746,"longitude":-84.38633,"reserved":0,"last_update":"0001-01-01T00:00:00Z","name_a2s":"Uncletopia | Atlanta | 1 | All Maps","protocol":17,"map":"koth_badlands","folder":"tf","game":"Team Fortress","app_id":440,"player_count":23,"max_players":24,"Bots":0,"server_type":"Dedicated","server_os":"Linux","password":true,"vac":true,"version":"7742253","steam_id":85568392924469982,"keywords":["cp","nocrits","nodmgspread","uncletopia"],"game_id":440,"stv_port":27016,"stv_name":"Uncletopia | Atlanta | 1 | All Maps | STV","players":[{"user_id":493,"name":"Bali","steam_id":76561198038693845,"connected_time":16000000000,"state":"active","ping":102},{"user_id":346,"name":"Mad Cow※","steam_id":76561198132498594,"connected_time":11783000000000,"state":"active","ping":64},{"user_id":479,"name":"Lorelius Hogglefart","steam_id":76561198936120487,"connected_time":443000000000,"state":"active","ping":116},{"user_id":288,"name":"700,000 rabid monkeys in Ohio","steam_id":76561198130772096,"connected_time":17336000000000,"state":"active","ping":71},{"user_id":494,"name":"Ecliptica","steam_id":76561198171951333,"connected_time":2000000000,"state":"spawning","ping":111},{"user_id":482,"name":"Daniel","steam_id":76561199086060699,"connected_time":337000000000,"state":"active","ping":50},{"user_id":472,"name":"Inky (Coolest)","steam_id":76561198968337022,"connected_time":1676000000000,"state":"active","ping":55},{"user_id":480,"name":"indi","steam_id":76561198045917538,"connected_time":371000000000,"state":"active","ping":69},{"user_id":485,"name":"Pigeon","steam_id":76561198404392352,"connected_time":248000000000,"state":"active","ping":100},{"user_id":475,"name":"Quiggles lft","steam_id":76561199177247655,"connected_time":1209000000000,"state":"active","ping":58},{"user_id":420,"name":"Sgt","steam_id":76561198139818111,"connected_time":5159000000000,"state":"active","ping":83},{"user_id":487,"name":"BORN IN GOOP RAISED IN POOP","steam_id":76561198095909397,"connected_time":189000000000,"state":"active","ping":52},{"user_id":476,"name":"MyamE","steam_id":76561198133278462,"connected_time":1043000000000,"state":"active","ping":64},{"user_id":474,"name":"Rockhead","steam_id":76561197995196535,"connected_time":1326000000000,"state":"active","ping":74},{"user_id":486,"name":"Potato","steam_id":76561198883934935,"connected_time":241000000000,"state":"active","ping":165},{"user_id":445,"name":"could you repeat that?","steam_id":76561198337692867,"connected_time":3954000000000,"state":"active","ping":86},{"user_id":488,"name":"KritzKow","steam_id":76561198086164003,"connected_time":163000000000,"state":"active","ping":62},{"user_id":489,"name":"Regi","steam_id":76561198271508598,"connected_time":163000000000,"state":"active","ping":75},{"user_id":490,"name":"Banana Patrick","steam_id":76561198258067237,"connected_time":161000000000,"state":"active","ping":72},{"user_id":492,"name":"♥Noble♥","steam_id":76561198427370124,"connected_time":79000000000,"state":"active","ping":71},{"user_id":491,"name":"Ecuadorian Terrorist","steam_id":76561198157439648,"connected_time":135000000000,"state":"active","ping":87},{"user_id":470,"name":"hazel","steam_id":76561198447244031,"connected_time":1772000000000,"state":"active","ping":69},{"user_id":372,"name":"ShiYor","steam_id":76561199117260032,"connected_time":10762000000000,"state":"active","ping":121}]},{"server_id":400,"name":"Uncletopia | Atlanta | 3 | Stopwatch Beta","name_short":"atl-3","host":"atl-1.us.uncletopia.com","port":27035,"enabled":true,"region":"us-east","cc":"us","latitude":33.753746,"longitude":-84.38633,"reserved":0,"last_update":"0001-01-01T00:00:00Z","name_a2s":"Uncletopia | Atlanta | 3 | Stopwatch Beta","protocol":17,"map":"pl_upward","folder":"tf","game":"Team Fortress","app_id":440,"player_count":0,"max_players":24,"Bots":0,"server_type":"Dedicated","server_os":"Linux","password":true,"vac":true,"version":"7742253","steam_id":85568392924515187,"keywords":["nocrits","nodmgspread","payload","uncletopia"],"game_id":440,"stv_port":27036,"stv_name":"Uncletopia | Atlanta | 3 | Stopwatch Beta | STV","players":null},{"server_id":401,"name":"Uncletopia | Atlanta | 4 | No Payload","name_short":"atl-4","host":"atl-1.us.uncletopia.com","port":27045,"enabled":true,"region":"us-east","cc":"us","latitude":33.753746,"longitude":-84.38633,"reserved":0,"last_update":"0001-01-01T00:00:00Z","name_a2s":"Uncletopia | Atlanta | 4 | No Payload","protocol":17,"map":"pl_pier","folder":"tf","game":"Team Fortress","app_id":440,"player_count":0,"max_players":24,"Bots":0,"server_type":"Dedicated","server_os":"Linux","password":true,"vac":true,"version":"7723704","steam_id":85568392924515188,"keywords":["nocrits","nodmgspread","payload","uncletopia"],"game_id":440,"stv_port":27046,"stv_name":"Uncletopia | Atlanta | 4 | No Payload | STV","players":null},{"server_id":2,"name":"Uncletopia | Chicago | 1 | All Maps","name_short":"chi-1","host":"chi-1.us.uncletopia.com","port":27015,"enabled":true,"region":"us-central","cc":"us","latitude":41.881832,"longitude":-87.62318,"reserved":0,"last_update":"0001-01-01T00:00:00Z","name_a2s":"Uncletopia | Chicago | 1 | All Maps","protocol":17,"map":"pl_snowycoast","folder":"tf","game":"Team Fortress","app_id":440,"player_count":23,"max_players":24,"Bots":0,"server_type":"Dedicated","server_os":"Linux","password":true,"vac":true,"version":"7742253","steam_id":85568392924469984,"keywords":["nocrits","nodmgspread","payload","uncletopia"],"game_id":440,"stv_port":27016,"stv_name":"Uncletopia | Chicago | 1 | All Maps | STV","players":[{"user_id":313,"name":"One Shot and A Miss","steam_id":76561198124269698,"connected_time":155000000000,"state":"active","ping":64},{"user_id":314,"name":"Soph The Dark Elf","steam_id":76561198294426385,"connected_time":150000000000,"state":"active","ping":57},{"user_id":309,"name":"supcupman","steam_id":76561198051513866,"connected_time":406000000000,"state":"active","ping":107},{"user_id":318,"name":"Pancake","steam_id":76561198262794153,"connected_time":82000000000,"state":"active","ping":78},{"user_id":311,"name":".-.","steam_id":76561198820617005,"connected_time":286000000000,"state":"active","ping":110},{"user_id":209,"name":"nalezinik","steam_id":76561198030026119,"connected_time":5480000000000,"state":"active","ping":60},{"user_id":271,"name":"Going Postal","steam_id":76561198211892779,"connected_time":2599000000000,"state":"active","ping":62},{"user_id":292,"name":"Undertime Slopper","steam_id":76561198396789061,"connected_time":1385000000000,"state":"active","ping":87},{"user_id":308,"name":"gaming elliptical","steam_id":76561198013456569,"connected_time":559000000000,"state":"active","ping":48},{"user_id":312,"name":"Santa (real)","steam_id":76561199016285746,"connected_time":247000000000,"state":"active","ping":80},{"user_id":297,"name":"Overduecat","steam_id":76561198092452824,"connected_time":1189000000000,"state":"active","ping":66},{"user_id":306,"name":"Digit","steam_id":76561198156589157,"connected_time":890000000000,"state":"active","ping":73},{"user_id":310,"name":"GnafS","steam_id":76561199101583864,"connected_time":396000000000,"state":"active","ping":81},{"user_id":288,"name":"blob","steam_id":76561198122375328,"connected_time":1517000000000,"state":"active","ping":62},{"user_id":300,"name":"FNARTFITE127","steam_id":76561199098569869,"connected_time":1163000000000,"state":"active","ping":114},{"user_id":307,"name":"raduski","steam_id":76561198795699119,"connected_time":869000000000,"state":"active","ping":91},{"user_id":290,"name":"no","steam_id":76561198248853140,"connected_time":1429000000000,"state":"active","ping":50},{"user_id":319,"name":"AverageRundownJoe.ttv","steam_id":76561198059359620,"connected_time":54000000000,"state":"active","ping":73},{"user_id":315,"name":"Big Sauce","steam_id":76561198046654750,"connected_time":139000000000,"state":"active","ping":74},{"user_id":316,"name":"bingle","steam_id":76561198359413453,"connected_time":138000000000,"state":"active","ping":73},{"user_id":317,"name":"using gc controller","steam_id":76561198212031324,"connected_time":127000000000,"state":"active","ping":57},{"user_id":254,"name":"Funny Skeleton Man","steam_id":76561198264262564,"connected_time":3149000000000,"state":"active","ping":76},{"user_id":305,"name":"Krellah","steam_id":76561198287045069,"connected_time":1100000000000,"state":"active","ping":60}]},{"server_id":106,"name":"Uncletopia | Chicago | 2 | All Maps","name_short":"chi-2","host":"chi-1.us.uncletopia.com","port":27025,"enabled":true,"region":"us-central","cc":"us","latitude":41.881832,"longitude":-87.62318,"reserved":0,"last_update":"0001-01-01T00:00:00Z","name_a2s":"Uncletopia | Chicago | 2 | All Maps","protocol":17,"map":"pl_borneo","folder":"tf","game":"Team Fortress","app_id":440,"player_count":24,"max_players":24,"Bots":0,"server_type":"Dedicated","server_os":"Linux","password":true,"vac":true,"version":"7742253","steam_id":85568392924469985,"keywords":["nocrits","nodmgspread","payload","uncletopia"],"game_id":440,"stv_port":27026,"stv_name":"Uncletopia | Chicago | 2 | All Maps | STV","players":[{"user_id":123,"name":"I'm sorry in advance","steam_id":76561198087380785,"connected_time":1986000000000,"state":"active","ping":100},{"user_id":103,"name":"crippling fumo addiction","steam_id":76561198115874625,"connected_time":3414000000000,"state":"active","ping":67},{"user_id":15,"name":"dbelow_","steam_id":76561198056148853,"connected_time":9147000000000,"state":"active","ping":62},{"user_id":144,"name":"FaZe drinmk bleacjh","steam_id":76561198880907211,"connected_time":587000000000,"state":"active","ping":47},{"user_id":94,"name":"Yaogwai","steam_id":76561198274501963,"connected_time":3893000000000,"state":"active","ping":90},{"user_id":134,"name":"CassandraRC7 (She/her)","steam_id":76561198094123940,"connected_time":1418000000000,"state":"active","ping":61},{"user_id":125,"name":"Eightoneto","steam_id":76561198204106991,"connected_time":1899000000000,"state":"active","ping":63},{"user_id":137,"name":"Boot","steam_id":76561198423162555,"connected_time":1156000000000,"state":"active","ping":61},{"user_id":135,"name":"BrnzWhenIPee","steam_id":76561198308525650,"connected_time":1321000000000,"state":"active","ping":106},{"user_id":120,"name":"kritik","steam_id":76561198075216115,"connected_time":2022000000000,"state":"active","ping":154},{"user_id":96,"name":"TheGhostThatWas","steam_id":76561198055836483,"connected_time":3856000000000,"state":"active","ping":60},{"user_id":143,"name":"dan","steam_id":76561197984998426,"connected_time":604000000000,"state":"active","ping":92},{"user_id":68,"name":"jingle shitmouth","steam_id":76561198055109192,"connected_time":5913000000000,"state":"active","ping":71},{"user_id":145,"name":"Cottontail","steam_id":76561198213634567,"connected_time":581000000000,"state":"active","ping":86},{"user_id":142,"name":"Moose Ham","steam_id":76561198212229659,"connected_time":643000000000,"state":"active","ping":93},{"user_id":131,"name":"warrior","steam_id":76561198361999761,"connected_time":1699000000000,"state":"active","ping":107},{"user_id":87,"name":"Yukon Cornelius","steam_id":76561198261512781,"connected_time":4704000000000,"state":"active","ping":73},{"user_id":114,"name":"SHARK0!","steam_id":76561199391489466,"connected_time":2753000000000,"state":"active","ping":59},{"user_id":132,"name":"TofuBear","steam_id":76561198096546152,"connected_time":1691000000000,"state":"active","ping":67},{"user_id":101,"name":"walito12","steam_id":76561198244902626,"connected_time":3536000000000,"state":"active","ping":112},{"user_id":141,"name":"SirJellyRolls","steam_id":76561198119277244,"connected_time":659000000000,"state":"active","ping":67},{"user_id":147,"name":"rickrolled","steam_id":76561199401509126,"connected_time":54000000000,"state":"active","ping":73},{"user_id":146,"name":"OKB-812","steam_id":76561199172118456,"connected_time":372000000000,"state":"active","ping":59},{"user_id":64,"name":"Ⓑ⓪⓪ⓣⓨⓒⓐⓚⓔⓢ","steam_id":76561198088776421,"connected_time":6148000000000,"state":"active","ping":64}]},{"server_id":402,"name":"Uncletopia | Chicago | 3 | All Maps","name_short":"chi-3","host":"chi-1.us.uncletopia.com","port":27035,"enabled":true,"region":"us-central","cc":"us","latitude":41.881832,"longitude":-87.62318,"reserved":0,"last_update":"0001-01-01T00:00:00Z","name_a2s":"Uncletopia | Chicago | 3 | All Maps","protocol":17,"map":"pl_pier","folder":"tf","game":"Team Fortress","app_id":440,"player_count":22,"max_players":24,"Bots":0,"server_type":"Dedicated","server_os":"Linux","password":true,"vac":true,"version":"7742253","steam_id":85568392924515191,"keywords":["nocrits","nodmgspread","payload","uncletopia"],"game_id":440,"stv_port":27036,"stv_name":"Uncletopia | Chicago | 3 | All Maps | STV","players":[{"user_id":369,"name":"Mr Frog","steam_id":76561199065277975,"connected_time":1617000000000,"state":"active","ping":53},{"user_id":262,"name":"[slug]","steam_id":76561197989592178,"connected_time":9028000000000,"state":"active","ping":64},{"user_id":360,"name":"Michael Jordan","steam_id":76561198306393090,"connected_time":1939000000000,"state":"active","ping":44},{"user_id":386,"name":"rlty","steam_id":76561198009395055,"connected_time":378000000000,"state":"active","ping":61},{"user_id":387,"name":"Malex","steam_id":76561198012216805,"connected_time":374000000000,"state":"active","ping":65},{"user_id":394,"name":"conscripted monk","steam_id":76561199029246232,"connected_time":297000000000,"state":"active","ping":69},{"user_id":361,"name":"Rusty","steam_id":76561197972625397,"connected_time":1923000000000,"state":"active","ping":73},{"user_id":337,"name":"Bread Baker","steam_id":76561198185335103,"connected_time":3613000000000,"state":"active","ping":52},{"user_id":389,"name":"BLU25","steam_id":76561199042215292,"connected_time":333000000000,"state":"active","ping":72},{"user_id":385,"name":"YunKoツ","steam_id":76561199107366261,"connected_time":404000000000,"state":"active","ping":77},{"user_id":391,"name":"Silverkeys","steam_id":76561197986012496,"connected_time":321000000000,"state":"active","ping":77},{"user_id":317,"name":"anti-citizen #1","steam_id":76561197970748784,"connected_time":5057000000000,"state":"active","ping":147},{"user_id":383,"name":"Buddy_and_Pal","steam_id":76561199078574984,"connected_time":643000000000,"state":"active","ping":84},{"user_id":345,"name":"The Sydney Sleeper Itself","steam_id":76561198180251763,"connected_time":3423000000000,"state":"active","ping":63},{"user_id":376,"name":"SINNER","steam_id":76561198072179483,"connected_time":1372000000000,"state":"active","ping":90},{"user_id":379,"name":"stop","steam_id":76561198268686419,"connected_time":1206000000000,"state":"active","ping":69},{"user_id":319,"name":"󠀡󠀡","steam_id":76561198027546178,"connected_time":4934000000000,"state":"active","ping":95},{"user_id":392,"name":"Lord Scrubling","steam_id":76561198263744445,"connected_time":316000000000,"state":"active","ping":76},{"user_id":320,"name":"remnar","steam_id":76561197995454090,"connected_time":4894000000000,"state":"active","ping":69},{"user_id":316,"name":"theholyhealer99","steam_id":76561199045905872,"connected_time":5106000000000,"state":"active","ping":41},{"user_id":366,"name":"Crackhead","steam_id":76561198883918047,"connected_time":1877000000000,"state":"active","ping":61},{"user_id":372,"name":"Dill","steam_id":76561197985091914,"connected_time":1545000000000,"state":"active","ping":67}]},{"server_id":403,"name":"Uncletopia | Chicago | 4 | All Maps","name_short":"chi-4","host":"chi-1.us.uncletopia.com","port":27045,"enabled":true,"region":"us-central","cc":"us","latitude":41.881832,"longitude":-87.62318,"reserved":0,"last_update":"0001-01-01T00:00:00Z","name_a2s":"Uncletopia | Chicago | 4 | All Maps","protocol":17,"map":"koth_highpass","folder":"tf","game":"Team Fortress","app_id":440,"player_count":0,"max_players":24,"Bots":0,"server_type":"Dedicated","server_os":"Linux","password":true,"vac":true,"version":"7742253","steam_id":85568392924515193,"keywords":["cp","nocrits","nodmgspread","uncletopia"],"game_id":440,"stv_port":27046,"stv_name":"Uncletopia | Chicago | 4 | All Maps | STV","players":null},{"server_id":36,"name":"Uncletopia | Chicago | 5 | All Maps","name_short":"chi-5","host":"chi-2.us.uncletopia.com","port":27015,"enabled":true,"region":"us-central","cc":"us","latitude":41.881832,"longitude":-87.62318,"reserved":0,"last_update":"0001-01-01T00:00:00Z","name_a2s":"Uncletopia | Chicago | 5 | All Maps","protocol":17,"map":"pl_badwater","folder":"tf","game":"Team Fortress","app_id":440,"player_count":24,"max_players":24,"Bots":0,"server_type":"Dedicated","server_os":"Linux","password":true,"vac":true,"version":"7742253","steam_id":85568392924866362,"keywords":["nocrits","nodmgspread","payload","uncletopia"],"game_id":440,"stv_port":27016,"stv_name":"Uncletopia | Chicago | 5 | All Maps | STV","players":[{"user_id":14,"name":"Linkitude08","steam_id":76561199202747466,"connected_time":5643000000000,"state":"active","ping":65},{"user_id":15,"name":"julie74779","steam_id":76561198171350290,"connected_time":5624000000000,"state":"active","ping":93},{"user_id":16,"name":"Namednomore","steam_id":76561198121455270,"connected_time":5606000000000,"state":"active","ping":94},{"user_id":89,"name":"Hariboz","steam_id":76561198244468102,"connected_time":187000000000,"state":"active","ping":135},{"user_id":67,"name":"Drago","steam_id":76561198206572733,"connected_time":1220000000000,"state":"active","ping":111},{"user_id":75,"name":"Professional Chef","steam_id":76561198197721155,"connected_time":934000000000,"state":"active","ping":89},{"user_id":90,"name":"jack merridew","steam_id":76561199206622559,"connected_time":175000000000,"state":"active","ping":56},{"user_id":91,"name":"Billosky Time Lord","steam_id":76561199159626560,"connected_time":123000000000,"state":"active","ping":148},{"user_id":88,"name":"Super Gay Homo Thug","steam_id":76561198355094896,"connected_time":205000000000,"state":"active","ping":66},{"user_id":81,"name":"SomeCozyKid","steam_id":76561198086113234,"connected_time":710000000000,"state":"active","ping":61},{"user_id":92,"name":"Raven57p","steam_id":76561198118992563,"connected_time":111000000000,"state":"active","ping":45},{"user_id":94,"name":"tsuki","steam_id":76561198053829724,"connected_time":66000000000,"state":"active","ping":78},{"user_id":82,"name":"The Zoidberg Medic","steam_id":76561197994285087,"connected_time":523000000000,"state":"active","ping":63},{"user_id":83,"name":"Kindagoodplayer","steam_id":76561198814625843,"connected_time":456000000000,"state":"active","ping":62},{"user_id":95,"name":"sheep","steam_id":76561198172943006,"connected_time":63000000000,"state":"active","ping":46},{"user_id":38,"name":"comet sooicidy","steam_id":76561198025173479,"connected_time":4109000000000,"state":"active","ping":91},{"user_id":71,"name":"least homicidal police officer","steam_id":76561198354284591,"connected_time":1004000000000,"state":"active","ping":46},{"user_id":72,"name":"KnightlyLad","steam_id":76561199053958203,"connected_time":996000000000,"state":"active","ping":81},{"user_id":96,"name":"Octobella Enthusiast","steam_id":76561198199266047,"connected_time":38000000000,"state":"active","ping":77},{"user_id":74,"name":"Melon","steam_id":76561198203952392,"connected_time":983000000000,"state":"active","ping":71},{"user_id":85,"name":"Ferxxo","steam_id":76561198820199000,"connected_time":267000000000,"state":"active","ping":84},{"user_id":87,"name":"Poop Deck Joe","steam_id":76561198271397568,"connected_time":229000000000,"state":"active","ping":87},{"user_id":45,"name":"Antknee","steam_id":76561198263793809,"connected_time":3756000000000,"state":"active","ping":76},{"user_id":79,"name":"backflipping trans woman","steam_id":76561198100189571,"connected_time":759000000000,"state":"active","ping":52}]},{"server_id":37,"name":"Uncletopia | Chicago | 6 | All Maps","name_short":"chi-6","host":"chi-2.us.uncletopia.com","port":27025,"enabled":true,"region":"us-central","cc":"us","latitude":41.881832,"longitude":-87.62318,"reserved":0,"last_update":"0001-01-01T00:00:00Z","name_a2s":"Uncletopia | Chicago | 6 | All Maps","protocol":17,"map":"cp_sunshine","folder":"tf","game":"Team Fortress","app_id":440,"player_count":1,"max_players":24,"Bots":0,"server_type":"Dedicated","server_os":"Linux","password":true,"vac":true,"version":"7742253","steam_id":85568392924866363,"keywords":["cp","nocrits","nodmgspread","uncletopia"],"game_id":440,"stv_port":27026,"stv_name":"Uncletopia | Chicago | 6 | All Maps | STV","players":[{"user_id":13,"name":"It's a me Mario","steam_id":76561199118287796,"connected_time":89000000000,"state":"active","ping":59}]},{"server_id":38,"name":"Uncletopia | Chicago | 7 | Stopwatch Beta","name_short":"chi-7","host":"chi-2.us.uncletopia.com","port":27035,"enabled":true,"region":"us-central","cc":"us","latitude":41.881832,"longitude":-87.62318,"reserved":0,"last_update":"0001-01-01T00:00:00Z","name_a2s":"Uncletopia | Chicago | 7 | Stopwatch Beta","protocol":17,"map":"pl_upward","folder":"tf","game":"Team Fortress","app_id":440,"player_count":0,"max_players":24,"Bots":0,"server_type":"Dedicated","server_os":"Linux","password":true,"vac":true,"version":"7742253","steam_id":85568392924866364,"keywords":["nocrits","nodmgspread","payload","uncletopia"],"game_id":440,"stv_port":27036,"stv_name":"Uncletopia | Chicago | 7 | Stopwatch Beta | STV","players":null},{"server_id":39,"name":"Uncletopia | Chicago | 8 | Community","name_short":"chi-8","host":"chi-2.us.uncletopia.com","port":27045,"enabled":true,"region":"us-central","cc":"us","latitude":41.881832,"longitude":-87.62318,"reserved":0,"last_update":"0001-01-01T00:00:00Z","name_a2s":"Uncletopia | Chicago | 8 | Community","protocol":17,"map":"koth_cascade","folder":"tf","game":"Team Fortress","app_id":440,"player_count":0,"max_players":24,"Bots":0,"server_type":"Dedicated","server_os":"Linux","password":true,"vac":true,"version":"7742253","steam_id":85568392924866365,"keywords":["cp","nocrits","nodmgspread","uncletopia"],"game_id":440,"stv_port":27046,"stv_name":"Uncletopia | Chicago | 8 | Community | STV","players":null},{"server_id":8,"name":"Uncletopia | Dallas | 1 | All Maps","name_short":"dal-1","host":"dal-1.us.uncletopia.com","port":27015,"enabled":true,"region":"us-central","cc":"us","latitude":32.779167,"longitude":-96.80889,"reserved":0,"last_update":"0001-01-01T00:00:00Z","name_a2s":"Uncletopia | Dallas | 1 | All Maps","protocol":17,"map":"pl_upward","folder":"tf","game":"Team Fortress","app_id":440,"player_count":24,"max_players":24,"Bots":0,"server_type":"Dedicated","server_os":"Linux","password":true,"vac":true,"version":"7742253","steam_id":85568392924469986,"keywords":["nocrits","nodmgspread","payload","uncletopia"],"game_id":440,"stv_port":27016,"stv_name":"Uncletopia | Dallas | 1 | All Maps | STV","players":[{"user_id":465,"name":"Faust main","steam_id":76561198971799149,"connected_time":520000000000,"state":"active","ping":65},{"user_id":455,"name":"jimsunhong","steam_id":76561198997807831,"connected_time":1398000000000,"state":"active","ping":93},{"user_id":467,"name":"amazing","steam_id":76561198386233160,"connected_time":386000000000,"state":"active","ping":59},{"user_id":428,"name":"how the freak. Stole Christmas","steam_id":76561198049544552,"connected_time":2169000000000,"state":"active","ping":37},{"user_id":460,"name":"KORF","steam_id":76561197981904410,"connected_time":1111000000000,"state":"active","ping":78},{"user_id":435,"name":"some furry","steam_id":76561198038247674,"connected_time":2010000000000,"state":"active","ping":39},{"user_id":449,"name":"_narwool_","steam_id":76561198175955138,"connected_time":1667000000000,"state":"active","ping":90},{"user_id":439,"name":"Joyous Jenny","steam_id":76561198127998866,"connected_time":1907000000000,"state":"active","ping":77},{"user_id":466,"name":"Bonesala","steam_id":76561199052450127,"connected_time":459000000000,"state":"active","ping":74},{"user_id":441,"name":"AR1782","steam_id":76561199380738475,"connected_time":1809000000000,"state":"active","ping":60},{"user_id":437,"name":"RedMustrd","steam_id":76561199246218857,"connected_time":1950000000000,"state":"active","ping":83},{"user_id":438,"name":"flu walrus","steam_id":76561198207940136,"connected_time":1938000000000,"state":"active","ping":70},{"user_id":442,"name":"Chaotic Rushu","steam_id":76561198170054407,"connected_time":1808000000000,"state":"active","ping":87},{"user_id":463,"name":"HitBox","steam_id":76561199244578398,"connected_time":631000000000,"state":"active","ping":77},{"user_id":468,"name":"Weerk","steam_id":76561199209543551,"connected_time":373000000000,"state":"active","ping":72},{"user_id":454,"name":"Pneumo.","steam_id":76561197987911883,"connected_time":1528000000000,"state":"active","ping":122},{"user_id":411,"name":"Looneymunkey","steam_id":76561198414675183,"connected_time":3573000000000,"state":"active","ping":56},{"user_id":448,"name":"kibsta","steam_id":76561198991982630,"connected_time":1740000000000,"state":"active","ping":81},{"user_id":446,"name":"Ros","steam_id":76561199055963822,"connected_time":1750000000000,"state":"active","ping":73},{"user_id":447,"name":"Arbiter Soul","steam_id":76561198067798973,"connected_time":1743000000000,"state":"active","ping":88},{"user_id":469,"name":"Daijack","steam_id":76561198014468510,"connected_time":351000000000,"state":"active","ping":95},{"user_id":456,"name":"Runner175","steam_id":76561198307230510,"connected_time":1395000000000,"state":"active","ping":55},{"user_id":459,"name":"False Emperor","steam_id":76561198009127286,"connected_time":1251000000000,"state":"active","ping":68},{"user_id":464,"name":"Macnallay","steam_id":76561199201158068,"connected_time":631000000000,"state":"active","ping":70}]},{"server_id":108,"name":"Uncletopia | Dallas | 2 | All Maps","name_short":"dal-2","host":"dal-1.us.uncletopia.com","port":27025,"enabled":true,"region":"us-central","cc":"us","latitude":32.779167,"longitude":-96.80889,"reserved":0,"last_update":"0001-01-01T00:00:00Z","name_a2s":"Uncletopia | Dallas | 2 | All Maps","protocol":17,"map":"cp_mountainlab","folder":"tf","game":"Team Fortress","app_id":440,"player_count":11,"max_players":24,"Bots":0,"server_type":"Dedicated","server_os":"Linux","password":true,"vac":true,"version":"7742253","steam_id":85568392924469988,"keywords":["cp","nocrits","nodmgspread","uncletopia"],"game_id":440,"stv_port":27026,"stv_name":"Uncletopia | Dallas | 2 | All Maps | STV","players":[{"user_id":266,"name":"LumenLogic","steam_id":76561198151757985,"connected_time":164000000000,"state":"spawning","ping":112},{"user_id":267,"name":"Blue Collar","steam_id":76561198354781722,"connected_time":79000000000,"state":"spawning","ping":92},{"user_id":268,"name":"guy","steam_id":76561198196443262,"connected_time":5000000000,"state":"spawning","ping":115},{"user_id":261,"name":"Ythern","steam_id":76561198051877486,"connected_time":549000000000,"state":"spawning","ping":196},{"user_id":249,"name":"Un shango salvaje","steam_id":76561198284012729,"connected_time":767000000000,"state":"spawning","ping":190},{"user_id":231,"name":"iluvtoust","steam_id":76561198869269207,"connected_time":1779000000000,"state":"spawning","ping":73},{"user_id":254,"name":"SmokeyGalaxy","steam_id":76561198118780516,"connected_time":708000000000,"state":"spawning","ping":68},{"user_id":255,"name":"Soney29","steam_id":76561198955863943,"connected_time":704000000000,"state":"spawning","ping":134},{"user_id":257,"name":"Legal Helpy","steam_id":76561198399334453,"connected_time":632000000000,"state":"spawning","ping":73},{"user_id":224,"name":"76561198212421513","steam_id":76561198212421513,"connected_time":2092000000000,"state":"spawning","ping":106},{"user_id":227,"name":"BEATS","steam_id":76561199245717718,"connected_time":2063000000000,"state":"spawning","ping":99}]},{"server_id":5,"name":"Uncletopia | Frankfurt | 1 | All Maps","name_short":"frk-1","host":"frk-1.de.uncletopia.com","port":27015,"enabled":true,"region":"eu","cc":"de","latitude":50.110924,"longitude":8.682127,"reserved":0,"last_update":"0001-01-01T00:00:00Z","name_a2s":"Uncletopia | Frankfurt | 1 | All Maps","protocol":17,"map":"pl_swiftwater_final1","folder":"tf","game":"Team Fortress","app_id":440,"player_count":24,"max_players":24,"Bots":0,"server_type":"Dedicated","server_os":"Linux","password":true,"vac":true,"version":"7742253","steam_id":85568392924469989,"keywords":["nocrits","nodmgspread","payload","uncletopia"],"game_id":440,"stv_port":27016,"stv_name":"Uncletopia | Frankfurt | 1 | All Maps | STV","players":[{"user_id":581,"name":"333","steam_id":76561198029805235,"connected_time":644000000000,"state":"active","ping":65},{"user_id":575,"name":"stun","steam_id":76561198276681691,"connected_time":850000000000,"state":"active","ping":90},{"user_id":583,"name":"BookKouy","steam_id":76561199446431633,"connected_time":298000000000,"state":"active","ping":70},{"user_id":503,"name":"dddd","steam_id":76561198120894372,"connected_time":6644000000000,"state":"active","ping":103},{"user_id":548,"name":"I jazzed myself","steam_id":76561198203016603,"connected_time":2406000000000,"state":"active","ping":57},{"user_id":557,"name":"23","steam_id":76561198149347502,"connected_time":2320000000000,"state":"active","ping":60},{"user_id":565,"name":"An unnecessary Jojo reference","steam_id":76561198121764825,"connected_time":2121000000000,"state":"active","ping":57},{"user_id":570,"name":"MAJAX","steam_id":76561198254828632,"connected_time":1594000000000,"state":"active","ping":70},{"user_id":574,"name":"GRcrafter","steam_id":76561198372186715,"connected_time":877000000000,"state":"active","ping":108},{"user_id":582,"name":"Serton♝","steam_id":76561198011061126,"connected_time":534000000000,"state":"active","ping":88},{"user_id":584,"name":"uma","steam_id":76561198147976939,"connected_time":228000000000,"state":"active","ping":45},{"user_id":580,"name":"B4R10N","steam_id":76561198047167954,"connected_time":698000000000,"state":"active","ping":52},{"user_id":559,"name":"Lieutenant Lead","steam_id":76561198336867604,"connected_time":2289000000000,"state":"active","ping":50},{"user_id":562,"name":"Pinroe","steam_id":76561198968160899,"connected_time":2214000000000,"state":"active","ping":84},{"user_id":589,"name":"KameraadRoffel","steam_id":76561198236218320,"connected_time":122000000000,"state":"active","ping":66},{"user_id":590,"name":"timothytreestand-041165","steam_id":76561197995676953,"connected_time":81000000000,"state":"active","ping":49},{"user_id":586,"name":"dubysa","steam_id":76561198079774530,"connected_time":198000000000,"state":"active","ping":74},{"user_id":587,"name":"Iru","steam_id":76561198077602040,"connected_time":176000000000,"state":"active","ping":61},{"user_id":588,"name":"TylowStar","steam_id":76561198357107806,"connected_time":163000000000,"state":"active","ping":75},{"user_id":500,"name":"CRWND","steam_id":76561198329810027,"connected_time":6893000000000,"state":"active","ping":60},{"user_id":577,"name":"jabar7","steam_id":76561198055137986,"connected_time":814000000000,"state":"active","ping":66},{"user_id":591,"name":"r06u3","steam_id":76561198254099253,"connected_time":14000000000,"state":"spawning","ping":174},{"user_id":592,"name":"Carrot","steam_id":76561198119340863,"connected_time":14000000000,"state":"active","ping":50},{"user_id":552,"name":"\" ;unbindall ;say \"","steam_id":76561199232442508,"connected_time":2347000000000,"state":"active","ping":74}]},{"server_id":110,"name":"Uncletopia | Frankfurt | 2 | All Maps","name_short":"frk-2","host":"frk-1.de.uncletopia.com","port":27025,"enabled":true,"region":"eu","cc":"de","latitude":50.110924,"longitude":8.682127,"reserved":0,"last_update":"0001-01-01T00:00:00Z","name_a2s":"Uncletopia | Frankfurt | 2 | All Maps","protocol":17,"map":"pl_snowycoast","folder":"tf","game":"Team Fortress","app_id":440,"player_count":24,"max_players":24,"Bots":0,"server_type":"Dedicated","server_os":"Linux","password":true,"vac":true,"version":"7742253","steam_id":85568392924469990,"keywords":["nocrits","nodmgspread","payload","uncletopia"],"game_id":440,"stv_port":27026,"stv_name":"Uncletopia | Frankfurt | 2 | All Maps | STV","players":[{"user_id":607,"name":"Snow","steam_id":76561198815268030,"connected_time":1406000000000,"state":"active","ping":57},{"user_id":632,"name":"MrToxic","steam_id":76561198376536473,"connected_time":453000000000,"state":"active","ping":90},{"user_id":641,"name":"nes","steam_id":76561198037938833,"connected_time":55000000000,"state":"active","ping":51},{"user_id":640,"name":"BING CHILLING","steam_id":76561198065438030,"connected_time":153000000000,"state":"active","ping":155},{"user_id":608,"name":"JohnTraveltime","steam_id":76561199244281754,"connected_time":1403000000000,"state":"active","ping":70},{"user_id":593,"name":"-triple","steam_id":76561198119449463,"connected_time":1780000000000,"state":"active","ping":61},{"user_id":568,"name":"gfjhsdf","steam_id":76561198136736426,"connected_time":3962000000000,"state":"active","ping":52},{"user_id":589,"name":"hexerii","steam_id":76561198149967445,"connected_time":2275000000000,"state":"active","ping":46},{"user_id":597,"name":"Makeways","steam_id":76561198274466477,"connected_time":1588000000000,"state":"active","ping":71},{"user_id":561,"name":"one fish two fish","steam_id":76561199081098581,"connected_time":4623000000000,"state":"active","ping":83},{"user_id":594,"name":"CzechMate #SaveTF2","steam_id":76561198012687703,"connected_time":1707000000000,"state":"active","ping":49},{"user_id":623,"name":"hushhx","steam_id":76561198216200092,"connected_time":668000000000,"state":"active","ping":69},{"user_id":628,"name":"Reizei","steam_id":76561198148504042,"connected_time":567000000000,"state":"active","ping":74},{"user_id":616,"name":"Toothpaste Milkshake","steam_id":76561198982674420,"connected_time":825000000000,"state":"active","ping":54},{"user_id":609,"name":"kentir_buh","steam_id":76561198107526456,"connected_time":1314000000000,"state":"active","ping":76},{"user_id":479,"name":"NiNYÃ","steam_id":76561197995685294,"connected_time":7778000000000,"state":"active","ping":60},{"user_id":604,"name":"CAMON ENGELAND","steam_id":76561198054301125,"connected_time":1451000000000,"state":"active","ping":91},{"user_id":622,"name":"average ultiduo medic","steam_id":76561198103285012,"connected_time":688000000000,"state":"active","ping":45},{"user_id":551,"name":"Decadence","steam_id":76561198206829379,"connected_time":5011000000000,"state":"active","ping":78},{"user_id":627,"name":"SALTYY","steam_id":76561198124055526,"connected_time":592000000000,"state":"active","ping":66},{"user_id":610,"name":"Marloo","steam_id":76561198210792815,"connected_time":1227000000000,"state":"active","ping":77},{"user_id":612,"name":"reer","steam_id":76561198087222583,"connected_time":1169000000000,"state":"active","ping":55},{"user_id":629,"name":"brique","steam_id":76561199103944229,"connected_time":529000000000,"state":"active","ping":62},{"user_id":564,"name":"Boycie","steam_id":76561198179116027,"connected_time":4479000000000,"state":"active","ping":67}]},{"server_id":308,"name":"Uncletopia | Frankfurt | 3 | All Maps","name_short":"frk-3","host":"frk-1.de.uncletopia.com","port":27035,"enabled":true,"region":"eu","cc":"de","latitude":50.110924,"longitude":8.682127,"reserved":0,"last_update":"0001-01-01T00:00:00Z","name_a2s":"Uncletopia | Frankfurt | 3 | All Maps","protocol":17,"map":"koth_cascade","folder":"tf","game":"Team Fortress","app_id":440,"player_count":21,"max_players":24,"Bots":0,"server_type":"Dedicated","server_os":"Linux","password":true,"vac":true,"version":"7742253","steam_id":85568392924504274,"keywords":["cp","nocrits","nodmgspread","uncletopia"],"game_id":440,"stv_port":27036,"stv_name":"Uncletopia | Frankfurt | 3 | All Maps | STV","players":[{"user_id":442,"name":"Saihtama","steam_id":76561198067497192,"connected_time":6172000000000,"state":"active","ping":58},{"user_id":529,"name":"Mario3ghj","steam_id":76561198069804561,"connected_time":615000000000,"state":"active","ping":80},{"user_id":543,"name":"Alkivo","steam_id":76561198315999766,"connected_time":258000000000,"state":"active","ping":64},{"user_id":484,"name":"mouthbreather","steam_id":76561198081328238,"connected_time":2638000000000,"state":"active","ping":75},{"user_id":461,"name":"Nickbro101","steam_id":76561198044271692,"connected_time":4680000000000,"state":"active","ping":60},{"user_id":532,"name":"buffes","steam_id":76561198035993172,"connected_time":574000000000,"state":"active","ping":60},{"user_id":486,"name":"Meff","steam_id":76561197970610839,"connected_time":2610000000000,"state":"active","ping":45},{"user_id":544,"name":"V","steam_id":76561198210033837,"connected_time":251000000000,"state":"active","ping":65},{"user_id":538,"name":"gogogaminglol","steam_id":76561198883805007,"connected_time":484000000000,"state":"active","ping":94},{"user_id":512,"name":"MrKampfCookie","steam_id":76561198085490175,"connected_time":1724000000000,"state":"active","ping":47},{"user_id":545,"name":"Glonk","steam_id":76561198164854396,"connected_time":221000000000,"state":"active","ping":60},{"user_id":489,"name":"arcticcu","steam_id":76561198002435882,"connected_time":2596000000000,"state":"active","ping":88},{"user_id":540,"name":"☆(stephano)pootis CO.☆","steam_id":76561199084131361,"connected_time":411000000000,"state":"active","ping":168},{"user_id":452,"name":"Arturias","steam_id":76561198188720263,"connected_time":5318000000000,"state":"active","ping":51},{"user_id":493,"name":"Gardvord","steam_id":76561198120715753,"connected_time":2512000000000,"state":"active","ping":67},{"user_id":541,"name":"Eddy","steam_id":76561198051157661,"connected_time":385000000000,"state":"active","ping":71},{"user_id":496,"name":"Whoopi Goldberg","steam_id":76561199378865926,"connected_time":2434000000000,"state":"active","ping":78},{"user_id":542,"name":"waddle dork","steam_id":76561198297349985,"connected_time":362000000000,"state":"active","ping":52},{"user_id":547,"name":"MaskettaMan","steam_id":76561198078828424,"connected_time":149000000000,"state":"active","ping":83},{"user_id":501,"name":"Aydin Channel","steam_id":76561198138031624,"connected_time":2303000000000,"state":"active","ping":106},{"user_id":548,"name":"j","steam_id":76561198299474630,"connected_time":123000000000,"state":"active","ping":50}]},{"server_id":309,"name":"Uncletopia | Frankfurt | 4 | All Maps","name_short":"frk-4","host":"frk-1.de.uncletopia.com","port":27045,"enabled":true,"region":"eu","cc":"de","latitude":50.110924,"longitude":8.682127,"reserved":0,"last_update":"0001-01-01T00:00:00Z","name_a2s":"Uncletopia | Frankfurt | 4 | All Maps","protocol":17,"map":"pl_pier","folder":"tf","game":"Team Fortress","app_id":440,"player_count":16,"max_players":24,"Bots":0,"server_type":"Dedicated","server_os":"Linux","password":true,"vac":true,"version":"7742253","steam_id":85568392924504275,"keywords":["nocrits","nodmgspread","payload","uncletopia"],"game_id":440,"stv_port":27046,"stv_name":"Uncletopia | Frankfurt | 4 | All Maps | STV","players":[{"user_id":341,"name":"click1634","steam_id":76561198058936016,"connected_time":1159000000000,"state":"active","ping":60},{"user_id":342,"name":"rickeeey","steam_id":76561199069460375,"connected_time":1147000000000,"state":"active","ping":46},{"user_id":290,"name":"t0ksi","steam_id":76561198107240798,"connected_time":6151000000000,"state":"active","ping":67},{"user_id":330,"name":"punk","steam_id":76561199053880024,"connected_time":2032000000000,"state":"active","ping":42},{"user_id":338,"name":"f0x","steam_id":76561198072921704,"connected_time":1431000000000,"state":"active","ping":51},{"user_id":343,"name":"What's for dinner ?","steam_id":76561198199110998,"connected_time":1118000000000,"state":"active","ping":84},{"user_id":295,"name":"ӋԼן.maS","steam_id":76561198114953928,"connected_time":5997000000000,"state":"active","ping":60},{"user_id":325,"name":".bRdyyy","steam_id":76561198057256978,"connected_time":2551000000000,"state":"active","ping":45},{"user_id":344,"name":"Phil","steam_id":76561198056877069,"connected_time":1069000000000,"state":"active","ping":46},{"user_id":331,"name":"nox","steam_id":76561198287360892,"connected_time":2011000000000,"state":"active","ping":59},{"user_id":352,"name":"Vischan but worse","steam_id":76561199371650805,"connected_time":108000000000,"state":"active","ping":89},{"user_id":310,"name":"dudor","steam_id":76561198089910493,"connected_time":3974000000000,"state":"active","ping":83},{"user_id":329,"name":"WHUSSKEY","steam_id":76561198137827441,"connected_time":2254000000000,"state":"active","ping":58},{"user_id":349,"name":":\u003e","steam_id":76561198237588932,"connected_time":631000000000,"state":"active","ping":55},{"user_id":347,"name":"simon","steam_id":76561198880361394,"connected_time":1030000000000,"state":"active","ping":45},{"user_id":268,"name":"Bluetooth Headphones gaming","steam_id":76561198848650365,"connected_time":7666000000000,"state":"active","ping":84}]},{"server_id":310,"name":"Uncletopia | Frankfurt | 5 | All Maps","name_short":"frk-5","host":"frk-1.de.uncletopia.com","port":27055,"enabled":true,"region":"eu","cc":"de","latitude":50.110924,"longitude":8.682127,"reserved":0,"last_update":"0001-01-01T00:00:00Z","name_a2s":"Uncletopia | Frankfurt | 5 | All Maps","protocol":17,"map":"koth_king","folder":"tf","game":"Team Fortress","app_id":440,"player_count":22,"max_players":24,"Bots":0,"server_type":"Dedicated","server_os":"Linux","password":true,"vac":true,"version":"7742253","steam_id":85568392924504277,"keywords":["cp","nocrits","nodmgspread","uncletopia"],"game_id":440,"stv_port":27056,"stv_name":"Uncletopia | Frankfurt | 5 | All Maps | STV","players":[{"user_id":122,"name":"Ham crusader","steam_id":76561198433601297,"connected_time":2983000000000,"state":"active","ping":62},{"user_id":137,"name":"Panzerwaffle","steam_id":76561198030382800,"connected_time":1323000000000,"state":"active","ping":49},{"user_id":108,"name":"Annoying Demo","steam_id":76561198367203640,"connected_time":3601000000000,"state":"active","ping":59},{"user_id":142,"name":"BIGGERDANGO","steam_id":76561198247876394,"connected_time":881000000000,"state":"active","ping":61},{"user_id":146,"name":"Orias","steam_id":76561198055378683,"connected_time":813000000000,"state":"active","ping":68},{"user_id":150,"name":"johnkleiman","steam_id":76561198375607729,"connected_time":269000000000,"state":"active","ping":58},{"user_id":151,"name":"nicholas","steam_id":76561198058211873,"connected_time":268000000000,"state":"active","ping":47},{"user_id":143,"name":"bert","steam_id":76561198156318293,"connected_time":876000000000,"state":"active","ping":54},{"user_id":40,"name":"Santa has breached the Pentagon","steam_id":76561198039097662,"connected_time":9145000000000,"state":"active","ping":74},{"user_id":90,"name":"CV\u003cDeaD\u003e","steam_id":76561198001816577,"connected_time":5490000000000,"state":"active","ping":79},{"user_id":129,"name":"G/3","steam_id":76561198234844188,"connected_time":2144000000000,"state":"active","ping":59},{"user_id":133,"name":"PWizard","steam_id":76561198026458489,"connected_time":1673000000000,"state":"active","ping":84},{"user_id":144,"name":"Bookus","steam_id":76561198108620516,"connected_time":875000000000,"state":"active","ping":57},{"user_id":126,"name":"duster cat","steam_id":76561198832231975,"connected_time":2751000000000,"state":"active","ping":90},{"user_id":109,"name":"Jerr_074","steam_id":76561198395931148,"connected_time":3601000000000,"state":"active","ping":66},{"user_id":145,"name":"Jamon","steam_id":76561198393024383,"connected_time":873000000000,"state":"active","ping":71},{"user_id":68,"name":"Can I get a Beep Beep","steam_id":76561198010730967,"connected_time":7240000000000,"state":"active","ping":76},{"user_id":153,"name":"Poop","steam_id":76561198976511412,"connected_time":227000000000,"state":"active","ping":164},{"user_id":147,"name":"Archos","steam_id":76561198181820631,"connected_time":563000000000,"state":"active","ping":63},{"user_id":115,"name":"pizzahawaiiEnjoyerwithbigdick","steam_id":76561198079752629,"connected_time":3517000000000,"state":"active","ping":63},{"user_id":78,"name":"Shadowengell","steam_id":76561198019284410,"connected_time":6754000000000,"state":"active","ping":102},{"user_id":123,"name":"crx3","steam_id":76561198064490510,"connected_time":2971000000000,"state":"active","ping":55}]},{"server_id":311,"name":"Uncletopia | Frankfurt | 6 | All Maps","name_short":"frk-6","host":"frk-1.de.uncletopia.com","port":27065,"enabled":true,"region":"eu","cc":"de","latitude":50.110924,"longitude":8.682127,"reserved":0,"last_update":"0001-01-01T00:00:00Z","name_a2s":"Uncletopia | Frankfurt | 6 | All Maps","protocol":17,"map":"pl_badwater","folder":"tf","game":"Team Fortress","app_id":440,"player_count":22,"max_players":24,"Bots":0,"server_type":"Dedicated","server_os":"Linux","password":true,"vac":true,"version":"7742253","steam_id":85568392924504278,"keywords":["nocrits","nodmgspread","payload","uncletopia"],"game_id":440,"stv_port":27066,"stv_name":"Uncletopia | Frankfurt | 6 | All Maps | STV","players":[{"user_id":71,"name":"yuh","steam_id":76561199005555839,"connected_time":49000000000,"state":"active","ping":71},{"user_id":31,"name":"ChilledCatz","steam_id":76561198166046621,"connected_time":2956000000000,"state":"active","ping":59},{"user_id":32,"name":"Joe Pyron","steam_id":76561198193454030,"connected_time":2923000000000,"state":"active","ping":67},{"user_id":66,"name":"E","steam_id":76561198166340115,"connected_time":197000000000,"state":"active","ping":72},{"user_id":67,"name":"Miles","steam_id":76561198044377714,"connected_time":191000000000,"state":"active","ping":62},{"user_id":37,"name":"GOUD","steam_id":76561198071823072,"connected_time":2237000000000,"state":"active","ping":74},{"user_id":68,"name":"Dr. WAH","steam_id":76561198297778149,"connected_time":156000000000,"state":"active","ping":67},{"user_id":39,"name":"Liba","steam_id":76561198118006754,"connected_time":2236000000000,"state":"active","ping":75},{"user_id":40,"name":"NORMI","steam_id":76561198261573329,"connected_time":2218000000000,"state":"active","ping":70},{"user_id":44,"name":"clems17","steam_id":76561199420685482,"connected_time":1966000000000,"state":"active","ping":55},{"user_id":46,"name":"guarda-chuva","steam_id":76561198078694330,"connected_time":1862000000000,"state":"active","ping":52},{"user_id":65,"name":"LOBZIK","steam_id":76561198114830120,"connected_time":514000000000,"state":"active","ping":77},{"user_id":49,"name":"Pan W","steam_id":76561198384111099,"connected_time":1145000000000,"state":"active","ping":71},{"user_id":62,"name":"Jingleboob's 1# Elf","steam_id":76561198067204908,"connected_time":582000000000,"state":"active","ping":66},{"user_id":51,"name":"name me pls","steam_id":76561199273576072,"connected_time":982000000000,"state":"active","ping":64},{"user_id":52,"name":"Videogamer","steam_id":76561198106012909,"connected_time":934000000000,"state":"active","ping":62},{"user_id":54,"name":"jingleboob","steam_id":76561198097507847,"connected_time":930000000000,"state":"active","ping":75},{"user_id":55,"name":"jim","steam_id":76561198172003783,"connected_time":927000000000,"state":"active","ping":106},{"user_id":69,"name":"Nally Dee","steam_id":76561198159190149,"connected_time":147000000000,"state":"active","ping":173},{"user_id":57,"name":"jingleelf coordinator","steam_id":76561198170609049,"connected_time":889000000000,"state":"active","ping":77},{"user_id":59,"name":"cry about it","steam_id":76561198387757420,"connected_time":802000000000,"state":"active","ping":78},{"user_id":63,"name":"bifi","steam_id":76561198045347066,"connected_time":539000000000,"state":"active","ping":75}]},{"server_id":23,"name":"Uncletopia | Frankfurt | 7 | Stopwatch Beta","name_short":"frk-7","host":"frk-1.de.uncletopia.com","port":27075,"enabled":true,"region":"eu","cc":"de","latitude":50.110924,"longitude":8.682127,"reserved":0,"last_update":"0001-01-01T00:00:00Z","name_a2s":"Uncletopia | Frankfurt | 7 | Stopwatch Beta","protocol":17,"map":"koth_lakeside_final","folder":"tf","game":"Team Fortress","app_id":440,"player_count":0,"max_players":24,"Bots":0,"server_type":"Dedicated","server_os":"Linux","password":true,"vac":true,"version":"7742253","steam_id":85568392924742827,"keywords":["cp","nocrits","nodmgspread","uncletopia"],"game_id":440,"stv_port":27076,"stv_name":"Uncletopia | Frankfurt | 7 | Stopwatch Beta | STV","players":null},{"server_id":24,"name":"Uncletopia | Frankfurt | 8 | Community","name_short":"frk-8","host":"frk-1.de.uncletopia.com","port":27085,"enabled":true,"region":"eu","cc":"de","latitude":50.110924,"longitude":8.682127,"reserved":0,"last_update":"0001-01-01T00:00:00Z","name_a2s":"Uncletopia | Frankfurt | 8 | Community","protocol":17,"map":"workshop/koth_slaughter_rc1.ugc1712845210","folder":"tf","game":"Team Fortress","app_id":440,"player_count":0,"max_players":24,"Bots":0,"server_type":"Dedicated","server_os":"Linux","password":true,"vac":true,"version":"7742253","steam_id":85568392924742828,"keywords":["cp","nocrits","nodmgspread","uncletopia"],"game_id":440,"stv_port":27086,"stv_name":"Uncletopia | Frankfurt | 8 | Community | STV","players":null},{"server_id":202,"name":"Uncletopia | Hong Kong | 1 | All Maps","name_short":"hgk-1","host":"hgk-1.hk.uncletopia.com","port":27015,"enabled":true,"region":"asia","cc":"hk","latitude":22.302711,"longitude":114.177216,"reserved":0,"last_update":"0001-01-01T00:00:00Z","name_a2s":"Uncletopia | Hong Kong | 1 | All Maps","protocol":17,"map":"cp_sunshine","folder":"tf","game":"Team Fortress","app_id":440,"player_count":0,"max_players":24,"Bots":0,"server_type":"Dedicated","server_os":"Linux","password":true,"vac":true,"version":"7742253","steam_id":85568392924494504,"keywords":["cp","nocrits","nodmgspread","uncletopia"],"game_id":440,"stv_port":27016,"stv_name":"Uncletopia | Hong Kong | 1 | All Maps | STV","players":null},{"server_id":1,"name":"Uncletopia | Los Angeles | 1 | All Maps","name_short":"lax-1","host":"lax-1.us.uncletopia.com","port":27015,"enabled":true,"region":"us-west","cc":"us","latitude":33.94279,"longitude":-118.41004,"reserved":0,"last_update":"0001-01-01T00:00:00Z","name_a2s":"Uncletopia | Los Angeles | 1 | All Maps","protocol":17,"map":"koth_viaduct","folder":"tf","game":"Team Fortress","app_id":440,"player_count":4,"max_players":24,"Bots":0,"server_type":"Dedicated","server_os":"Linux","password":true,"vac":true,"version":"7742253","steam_id":85568392924469991,"keywords":["cp","nocrits","nodmgspread","uncletopia"],"game_id":440,"stv_port":27016,"stv_name":"Uncletopia | Los Angeles | 1 | All Maps | STV","players":[{"user_id":13,"name":"Supra","steam_id":76561197999127091,"connected_time":101000000000,"state":"active","ping":113},{"user_id":8,"name":"Bboy","steam_id":76561199061157056,"connected_time":861000000000,"state":"active","ping":80},{"user_id":9,"name":"femboy on hrt","steam_id":76561198204075083,"connected_time":727000000000,"state":"active","ping":104},{"user_id":11,"name":"Cosmosis Jones","steam_id":76561198970097093,"connected_time":526000000000,"state":"active","ping":48}]},{"server_id":112,"name":"Uncletopia | Los Angeles | 2 | All Maps","name_short":"lax-2","host":"lax-1.us.uncletopia.com","port":27025,"enabled":true,"region":"us-west","cc":"us","latitude":33.94279,"longitude":-118.41004,"reserved":0,"last_update":"0001-01-01T00:00:00Z","name_a2s":"Uncletopia | Los Angeles | 2 | All Maps","protocol":17,"map":"pl_frontier_final","folder":"tf","game":"Team Fortress","app_id":440,"player_count":0,"max_players":24,"Bots":0,"server_type":"Dedicated","server_os":"Linux","password":true,"vac":true,"version":"7742253","steam_id":85568392924469992,"keywords":["nocrits","nodmgspread","payload","uncletopia"],"game_id":440,"stv_port":27026,"stv_name":"Uncletopia | Los Angeles | 2 | All Maps | STV","players":null},{"server_id":324,"name":"Uncletopia | Los Angeles | 3 | All Maps","name_short":"lax-3","host":"lax-1.us.uncletopia.com","port":27035,"enabled":true,"region":"us-west","cc":"us","latitude":33.94279,"longitude":-118.41004,"reserved":0,"last_update":"0001-01-01T00:00:00Z","name_a2s":"Uncletopia | Los Angeles | 3 | All Maps","protocol":17,"map":"pl_borneo","folder":"tf","game":"Team Fortress","app_id":440,"player_count":1,"max_players":24,"Bots":0,"server_type":"Dedicated","server_os":"Linux","password":true,"vac":true,"version":"7742253","steam_id":85568392924510198,"keywords":["nocrits","nodmgspread","payload","uncletopia"],"game_id":440,"stv_port":27036,"stv_name":"Uncletopia | Los Angeles | 3 | All Maps | STV","players":[{"user_id":3,"name":"ElmeriThePig","steam_id":76561198868869553,"connected_time":136000000000,"state":"active","ping":221}]},{"server_id":25,"name":"Uncletopia | Los Angeles | 4 | Stopwatch Beta","name_short":"lax-4","host":"lax-1.us.uncletopia.com","port":27045,"enabled":true,"region":"us-west","cc":"us","latitude":33.94279,"longitude":-118.41004,"reserved":0,"last_update":"0001-01-01T00:00:00Z","name_a2s":"Uncletopia | Los Angeles | 4 | Stopwatch Beta","protocol":17,"map":"cp_process_final","folder":"tf","game":"Team Fortress","app_id":440,"player_count":0,"max_players":24,"Bots":0,"server_type":"Dedicated","server_os":"Linux","password":true,"vac":true,"version":"7742253","steam_id":85568392924510199,"keywords":["cp","nocrits","nodmgspread","uncletopia"],"game_id":440,"stv_port":27046,"stv_name":"Uncletopia | Los Angeles | 4 | Stopwatch Beta | STV","players":null},{"server_id":11,"name":"Uncletopia | London | 1 | All Maps","name_short":"lon-1","host":"lon-1.uk.uncletopia.com","port":27015,"enabled":true,"region":"eu","cc":"gb","latitude":51.509865,"longitude":-0.118092,"reserved":0,"last_update":"0001-01-01T00:00:00Z","name_a2s":"Uncletopia | London | 1 | All Maps","protocol":17,"map":"pl_pier","folder":"tf","game":"Team Fortress","app_id":440,"player_count":21,"max_players":24,"Bots":0,"server_type":"Dedicated","server_os":"Linux","password":true,"vac":true,"version":"7742253","steam_id":85568392924367362,"keywords":["nocrits","nodmgspread","payload","uncletopia"],"game_id":440,"stv_port":27016,"stv_name":"Uncletopia | London | 1 | All Maps | STV","players":[{"user_id":753,"name":"Prox","steam_id":76561198351490981,"connected_time":1033000000000,"state":"active","ping":41},{"user_id":750,"name":"HerrGoldfisch","steam_id":76561198380425595,"connected_time":1593000000000,"state":"active","ping":45},{"user_id":756,"name":"Zero (Orbital Gear Mastermind)","steam_id":76561198017416816,"connected_time":515000000000,"state":"active","ping":63},{"user_id":751,"name":"One armed fiddle enthusiast","steam_id":76561198045847051,"connected_time":1574000000000,"state":"active","ping":56},{"user_id":759,"name":"BX","steam_id":76561197962889211,"connected_time":80000000000,"state":"active","ping":66},{"user_id":585,"name":"SuntanPikachu","steam_id":76561198121242476,"connected_time":12934000000000,"state":"active","ping":50},{"user_id":760,"name":"Theo","steam_id":76561198144205951,"connected_time":11000000000,"state":"spawning","ping":90},{"user_id":735,"name":"icewallowpiss","steam_id":76561198128337963,"connected_time":2425000000000,"state":"active","ping":46},{"user_id":754,"name":"KhornateDoom","steam_id":76561198127530619,"connected_time":909000000000,"state":"active","ping":64},{"user_id":729,"name":"Где море?","steam_id":76561197979625544,"connected_time":2707000000000,"state":"active","ping":91},{"user_id":737,"name":"Mik","steam_id":76561198109726884,"connected_time":2396000000000,"state":"active","ping":76},{"user_id":738,"name":"KarlRanzeier","steam_id":76561198066281337,"connected_time":2376000000000,"state":"active","ping":60},{"user_id":726,"name":"Blitz","steam_id":76561199046658659,"connected_time":2983000000000,"state":"active","ping":90},{"user_id":752,"name":"trite","steam_id":76561197983765323,"connected_time":1250000000000,"state":"active","ping":43},{"user_id":718,"name":"Polaris","steam_id":76561198007076931,"connected_time":3392000000000,"state":"active","ping":60},{"user_id":710,"name":"Toofy","steam_id":76561197989727907,"connected_time":4140000000000,"state":"active","ping":34},{"user_id":757,"name":"Le Bon Toutou","steam_id":76561198300902712,"connected_time":231000000000,"state":"active","ping":66},{"user_id":723,"name":"Kebabman13","steam_id":76561198018569859,"connected_time":3223000000000,"state":"active","ping":47},{"user_id":713,"name":"Käpt'n","steam_id":76561198082347638,"connected_time":3598000000000,"state":"active","ping":71},{"user_id":755,"name":"weasl","steam_id":76561198076388927,"connected_time":845000000000,"state":"active","ping":60},{"user_id":747,"name":"Bulka Mix Huix","steam_id":76561197996831249,"connected_time":2125000000000,"state":"active","ping":93}]},{"server_id":114,"name":"Uncletopia | London | 2 | All Maps","name_short":"lon-2","host":"lon-1.uk.uncletopia.com","port":27025,"enabled":true,"region":"eu","cc":"gb","latitude":51.509865,"longitude":-0.118092,"reserved":0,"last_update":"0001-01-01T00:00:00Z","name_a2s":"Uncletopia | London | 2 | All Maps","protocol":17,"map":"pl_badwater","folder":"tf","game":"Team Fortress","app_id":440,"player_count":24,"max_players":24,"Bots":0,"server_type":"Dedicated","server_os":"Linux","password":true,"vac":true,"version":"7742253","steam_id":85568392924470941,"keywords":["nocrits","nodmgspread","payload","uncletopia"],"game_id":440,"stv_port":27026,"stv_name":"Uncletopia | London | 2 | All Maps | STV","players":[{"user_id":430,"name":"Soup","steam_id":76561198198405093,"connected_time":4283000000000,"state":"active","ping":51},{"user_id":478,"name":"manKe","steam_id":76561198008564860,"connected_time":1203000000000,"state":"active","ping":54},{"user_id":498,"name":"needes0708","steam_id":76561199142075919,"connected_time":725000000000,"state":"active","ping":136},{"user_id":459,"name":"Locke","steam_id":76561198339408300,"connected_time":2346000000000,"state":"active","ping":59},{"user_id":378,"name":"Spy","steam_id":76561198122074582,"connected_time":6847000000000,"state":"active","ping":95},{"user_id":464,"name":"burial","steam_id":76561198009115060,"connected_time":1643000000000,"state":"active","ping":80},{"user_id":463,"name":"Abel099","steam_id":76561198314252761,"connected_time":2003000000000,"state":"active","ping":62},{"user_id":466,"name":"toothpaste vaper","steam_id":76561198078458780,"connected_time":1630000000000,"state":"active","ping":56},{"user_id":468,"name":"Lightbulb Monkey","steam_id":76561198045033173,"connected_time":1610000000000,"state":"active","ping":49},{"user_id":438,"name":"Dr. Funkenstein","steam_id":76561197977816210,"connected_time":3637000000000,"state":"active","ping":76},{"user_id":458,"name":"zigg","steam_id":76561198149501776,"connected_time":2377000000000,"state":"active","ping":44},{"user_id":501,"name":"one","steam_id":76561197976345859,"connected_time":674000000000,"state":"active","ping":48},{"user_id":503,"name":"Vinbing","steam_id":76561198140834992,"connected_time":389000000000,"state":"active","ping":76},{"user_id":467,"name":"blue mean-eyes","steam_id":76561198060105180,"connected_time":1627000000000,"state":"active","ping":73},{"user_id":497,"name":"Dapikus","steam_id":76561198086291417,"connected_time":733000000000,"state":"active","ping":45},{"user_id":419,"name":"benjamin mcbillybob","steam_id":76561198131670413,"connected_time":5031000000000,"state":"active","ping":66},{"user_id":385,"name":"UNO, The Ubisoft Original","steam_id":76561198846784757,"connected_time":6691000000000,"state":"active","ping":53},{"user_id":450,"name":"E1s","steam_id":76561198894958917,"connected_time":3101000000000,"state":"active","ping":72},{"user_id":495,"name":"Economic crisis","steam_id":76561198063562843,"connected_time":803000000000,"state":"active","ping":64},{"user_id":471,"name":"Dont Uber Me | #SAVETF2","steam_id":76561198038579548,"connected_time":1523000000000,"state":"active","ping":43},{"user_id":499,"name":"benny","steam_id":76561198053394831,"connected_time":721000000000,"state":"active","ping":71},{"user_id":477,"name":"Twin Fantasy (Mirror To Mirror)","steam_id":76561198397024973,"connected_time":1351000000000,"state":"active","ping":38},{"user_id":480,"name":"ikc159","steam_id":76561198020559026,"connected_time":1196000000000,"state":"active","ping":59},{"user_id":474,"name":"HUGO","steam_id":76561198317134996,"connected_time":1506000000000,"state":"active","ping":86}]},{"server_id":320,"name":"Uncletopia | London | 3 | All Maps","name_short":"lon-3","host":"lon-1.uk.uncletopia.com","port":27035,"enabled":true,"region":"eu","cc":"gb","latitude":51.509865,"longitude":-0.118092,"reserved":0,"last_update":"0001-01-01T00:00:00Z","name_a2s":"Uncletopia | London | 3 | All Maps","protocol":17,"map":"pl_frontier_final","folder":"tf","game":"Team Fortress","app_id":440,"player_count":21,"max_players":24,"Bots":0,"server_type":"Dedicated","server_os":"Linux","password":true,"vac":true,"version":"7742253","steam_id":85568392924510192,"keywords":["nocrits","nodmgspread","payload","uncletopia"],"game_id":440,"stv_port":27036,"stv_name":"Uncletopia | London | 3 | All Maps | STV","players":[{"user_id":161,"name":"✿ Diluted Tea ✿","steam_id":76561198174523727,"connected_time":5916000000000,"state":"active","ping":67},{"user_id":237,"name":"St_dark","steam_id":76561199101198710,"connected_time":657000000000,"state":"active","ping":62},{"user_id":202,"name":"yuta","steam_id":76561198077922992,"connected_time":1681000000000,"state":"active","ping":44},{"user_id":195,"name":"UnusualBrit","steam_id":76561198255679838,"connected_time":3069000000000,"state":"active","ping":50},{"user_id":249,"name":"4,23 quid","steam_id":76561199077809299,"connected_time":388000000000,"state":"active","ping":79},{"user_id":175,"name":"The Delivery Engineer","steam_id":76561199066281508,"connected_time":4572000000000,"state":"active","ping":81},{"user_id":126,"name":"Penis Contortionist","steam_id":76561198073663784,"connected_time":7602000000000,"state":"active","ping":33},{"user_id":203,"name":"Plainlet","steam_id":76561198298477313,"connected_time":1635000000000,"state":"active","ping":49},{"user_id":192,"name":"Truck-Sama's Victim","steam_id":76561198826861582,"connected_time":3586000000000,"state":"active","ping":67},{"user_id":243,"name":"Festive Yuletart","steam_id":76561198023918830,"connected_time":524000000000,"state":"active","ping":40},{"user_id":207,"name":"Schnappi Krokodil","steam_id":76561199046892970,"connected_time":1566000000000,"state":"active","ping":87},{"user_id":208,"name":"Blood assassin","steam_id":76561198082340843,"connected_time":1561000000000,"state":"active","ping":47},{"user_id":212,"name":"wonkwev","steam_id":76561198853088774,"connected_time":1544000000000,"state":"active","ping":36},{"user_id":172,"name":"hmscole09","steam_id":76561198811362788,"connected_time":4712000000000,"state":"active","ping":47},{"user_id":214,"name":"Rad But Sad","steam_id":76561198066409088,"connected_time":1248000000000,"state":"active","ping":75},{"user_id":191,"name":"Tavish","steam_id":76561197971486686,"connected_time":3914000000000,"state":"active","ping":55},{"user_id":215,"name":"Ziggurat Vertigo","steam_id":76561198055394052,"connected_time":1209000000000,"state":"active","ping":72},{"user_id":163,"name":"TheKromeDome","steam_id":76561198288951592,"connected_time":5902000000000,"state":"active","ping":68},{"user_id":254,"name":"Wyvern786","steam_id":76561199137770636,"connected_time":211000000000,"state":"active","ping":47},{"user_id":255,"name":"Cuptin Blonde","steam_id":76561199135717707,"connected_time":90000000000,"state":"active","ping":47},{"user_id":256,"name":"penis gnome","steam_id":76561198097612561,"connected_time":42000000000,"state":"spawning","ping":88}]},{"server_id":321,"name":"Uncletopia | London | 4 | All Maps","name_short":"lon-4","host":"lon-1.uk.uncletopia.com","port":27045,"enabled":true,"region":"eu","cc":"gb","latitude":51.509865,"longitude":-0.118092,"reserved":0,"last_update":"0001-01-01T00:00:00Z","name_a2s":"Uncletopia | London | 4 | All Maps","protocol":17,"map":"pl_frontier_final","folder":"tf","game":"Team Fortress","app_id":440,"player_count":19,"max_players":24,"Bots":0,"server_type":"Dedicated","server_os":"Linux","password":true,"vac":true,"version":"7742253","steam_id":85568392924510193,"keywords":["nocrits","nodmgspread","payload","uncletopia"],"game_id":440,"stv_port":27046,"stv_name":"Uncletopia | London | 4 | All Maps | STV","players":[{"user_id":528,"name":"Lyra","steam_id":76561198043601838,"connected_time":5260000000000,"state":"active","ping":74},{"user_id":574,"name":"Fat Pigeon","steam_id":76561198817940142,"connected_time":2220000000000,"state":"active","ping":59},{"user_id":573,"name":"mt","steam_id":76561197961319303,"connected_time":2478000000000,"state":"active","ping":59},{"user_id":593,"name":"Veri-merry-tasket","steam_id":76561198090074093,"connected_time":80000000000,"state":"active","ping":117},{"user_id":506,"name":"talk to me nice","steam_id":76561198079277466,"connected_time":6991000000000,"state":"active","ping":71},{"user_id":592,"name":"BingusDingus","steam_id":76561198310983903,"connected_time":126000000000,"state":"active","ping":43},{"user_id":581,"name":"GinoFastidio","steam_id":76561198075830259,"connected_time":1416000000000,"state":"active","ping":125},{"user_id":594,"name":"Ricardo Miloš","steam_id":76561198832063769,"connected_time":24000000000,"state":"active","ping":75},{"user_id":490,"name":"Grey","steam_id":76561198187190267,"connected_time":8661000000000,"state":"active","ping":45},{"user_id":500,"name":"Pipper","steam_id":76561197970326616,"connected_time":7759000000000,"state":"active","ping":56},{"user_id":578,"name":"Givi","steam_id":76561198808819694,"connected_time":1974000000000,"state":"active","ping":60},{"user_id":586,"name":"Buddy","steam_id":76561198050185582,"connected_time":589000000000,"state":"active","ping":55},{"user_id":590,"name":"Dominus.","steam_id":76561199065917088,"connected_time":293000000000,"state":"active","ping":54},{"user_id":420,"name":"Emxx52","steam_id":76561198059374194,"connected_time":13986000000000,"state":"active","ping":84},{"user_id":540,"name":"Vectillion","steam_id":76561198074292454,"connected_time":4073000000000,"state":"active","ping":64},{"user_id":531,"name":"SoupER","steam_id":76561198063056668,"connected_time":5217000000000,"state":"active","ping":35},{"user_id":575,"name":"Milk","steam_id":76561198125876588,"connected_time":2179000000000,"state":"active","ping":44},{"user_id":579,"name":"lactation nation","steam_id":76561198074917015,"connected_time":1911000000000,"state":"active","ping":116},{"user_id":553,"name":"tristan","steam_id":76561198096097448,"connected_time":3688000000000,"state":"active","ping":48}]},{"server_id":21,"name":"Uncletopia | London | 5 | All Maps","name_short":"lon-5","host":"lon-1.uk.uncletopia.com","port":27055,"enabled":true,"region":"eu","cc":"gb","latitude":51.509865,"longitude":-0.118092,"reserved":0,"last_update":"0001-01-01T00:00:00Z","name_a2s":"Uncletopia | London | 5 | All Maps","protocol":17,"map":"koth_cascade","folder":"tf","game":"Team Fortress","app_id":440,"player_count":0,"max_players":24,"Bots":0,"server_type":"Dedicated","server_os":"Linux","password":true,"vac":true,"version":"7742253","steam_id":85568392924742829,"keywords":["cp","nocrits","nodmgspread","uncletopia"],"game_id":440,"stv_port":27056,"stv_name":"Uncletopia | London | 5 | All Maps | STV","players":null},{"server_id":22,"name":"Uncletopia | London | 6 | All Maps","name_short":"lon-6","host":"lon-1.uk.uncletopia.com","port":27065,"enabled":true,"region":"eu","cc":"gb","latitude":51.509865,"longitude":-0.118092,"reserved":0,"last_update":"0001-01-01T00:00:00Z","name_a2s":"Uncletopia | London | 6 | All Maps","protocol":17,"map":"cp_steel","folder":"tf","game":"Team Fortress","app_id":440,"player_count":23,"max_players":24,"Bots":0,"server_type":"Dedicated","server_os":"Linux","password":true,"vac":true,"version":"7742253","steam_id":85568392924742830,"keywords":["cp","nocrits","nodmgspread","uncletopia"],"game_id":440,"stv_port":27066,"stv_name":"Uncletopia | London | 6 | All Maps | STV","players":[{"user_id":245,"name":"Lag","steam_id":76561198159360376,"connected_time":1484000000000,"state":"active","ping":38},{"user_id":221,"name":"Dr.Disrespect","steam_id":76561198043820228,"connected_time":2910000000000,"state":"active","ping":44},{"user_id":251,"name":"PolarTwin","steam_id":76561198071157528,"connected_time":764000000000,"state":"active","ping":52},{"user_id":257,"name":"SparkleButt","steam_id":76561199128547077,"connected_time":31000000000,"state":"active","ping":65},{"user_id":198,"name":"Sunshine Moon","steam_id":76561198022604491,"connected_time":4497000000000,"state":"active","ping":48},{"user_id":259,"name":"Spy","steam_id":76561198869978630,"connected_time":20000000000,"state":"active","ping":88},{"user_id":240,"name":"Dolphin2011","steam_id":76561197997323419,"connected_time":1768000000000,"state":"active","ping":83},{"user_id":199,"name":"King Calibur","steam_id":76561198120609448,"connected_time":4484000000000,"state":"active","ping":154},{"user_id":187,"name":"4's up Rigby","steam_id":76561199122067976,"connected_time":4787000000000,"state":"active","ping":52},{"user_id":200,"name":"Darkly Quill","steam_id":76561198043540617,"connected_time":4466000000000,"state":"active","ping":142},{"user_id":238,"name":"Mr.O #deletesniper","steam_id":76561198039567498,"connected_time":1834000000000,"state":"active","ping":64},{"user_id":247,"name":"Athomix","steam_id":76561198170108402,"connected_time":1312000000000,"state":"active","ping":93},{"user_id":201,"name":"MAKENTAKEN","steam_id":76561199127359587,"connected_time":4464000000000,"state":"active","ping":101},{"user_id":254,"name":"11037","steam_id":76561198351154533,"connected_time":652000000000,"state":"active","ping":53},{"user_id":231,"name":"Arx","steam_id":76561198107397454,"connected_time":2066000000000,"state":"active","ping":47},{"user_id":252,"name":"tiagrossin","steam_id":76561198075391779,"connected_time":744000000000,"state":"active","ping":74},{"user_id":178,"name":"Dongus","steam_id":76561198042774930,"connected_time":5606000000000,"state":"active","ping":57},{"user_id":260,"name":"Ghostler","steam_id":76561198008734235,"connected_time":8000000000,"state":"spawning","ping":53},{"user_id":243,"name":"Echo of Abyss","steam_id":76561198981841782,"connected_time":1707000000000,"state":"active","ping":59},{"user_id":218,"name":"MordyQ","steam_id":76561198025613597,"connected_time":3328000000000,"state":"active","ping":93},{"user_id":248,"name":"тукку ирма","steam_id":76561197998715016,"connected_time":1274000000000,"state":"active","ping":69},{"user_id":220,"name":"stoicist","steam_id":76561197985213048,"connected_time":2934000000000,"state":"active","ping":47},{"user_id":255,"name":"DN77","steam_id":76561199121396324,"connected_time":605000000000,"state":"active","ping":82}]},{"server_id":40,"name":"Uncletopia | London | 7 | No Payload","name_short":"lon-7","host":"lon-1.uk.uncletopia.com","port":27075,"enabled":true,"region":"eu","cc":"gb","latitude":51.509865,"longitude":-0.118092,"reserved":0,"last_update":"0001-01-01T00:00:00Z","name_a2s":"Uncletopia | London | 7 | No Payload","protocol":17,"map":"cp_gullywash_final1","folder":"tf","game":"Team Fortress","app_id":440,"player_count":0,"max_players":24,"Bots":0,"server_type":"Dedicated","server_os":"Linux","password":true,"vac":true,"version":"7742253","steam_id":85568392924964314,"keywords":["cp","nocrits","nodmgspread","uncletopia"],"game_id":440,"stv_port":27076,"stv_name":"Uncletopia | London | 7 | No Payload | STV","players":null},{"server_id":41,"name":"Uncletopia | London | 8 | Community","name_short":"lon-8","host":"lon-1.uk.uncletopia.com","port":27085,"enabled":true,"region":"eu","cc":"gb","latitude":51.509865,"longitude":-0.118092,"reserved":0,"last_update":"0001-01-01T00:00:00Z","name_a2s":"Uncletopia | London | 8 | Community","protocol":17,"map":"workshop/koth_ramjam_v2_b2.ugc2865676487","folder":"tf","game":"Team Fortress","app_id":440,"player_count":0,"max_players":24,"Bots":0,"server_type":"Dedicated","server_os":"Linux","password":true,"vac":true,"version":"7742253","steam_id":85568392924964315,"keywords":["cp","nocrits","nodmgspread","uncletopia"],"game_id":440,"stv_port":27086,"stv_name":"Uncletopia | London | 8 | Community | STV","players":null},{"server_id":300,"name":"Uncletopia | Montréal | 1 | All Maps","name_short":"mtl-1","host":"mtl-1.ca.uncletopia.com","port":27015,"enabled":true,"region":"us-east","cc":"ca","latitude":45.50889,"longitude":-73.56167,"reserved":0,"last_update":"0001-01-01T00:00:00Z","name_a2s":"Uncletopia | Montréal | 1 | All Maps","protocol":17,"map":"koth_lakeside_final","folder":"tf","game":"Team Fortress","app_id":440,"player_count":0,"max_players":24,"Bots":0,"server_type":"Dedicated","server_os":"Linux","password":true,"vac":true,"version":"7742253","steam_id":85568392924500087,"keywords":["cp","nocrits","nodmgspread","uncletopia"],"game_id":440,"stv_port":27016,"stv_name":"Uncletopia | Montréal | 1 | All Maps | STV","players":null},{"server_id":301,"name":"Uncletopia | Montréal | 2 | All Maps","name_short":"mtl-2","host":"mtl-1.ca.uncletopia.com","port":27025,"enabled":true,"region":"us-east","cc":"ca","latitude":45.50889,"longitude":-73.56167,"reserved":0,"last_update":"0001-01-01T00:00:00Z","name_a2s":"Uncletopia | Montréal | 2 | All Maps","protocol":17,"map":"koth_lakeside_final","folder":"tf","game":"Team Fortress","app_id":440,"player_count":0,"max_players":24,"Bots":0,"server_type":"Dedicated","server_os":"Linux","password":true,"vac":true,"version":"7742253","steam_id":85568392924500088,"keywords":["cp","nocrits","nodmgspread","uncletopia"],"game_id":440,"stv_port":27026,"stv_name":"Uncletopia | Montréal | 2 | All Maps | STV","players":null},{"server_id":302,"name":"Uncletopia | Montréal | 3 | All Maps","name_short":"mtl-3","host":"mtl-1.ca.uncletopia.com","port":27035,"enabled":true,"region":"us-east","cc":"ca","latitude":45.50889,"longitude":-73.56167,"reserved":0,"last_update":"0001-01-01T00:00:00Z","name_a2s":"Uncletopia | Montréal | 3 | All Maps","protocol":17,"map":"pl_badwater","folder":"tf","game":"Team Fortress","app_id":440,"player_count":0,"max_players":24,"Bots":0,"server_type":"Dedicated","server_os":"Linux","password":true,"vac":true,"version":"7742253","steam_id":85568392924500089,"keywords":["nocrits","nodmgspread","payload","uncletopia"],"game_id":440,"stv_port":27036,"stv_name":"Uncletopia | Montréal | 3 | All Maps | STV","players":null},{"server_id":303,"name":"Uncletopia | Montréal | 4 | No Payload","name_short":"mtl-4","host":"mtl-1.ca.uncletopia.com","port":27045,"enabled":true,"region":"us-east","cc":"ca","latitude":45.50889,"longitude":-73.56167,"reserved":0,"last_update":"0001-01-01T00:00:00Z","name_a2s":"Uncletopia | Montréal | 4 | No Payload","protocol":17,"map":"koth_highpass","folder":"tf","game":"Team Fortress","app_id":440,"player_count":0,"max_players":24,"Bots":0,"server_type":"Dedicated","server_os":"Linux","password":true,"vac":true,"version":"7742253","steam_id":85568392924500090,"keywords":["cp","nocrits","nodmgspread","uncletopia"],"game_id":440,"stv_port":27046,"stv_name":"Uncletopia | Montréal | 4 | No Payload | STV","players":null},{"server_id":13,"name":"Uncletopia | New York City | 1 | All Maps","name_short":"nyc-1","host":"nyc-1.us.uncletopia.com","port":27015,"enabled":true,"region":"us-east","cc":"us","latitude":40.73061,"longitude":-73.93524,"reserved":0,"last_update":"0001-01-01T00:00:00Z","name_a2s":"Uncletopia | New York City | 1 | All Maps","protocol":17,"map":"cp_snakewater_final1","folder":"tf","game":"Team Fortress","app_id":440,"player_count":24,"max_players":24,"Bots":0,"server_type":"Dedicated","server_os":"Linux","password":true,"vac":true,"version":"7742253","steam_id":85568392924469993,"keywords":["cp","nocrits","nodmgspread","uncletopia"],"game_id":440,"stv_port":27016,"stv_name":"Uncletopia | New York City | 1 | All Maps | STV","players":[{"user_id":194,"name":"Spiral Mountain","steam_id":76561198058683715,"connected_time":9120000000000,"state":"active","ping":63},{"user_id":263,"name":"Mirari","steam_id":76561198126889358,"connected_time":5489000000000,"state":"active","ping":64},{"user_id":312,"name":"AutisticFrog","steam_id":76561198372981437,"connected_time":1829000000000,"state":"active","ping":60},{"user_id":8,"name":"Muffim","steam_id":76561198056704533,"connected_time":22806000000000,"state":"active","ping":123},{"user_id":334,"name":"Pills","steam_id":76561198799440163,"connected_time":494000000000,"state":"active","ping":103},{"user_id":303,"name":"gunk","steam_id":76561198845637652,"connected_time":3009000000000,"state":"active","ping":87},{"user_id":324,"name":"inpalate","steam_id":76561199016973013,"connected_time":814000000000,"state":"active","ping":68},{"user_id":322,"name":"Wahooka (Manrobics Instructor)","steam_id":76561197962240925,"connected_time":916000000000,"state":"active","ping":58},{"user_id":319,"name":"TaroStewDude","steam_id":76561198862881952,"connected_time":1047000000000,"state":"active","ping":50},{"user_id":264,"name":"SuperJagops","steam_id":76561198034689716,"connected_time":5475000000000,"state":"active","ping":51},{"user_id":309,"name":"New Moon","steam_id":76561198051928674,"connected_time":2442000000000,"state":"active","ping":37},{"user_id":323,"name":"Doody","steam_id":76561198284068886,"connected_time":908000000000,"state":"active","ping":74},{"user_id":329,"name":"All Tomorrow's Parties","steam_id":76561197995936212,"connected_time":666000000000,"state":"active","ping":74},{"user_id":282,"name":"Chef Loves Music","steam_id":76561198310658990,"connected_time":4244000000000,"state":"active","ping":70},{"user_id":326,"name":"megaboi796","steam_id":76561198122995438,"connected_time":755000000000,"state":"active","ping":61},{"user_id":131,"name":"Awildrock","steam_id":76561198040401086,"connected_time":14652000000000,"state":"active","ping":90},{"user_id":311,"name":"not shouleil","steam_id":76561198970370243,"connected_time":2206000000000,"state":"active","ping":31},{"user_id":209,"name":"PizzaPasta","steam_id":76561199125109082,"connected_time":8735000000000,"state":"active","ping":60},{"user_id":327,"name":"Canpake","steam_id":76561198106446161,"connected_time":732000000000,"state":"active","ping":46},{"user_id":328,"name":"choi","steam_id":76561198053669887,"connected_time":720000000000,"state":"active","ping":128},{"user_id":318,"name":"Disco Fever","steam_id":76561198069532215,"connected_time":1458000000000,"state":"active","ping":54},{"user_id":335,"name":"KidVid","steam_id":76561198252500460,"connected_time":479000000000,"state":"active","ping":59},{"user_id":331,"name":"based housewife","steam_id":76561198066812433,"connected_time":604000000000,"state":"active","ping":60},{"user_id":332,"name":"Vince","steam_id":76561199103000131,"connected_time":589000000000,"state":"active","ping":120}]},{"server_id":14,"name":"Uncletopia | New York City | 2 | All Maps","name_short":"nyc-2","host":"nyc-1.us.uncletopia.com","port":27025,"enabled":true,"region":"us-east","cc":"us","latitude":40.73061,"longitude":-73.93524,"reserved":0,"last_update":"0001-01-01T00:00:00Z","name_a2s":"Uncletopia | New York City | 2 | All Maps","protocol":17,"map":"pl_upward","folder":"tf","game":"Team Fortress","app_id":440,"player_count":24,"max_players":24,"Bots":0,"server_type":"Dedicated","server_os":"Linux","password":true,"vac":true,"version":"7742253","steam_id":85568392924469994,"keywords":["nocrits","nodmgspread","payload","uncletopia"],"game_id":440,"stv_port":27026,"stv_name":"Uncletopia | New York City | 2 | All Maps | STV","players":[{"user_id":286,"name":"MrBones wild ride","steam_id":76561199242459101,"connected_time":109000000000,"state":"active","ping":87},{"user_id":207,"name":"sock","steam_id":76561199117597830,"connected_time":5339000000000,"state":"active","ping":63},{"user_id":276,"name":"Lost","steam_id":76561198025933206,"connected_time":1184000000000,"state":"active","ping":92},{"user_id":248,"name":"mcmurrayjack998","steam_id":76561199235624366,"connected_time":2728000000000,"state":"active","ping":72},{"user_id":283,"name":"Mike Ehrmantraut","steam_id":76561198082446459,"connected_time":439000000000,"state":"active","ping":58},{"user_id":249,"name":"Player AFK","steam_id":76561198036032168,"connected_time":2716000000000,"state":"active","ping":67},{"user_id":250,"name":"friend","steam_id":76561198062481872,"connected_time":2714000000000,"state":"active","ping":71},{"user_id":272,"name":"cremeoner","steam_id":76561198372332251,"connected_time":1303000000000,"state":"active","ping":35},{"user_id":285,"name":"Rudy","steam_id":76561198013456828,"connected_time":339000000000,"state":"active","ping":45},{"user_id":270,"name":"Finger (Real)","steam_id":76561198406094935,"connected_time":1367000000000,"state":"active","ping":49},{"user_id":273,"name":"MjrMovnTARGET","steam_id":76561199125908849,"connected_time":1283000000000,"state":"active","ping":54},{"user_id":256,"name":"Smokinaiden","steam_id":76561198035250129,"connected_time":2536000000000,"state":"active","ping":120},{"user_id":282,"name":"Dark Lord","steam_id":76561198044199150,"connected_time":496000000000,"state":"active","ping":48},{"user_id":277,"name":"if watermelons were human","steam_id":76561199044624946,"connected_time":864000000000,"state":"active","ping":46},{"user_id":263,"name":"ndvr","steam_id":76561199379200102,"connected_time":2209000000000,"state":"active","ping":49},{"user_id":232,"name":"-InternalDeath-","steam_id":76561198866009351,"connected_time":3259000000000,"state":"active","ping":43},{"user_id":43,"name":"des","steam_id":76561198079226634,"connected_time":17932000000000,"state":"active","ping":71},{"user_id":274,"name":"Draconic Ballad","steam_id":76561198027191515,"connected_time":1269000000000,"state":"active","ping":43},{"user_id":259,"name":"Big Yoshi","steam_id":76561199160576376,"connected_time":2431000000000,"state":"active","ping":132},{"user_id":284,"name":"BNTF","steam_id":76561198062740087,"connected_time":397000000000,"state":"active","ping":74},{"user_id":275,"name":"The_N_Man_44","steam_id":76561198802835217,"connected_time":1265000000000,"state":"active","ping":88},{"user_id":260,"name":"medic on expert?","steam_id":76561198855559452,"connected_time":2411000000000,"state":"active","ping":102},{"user_id":281,"name":"tf2","steam_id":76561198192330781,"connected_time":517000000000,"state":"active","ping":48},{"user_id":261,"name":"A_Malebolgia","steam_id":76561198097722818,"connected_time":2406000000000,"state":"active","ping":79}]},{"server_id":15,"name":"Uncletopia | New York City | 3 | Stopwatch Beta","name_short":"nyc-3","host":"nyc-1.us.uncletopia.com","port":27035,"enabled":true,"region":"us-east","cc":"us","latitude":40.73061,"longitude":-73.93524,"reserved":0,"last_update":"0001-01-01T00:00:00Z","name_a2s":"Uncletopia | New York City | 3 | Stopwatch Beta","protocol":17,"map":"cp_altitude","folder":"tf","game":"Team Fortress","app_id":440,"player_count":0,"max_players":24,"Bots":0,"server_type":"Dedicated","server_os":"Linux","password":true,"vac":true,"version":"7742253","steam_id":85568392924742820,"keywords":["cp","nocrits","nodmgspread","uncletopia"],"game_id":440,"stv_port":27036,"stv_name":"Uncletopia | New York City | 3 | Stopwatch Beta | STV","players":null},{"server_id":16,"name":"Uncletopia | New York City | 4 | Community","name_short":"nyc-4","host":"nyc-1.us.uncletopia.com","port":27045,"enabled":true,"region":"us-east","cc":"us","latitude":40.73061,"longitude":-73.93524,"reserved":0,"last_update":"0001-01-01T00:00:00Z","name_a2s":"Uncletopia | New York City | 4 | Community","protocol":17,"map":"workshop/rd_asteroid_redux_rc9.ugc2154902912","folder":"tf","game":"Team Fortress","app_id":440,"player_count":0,"max_players":24,"Bots":0,"server_type":"Dedicated","server_os":"Linux","password":true,"vac":true,"version":"7742253","steam_id":85568392924742821,"keywords":["beta","nocrits","nodmgspread","rd","uncletopia"],"game_id":440,"stv_port":27046,"stv_name":"Uncletopia | New York City | 4 | Community | STV","players":null},{"server_id":142,"name":"Uncletopia | São Paulo | 1 | All Maps","name_short":"sao-1","host":"sao-1.br.uncletopia.com","port":27015,"enabled":true,"region":"sa","cc":"br","latitude":-23.533773,"longitude":-46.62529,"reserved":0,"last_update":"0001-01-01T00:00:00Z","name_a2s":"Uncletopia | São Paulo | 1 | All Maps","protocol":17,"map":"koth_highpass","folder":"tf","game":"Team Fortress","app_id":440,"player_count":0,"max_players":24,"Bots":0,"server_type":"Dedicated","server_os":"Linux","password":true,"vac":true,"version":"7742253","steam_id":85568392924469996,"keywords":["cp","nocrits","nodmgspread","uncletopia"],"game_id":440,"stv_port":27016,"stv_name":"Uncletopia | São Paulo | 1 | All Maps | STV","players":null},{"server_id":143,"name":"Uncletopia | São Paulo | 2 | All Maps","name_short":"sao-2","host":"sao-2.br.uncletopia.com","port":27015,"enabled":true,"region":"sa","cc":"br","latitude":-23.533773,"longitude":-46.62529,"reserved":0,"last_update":"0001-01-01T00:00:00Z","name_a2s":"Uncletopia | São Paulo | 2 | All Maps","protocol":17,"map":"pl_frontier_final","folder":"tf","game":"Team Fortress","app_id":440,"player_count":0,"max_players":24,"Bots":0,"server_type":"Dedicated","server_os":"Linux","password":true,"vac":true,"version":"7742253","steam_id":85568392924485349,"keywords":["nocrits","nodmgspread","payload","uncletopia"],"game_id":440,"stv_port":27016,"stv_name":"Uncletopia | São Paulo | 2 | All Maps | STV","players":null},{"server_id":7,"name":"Uncletopia | Seattle | 1 | All Maps","name_short":"sea-1","host":"sea-1.us.uncletopia.com","port":27015,"enabled":true,"region":"us-west","cc":"us","latitude":47.608013,"longitude":-122.33517,"reserved":0,"last_update":"0001-01-01T00:00:00Z","name_a2s":"Uncletopia | Seattle | 1 | All Maps","protocol":17,"map":"pl_swiftwater_final1","folder":"tf","game":"Team Fortress","app_id":440,"player_count":23,"max_players":24,"Bots":0,"server_type":"Dedicated","server_os":"Linux","password":true,"vac":true,"version":"7742253","steam_id":85568392924469997,"keywords":["nocrits","nodmgspread","payload","uncletopia"],"game_id":440,"stv_port":27016,"stv_name":"Uncletopia | Seattle | 1 | All Maps | STV","players":[{"user_id":123,"name":"real goblin videos","steam_id":76561198119536224,"connected_time":4551000000000,"state":"active","ping":118},{"user_id":135,"name":"secio5","steam_id":76561198189746963,"connected_time":3659000000000,"state":"active","ping":42},{"user_id":222,"name":"cinnamon rolls","steam_id":76561198042941628,"connected_time":1116000000000,"state":"active","ping":78},{"user_id":216,"name":"The Best Healer","steam_id":76561198079452621,"connected_time":1254000000000,"state":"active","ping":46},{"user_id":132,"name":"WeAreTheSpirits","steam_id":76561198191555728,"connected_time":3894000000000,"state":"active","ping":61},{"user_id":212,"name":"Seriously Bruh","steam_id":76561198070408485,"connected_time":1417000000000,"state":"active","ping":60},{"user_id":131,"name":"Elite_Friendly","steam_id":76561198819972127,"connected_time":3907000000000,"state":"active","ping":60},{"user_id":238,"name":"Hotdoggiest","steam_id":76561198049420141,"connected_time":115000000000,"state":"active","ping":75},{"user_id":199,"name":"Fredfredfood","steam_id":76561198072824802,"connected_time":2185000000000,"state":"active","ping":81},{"user_id":221,"name":"Dinokiddo","steam_id":76561198053645417,"connected_time":1133000000000,"state":"active","ping":69},{"user_id":239,"name":"Len","steam_id":76561199141913673,"connected_time":1000000000,"state":"spawning","ping":53},{"user_id":240,"name":"Rhutebeer","steam_id":76561198018302761,"connected_time":0,"state":"spawning","ping":0},{"user_id":223,"name":"jiji","steam_id":76561198298140571,"connected_time":1089000000000,"state":"active","ping":78},{"user_id":224,"name":"rad killl raccoon","steam_id":76561198980975595,"connected_time":1079000000000,"state":"active","ping":58},{"user_id":205,"name":"Daft Tigers","steam_id":76561198081871942,"connected_time":1995000000000,"state":"active","ping":74},{"user_id":228,"name":"Suicide Sid","steam_id":76561198446151354,"connected_time":703000000000,"state":"active","ping":61},{"user_id":235,"name":"zoo-music girl","steam_id":76561198325306660,"connected_time":128000000000,"state":"active","ping":46},{"user_id":236,"name":"Boltzmann","steam_id":76561198100504544,"connected_time":127000000000,"state":"active","ping":42},{"user_id":232,"name":"KingTinkerer","steam_id":76561198226856548,"connected_time":383000000000,"state":"active","ping":67},{"user_id":229,"name":"Harley \u003c3","steam_id":76561198988918229,"connected_time":697000000000,"state":"active","ping":122},{"user_id":127,"name":"WalkinMan","steam_id":76561198047941142,"connected_time":4198000000000,"state":"active","ping":56},{"user_id":120,"name":"skrt","steam_id":76561198233984300,"connected_time":4698000000000,"state":"active","ping":101},{"user_id":211,"name":"EatSomeBEES","steam_id":76561198047334307,"connected_time":1533000000000,"state":"active","ping":84}]},{"server_id":119,"name":"Uncletopia | Seattle | 2 | All Maps","name_short":"sea-2","host":"sea-1.us.uncletopia.com","port":27025,"enabled":true,"region":"us-west","cc":"us","latitude":47.608013,"longitude":-122.33517,"reserved":0,"last_update":"0001-01-01T00:00:00Z","name_a2s":"Uncletopia | Seattle | 2 | All Maps","protocol":17,"map":"pl_swiftwater_final1","folder":"tf","game":"Team Fortress","app_id":440,"player_count":0,"max_players":24,"Bots":0,"server_type":"Dedicated","server_os":"Linux","password":true,"vac":true,"version":"7742253","steam_id":85568392924469998,"keywords":["nocrits","nodmgspread","payload","uncletopia"],"game_id":440,"stv_port":27026,"stv_name":"Uncletopia | Seattle | 2 | All Maps | STV","players":null},{"server_id":406,"name":"Uncletopia | Seattle | 3 | Stopwatch Beta","name_short":"sea-3","host":"sea-1.us.uncletopia.com","port":27035,"enabled":true,"region":"us-west","cc":"us","latitude":47.608013,"longitude":-122.33517,"reserved":0,"last_update":"0001-01-01T00:00:00Z","name_a2s":"Uncletopia | Seattle | 3 | Stopwatch Beta","protocol":17,"map":"pl_upward","folder":"tf","game":"Team Fortress","app_id":440,"player_count":0,"max_players":24,"Bots":0,"server_type":"Dedicated","server_os":"Linux","password":true,"vac":false,"version":"7742253","steam_id":0,"keywords":["nocrits","nodmgspread","payload","uncletopia"],"game_id":440,"stv_port":27036,"stv_name":"Uncletopia | Seattle | 3 | Stopwatch Beta | STV","players":null},{"server_id":17,"name":"Uncletopia | San Francisco | 1 | All Maps","name_short":"sfo-1","host":"sfo-1.us.uncletopia.com","port":27015,"enabled":true,"region":"us-west","cc":"us","latitude":37.77397,"longitude":-122.4313,"reserved":0,"last_update":"0001-01-01T00:00:00Z","name_a2s":"Uncletopia | San Francisco | 1 | All Maps","protocol":17,"map":"koth_cascade","folder":"tf","game":"Team Fortress","app_id":440,"player_count":0,"max_players":24,"Bots":0,"server_type":"Dedicated","server_os":"Linux","password":true,"vac":true,"version":"7742253","steam_id":85568392924469999,"keywords":["cp","nocrits","nodmgspread","uncletopia"],"game_id":440,"stv_port":27016,"stv_name":"Uncletopia | San Francisco | 1 | All Maps | STV","players":null},{"server_id":18,"name":"Uncletopia | San Francisco | 2 | All Maps","name_short":"sfo-2","host":"sfo-1.us.uncletopia.com","port":27025,"enabled":true,"region":"us-west","cc":"us","latitude":37.77397,"longitude":-122.4313,"reserved":0,"last_update":"0001-01-01T00:00:00Z","name_a2s":"Uncletopia | San Francisco | 2 | All Maps","protocol":17,"map":"pl_badwater","folder":"tf","game":"Team Fortress","app_id":440,"player_count":0,"max_players":24,"Bots":0,"server_type":"Dedicated","server_os":"Linux","password":true,"vac":true,"version":"7742253","steam_id":85568392924470000,"keywords":["nocrits","nodmgspread","payload","uncletopia"],"game_id":440,"stv_port":27026,"stv_name":"Uncletopia | San Francisco | 2 | All Maps | STV","players":null},{"server_id":19,"name":"Uncletopia | San Francisco | 3 | Stopwatch Beta","name_short":"sfo-3","host":"sfo-1.us.uncletopia.com","port":27035,"enabled":true,"region":"us-west","cc":"us","latitude":37.77397,"longitude":-122.4313,"reserved":0,"last_update":"0001-01-01T00:00:00Z","name_a2s":"Uncletopia | San Francisco | 3 | Stopwatch Beta","protocol":17,"map":"cp_snakewater_final1","folder":"tf","game":"Team Fortress","app_id":440,"player_count":0,"max_players":24,"Bots":0,"server_type":"Dedicated","server_os":"Linux","password":true,"vac":true,"version":"7742253","steam_id":85568392924742824,"keywords":["cp","nocrits","nodmgspread","uncletopia"],"game_id":440,"stv_port":27036,"stv_name":"Uncletopia | San Francisco | 3 | Stopwatch Beta | STV","players":null},{"server_id":20,"name":"Uncletopia | San Francisco | 4 | Community","name_short":"sfo-4","host":"sfo-1.us.uncletopia.com","port":27045,"enabled":true,"region":"us-west","cc":"us","latitude":37.77397,"longitude":-122.4313,"reserved":0,"last_update":"0001-01-01T00:00:00Z","name_a2s":"Uncletopia | San Francisco | 4 | Community","protocol":17,"map":"cp_altitude","folder":"tf","game":"Team Fortress","app_id":440,"player_count":0,"max_players":24,"Bots":0,"server_type":"Dedicated","server_os":"Linux","password":true,"vac":true,"version":"7742253","steam_id":85568392924742826,"keywords":["cp","nocrits","nodmgspread","uncletopia"],"game_id":440,"stv_port":27046,"stv_name":"Uncletopia | San Francisco | 4 | Community | STV","players":null},{"server_id":141,"name":"Uncletopia | Sydney | 1 | All Maps","name_short":"syd-1","host":"syd-1.au.uncletopia.com","port":27015,"enabled":true,"region":"au","cc":"au","latitude":-33.865143,"longitude":151.2099,"reserved":0,"last_update":"0001-01-01T00:00:00Z","name_a2s":"Uncletopia | Sydney | 1 | All Maps","protocol":17,"map":"pl_frontier_final","folder":"tf","game":"Team Fortress","app_id":440,"player_count":0,"max_players":24,"Bots":0,"server_type":"Dedicated","server_os":"Linux","password":true,"vac":true,"version":"7742253","steam_id":85568392924470001,"keywords":["nocrits","nodmgspread","payload","uncletopia"],"game_id":440,"stv_port":27016,"stv_name":"Uncletopia | Sydney | 1 | All Maps | STV","players":null},{"server_id":123,"name":"Uncletopia | Sydney | 2 | All Maps","name_short":"syd-2","host":"syd-1.au.uncletopia.com","port":27025,"enabled":true,"region":"au","cc":"au","latitude":-33.865143,"longitude":151.2099,"reserved":0,"last_update":"0001-01-01T00:00:00Z","name_a2s":"Uncletopia | Sydney | 2 | All Maps","protocol":17,"map":"pl_pier","folder":"tf","game":"Team Fortress","app_id":440,"player_count":0,"max_players":24,"Bots":0,"server_type":"Dedicated","server_os":"Linux","password":true,"vac":true,"version":"7742253","steam_id":85568392924470002,"keywords":["nocrits","nodmgspread","payload","uncletopia"],"game_id":440,"stv_port":27026,"stv_name":"Uncletopia | Sydney | 2 | All Maps | STV","players":null},{"server_id":395,"name":"Uncletopia | Sydney | 3 | All Maps","name_short":"syd-3","host":"syd-1.au.uncletopia.com","port":27035,"enabled":true,"region":"au","cc":"au","latitude":-33.865143,"longitude":151.2099,"reserved":0,"last_update":"0001-01-01T00:00:00Z","name_a2s":"Uncletopia | Sydney | 3 | All Maps","protocol":17,"map":"cp_dustbowl","folder":"tf","game":"Team Fortress","app_id":440,"player_count":0,"max_players":24,"Bots":0,"server_type":"Dedicated","server_os":"Linux","password":true,"vac":true,"version":"7742253","steam_id":85568392925194467,"keywords":["cp","nocrits","nodmgspread","uncletopia"],"game_id":440,"stv_port":27036,"stv_name":"Uncletopia | Sydney | 3 | All Maps | STV","players":null},{"server_id":396,"name":"Uncletopia | Sydney | 4 | All Maps","name_short":"syd-4","host":"syd-1.au.uncletopia.com","port":27045,"enabled":true,"region":"au","cc":"au","latitude":-33.865143,"longitude":151.2099,"reserved":0,"last_update":"0001-01-01T00:00:00Z","name_a2s":"Uncletopia | Sydney | 4 | All Maps","protocol":17,"map":"pl_borneo","folder":"tf","game":"Team Fortress","app_id":440,"player_count":0,"max_players":24,"Bots":0,"server_type":"Dedicated","server_os":"Linux","password":true,"vac":true,"version":"7742253","steam_id":85568392925397958,"keywords":["nocrits","nodmgspread","payload","uncletopia"],"game_id":440,"stv_port":27046,"stv_name":"Uncletopia | Sydney | 4 | All Maps | STV","players":null},{"server_id":58,"name":"Uncletopia | Sydney | 5 | Stopwatch Beta","name_short":"syd-5","host":"syd-1.au.uncletopia.com","port":27055,"enabled":true,"region":"au","cc":"au","latitude":-33.865143,"longitude":151.2099,"reserved":0,"last_update":"0001-01-01T00:00:00Z","name_a2s":"Uncletopia | Sydney | 5 | Stopwatch Beta","protocol":17,"map":"cp_snakewater_final1","folder":"tf","game":"Team Fortress","app_id":440,"player_count":0,"max_players":24,"Bots":0,"server_type":"Dedicated","server_os":"Linux","password":true,"vac":true,"version":"7742253","steam_id":85568392925397959,"keywords":["cp","nocrits","nodmgspread","uncletopia"],"game_id":440,"stv_port":27056,"stv_name":"Uncletopia | Sydney | 5 | Stopwatch Beta | STV","players":null},{"server_id":59,"name":"Uncletopia | Sydney | 6 | Community","name_short":"syd-6","host":"syd-1.au.uncletopia.com","port":27065,"enabled":true,"region":"au","cc":"au","latitude":-33.865143,"longitude":151.2099,"reserved":0,"last_update":"0001-01-01T00:00:00Z","name_a2s":"Uncletopia | Sydney | 6 | Community","protocol":17,"map":"cp_snakewater_final1","folder":"tf","game":"Team Fortress","app_id":440,"player_count":0,"max_players":24,"Bots":0,"server_type":"Dedicated","server_os":"Linux","password":true,"vac":true,"version":"7742253","steam_id":85568392925397960,"keywords":["cp","nocrits","nodmgspread","uncletopia"],"game_id":440,"stv_port":27066,"stv_name":"Uncletopia | Sydney | 6 | Community | STV","players":null},{"server_id":49,"name":"Uncletopia | Warsaw | 1 | All Maps","name_short":"waw-1","host":"waw-1.pl.uncletopia.com","port":27015,"enabled":true,"region":"eu","cc":"pl","latitude":52.2297,"longitude":21.017532,"reserved":0,"last_update":"0001-01-01T00:00:00Z","name_a2s":"","protocol":0,"map":"","folder":"","game":"","app_id":0,"player_count":0,"max_players":0,"Bots":0,"server_type":"","server_os":"","password":false,"vac":false,"version":"","steam_id":0,"keywords":null,"game_id":0,"stv_port":0,"stv_name":"","players":null},{"server_id":50,"name":"Uncletopia | Warsaw | 2 | All Maps","name_short":"waw-2","host":"waw-1.pl.uncletopia.com","port":27025,"enabled":true,"region":"eu","cc":"pl","latitude":52.2297,"longitude":21.017532,"reserved":0,"last_update":"0001-01-01T00:00:00Z","name_a2s":"Uncletopia | Warsaw | 2 | All Maps","protocol":17,"map":"pl_frontier_final","folder":"tf","game":"Team Fortress","app_id":440,"player_count":0,"max_players":24,"Bots":0,"server_type":"Dedicated","server_os":"Linux","password":true,"vac":true,"version":"7742253","steam_id":85568392925397851,"keywords":["nocrits","nodmgspread","payload","uncletopia"],"game_id":440,"stv_port":27026,"stv_name":"Uncletopia | Warsaw | 2 | All Maps | STV","players":null},{"server_id":51,"name":"Uncletopia | Warsaw | 3 | All Maps","name_short":"waw-3","host":"waw-1.pl.uncletopia.com","port":27035,"enabled":true,"region":"eu","cc":"pl","latitude":52.2297,"longitude":21.017532,"reserved":0,"last_update":"0001-01-01T00:00:00Z","name_a2s":"Uncletopia | Warsaw | 3 | All Maps","protocol":17,"map":"koth_cascade","folder":"tf","game":"Team Fortress","app_id":440,"player_count":0,"max_players":24,"Bots":0,"server_type":"Dedicated","server_os":"Linux","password":true,"vac":true,"version":"7742253","steam_id":85568392925397852,"keywords":["cp","nocrits","nodmgspread","uncletopia"],"game_id":440,"stv_port":27036,"stv_name":"Uncletopia | Warsaw | 3 | All Maps | STV","players":null},{"server_id":52,"name":"Uncletopia | Warsaw | 4 | All Maps","name_short":"waw-4","host":"waw-1.pl.uncletopia.com","port":27045,"enabled":true,"region":"eu","cc":"pl","latitude":52.2297,"longitude":21.017532,"reserved":0,"last_update":"0001-01-01T00:00:00Z","name_a2s":"Uncletopia | Warsaw | 4 | All Maps","protocol":17,"map":"koth_lakeside_final","folder":"tf","game":"Team Fortress","app_id":440,"player_count":0,"max_players":24,"Bots":0,"server_type":"Dedicated","server_os":"Linux","password":true,"vac":true,"version":"7742253","steam_id":85568392925397853,"keywords":["cp","nocrits","nodmgspread","uncletopia"],"game_id":440,"stv_port":27046,"stv_name":"Uncletopia | Warsaw | 4 | All Maps | STV","players":null},{"server_id":53,"name":"Uncletopia | Warsaw | 5 | Stopwatch Beta","name_short":"waw-5","host":"waw-1.pl.uncletopia.com","port":27055,"enabled":true,"region":"eu","cc":"pl","latitude":52.2297,"longitude":21.017532,"reserved":0,"last_update":"0001-01-01T00:00:00Z","name_a2s":"Uncletopia | Warsaw | 5 | Stopwatch Beta","protocol":17,"map":"pl_pier","folder":"tf","game":"Team Fortress","app_id":440,"player_count":0,"max_players":24,"Bots":0,"server_type":"Dedicated","server_os":"Linux","password":true,"vac":true,"version":"7742253","steam_id":85568392925397854,"keywords":["nocrits","nodmgspread","payload","uncletopia"],"game_id":440,"stv_port":27056,"stv_name":"Uncletopia | Warsaw | 5 | Stopwatch Beta | STV","players":null},{"server_id":54,"name":"Uncletopia | Warsaw | 6 | Community","name_short":"waw-6","host":"waw-1.pl.uncletopia.com","port":27065,"enabled":true,"region":"eu","cc":"pl","latitude":52.2297,"longitude":21.017532,"reserved":0,"last_update":"0001-01-01T00:00:00Z","name_a2s":"Uncletopia | Warsaw | 6 | Community","protocol":17,"map":"workshop/koth_synthetic_rc6a.ugc1549817316","folder":"tf","game":"Team Fortress","app_id":440,"player_count":0,"max_players":24,"Bots":0,"server_type":"Dedicated","server_os":"Linux","password":true,"vac":true,"version":"7742253","steam_id":85568392925397856,"keywords":["cp","nocrits","nodmgspread","uncletopia"],"game_id":440,"stv_port":27066,"stv_name":"Uncletopia | Warsaw | 6 | Community | STV","players":null}]}