{"status":true,"message":"","result":[{"server_id":9,"name":"Uncletopia | Atlanta | 1 | All Maps","name_short":"atl-1","host":"atl-1.us.uncletopia.com","port":27015,"enabled":true,"region":"us-east","cc":"us","latitude":33.753746,"longitude":-84.38633,"reserved":0,"last_update":"0001-01-01T00:00:00Z","name_a2s":"Uncletopia | Atlanta | 1 | All Maps","protocol":17,"map":"pl_swiftwater_final1","folder":"tf","game":"Team Fortress","app_id":440,"player_count":0,"max_players":24,"Bots":0,"server_type":"Dedicated","server_os":"Linux","password":true,"vac":true,"version":"7961495","steam_id":85568392924469982,"keywords":["nocrits","nodmgspread","payload","uncletopia"],"game_id":440,"stv_port":27016,"stv_name":"Uncletopia | Atlanta | 1 | All Maps | STV","players":null},{"server_id":104,"name":"Uncletopia | Atlanta | 2 | All Maps","name_short":"atl-2","host":"atl-1.us.uncletopia.com","port":27025,"enabled":true,"region":"us-east","cc":"us","latitude":33.753746,"longitude":-84.38633,"reserved":0,"last_update":"0001-01-01T00:00:00Z","name_a2s":"Uncletopia | Atlanta | 2 | All Maps","protocol":17,"map":"koth_viaduct","folder":"tf","game":"Team Fortress","app_id":440,"player_count":0,"max_players":24,"Bots":0,"server_type":"Dedicated","server_os":"Linux","password":true,"vac":true,"version":"7961495","steam_id":85568392924469983,"keywords":["cp","nocrits","nodmgspread","uncletopia"],"game_id":440,"stv_port":27026,"stv_name":"Uncletopia | Atlanta | 2 | All Maps | STV","players":null},{"server_id":400,"name":"Uncletopia | Atlanta | 3 | Stopwatch","name_short":"atl-3","host":"atl-1.us.uncletopia.com","port":27035,"enabled":true,"region":"us-east","cc":"us","latitude":33.753746,"longitude":-84.38633,"reserved":0,"last_update":"0001-01-01T00:00:00Z","name_a2s":"Uncletopia | Atlanta | 3 | Stopwatch","protocol":17,"map":"workshop/pl_badwater_pro_v12.ugc2142942074","folder":"tf","game":"Team Fortress","app_id":440,"player_count":0,"max_players":24,"Bots":0,"server_type":"Dedicated","server_os":"Linux","password":true,"vac":true,"version":"7961495","steam_id":85568392924515187,"keywords":["nocrits","nodmgspread","payload","uncletopia"],"game_id":440,"stv_port":27036,"stv_name":"Uncletopia | Atlanta | 3 | Stopwatch | STV","players":null},{"server_id":401,"name":"Uncletopia | Atlanta | 4 | Community","name_short":"atl-4","host":"atl-1.us.uncletopia.com","port":27045,"enabled":true,"region":"us-east","cc":"us","latitude":33.753746,"longitude":-84.38633,"reserved":0,"last_update":"0001-01-01T00:00:00Z","name_a2s":"Uncletopia | Atlanta | 4 | Community","protocol":17,"map":"workshop/cp_indulge.ugc528106646","folder":"tf","game":"Team Fortress","app_id":440,"player_count":0,"max_players":24,"Bots":0,"server_type":"Dedicated","server_os":"Linux","password":true,"vac":true,"version":"7961495","steam_id":85568392924515188,"keywords":["cp","nocrits","nodmgspread","uncletopia"],"game_id":440,"stv_port":27046,"stv_name":"Uncletopia | Atlanta | 4 | Community | STV","players":null},{"server_id":2,"name":"Uncletopia | Chicago | 1 | All Maps","name_short":"chi-1","host":"chi-1.us.uncletopia.com","port":27015,"enabled":true,"region":"us-central","cc":"us","latitude":41.881832,"longitude":-87.62318,"reserved":0,"last_update":"0001-01-01T00:00:00Z","name_a2s":"Uncletopia | Chicago | 1 | All Maps","protocol":17,"map":"koth_sawmill","folder":"tf","game":"Team Fortress","app_id":440,"player_count":0,"max_players":24,"Bots":0,"server_type":"Dedicated","server_os":"Linux","password":true,"vac":true,"version":"7961495","steam_id":85568392924469984,"keywords":["cp","nocrits","nodmgspread","uncletopia"],"game_id":440,"stv_port":27016,"stv_name":"Uncletopia | Chicago | 1 | All Maps | STV","players":null},{"server_id":106,"name":"Uncletopia | Chicago | 2 | All Maps","name_short":"chi-2","host":"chi-1.us.uncletopia.com","port":27025,"enabled":true,"region":"us-central","cc":"us","latitude":41.881832,"longitude":-87.62318,"reserved":0,"last_update":"0001-01-01T00:00:00Z","name_a2s":"Uncletopia | Chicago | 2 | All Maps","protocol":17,"map":"pl_pier","folder":"tf","game":"Team Fortress","app_id":440,"player_count":23,"max_players":24,"Bots":0,"server_type":"Dedicated","server_os":"Linux","password":true,"vac":true,"version":"7961495","steam_id":85568392924469985,"keywords":["nocrits","nodmgspread","payload","uncletopia"],"game_id":440,"stv_port":27026,"stv_name":"Uncletopia | Chicago | 2 | All Maps | STV","players":[{"user_id":757,"name":"Gargathor the Entity Catcher","steam_id":76561198189429665,"connected_time":2335000000000,"state":"active","ping":66},{"user_id":769,"name":"Female Gamer","steam_id":76561199366482682,"connected_time":1172000000000,"state":"active","ping":100},{"user_id":737,"name":"Bippums","steam_id":76561198366406729,"connected_time":3527000000000,"state":"active","ping":89},{"user_id":764,"name":"Am Da Best","steam_id":76561198163825955,"connected_time":1784000000000,"state":"active","ping":109},{"user_id":770,"name":"DigbyDots","steam_id":76561199161676519,"connected_time":1121000000000,"state":"active","ping":74},{"user_id":777,"name":"pea","steam_id":76561198057789647,"connected_time":497000000000,"state":"active","ping":89},{"user_id":751,"name":"family-friendly chainsaw man","steam_id":76561198007464245,"connected_time":2717000000000,"state":"active","ping":72},{"user_id":720,"name":"GOLDIE","steam_id":76561199375258674,"connected_time":5175000000000,"state":"active","ping":93},{"user_id":767,"name":"PTR","steam_id":76561198237253772,"connected_time":1184000000000,"state":"active","ping":64},{"user_id":733,"name":"coda","steam_id":76561198092052685,"connected_time":4207000000000,"state":"active","ping":60},{"user_id":745,"name":"TechnoNeko22","steam_id":76561198335866466,"connected_time":3094000000000,"state":"active","ping":78},{"user_id":740,"name":"Julian","steam_id":76561198975824400,"connected_time":3353000000000,"state":"active","ping":30},{"user_id":759,"name":"Mug","steam_id":76561198079396982,"connected_time":2107000000000,"state":"active","ping":59},{"user_id":768,"name":"Eric4bz","steam_id":76561198054439606,"connected_time":1183000000000,"state":"active","ping":114},{"user_id":758,"name":"eish","steam_id":76561198089463603,"connected_time":2295000000000,"state":"active","ping":128},{"user_id":778,"name":"HellaCopter","steam_id":76561198062313698,"connected_time":439000000000,"state":"active","ping":104},{"user_id":762,"name":"Bullahorns","steam_id":76561197997138052,"connected_time":1933000000000,"state":"active","ping":64},{"user_id":747,"name":"Shalien","steam_id":76561198154432765,"connected_time":3077000000000,"state":"active","ping":103},{"user_id":772,"name":"QuickJab","steam_id":76561198088891030,"connected_time":1094000000000,"state":"active","ping":61},{"user_id":776,"name":"Deluxe_Taco34","steam_id":76561199037653437,"connected_time":924000000000,"state":"active","ping":105},{"user_id":773,"name":"roman","steam_id":76561198170066797,"connected_time":1049000000000,"state":"active","ping":65},{"user_id":755,"name":"Watt Dafuq","steam_id":76561198194402925,"connected_time":2561000000000,"state":"active","ping":82},{"user_id":775,"name":"Icepick","steam_id":76561198271932892,"connected_time":943000000000,"state":"active","ping":53}]},{"server_id":402,"name":"Uncletopia | Chicago | 3 | All Maps","name_short":"chi-3","host":"chi-1.us.uncletopia.com","port":27035,"enabled":true,"region":"us-central","cc":"us","latitude":41.881832,"longitude":-87.62318,"reserved":0,"last_update":"0001-01-01T00:00:00Z","name_a2s":"Uncletopia | Chicago | 3 | All Maps","protocol":17,"map":"koth_suijin","folder":"tf","game":"Team Fortress","app_id":440,"player_count":0,"max_players":24,"Bots":0,"server_type":"Dedicated","server_os":"Linux","password":true,"vac":true,"version":"7961495","steam_id":85568392924515191,"keywords":["cp","nocrits","nodmgspread","uncletopia"],"game_id":440,"stv_port":27036,"stv_name":"Uncletopia | Chicago | 3 | All Maps | STV","players":null},{"server_id":403,"name":"Uncletopia | Chicago | 4 | All Maps","name_short":"chi-4","host":"chi-1.us.uncletopia.com","port":27045,"enabled":true,"region":"us-central","cc":"us","latitude":41.881832,"longitude":-87.62318,"reserved":0,"last_update":"0001-01-01T00:00:00Z","name_a2s":"Uncletopia | Chicago | 4 | All Maps","protocol":17,"map":"koth_viaduct","folder":"tf","game":"Team Fortress","app_id":440,"player_count":0,"max_players":24,"Bots":0,"server_type":"Dedicated","server_os":"Linux","password":true,"vac":true,"version":"7961495","steam_id":85568392924515193,"keywords":["cp","nocrits","nodmgspread","uncletopia"],"game_id":440,"stv_port":27046,"stv_name":"Uncletopia | Chicago | 4 | All Maps | STV","players":null},{"server_id":36,"name":"Uncletopia | Chicago | 5 | All Maps","name_short":"chi-5","host":"chi-2.us.uncletopia.com","port":27015,"enabled":true,"region":"us-central","cc":"us","latitude":41.881832,"longitude":-87.62318,"reserved":0,"last_update":"0001-01-01T00:00:00Z","name_a2s":"Uncletopia | Chicago | 5 | All Maps","protocol":17,"map":"pl_upward","folder":"tf","game":"Team Fortress","app_id":440,"player_count":0,"max_players":24,"Bots":0,"server_type":"Dedicated","server_os":"Linux","password":true,"vac":true,"version":"7961495","steam_id":85568392924866362,"keywords":["nocrits","nodmgspread","payload","uncletopia"],"game_id":440,"stv_port":27016,"stv_name":"Uncletopia | Chicago | 5 | All Maps | STV","players":null},{"server_id":37,"name":"Uncletopia | Chicago | 6 | All Maps","name_short":"chi-6","host":"chi-2.us.uncletopia.com","port":27025,"enabled":true,"region":"us-central","cc":"us","latitude":41.881832,"longitude":-87.62318,"reserved":0,"last_update":"0001-01-01T00:00:00Z","name_a2s":"Uncletopia | Chicago | 6 | All Maps","protocol":17,"map":"pl_badwater","folder":"tf","game":"Team Fortress","app_id":440,"player_count":0,"max_players":24,"Bots":0,"server_type":"Dedicated","server_os":"Linux","password":true,"vac":true,"version":"7961495","steam_id":85568392924866363,"keywords":["nocrits","nodmgspread","payload","uncletopia"],"game_id":440,"stv_port":27026,"stv_name":"Uncletopia | Chicago | 6 | All Maps | STV","players":null},{"server_id":38,"name":"Uncletopia | Chicago | 7 | Stopwatch","name_short":"chi-7","host":"chi-2.us.uncletopia.com","port":27035,"enabled":true,"region":"us-central","cc":"us","latitude":41.881832,"longitude":-87.62318,"reserved":0,"last_update":"0001-01-01T00:00:00Z","name_a2s":"Uncletopia | Chicago | 7 | Stopwatch","protocol":17,"map":"koth_lakeside_final","folder":"tf","game":"Team Fortress","app_id":440,"player_count":0,"max_players":24,"Bots":0,"server_type":"Dedicated","server_os":"Linux","password":true,"vac":true,"version":"7961495","steam_id":85568392924866364,"keywords":["cp","nocrits","nodmgspread","uncletopia"],"game_id":440,"stv_port":27036,"stv_name":"Uncletopia | Chicago | 7 | Stopwatch | STV","players":null},{"server_id":39,"name":"Uncletopia | Chicago | 8 | Community","name_short":"chi-8","host":"chi-2.us.uncletopia.com","port":27045,"enabled":true,"region":"us-central","cc":"us","latitude":41.881832,"longitude":-87.62318,"reserved":0,"last_update":"0001-01-01T00:00:00Z","name_a2s":"Uncletopia | Chicago | 8 | Community","protocol":17,"map":"workshop/pl_fifthcurve_rc1.ugc648227046","folder":"tf","game":"Team Fortress","app_id":440,"player_count":0,"max_players":24,"Bots":0,"server_type":"Dedicated","server_os":"Linux","password":true,"vac":true,"version":"7961495","steam_id":85568392924866365,"keywords":["nocrits","nodmgspread","payload","uncletopia"],"game_id":440,"stv_port":27046,"stv_name":"Uncletopia | Chicago | 8 | Community | STV","players":null},{"server_id":8,"name":"Uncletopia | Dallas | 1 | All Maps","name_short":"dal-1","host":"dal-1.us.uncletopia.com","port":27015,"enabled":true,"region":"us-central","cc":"us","latitude":32.779167,"longitude":-96.80889,"reserved":0,"last_update":"0001-01-01T00:00:00Z","name_a2s":"Uncletopia | Dallas | 1 | All Maps","protocol":17,"map":"pl_barnblitz","folder":"tf","game":"Team Fortress","app_id":440,"player_count":24,"max_players":24,"Bots":0,"server_type":"Dedicated","server_os":"Linux","password":true,"vac":true,"version":"7961495","steam_id":85568392924469986,"keywords":["nocrits","nodmgspread","payload","uncletopia"],"game_id":440,"stv_port":27016,"stv_name":"Uncletopia | Dallas | 1 | All Maps | STV","players":[{"user_id":720,"name":"canadian birds","steam_id":76561198059466588,"connected_time":6071000000000,"state":"active","ping":85},{"user_id":802,"name":"Lore","steam_id":76561198098407538,"connected_time":1004000000000,"state":"active","ping":67},{"user_id":746,"name":"tsz","steam_id":76561199246231090,"connected_time":4178000000000,"state":"active","ping":82},{"user_id":787,"name":"SgtSardine","steam_id":76561198254729868,"connected_time":1971000000000,"state":"active","ping":82},{"user_id":790,"name":"zig","steam_id":76561199020345303,"connected_time":1646000000000,"state":"active","ping":89},{"user_id":735,"name":"Haven","steam_id":76561198087584756,"connected_time":4545000000000,"state":"active","ping":101},{"user_id":810,"name":"eepy kitty uwu","steam_id":76561198106313563,"connected_time":74000000000,"state":"active","ping":77},{"user_id":792,"name":"look at me hector","steam_id":76561198168492250,"connected_time":1439000000000,"state":"active","ping":82},{"user_id":791,"name":"playguy carter","steam_id":76561198080679337,"connected_time":1483000000000,"state":"active","ping":78},{"user_id":806,"name":"Quantify","steam_id":76561198044400135,"connected_time":803000000000,"state":"active","ping":90},{"user_id":779,"name":"Engideer","steam_id":76561198145733164,"connected_time":2558000000000,"state":"active","ping":44},{"user_id":807,"name":"baldo","steam_id":76561198178431338,"connected_time":792000000000,"state":"active","ping":68},{"user_id":769,"name":"Pingu","steam_id":76561198170716714,"connected_time":2889000000000,"state":"active","ping":106},{"user_id":722,"name":"CowMilkingMoth","steam_id":76561198047607935,"connected_time":6036000000000,"state":"active","ping":74},{"user_id":741,"name":"Eloi","steam_id":76561198081193565,"connected_time":4285000000000,"state":"active","ping":59},{"user_id":811,"name":"Kill la Kill Me Pls","steam_id":76561198041304434,"connected_time":20000000000,"state":"active","ping":75},{"user_id":788,"name":"MungJR","steam_id":76561198078316612,"connected_time":1824000000000,"state":"active","ping":209},{"user_id":800,"name":"rexelfhcir","steam_id":76561199018207049,"connected_time":1185000000000,"state":"active","ping":70},{"user_id":728,"name":"START PRAYIN BOY","steam_id":76561198089173996,"connected_time":5556000000000,"state":"active","ping":97},{"user_id":794,"name":"moomin","steam_id":76561198336244269,"connected_time":1432000000000,"state":"active","ping":104},{"user_id":782,"name":"Big Honk","steam_id":76561198268755194,"connected_time":2510000000000,"state":"active","ping":85},{"user_id":744,"name":"GoldtoothFour","steam_id":76561198055529332,"connected_time":4248000000000,"state":"active","ping":79},{"user_id":795,"name":"TEAM FORTRESS 2","steam_id":76561198819943354,"connected_time":1407000000000,"state":"active","ping":57},{"user_id":745,"name":"RLLwB","steam_id":76561198021132868,"connected_time":4240000000000,"state":"active","ping":54}]},{"server_id":108,"name":"Uncletopia | Dallas | 2 | All Maps","name_short":"dal-2","host":"dal-1.us.uncletopia.com","port":27025,"enabled":true,"region":"us-central","cc":"us","latitude":32.779167,"longitude":-96.80889,"reserved":0,"last_update":"0001-01-01T00:00:00Z","name_a2s":"Uncletopia | Dallas | 2 | All Maps","protocol":17,"map":"pl_swiftwater_final1","folder":"tf","game":"Team Fortress","app_id":440,"player_count":0,"max_players":24,"Bots":0,"server_type":"Dedicated","server_os":"Linux","password":true,"vac":true,"version":"7961495","steam_id":85568392924469988,"keywords":["nocrits","nodmgspread","payload","uncletopia"],"game_id":440,"stv_port":27026,"stv_name":"Uncletopia | Dallas | 2 | All Maps | STV","players":null},{"server_id":404,"name":"Uncletopia | Dallas | 3 | All Maps","name_short":"dal-3","host":"dal-1.us.uncletopia.com","port":27035,"enabled":true,"region":"us-central","cc":"us","latitude":32.779167,"longitude":-96.80889,"reserved":0,"last_update":"0001-01-01T00:00:00Z","name_a2s":"Uncletopia | Dallas | 3 | All Maps","protocol":17,"map":"pl_badwater","folder":"tf","game":"Team Fortress","app_id":440,"player_count":24,"max_players":24,"Bots":0,"server_type":"Dedicated","server_os":"Linux","password":true,"vac":true,"version":"7961495","steam_id":85568392924515219,"keywords":["nocrits","nodmgspread","payload","uncletopia"],"game_id":440,"stv_port":27036,"stv_name":"Uncletopia | Dallas | 3 | All Maps | STV","players":[{"user_id":443,"name":"BIG HOG","steam_id":76561198079923652,"connected_time":2022000000000,"state":"active","ping":45},{"user_id":463,"name":"Luna Crying","steam_id":76561198152593322,"connected_time":245000000000,"state":"active","ping":74},{"user_id":453,"name":"ZyluxLynx","steam_id":76561198268442856,"connected_time":895000000000,"state":"active","ping":57},{"user_id":429,"name":"Untermensch","steam_id":76561198149634242,"connected_time":2525000000000,"state":"active","ping":90},{"user_id":437,"name":"/\\","steam_id":76561198045522596,"connected_time":2271000000000,"state":"active","ping":88},{"user_id":447,"name":"Breakaway","steam_id":76561198089308523,"connected_time":1190000000000,"state":"active","ping":99},{"user_id":464,"name":"Persona404","steam_id":76561198109635077,"connected_time":37000000000,"state":"spawning","ping":110},{"user_id":454,"name":"Toxic Medic Main (he/they)","steam_id":76561198009314845,"connected_time":847000000000,"state":"active","ping":104},{"user_id":358,"name":"woooflet","steam_id":76561199208387179,"connected_time":7437000000000,"state":"active","ping":45},{"user_id":450,"name":"Criticem","steam_id":76561198397500212,"connected_time":997000000000,"state":"active","ping":88},{"user_id":431,"name":"Jtf_1o1","steam_id":76561198319835708,"connected_time":2405000000000,"state":"active","ping":88},{"user_id":455,"name":"SharkChapeau","steam_id":76561198111743234,"connected_time":840000000000,"state":"active","ping":99},{"user_id":441,"name":"lil hog","steam_id":76561199230929836,"connected_time":2208000000000,"state":"active","ping":70},{"user_id":439,"name":"Mufalito","steam_id":76561198951889482,"connected_time":2242000000000,"state":"active","ping":134},{"user_id":433,"name":"Hatchitis","steam_id":76561198320346037,"connected_time":2358000000000,"state":"active","ping":95},{"user_id":440,"name":"Albino Jellyfish","steam_id":76561198208561097,"connected_time":2238000000000,"state":"active","ping":74},{"user_id":435,"name":"zpalmtree","steam_id":76561198134307620,"connected_time":2331000000000,"state":"active","ping":75},{"user_id":451,"name":"Skip Hop Doo Bop","steam_id":76561199161571849,"connected_time":989000000000,"state":"active","ping":89},{"user_id":462,"name":"Toon","steam_id":76561198227601072,"connected_time":567000000000,"state":"active","ping":45},{"user_id":459,"name":"Wilma","steam_id":76561198138420251,"connected_time":704000000000,"state":"active","ping":89},{"user_id":460,"name":"Team Fartpiss Poo","steam_id":76561199163591880,"connected_time":702000000000,"state":"active","ping":106},{"user_id":424,"name":"Doylin","steam_id":76561198113413927,"connected_time":3159000000000,"state":"active","ping":115},{"user_id":442,"name":"who ate the cheese","steam_id":76561198275408467,"connected_time":2177000000000,"state":"active","ping":50},{"user_id":461,"name":"arsenicCatnip","steam_id":76561198322969864,"connected_time":701000000000,"state":"active","ping":102}]},{"server_id":405,"name":"Uncletopia | Dallas | 4 | Community","name_short":"dal-4","host":"dal-1.us.uncletopia.com","port":27045,"enabled":true,"region":"us-central","cc":"us","latitude":32.779167,"longitude":-96.80889,"reserved":0,"last_update":"0001-01-01T00:00:00Z","name_a2s":"Uncletopia | Dallas | 4 | Community","protocol":17,"map":"workshop/pl_cashworks_final1.ugc2904065412","folder":"tf","game":"Team Fortress","app_id":440,"player_count":0,"max_players":24,"Bots":0,"server_type":"Dedicated","server_os":"Linux","password":true,"vac":true,"version":"7961495","steam_id":85568392924515220,"keywords":["nocrits","nodmgspread","payload","uncletopia"],"game_id":440,"stv_port":27046,"stv_name":"Uncletopia | Dallas | 4 | Community | STV","players":null},{"server_id":5,"name":"Uncletopia | Frankfurt | 1 | All Maps","name_short":"frk-1","host":"frk-1.de.uncletopia.com","port":27015,"enabled":true,"region":"eu","cc":"de","latitude":50.110924,"longitude":8.682127,"reserved":0,"last_update":"0001-01-01T00:00:00Z","name_a2s":"Uncletopia | Frankfurt | 1 | All Maps","protocol":17,"map":"koth_highpass","folder":"tf","game":"Team Fortress","app_id":440,"player_count":0,"max_players":24,"Bots":0,"server_type":"Dedicated","server_os":"Linux","password":true,"vac":true,"version":"7961495","steam_id":85568392924469989,"keywords":["cp","nocrits","nodmgspread","uncletopia"],"game_id":440,"stv_port":27016,"stv_name":"Uncletopia | Frankfurt | 1 | All Maps | STV","players":null},{"server_id":110,"name":"Uncletopia | Frankfurt | 2 | All Maps","name_short":"frk-2","host":"frk-1.de.uncletopia.com","port":27025,"enabled":true,"region":"eu","cc":"de","latitude":50.110924,"longitude":8.682127,"reserved":0,"last_update":"0001-01-01T00:00:00Z","name_a2s":"Uncletopia | Frankfurt | 2 | All Maps","protocol":17,"map":"cp_dustbowl","folder":"tf","game":"Team Fortress","app_id":440,"player_count":0,"max_players":24,"Bots":0,"server_type":"Dedicated","server_os":"Linux","password":true,"vac":true,"version":"7961495","steam_id":85568392924469990,"keywords":["cp","nocrits","nodmgspread","uncletopia"],"game_id":440,"stv_port":27026,"stv_name":"Uncletopia | Frankfurt | 2 | All Maps | STV","players":null},{"server_id":308,"name":"Uncletopia | Frankfurt | 3 | All Maps","name_short":"frk-3","host":"frk-1.de.uncletopia.com","port":27035,"enabled":true,"region":"eu","cc":"de","latitude":50.110924,"longitude":8.682127,"reserved":0,"last_update":"0001-01-01T00:00:00Z","name_a2s":"Uncletopia | Frankfurt | 3 | All Maps","protocol":17,"map":"pl_barnblitz","folder":"tf","game":"Team Fortress","app_id":440,"player_count":0,"max_players":24,"Bots":0,"server_type":"Dedicated","server_os":"Linux","password":true,"vac":true,"version":"7961495","steam_id":85568392924504274,"keywords":["nocrits","nodmgspread","payload","uncletopia"],"game_id":440,"stv_port":27036,"stv_name":"Uncletopia | Frankfurt | 3 | All Maps | STV","players":null},{"server_id":309,"name":"Uncletopia | Frankfurt | 4 | All Maps","name_short":"frk-4","host":"frk-1.de.uncletopia.com","port":27045,"enabled":true,"region":"eu","cc":"de","latitude":50.110924,"longitude":8.682127,"reserved":0,"last_update":"0001-01-01T00:00:00Z","name_a2s":"Uncletopia | Frankfurt | 4 | All Maps","protocol":17,"map":"koth_highpass","folder":"tf","game":"Team Fortress","app_id":440,"player_count":0,"max_players":24,"Bots":0,"server_type":"Dedicated","server_os":"Linux","password":true,"vac":true,"version":"7961495","steam_id":85568392924504275,"keywords":["cp","nocrits","nodmgspread","uncletopia"],"game_id":440,"stv_port":27046,"stv_name":"Uncletopia | Frankfurt | 4 | All Maps | STV","players":null},{"server_id":310,"name":"Uncletopia | Frankfurt | 5 | All Maps","name_short":"frk-5","host":"frk-1.de.uncletopia.com","port":27055,"enabled":true,"region":"eu","cc":"de","latitude":50.110924,"longitude":8.682127,"reserved":0,"last_update":"0001-01-01T00:00:00Z","name_a2s":"Uncletopia | Frankfurt | 5 | All Maps","protocol":17,"map":"pl_badwater","folder":"tf","game":"Team Fortress","app_id":440,"player_count":0,"max_players":24,"Bots":0,"server_type":"Dedicated","server_os":"Linux","password":true,"vac":true,"version":"7961495","steam_id":85568392924504277,"keywords":["nocrits","nodmgspread","payload","uncletopia"],"game_id":440,"stv_port":27056,"stv_name":"Uncletopia | Frankfurt | 5 | All Maps | STV","players":null},{"server_id":311,"name":"Uncletopia | Frankfurt | 6 | All Maps","name_short":"frk-6","host":"frk-1.de.uncletopia.com","port":27065,"enabled":true,"region":"eu","cc":"de","latitude":50.110924,"longitude":8.682127,"reserved":0,"last_update":"0001-01-01T00:00:00Z","name_a2s":"Uncletopia | Frankfurt | 6 | All Maps","protocol":17,"map":"cp_altitude","folder":"tf","game":"Team Fortress","app_id":440,"player_count":1,"max_players":24,"Bots":0,"server_type":"Dedicated","server_os":"Linux","password":true,"vac":true,"version":"7961495","steam_id":85568392924504278,"keywords":["cp","nocrits","nodmgspread","uncletopia"],"game_id":440,"stv_port":27066,"stv_name":"Uncletopia | Frankfurt | 6 | All Maps | STV","players":[{"user_id":3,"name":"Citler","steam_id":76561199115241703,"connected_time":405000000000,"state":"active","ping":82}]},{"server_id":23,"name":"Uncletopia | Frankfurt | 7 | Stopwatch","name_short":"frk-7","host":"frk-1.de.uncletopia.com","port":27075,"enabled":true,"region":"eu","cc":"de","latitude":50.110924,"longitude":8.682127,"reserved":0,"last_update":"0001-01-01T00:00:00Z","name_a2s":"Uncletopia | Frankfurt | 7 | Stopwatch","protocol":17,"map":"pl_frontier_final","folder":"tf","game":"Team Fortress","app_id":440,"player_count":0,"max_players":24,"Bots":0,"server_type":"Dedicated","server_os":"Linux","password":true,"vac":true,"version":"7961495","steam_id":85568392924742827,"keywords":["nocrits","nodmgspread","payload","uncletopia"],"game_id":440,"stv_port":27076,"stv_name":"Uncletopia | Frankfurt | 7 | Stopwatch | STV","players":null},{"server_id":24,"name":"Uncletopia | Frankfurt | 8 | Community","name_short":"frk-8","host":"frk-1.de.uncletopia.com","port":27085,"enabled":true,"region":"eu","cc":"de","latitude":50.110924,"longitude":8.682127,"reserved":0,"last_update":"0001-01-01T00:00:00Z","name_a2s":"Uncletopia | Frankfurt | 8 | Community","protocol":17,"map":"cp_mountainlab","folder":"tf","game":"Team Fortress","app_id":440,"player_count":0,"max_players":24,"Bots":0,"server_type":"Dedicated","server_os":"Linux","password":true,"vac":true,"version":"7961495","steam_id":85568392924742828,"keywords":["cp","nocrits","nodmgspread","uncletopia"],"game_id":440,"stv_port":27086,"stv_name":"Uncletopia | Frankfurt | 8 | Community | STV","players":null},{"server_id":202,"name":"Uncletopia | Hong Kong | 1 | All Maps","name_short":"hgk-1","host":"hgk-1.hk.uncletopia.com","port":27015,"enabled":true,"region":"asia","cc":"hk","latitude":22.302711,"longitude":114.177216,"reserved":0,"last_update":"0001-01-01T00:00:00Z","name_a2s":"Uncletopia | Hong Kong | 1 | All Maps","protocol":17,"map":"pl_barnblitz","folder":"tf","game":"Team Fortress","app_id":440,"player_count":24,"max_players":24,"Bots":0,"server_type":"Dedicated","server_os":"Linux","password":true,"vac":true,"version":"7961495","steam_id":85568392924494504,"keywords":["nocrits","nodmgspread","payload","uncletopia"],"game_id":440,"stv_port":27016,"stv_name":"Uncletopia | Hong Kong | 1 | All Maps | STV","players":[{"user_id":153,"name":"small beaver the 2nd","steam_id":76561199219484527,"connected_time":2753000000000,"state":"active","ping":166},{"user_id":123,"name":"allMAX","steam_id":76561198270980670,"connected_time":6067000000000,"state":"active","ping":100},{"user_id":155,"name":"Butt_grater","steam_id":76561198929466103,"connected_time":2362000000000,"state":"active","ping":70},{"user_id":83,"name":"[Sicky] I twin-charged your kid","steam_id":76561198228084940,"connected_time":8089000000000,"state":"active","ping":43},{"user_id":144,"name":"pyroman51","steam_id":76561198074339034,"connected_time":4024000000000,"state":"active","ping":75},{"user_id":168,"name":"Shades on Goggles","steam_id":76561198406067629,"connected_time":1168000000000,"state":"active","ping":134},{"user_id":86,"name":"marisaloses","steam_id":76561199033032870,"connected_time":7944000000000,"state":"active","ping":117},{"user_id":127,"name":"2746","steam_id":76561199390507975,"connected_time":5922000000000,"state":"active","ping":52},{"user_id":172,"name":"owl","steam_id":76561198088403016,"connected_time":393000000000,"state":"active","ping":99},{"user_id":166,"name":"Tofie","steam_id":76561198154310138,"connected_time":1206000000000,"state":"active","ping":55},{"user_id":152,"name":"screaming sniper","steam_id":76561199085568674,"connected_time":2960000000000,"state":"active","ping":63},{"user_id":173,"name":"esti","steam_id":76561198040744676,"connected_time":102000000000,"state":"active","ping":96},{"user_id":145,"name":"GRim","steam_id":76561197998422082,"connected_time":3911000000000,"state":"active","ping":105},{"user_id":161,"name":"★a̲c̲a̲t̲","steam_id":76561198334099003,"connected_time":1972000000000,"state":"active","ping":126},{"user_id":160,"name":"Crybleat","steam_id":76561199277317248,"connected_time":2102000000000,"state":"active","ping":60},{"user_id":118,"name":"14","steam_id":76561198113401862,"connected_time":6303000000000,"state":"active","ping":87},{"user_id":162,"name":"Popolor","steam_id":76561198134861914,"connected_time":1887000000000,"state":"active","ping":73},{"user_id":167,"name":"Jeffe","steam_id":76561198071317211,"connected_time":1192000000000,"state":"active","ping":103},{"user_id":171,"name":"⬞","steam_id":76561199373637717,"connected_time":794000000000,"state":"active","ping":71},{"user_id":170,"name":"HIGHSSTN","steam_id":76561198131270946,"connected_time":1129000000000,"state":"active","ping":104},{"user_id":90,"name":"MS PowerPoint","steam_id":76561198369523192,"connected_time":7722000000000,"state":"active","ping":65},{"user_id":164,"name":"∑F = ma","steam_id":76561198299537444,"connected_time":1719000000000,"state":"active","ping":113},{"user_id":165,"name":"Potato Is a Fruit #SaveTF2","steam_id":76561199022344799,"connected_time":1646000000000,"state":"active","ping":182},{"user_id":136,"name":"Ivy","steam_id":76561198400698408,"connected_time":4660000000000,"state":"active","ping":93}]},{"server_id":1,"name":"Uncletopia | Los Angeles | 1 | All Maps","name_short":"lax-1","host":"lax-1.us.uncletopia.com","port":27015,"enabled":true,"region":"us-west","cc":"us","latitude":33.94279,"longitude":-118.41004,"reserved":0,"last_update":"0001-01-01T00:00:00Z","name_a2s":"Uncletopia | Los Angeles | 1 | All Maps","protocol":17,"map":"cp_dustbowl","folder":"tf","game":"Team Fortress","app_id":440,"player_count":24,"max_players":24,"Bots":0,"server_type":"Dedicated","server_os":"Linux","password":true,"vac":true,"version":"7961495","steam_id":85568392924469991,"keywords":["cp","nocrits","nodmgspread","uncletopia"],"game_id":440,"stv_port":27016,"stv_name":"Uncletopia | Los Angeles | 1 | All Maps | STV","players":[{"user_id":257,"name":"monkey squirts","steam_id":76561197983101644,"connected_time":2237000000000,"state":"active","ping":43},{"user_id":246,"name":"chesterwnimitz","steam_id":76561198062664377,"connected_time":3536000000000,"state":"active","ping":90},{"user_id":300,"name":"ThatOneGuy","steam_id":76561198416902755,"connected_time":272000000000,"state":"active","ping":69},{"user_id":244,"name":"Mickey","steam_id":76561198030895697,"connected_time":3836000000000,"state":"active","ping":40},{"user_id":296,"name":"DankeyDang","steam_id":76561198299798796,"connected_time":402000000000,"state":"active","ping":53},{"user_id":294,"name":"Ian","steam_id":76561198159334435,"connected_time":559000000000,"state":"active","ping":167},{"user_id":287,"name":"KrylonHeretic","steam_id":76561198139811459,"connected_time":885000000000,"state":"active","ping":74},{"user_id":291,"name":"Turrón","steam_id":76561198272381217,"connected_time":720000000000,"state":"active","ping":60},{"user_id":261,"name":"RC","steam_id":76561198048127881,"connected_time":2214000000000,"state":"active","ping":48},{"user_id":252,"name":"a chicken","steam_id":76561198313121580,"connected_time":2891000000000,"state":"active","ping":47},{"user_id":288,"name":"Genius Meme","steam_id":76561198162911254,"connected_time":878000000000,"state":"active","ping":70},{"user_id":292,"name":"Windows Vista Home Premium","steam_id":76561198043764863,"connected_time":707000000000,"state":"active","ping":52},{"user_id":235,"name":"roach","steam_id":76561198354811369,"connected_time":4276000000000,"state":"active","ping":46},{"user_id":281,"name":"danEY","steam_id":76561198049857596,"connected_time":1380000000000,"state":"active","ping":57},{"user_id":224,"name":"Foreplay","steam_id":76561198097871363,"connected_time":5102000000000,"state":"active","ping":54},{"user_id":266,"name":"lol","steam_id":76561198026491738,"connected_time":2117000000000,"state":"active","ping":59},{"user_id":248,"name":"(° ͜   °)","steam_id":76561198064273568,"connected_time":3235000000000,"state":"active","ping":45},{"user_id":267,"name":"A class hero","steam_id":76561198066091050,"connected_time":2114000000000,"state":"active","ping":77},{"user_id":299,"name":"Scoops M'Gooch","steam_id":76561198048423812,"connected_time":361000000000,"state":"active","ping":60},{"user_id":276,"name":"IT WAS 3-1","steam_id":76561198355975688,"connected_time":1541000000000,"state":"active","ping":93},{"user_id":240,"name":"Whisper!","steam_id":76561198119609795,"connected_time":4115000000000,"state":"active","ping":57},{"user_id":283,"name":"The Senate","steam_id":76561198143882626,"connected_time":1097000000000,"state":"active","ping":89},{"user_id":289,"name":"ydanay","steam_id":76561198088375486,"connected_time":869000000000,"state":"active","ping":44},{"user_id":284,"name":"Sly_1087.TTV","steam_id":76561198188900013,"connected_time":964000000000,"state":"active","ping":116}]},{"server_id":112,"name":"Uncletopia | Los Angeles | 2 | All Maps","name_short":"lax-2","host":"lax-1.us.uncletopia.com","port":27025,"enabled":true,"region":"us-west","cc":"us","latitude":33.94279,"longitude":-118.41004,"reserved":0,"last_update":"0001-01-01T00:00:00Z","name_a2s":"Uncletopia | Los Angeles | 2 | All Maps","protocol":17,"map":"pl_pier","folder":"tf","game":"Team Fortress","app_id":440,"player_count":24,"max_players":24,"Bots":0,"server_type":"Dedicated","server_os":"Linux","password":true,"vac":true,"version":"7961495","steam_id":85568392924469992,"keywords":["nocrits","nodmgspread","payload","uncletopia"],"game_id":440,"stv_port":27026,"stv_name":"Uncletopia | Los Angeles | 2 | All Maps | STV","players":[{"user_id":681,"name":"A Little Guy","steam_id":76561198142464684,"connected_time":698000000000,"state":"active","ping":92},{"user_id":682,"name":"Ice","steam_id":76561198045076794,"connected_time":608000000000,"state":"active","ping":100},{"user_id":685,"name":"FI LO","steam_id":76561198976530881,"connected_time":554000000000,"state":"active","ping":40},{"user_id":675,"name":"::Egan::","steam_id":76561198001342103,"connected_time":1652000000000,"state":"active","ping":59},{"user_id":652,"name":"adapt","steam_id":76561198156181017,"connected_time":2387000000000,"state":"active","ping":56},{"user_id":635,"name":"Lumberjane37 (She/Her)","steam_id":76561198014841793,"connected_time":3682000000000,"state":"active","ping":64},{"user_id":684,"name":"tgirl swag","steam_id":76561198128164970,"connected_time":569000000000,"state":"active","ping":50},{"user_id":655,"name":"A_Un1t_0","steam_id":76561197966223353,"connected_time":2362000000000,"state":"active","ping":42},{"user_id":666,"name":"Arunika","steam_id":76561198167528004,"connected_time":1967000000000,"state":"active","ping":73},{"user_id":686,"name":"Skribbles","steam_id":76561198373073766,"connected_time":540000000000,"state":"active","ping":57},{"user_id":671,"name":"Wgooch","steam_id":76561197970952943,"connected_time":1855000000000,"state":"active","ping":61},{"user_id":638,"name":"sleepy⊹","steam_id":76561199200969139,"connected_time":3520000000000,"state":"active","ping":113},{"user_id":687,"name":"No More What Ifs","steam_id":76561198410957728,"connected_time":511000000000,"state":"active","ping":99},{"user_id":659,"name":"Vitae Kakon","steam_id":76561198307440313,"connected_time":2282000000000,"state":"active","ping":57},{"user_id":688,"name":"Creature","steam_id":76561198194585781,"connected_time":486000000000,"state":"active","ping":77},{"user_id":641,"name":"HumbDoe","steam_id":76561198065556553,"connected_time":3444000000000,"state":"active","ping":65},{"user_id":689,"name":"Panzer Vor","steam_id":76561198435091099,"connected_time":483000000000,"state":"active","ping":72},{"user_id":667,"name":"Gary Sinfeld","steam_id":76561198042274074,"connected_time":1951000000000,"state":"active","ping":73},{"user_id":690,"name":"grape juice -rng","steam_id":76561198093829623,"connected_time":469000000000,"state":"active","ping":79},{"user_id":589,"name":"blozet","steam_id":76561199120161035,"connected_time":8430000000000,"state":"active","ping":112},{"user_id":644,"name":"Boxcars","steam_id":76561198120978767,"connected_time":3407000000000,"state":"active","ping":56},{"user_id":680,"name":"Cashew","steam_id":76561197999906214,"connected_time":1021000000000,"state":"active","ping":51},{"user_id":649,"name":"Cat on the Moon","steam_id":76561198272661627,"connected_time":2689000000000,"state":"active","ping":52},{"user_id":677,"name":"Fidel Castro","steam_id":76561199057899661,"connected_time":1639000000000,"state":"active","ping":164}]},{"server_id":324,"name":"Uncletopia | Los Angeles | 3 | All Maps","name_short":"lax-3","host":"lax-1.us.uncletopia.com","port":27035,"enabled":true,"region":"us-west","cc":"us","latitude":33.94279,"longitude":-118.41004,"reserved":0,"last_update":"0001-01-01T00:00:00Z","name_a2s":"Uncletopia | Los Angeles | 3 | All Maps","protocol":17,"map":"koth_viaduct","folder":"tf","game":"Team Fortress","app_id":440,"player_count":2,"max_players":24,"Bots":0,"server_type":"Dedicated","server_os":"Linux","password":true,"vac":true,"version":"7961495","steam_id":85568392924510198,"keywords":["cp","nocrits","nodmgspread","uncletopia"],"game_id":440,"stv_port":27036,"stv_name":"Uncletopia | Los Angeles | 3 | All Maps | STV","players":[{"user_id":34,"name":"XenPie","steam_id":76561198814382153,"connected_time":1298000000000,"state":"active","ping":54},{"user_id":35,"name":"Ebby","steam_id":76561198124284351,"connected_time":1296000000000,"state":"active","ping":101}]},{"server_id":25,"name":"Uncletopia | Los Angeles | 4 | Stopwatch","name_short":"lax-4","host":"lax-1.us.uncletopia.com","port":27045,"enabled":true,"region":"us-west","cc":"us","latitude":33.94279,"longitude":-118.41004,"reserved":0,"last_update":"0001-01-01T00:00:00Z","name_a2s":"Uncletopia | Los Angeles | 4 | Stopwatch","protocol":17,"map":"workshop/koth_bagel_rc6.ugc2514036946","folder":"tf","game":"Team Fortress","app_id":440,"player_count":0,"max_players":24,"Bots":0,"server_type":"Dedicated","server_os":"Linux","password":true,"vac":true,"version":"7961495","steam_id":85568392924510199,"keywords":["cp","nocrits","nodmgspread","uncletopia"],"game_id":440,"stv_port":27046,"stv_name":"Uncletopia | Los Angeles | 4 | Stopwatch | STV","players":null},{"server_id":11,"name":"Uncletopia | London | 1 | All Maps","name_short":"lon-1","host":"lon-1.uk.uncletopia.com","port":27015,"enabled":true,"region":"eu","cc":"gb","latitude":51.509865,"longitude":-0.118092,"reserved":0,"last_update":"0001-01-01T00:00:00Z","name_a2s":"Uncletopia | London | 1 | All Maps","protocol":17,"map":"pl_borneo","folder":"tf","game":"Team Fortress","app_id":440,"player_count":19,"max_players":24,"Bots":0,"server_type":"Dedicated","server_os":"Linux","password":true,"vac":true,"version":"7961495","steam_id":85568392924367362,"keywords":["nocrits","nodmgspread","payload","uncletopia"],"game_id":440,"stv_port":27016,"stv_name":"Uncletopia | London | 1 | All Maps | STV","players":[{"user_id":116,"name":"Alcohol Hominid","steam_id":76561198320313950,"connected_time":152000000000,"state":"active","ping":159},{"user_id":64,"name":"Barry Bee Benson","steam_id":76561198115199225,"connected_time":4633000000000,"state":"active","ping":51},{"user_id":96,"name":"John Bee","steam_id":76561198188756719,"connected_time":1347000000000,"state":"active","ping":57},{"user_id":114,"name":"Beemo","steam_id":76561198158818775,"connected_time":305000000000,"state":"active","ping":58},{"user_id":115,"name":"Dani","steam_id":76561198211627920,"connected_time":304000000000,"state":"active","ping":75},{"user_id":101,"name":"Largo","steam_id":76561198844368927,"connected_time":1172000000000,"state":"active","ping":70},{"user_id":117,"name":"patrick","steam_id":76561198119167317,"connected_time":123000000000,"state":"active","ping":53},{"user_id":118,"name":"Jouppi","steam_id":76561198063725468,"connected_time":42000000000,"state":"active","ping":99},{"user_id":97,"name":"Pico","steam_id":76561198063552545,"connected_time":1340000000000,"state":"active","ping":107},{"user_id":94,"name":"dongy","steam_id":76561198050319619,"connected_time":1440000000000,"state":"active","ping":59},{"user_id":109,"name":"Maks","steam_id":76561198315278876,"connected_time":792000000000,"state":"active","ping":66},{"user_id":119,"name":"scott steiners strongest warrio","steam_id":76561198148888622,"connected_time":3000000000,"state":"spawning","ping":49},{"user_id":102,"name":"CHELOVEK_YAYCA","steam_id":76561198165428648,"connected_time":1151000000000,"state":"active","ping":105},{"user_id":91,"name":"Pixelpete_","steam_id":76561198272574265,"connected_time":1629000000000,"state":"active","ping":54},{"user_id":87,"name":"noseb","steam_id":76561199480942903,"connected_time":1888000000000,"state":"active","ping":72},{"user_id":110,"name":"Average Chinese Man","steam_id":76561199076883472,"connected_time":753000000000,"state":"active","ping":84},{"user_id":77,"name":"Pepsii","steam_id":76561198145677550,"connected_time":3200000000000,"state":"active","ping":42},{"user_id":107,"name":"Dim","steam_id":76561198141549249,"connected_time":916000000000,"state":"active","ping":142},{"user_id":103,"name":"Proud Owner of a Sittable Face","steam_id":76561198060735383,"connected_time":1088000000000,"state":"active","ping":94}]},{"server_id":114,"name":"Uncletopia | London | 2 | All Maps","name_short":"lon-2","host":"lon-1.uk.uncletopia.com","port":27025,"enabled":true,"region":"eu","cc":"gb","latitude":51.509865,"longitude":-0.118092,"reserved":0,"last_update":"0001-01-01T00:00:00Z","name_a2s":"Uncletopia | London | 2 | All Maps","protocol":17,"map":"koth_lakeside_final","folder":"tf","game":"Team Fortress","app_id":440,"player_count":0,"max_players":24,"Bots":0,"server_type":"Dedicated","server_os":"Linux","password":true,"vac":true,"version":"7961495","steam_id":85568392924470941,"keywords":["cp","nocrits","nodmgspread","uncletopia"],"game_id":440,"stv_port":27026,"stv_name":"Uncletopia | London | 2 | All Maps | STV","players":null},{"server_id":320,"name":"Uncletopia | London | 3 | All Maps","name_short":"lon-3","host":"lon-1.uk.uncletopia.com","port":27035,"enabled":true,"region":"eu","cc":"gb","latitude":51.509865,"longitude":-0.118092,"reserved":0,"last_update":"0001-01-01T00:00:00Z","name_a2s":"Uncletopia | London | 3 | All Maps","protocol":17,"map":"cp_process_final","folder":"tf","game":"Team Fortress","app_id":440,"player_count":0,"max_players":24,"Bots":0,"server_type":"Dedicated","server_os":"Linux","password":true,"vac":true,"version":"7961495","steam_id":85568392924510192,"keywords":["cp","nocrits","nodmgspread","uncletopia"],"game_id":440,"stv_port":27036,"stv_name":"Uncletopia | London | 3 | All Maps | STV","players":null},{"server_id":321,"name":"Uncletopia | London | 4 | All Maps","name_short":"lon-4","host":"lon-1.uk.uncletopia.com","port":27045,"enabled":true,"region":"eu","cc":"gb","latitude":51.509865,"longitude":-0.118092,"reserved":0,"last_update":"0001-01-01T00:00:00Z","name_a2s":"Uncletopia | London | 4 | All Maps","protocol":17,"map":"koth_cascade","folder":"tf","game":"Team Fortress","app_id":440,"player_count":0,"max_players":24,"Bots":0,"server_type":"Dedicated","server_os":"Linux","password":true,"vac":true,"version":"7961495","steam_id":85568392924510193,"keywords":["cp","nocrits","nodmgspread","uncletopia"],"game_id":440,"stv_port":27046,"stv_name":"Uncletopia | London | 4 | All Maps | STV","players":null},{"server_id":21,"name":"Uncletopia | London | 5 | All Maps","name_short":"lon-5","host":"lon-1.uk.uncletopia.com","port":27055,"enabled":true,"region":"eu","cc":"gb","latitude":51.509865,"longitude":-0.118092,"reserved":0,"last_update":"0001-01-01T00:00:00Z","name_a2s":"Uncletopia | London | 5 | All Maps","protocol":17,"map":"koth_lakeside_final","folder":"tf","game":"Team Fortress","app_id":440,"player_count":0,"max_players":24,"Bots":0,"server_type":"Dedicated","server_os":"Linux","password":true,"vac":true,"version":"7961495","steam_id":85568392924742829,"keywords":["cp","nocrits","nodmgspread","uncletopia"],"game_id":440,"stv_port":27056,"stv_name":"Uncletopia | London | 5 | All Maps | STV","players":null},{"server_id":22,"name":"Uncletopia | London | 6 | All Maps","name_short":"lon-6","host":"lon-1.uk.uncletopia.com","port":27065,"enabled":true,"region":"eu","cc":"gb","latitude":51.509865,"longitude":-0.118092,"reserved":0,"last_update":"0001-01-01T00:00:00Z","name_a2s":"Uncletopia | London | 6 | All Maps","protocol":17,"map":"cp_sunshine","folder":"tf","game":"Team Fortress","app_id":440,"player_count":3,"max_players":24,"Bots":0,"server_type":"Dedicated","server_os":"Linux","password":true,"vac":true,"version":"7961495","steam_id":85568392924742830,"keywords":["cp","nocrits","nodmgspread","uncletopia"],"game_id":440,"stv_port":27066,"stv_name":"Uncletopia | London | 6 | All Maps | STV","players":[{"user_id":3,"name":"Bebra gaming","steam_id":76561198320344262,"connected_time":3530000000000,"state":"active","ping":37},{"user_id":4,"name":"JOJOBISH","steam_id":76561198116933540,"connected_time":3507000000000,"state":"active","ping":43},{"user_id":12,"name":"rednecked_crake","steam_id":76561197999251270,"connected_time":384000000000,"state":"active","ping":57}]},{"server_id":40,"name":"Uncletopia | London | 7 | Stopwatch","name_short":"lon-7","host":"lon-1.uk.uncletopia.com","port":27075,"enabled":true,"region":"eu","cc":"gb","latitude":51.509865,"longitude":-0.118092,"reserved":0,"last_update":"0001-01-01T00:00:00Z","name_a2s":"Uncletopia | London | 7 | Stopwatch","protocol":17,"map":"koth_lakeside_final","folder":"tf","game":"Team Fortress","app_id":440,"player_count":0,"max_players":24,"Bots":0,"server_type":"Dedicated","server_os":"Linux","password":true,"vac":true,"version":"7961495","steam_id":85568392924964314,"keywords":["cp","nocrits","nodmgspread","uncletopia"],"game_id":440,"stv_port":27076,"stv_name":"Uncletopia | London | 7 | Stopwatch | STV","players":null},{"server_id":41,"name":"Uncletopia | London | 8 | Community","name_short":"lon-8","host":"lon-1.uk.uncletopia.com","port":27085,"enabled":true,"region":"eu","cc":"gb","latitude":51.509865,"longitude":-0.118092,"reserved":0,"last_update":"0001-01-01T00:00:00Z","name_a2s":"Uncletopia | London | 8 | Community","protocol":17,"map":"workshop/pl_barnblitz_pro7.ugc582280235","folder":"tf","game":"Team Fortress","app_id":440,"player_count":0,"max_players":24,"Bots":0,"server_type":"Dedicated","server_os":"Linux","password":true,"vac":true,"version":"7961495","steam_id":85568392924964315,"keywords":["nocrits","nodmgspread","payload","uncletopia"],"game_id":440,"stv_port":27086,"stv_name":"Uncletopia | London | 8 | Community | STV","players":null},{"server_id":300,"name":"Uncletopia | Montréal | 1 | One Thousand Uncles","name_short":"mtl-1","host":"mtl-1.ca.uncletopia.com","port":27015,"enabled":true,"region":"us-east","cc":"ca","latitude":45.50889,"longitude":-73.56167,"reserved":0,"last_update":"0001-01-01T00:00:00Z","name_a2s":"","protocol":0,"map":"","folder":"","game":"","app_id":0,"player_count":0,"max_players":0,"Bots":0,"server_type":"","server_os":"","password":false,"vac":false,"version":"","steam_id":0,"keywords":null,"game_id":0,"stv_port":0,"stv_name":"","players":null},{"server_id":301,"name":"Uncletopia | Montréal | 2 | One Thousand Uncles","name_short":"mtl-2","host":"mtl-1.ca.uncletopia.com","port":27025,"enabled":true,"region":"us-east","cc":"ca","latitude":45.50889,"longitude":-73.56167,"reserved":0,"last_update":"0001-01-01T00:00:00Z","name_a2s":"","protocol":0,"map":"","folder":"","game":"","app_id":0,"player_count":0,"max_players":0,"Bots":0,"server_type":"","server_os":"","password":false,"vac":false,"version":"","steam_id":0,"keywords":null,"game_id":0,"stv_port":0,"stv_name":"","players":null},{"server_id":302,"name":"Uncletopia | Montréal | 3 | One Thousand Uncles","name_short":"mtl-3","host":"mtl-1.ca.uncletopia.com","port":27035,"enabled":true,"region":"us-east","cc":"ca","latitude":45.50889,"longitude":-73.56167,"reserved":0,"last_update":"0001-01-01T00:00:00Z","name_a2s":"","protocol":0,"map":"","folder":"","game":"","app_id":0,"player_count":0,"max_players":0,"Bots":0,"server_type":"","server_os":"","password":false,"vac":false,"version":"","steam_id":0,"keywords":null,"game_id":0,"stv_port":0,"stv_name":"","players":null},{"server_id":13,"name":"Uncletopia | New York City | 1 | All Maps","name_short":"nyc-1","host":"nyc-1.us.uncletopia.com","port":27015,"enabled":true,"region":"us-east","cc":"us","latitude":40.73061,"longitude":-73.93524,"reserved":0,"last_update":"0001-01-01T00:00:00Z","name_a2s":"Uncletopia | New York City | 1 | All Maps","protocol":17,"map":"pl_upward","folder":"tf","game":"Team Fortress","app_id":440,"player_count":24,"max_players":24,"Bots":0,"server_type":"Dedicated","server_os":"Linux","password":true,"vac":true,"version":"7961495","steam_id":85568392924469993,"keywords":["nocrits","nodmgspread","payload","uncletopia"],"game_id":440,"stv_port":27016,"stv_name":"Uncletopia | New York City | 1 | All Maps | STV","players":[{"user_id":762,"name":"Random","steam_id":76561198318879454,"connected_time":998000000000,"state":"active","ping":67},{"user_id":749,"name":"Proud Duskull Enjoyer","steam_id":76561198968614540,"connected_time":2098000000000,"state":"active","ping":68},{"user_id":768,"name":"JackHack101","steam_id":76561199041687342,"connected_time":302000000000,"state":"active","ping":70},{"user_id":769,"name":"The $$60,000,000,000 Man","steam_id":76561198110832624,"connected_time":214000000000,"state":"active","ping":79},{"user_id":748,"name":"Voracious Puma","steam_id":76561197963621649,"connected_time":2112000000000,"state":"active","ping":86},{"user_id":770,"name":"tek lintowe fan","steam_id":76561198206177593,"connected_time":173000000000,"state":"active","ping":121},{"user_id":765,"name":"creamer","steam_id":76561198144095056,"connected_time":736000000000,"state":"active","ping":99},{"user_id":746,"name":"Crylec","steam_id":76561198092755279,"connected_time":2124000000000,"state":"active","ping":52},{"user_id":702,"name":"Stunner","steam_id":76561198063197896,"connected_time":7139000000000,"state":"active","ping":122},{"user_id":609,"name":"googa","steam_id":76561198133130452,"connected_time":15948000000000,"state":"active","ping":45},{"user_id":733,"name":"Wique","steam_id":76561198071217597,"connected_time":4478000000000,"state":"active","ping":66},{"user_id":734,"name":"Gentoo Linux Gaming","steam_id":76561197999657118,"connected_time":4042000000000,"state":"active","ping":65},{"user_id":759,"name":"Biden Blast","steam_id":76561198366729030,"connected_time":1538000000000,"state":"active","ping":120},{"user_id":767,"name":"BLØRG","steam_id":76561198036126673,"connected_time":402000000000,"state":"active","ping":101},{"user_id":755,"name":"Forehead","steam_id":76561198124151399,"connected_time":1895000000000,"state":"active","ping":50},{"user_id":772,"name":"Engineer Gaming","steam_id":76561198146456461,"connected_time":22000000000,"state":"active","ping":107},{"user_id":760,"name":"Artic_Ryuu","steam_id":76561198182194918,"connected_time":1535000000000,"state":"active","ping":103},{"user_id":756,"name":"Brainrot","steam_id":76561198069185888,"connected_time":1769000000000,"state":"active","ping":82},{"user_id":763,"name":"Pleasant Failure","steam_id":76561198196669161,"connected_time":922000000000,"state":"active","ping":151},{"user_id":730,"name":"Crab","steam_id":76561198067628664,"connected_time":5364000000000,"state":"active","ping":95},{"user_id":732,"name":"SpaceSanctum","steam_id":76561198805242305,"connected_time":4717000000000,"state":"active","ping":44},{"user_id":715,"name":"Ludcmorais","steam_id":76561198359217809,"connected_time":6453000000000,"state":"active","ping":175},{"user_id":757,"name":"rontu","steam_id":76561199488492003,"connected_time":1735000000000,"state":"active","ping":73},{"user_id":754,"name":"CosmicKlown","steam_id":76561198158386235,"connected_time":1979000000000,"state":"active","ping":47}]},{"server_id":14,"name":"Uncletopia | New York City | 2 | All Maps","name_short":"nyc-2","host":"nyc-1.us.uncletopia.com","port":27025,"enabled":true,"region":"us-east","cc":"us","latitude":40.73061,"longitude":-73.93524,"reserved":0,"last_update":"0001-01-01T00:00:00Z","name_a2s":"Uncletopia | New York City | 2 | All Maps","protocol":17,"map":"koth_highpass","folder":"tf","game":"Team Fortress","app_id":440,"player_count":0,"max_players":24,"Bots":0,"server_type":"Dedicated","server_os":"Linux","password":true,"vac":true,"version":"7961495","steam_id":85568392924469994,"keywords":["cp","nocrits","nodmgspread","uncletopia"],"game_id":440,"stv_port":27026,"stv_name":"Uncletopia | New York City | 2 | All Maps | STV","players":null},{"server_id":15,"name":"Uncletopia | New York City | 3 | Stopwatch","name_short":"nyc-3","host":"nyc-1.us.uncletopia.com","port":27035,"enabled":true,"region":"us-east","cc":"us","latitude":40.73061,"longitude":-73.93524,"reserved":0,"last_update":"0001-01-01T00:00:00Z","name_a2s":"Uncletopia | New York City | 3 | Stopwatch","protocol":17,"map":"cp_gullywash_final1","folder":"tf","game":"Team Fortress","app_id":440,"player_count":0,"max_players":24,"Bots":0,"server_type":"Dedicated","server_os":"Linux","password":true,"vac":true,"version":"7961495","steam_id":85568392924742820,"keywords":["cp","nocrits","nodmgspread","uncletopia"],"game_id":440,"stv_port":27036,"stv_name":"Uncletopia | New York City | 3 | Stopwatch | STV","players":null},{"server_id":16,"name":"Uncletopia | New York City | 4 | Community","name_short":"nyc-4","host":"nyc-1.us.uncletopia.com","port":27045,"enabled":true,"region":"us-east","cc":"us","latitude":40.73061,"longitude":-73.93524,"reserved":0,"last_update":"0001-01-01T00:00:00Z","name_a2s":"Uncletopia | New York City | 4 | Community","protocol":17,"map":"workshop/cp_logjam_rc12.ugc454812035","folder":"tf","game":"Team Fortress","app_id":440,"player_count":0,"max_players":24,"Bots":0,"server_type":"Dedicated","server_os":"Linux","password":true,"vac":true,"version":"7961495","steam_id":85568392924742821,"keywords":["cp","nocrits","nodmgspread","uncletopia"],"game_id":440,"stv_port":27046,"stv_name":"Uncletopia | New York City | 4 | Community | STV","players":null},{"server_id":142,"name":"Uncletopia | São Paulo | 1 | All Maps","name_short":"sao-1","host":"sao-1.br.uncletopia.com","port":27015,"enabled":true,"region":"sa","cc":"br","latitude":-23.533773,"longitude":-46.62529,"reserved":0,"last_update":"0001-01-01T00:00:00Z","name_a2s":"Uncletopia | São Paulo | 1 | All Maps","protocol":17,"map":"koth_viaduct","folder":"tf","game":"Team Fortress","app_id":440,"player_count":0,"max_players":24,"Bots":0,"server_type":"Dedicated","server_os":"Linux","password":true,"vac":true,"version":"7961495","steam_id":85568392924469996,"keywords":["cp","nocrits","nodmgspread","uncletopia"],"game_id":440,"stv_port":27016,"stv_name":"Uncletopia | São Paulo | 1 | All Maps | STV","players":null},{"server_id":143,"name":"Uncletopia | São Paulo | 2 | Community","name_short":"sao-2","host":"sao-2.br.uncletopia.com","port":27015,"enabled":true,"region":"sa","cc":"br","latitude":-23.533773,"longitude":-46.62529,"reserved":0,"last_update":"0001-01-01T00:00:00Z","name_a2s":"Uncletopia | São Paulo | 2 | Community","protocol":17,"map":"workshop/koth_slaughter_rc1.ugc1712845210","folder":"tf","game":"Team Fortress","app_id":440,"player_count":0,"max_players":24,"Bots":0,"server_type":"Dedicated","server_os":"Linux","password":true,"vac":true,"version":"7961495","steam_id":85568392924485349,"keywords":["cp","nocrits","nodmgspread","uncletopia"],"game_id":440,"stv_port":27016,"stv_name":"Uncletopia | São Paulo | 2 | Community | STV","players":null},{"server_id":7,"name":"Uncletopia | Seattle | 1 | All Maps","name_short":"sea-1","host":"sea-1.us.uncletopia.com","port":27015,"enabled":true,"region":"us-west","cc":"us","latitude":47.608013,"longitude":-122.33517,"reserved":0,"last_update":"0001-01-01T00:00:00Z","name_a2s":"Uncletopia | Seattle | 1 | All Maps","protocol":17,"map":"pl_upward","folder":"tf","game":"Team Fortress","app_id":440,"player_count":24,"max_players":24,"Bots":0,"server_type":"Dedicated","server_os":"Linux","password":true,"vac":true,"version":"7961495","steam_id":85568392924469997,"keywords":["nocrits","nodmgspread","payload","uncletopia"],"game_id":440,"stv_port":27016,"stv_name":"Uncletopia | Seattle | 1 | All Maps | STV","players":[{"user_id":637,"name":"Daz","steam_id":76561198041431938,"connected_time":1620000000000,"state":"active","ping":51},{"user_id":623,"name":"Embie","steam_id":76561198358221011,"connected_time":2713000000000,"state":"active","ping":56},{"user_id":618,"name":"NEBULA","steam_id":76561198086878595,"connected_time":3887000000000,"state":"active","ping":69},{"user_id":630,"name":"lavender","steam_id":76561199069518286,"connected_time":1975000000000,"state":"active","ping":67},{"user_id":648,"name":"never knows best","steam_id":76561197989933601,"connected_time":413000000000,"state":"active","ping":57},{"user_id":646,"name":"☆ShinyMew112","steam_id":76561198042820161,"connected_time":496000000000,"state":"active","ping":91},{"user_id":621,"name":"slushy :))","steam_id":76561198135281802,"connected_time":3864000000000,"state":"active","ping":38},{"user_id":647,"name":"keeganwade","steam_id":76561198300553450,"connected_time":493000000000,"state":"active","ping":82},{"user_id":624,"name":"The Shaq Attack","steam_id":76561198075285534,"connected_time":2694000000000,"state":"active","ping":45},{"user_id":651,"name":"CGasss","steam_id":76561198968695169,"connected_time":391000000000,"state":"active","ping":73},{"user_id":642,"name":"BitPieStudios","steam_id":76561198059216393,"connected_time":713000000000,"state":"active","ping":60},{"user_id":622,"name":"rushy :))","steam_id":76561198065825165,"connected_time":3361000000000,"state":"active","ping":332},{"user_id":626,"name":"evilOlive","steam_id":76561198106222025,"connected_time":2505000000000,"state":"active","ping":88},{"user_id":569,"name":"chocky","steam_id":76561198057491296,"connected_time":9553000000000,"state":"active","ping":46},{"user_id":650,"name":"JTuu","steam_id":76561198030606396,"connected_time":397000000000,"state":"active","ping":43},{"user_id":627,"name":"Sniff","steam_id":76561198010270922,"connected_time":2273000000000,"state":"active","ping":64},{"user_id":656,"name":"earthDF","steam_id":76561198026084025,"connected_time":287000000000,"state":"active","ping":74},{"user_id":635,"name":"Grand","steam_id":76561198290143399,"connected_time":1674000000000,"state":"active","ping":75},{"user_id":654,"name":"rat who can kickflip","steam_id":76561198073620027,"connected_time":370000000000,"state":"active","ping":45},{"user_id":608,"name":"Sweets","steam_id":76561198998446307,"connected_time":5643000000000,"state":"active","ping":70},{"user_id":613,"name":"Dapper","steam_id":76561198103189993,"connected_time":4898000000000,"state":"active","ping":78},{"user_id":619,"name":"kill me","steam_id":76561198032625036,"connected_time":3885000000000,"state":"active","ping":58},{"user_id":652,"name":"top 10 sidewalks","steam_id":76561198844273999,"connected_time":383000000000,"state":"active","ping":45},{"user_id":620,"name":"gorlab","steam_id":76561198025089694,"connected_time":3885000000000,"state":"active","ping":67}]},{"server_id":119,"name":"Uncletopia | Seattle | 2 | All Maps","name_short":"sea-2","host":"sea-1.us.uncletopia.com","port":27025,"enabled":true,"region":"us-west","cc":"us","latitude":47.608013,"longitude":-122.33517,"reserved":0,"last_update":"0001-01-01T00:00:00Z","name_a2s":"Uncletopia | Seattle | 2 | All Maps","protocol":17,"map":"pl_upward","folder":"tf","game":"Team Fortress","app_id":440,"player_count":24,"max_players":24,"Bots":0,"server_type":"Dedicated","server_os":"Linux","password":true,"vac":true,"version":"7961495","steam_id":85568392924469998,"keywords":["nocrits","nodmgspread","payload","uncletopia"],"game_id":440,"stv_port":27026,"stv_name":"Uncletopia | Seattle | 2 | All Maps | STV","players":[{"user_id":432,"name":"Smeagolhoss","steam_id":76561198361514063,"connected_time":2864000000000,"state":"active","ping":98},{"user_id":374,"name":"IonicMist","steam_id":76561198047105563,"connected_time":5987000000000,"state":"active","ping":45},{"user_id":405,"name":"^5t^6i^5n^6y","steam_id":76561198010743348,"connected_time":4590000000000,"state":"active","ping":90},{"user_id":435,"name":"FidelGuevara","steam_id":76561198368296171,"connected_time":2777000000000,"state":"active","ping":79},{"user_id":423,"name":"Zebulon","steam_id":76561198025719753,"connected_time":3316000000000,"state":"active","ping":36},{"user_id":411,"name":"ĐïɐȐɹɦɆa","steam_id":76561198981411945,"connected_time":4077000000000,"state":"active","ping":69},{"user_id":436,"name":"gerg","steam_id":76561197997127387,"connected_time":2760000000000,"state":"active","ping":66},{"user_id":408,"name":"Cypress [ +/- ] ✔","steam_id":76561198067164431,"connected_time":4496000000000,"state":"active","ping":60},{"user_id":392,"name":"Donny Q","steam_id":76561198020901703,"connected_time":5233000000000,"state":"active","ping":46},{"user_id":409,"name":"Conseq","steam_id":76561198335652179,"connected_time":4453000000000,"state":"active","ping":45},{"user_id":444,"name":"darkelaine227","steam_id":76561198097330521,"connected_time":1879000000000,"state":"active","ping":114},{"user_id":442,"name":"Obersteuermann","steam_id":76561198044468707,"connected_time":2107000000000,"state":"active","ping":52},{"user_id":447,"name":"achoo","steam_id":76561198009091066,"connected_time":1758000000000,"state":"active","ping":47},{"user_id":424,"name":"Stev the Hypergamous Pebble","steam_id":76561197999442625,"connected_time":3292000000000,"state":"active","ping":53},{"user_id":416,"name":"nat","steam_id":76561198179923093,"connected_time":3755000000000,"state":"active","ping":94},{"user_id":429,"name":"moe","steam_id":76561198929586245,"connected_time":3031000000000,"state":"active","ping":70},{"user_id":450,"name":"raspberry sorbet","steam_id":76561198143371128,"connected_time":988000000000,"state":"active","ping":72},{"user_id":441,"name":"Under an Unquiet Skull","steam_id":76561198164782653,"connected_time":2546000000000,"state":"active","ping":120},{"user_id":445,"name":"Tideflat","steam_id":76561198179850851,"connected_time":1822000000000,"state":"active","ping":51},{"user_id":448,"name":"Phoysh","steam_id":76561198137111021,"connected_time":1723000000000,"state":"active","ping":45},{"user_id":449,"name":"jodi.org","steam_id":76561198131833567,"connected_time":1608000000000,"state":"active","ping":71},{"user_id":438,"name":"gwen","steam_id":76561198046815360,"connected_time":2756000000000,"state":"active","ping":76},{"user_id":439,"name":"Maid 'n' China","steam_id":76561198423392976,"connected_time":2754000000000,"state":"active","ping":57},{"user_id":440,"name":"social distance warrior","steam_id":76561198128992994,"connected_time":2753000000000,"state":"active","ping":52}]},{"server_id":406,"name":"Uncletopia | Seattle | 3 | Stopwatch","name_short":"sea-3","host":"sea-1.us.uncletopia.com","port":27035,"enabled":true,"region":"us-west","cc":"us","latitude":47.608013,"longitude":-122.33517,"reserved":0,"last_update":"0001-01-01T00:00:00Z","name_a2s":"Uncletopia | Seattle | 3 | Stopwatch","protocol":17,"map":"pl_pier","folder":"tf","game":"Team Fortress","app_id":440,"player_count":0,"max_players":24,"Bots":0,"server_type":"Dedicated","server_os":"Linux","password":true,"vac":true,"version":"7961495","steam_id":85568392924515217,"keywords":["nocrits","nodmgspread","payload","uncletopia"],"game_id":440,"stv_port":27036,"stv_name":"Uncletopia | Seattle | 3 | Stopwatch | STV","players":null},{"server_id":17,"name":"Uncletopia | San Francisco | 1 | All Maps","name_short":"sfo-1","host":"sfo-1.us.uncletopia.com","port":27015,"enabled":true,"region":"us-west","cc":"us","latitude":37.77397,"longitude":-122.4313,"reserved":0,"last_update":"0001-01-01T00:00:00Z","name_a2s":"Uncletopia | San Francisco | 1 | All Maps","protocol":17,"map":"cp_process_final","folder":"tf","game":"Team Fortress","app_id":440,"player_count":0,"max_players":24,"Bots":0,"server_type":"Dedicated","server_os":"Linux","password":true,"vac":true,"version":"7961495","steam_id":85568392924469999,"keywords":["cp","nocrits","nodmgspread","uncletopia"],"game_id":440,"stv_port":27016,"stv_name":"Uncletopia | San Francisco | 1 | All Maps | STV","players":null},{"server_id":18,"name":"Uncletopia | San Francisco | 2 | All Maps","name_short":"sfo-2","host":"sfo-1.us.uncletopia.com","port":27025,"enabled":true,"region":"us-west","cc":"us","latitude":37.77397,"longitude":-122.4313,"reserved":0,"last_update":"0001-01-01T00:00:00Z","name_a2s":"Uncletopia | San Francisco | 2 | All Maps","protocol":17,"map":"pl_pier","folder":"tf","game":"Team Fortress","app_id":440,"player_count":6,"max_players":24,"Bots":0,"server_type":"Dedicated","server_os":"Linux","password":true,"vac":true,"version":"7961495","steam_id":85568392924470000,"keywords":["nocrits","nodmgspread","payload","uncletopia"],"game_id":440,"stv_port":27026,"stv_name":"Uncletopia | San Francisco | 2 | All Maps | STV","players":[{"user_id":154,"name":"Rabblerouser","steam_id":76561198127930963,"connected_time":71000000000,"state":"active","ping":83},{"user_id":155,"name":"GardenOfStone","steam_id":76561199069870534,"connected_time":7000000000,"state":"spawning","ping":89},{"user_id":41,"name":"eeellliii1","steam_id":76561198056261636,"connected_time":10800000000000,"state":"active","ping":75},{"user_id":42,"name":"Phrog","steam_id":76561198072975322,"connected_time":10782000000000,"state":"active","ping":77},{"user_id":45,"name":"Vrita","steam_id":76561198059483641,"connected_time":10555000000000,"state":"active","ping":46},{"user_id":138,"name":"sirFrost","steam_id":76561198072267177,"connected_time":4543000000000,"state":"active","ping":62}]},{"server_id":19,"name":"Uncletopia | San Francisco | 3 | Stopwatch","name_short":"sfo-3","host":"sfo-1.us.uncletopia.com","port":27035,"enabled":true,"region":"us-west","cc":"us","latitude":37.77397,"longitude":-122.4313,"reserved":0,"last_update":"0001-01-01T00:00:00Z","name_a2s":"Uncletopia | San Francisco | 3 | Stopwatch","protocol":17,"map":"workshop/koth_ramjam_rc1.ugc459778887","folder":"tf","game":"Team Fortress","app_id":440,"player_count":0,"max_players":24,"Bots":0,"server_type":"Dedicated","server_os":"Linux","password":true,"vac":true,"version":"7961495","steam_id":85568392924742824,"keywords":["cp","nocrits","nodmgspread","uncletopia"],"game_id":440,"stv_port":27036,"stv_name":"Uncletopia | San Francisco | 3 | Stopwatch | STV","players":null},{"server_id":20,"name":"Uncletopia | San Francisco | 4 | Community","name_short":"sfo-4","host":"sfo-1.us.uncletopia.com","port":27045,"enabled":true,"region":"us-west","cc":"us","latitude":37.77397,"longitude":-122.4313,"reserved":0,"last_update":"0001-01-01T00:00:00Z","name_a2s":"Uncletopia | San Francisco | 4 | Community","protocol":17,"map":"workshop/koth_slaughter_rc1.ugc1712845210","folder":"tf","game":"Team Fortress","app_id":440,"player_count":0,"max_players":24,"Bots":0,"server_type":"Dedicated","server_os":"Linux","password":true,"vac":true,"version":"7961495","steam_id":85568392924742826,"keywords":["cp","nocrits","nodmgspread","uncletopia"],"game_id":440,"stv_port":27046,"stv_name":"Uncletopia | San Francisco | 4 | Community | STV","players":null},{"server_id":141,"name":"Uncletopia | Sydney | 1 | All Maps","name_short":"syd-1","host":"syd-1.au.uncletopia.com","port":27015,"enabled":true,"region":"au","cc":"au","latitude":-33.865143,"longitude":151.2099,"reserved":0,"last_update":"0001-01-01T00:00:00Z","name_a2s":"Uncletopia | Sydney | 1 | All Maps","protocol":17,"map":"pl_upward","folder":"tf","game":"Team Fortress","app_id":440,"player_count":24,"max_players":24,"Bots":0,"server_type":"Dedicated","server_os":"Linux","password":true,"vac":true,"version":"7961495","steam_id":85568392924470001,"keywords":["nocrits","nodmgspread","payload","uncletopia"],"game_id":440,"stv_port":27016,"stv_name":"Uncletopia | Sydney | 1 | All Maps | STV","players":[{"user_id":115,"name":"monkeyjones671","steam_id":76561198136218040,"connected_time":692000000000,"state":"active","ping":56},{"user_id":88,"name":"super battle droid","steam_id":76561198073922951,"connected_time":2438000000000,"state":"active","ping":44},{"user_id":109,"name":"rich","steam_id":76561198003594944,"connected_time":1245000000000,"state":"active","ping":51},{"user_id":119,"name":"King Stan II","steam_id":76561198890742309,"connected_time":363000000000,"state":"active","ping":72},{"user_id":121,"name":"Gaunern","steam_id":76561198075411902,"connected_time":188000000000,"state":"active","ping":61},{"user_id":93,"name":"{Azura Sarah}","steam_id":76561197989210208,"connected_time":2190000000000,"state":"active","ping":45},{"user_id":69,"name":"Marzell","steam_id":76561198151276153,"connected_time":3735000000000,"state":"active","ping":95},{"user_id":111,"name":"CypressFluff (she/her)","steam_id":76561198174667818,"connected_time":847000000000,"state":"active","ping":62},{"user_id":116,"name":"Bigrichard","steam_id":76561198032092945,"connected_time":685000000000,"state":"active","ping":79},{"user_id":120,"name":"LORD ANU SUPREME","steam_id":76561198043225916,"connected_time":351000000000,"state":"active","ping":55},{"user_id":51,"name":"Brud","steam_id":76561198123542239,"connected_time":5247000000000,"state":"active","ping":44},{"user_id":112,"name":"Reefo","steam_id":76561198161626796,"connected_time":806000000000,"state":"active","ping":67},{"user_id":99,"name":"Cyborgcupine","steam_id":76561198257389366,"connected_time":1824000000000,"state":"active","ping":81},{"user_id":32,"name":"CoolJosh3k .com","steam_id":76561197997407342,"connected_time":6057000000000,"state":"active","ping":50},{"user_id":100,"name":"Pantzz","steam_id":76561198036661335,"connected_time":1744000000000,"state":"active","ping":54},{"user_id":72,"name":"1996 VHS Copy of Jumanji","steam_id":76561198140262325,"connected_time":3615000000000,"state":"active","ping":53},{"user_id":89,"name":"rapscallion","steam_id":76561198007947876,"connected_time":2424000000000,"state":"active","ping":76},{"user_id":118,"name":"Gonna","steam_id":76561198281131757,"connected_time":482000000000,"state":"active","ping":57},{"user_id":113,"name":"LilCringe","steam_id":76561198171135461,"connected_time":717000000000,"state":"active","ping":54},{"user_id":117,"name":"Xandoofi","steam_id":76561198170262006,"connected_time":618000000000,"state":"active","ping":71},{"user_id":77,"name":"Sexy Turtle","steam_id":76561198256865969,"connected_time":3302000000000,"state":"active","ping":45},{"user_id":87,"name":"ward","steam_id":76561198046513287,"connected_time":2444000000000,"state":"active","ping":57},{"user_id":104,"name":"GreenSplash","steam_id":76561198309135450,"connected_time":1583000000000,"state":"active","ping":59},{"user_id":110,"name":"Hank","steam_id":76561198864457647,"connected_time":1242000000000,"state":"active","ping":80}]},{"server_id":123,"name":"Uncletopia | Sydney | 2 | All Maps","name_short":"syd-2","host":"syd-1.au.uncletopia.com","port":27025,"enabled":true,"region":"au","cc":"au","latitude":-33.865143,"longitude":151.2099,"reserved":0,"last_update":"0001-01-01T00:00:00Z","name_a2s":"Uncletopia | Sydney | 2 | All Maps","protocol":17,"map":"koth_highpass","folder":"tf","game":"Team Fortress","app_id":440,"player_count":3,"max_players":24,"Bots":0,"server_type":"Dedicated","server_os":"Linux","password":true,"vac":true,"version":"7961495","steam_id":85568392924470002,"keywords":["cp","nocrits","nodmgspread","uncletopia"],"game_id":440,"stv_port":27026,"stv_name":"Uncletopia | Sydney | 2 | All Maps | STV","players":[{"user_id":24,"name":"LaFleur","steam_id":76561198869499113,"connected_time":989000000000,"state":"active","ping":60},{"user_id":25,"name":"Dean","steam_id":76561198224787784,"connected_time":930000000000,"state":"active","ping":78},{"user_id":30,"name":"foot","steam_id":76561199400676469,"connected_time":301000000000,"state":"active","ping":55}]},{"server_id":395,"name":"Uncletopia | Sydney | 3 | All Maps","name_short":"syd-3","host":"syd-1.au.uncletopia.com","port":27035,"enabled":true,"region":"au","cc":"au","latitude":-33.865143,"longitude":151.2099,"reserved":0,"last_update":"0001-01-01T00:00:00Z","name_a2s":"Uncletopia | Sydney | 3 | All Maps","protocol":17,"map":"pl_swiftwater_final1","folder":"tf","game":"Team Fortress","app_id":440,"player_count":0,"max_players":24,"Bots":0,"server_type":"Dedicated","server_os":"Linux","password":true,"vac":true,"version":"7961495","steam_id":85568392925194467,"keywords":["nocrits","nodmgspread","payload","uncletopia"],"game_id":440,"stv_port":27036,"stv_name":"Uncletopia | Sydney | 3 | All Maps | STV","players":null},{"server_id":396,"name":"Uncletopia | Sydney | 4 | All Maps","name_short":"syd-4","host":"syd-1.au.uncletopia.com","port":27045,"enabled":true,"region":"au","cc":"au","latitude":-33.865143,"longitude":151.2099,"reserved":0,"last_update":"0001-01-01T00:00:00Z","name_a2s":"Uncletopia | Sydney | 4 | All Maps","protocol":17,"map":"koth_lakeside_final","folder":"tf","game":"Team Fortress","app_id":440,"player_count":0,"max_players":24,"Bots":0,"server_type":"Dedicated","server_os":"Linux","password":true,"vac":true,"version":"7961495","steam_id":85568392925397958,"keywords":["cp","nocrits","nodmgspread","uncletopia"],"game_id":440,"stv_port":27046,"stv_name":"Uncletopia | Sydney | 4 | All Maps | STV","players":null},{"server_id":58,"name":"Uncletopia | Sydney | 5 | Stopwatch","name_short":"syd-5","host":"syd-1.au.uncletopia.com","port":27055,"enabled":true,"region":"au","cc":"au","latitude":-33.865143,"longitude":151.2099,"reserved":0,"last_update":"0001-01-01T00:00:00Z","name_a2s":"Uncletopia | Sydney | 5 | Stopwatch","protocol":17,"map":"pl_swiftwater_final1","folder":"tf","game":"Team Fortress","app_id":440,"player_count":0,"max_players":24,"Bots":0,"server_type":"Dedicated","server_os":"Linux","password":true,"vac":true,"version":"7961495","steam_id":85568392925397959,"keywords":["nocrits","nodmgspread","payload","uncletopia"],"game_id":440,"stv_port":27056,"stv_name":"Uncletopia | Sydney | 5 | Stopwatch | STV","players":null},{"server_id":59,"name":"Uncletopia | Sydney | 6 | Community","name_short":"syd-6","host":"syd-1.au.uncletopia.com","port":27065,"enabled":true,"region":"au","cc":"au","latitude":-33.865143,"longitude":151.2099,"reserved":0,"last_update":"0001-01-01T00:00:00Z","name_a2s":"Uncletopia | Sydney | 6 | Community","protocol":17,"map":"workshop/cp_fulgur_rc2a.ugc2068252300","folder":"tf","game":"Team Fortress","app_id":440,"player_count":0,"max_players":24,"Bots":0,"server_type":"Dedicated","server_os":"Linux","password":true,"vac":true,"version":"7961495","steam_id":85568392925397960,"keywords":["cp","nocrits","nodmgspread","uncletopia"],"game_id":440,"stv_port":27066,"stv_name":"Uncletopia | Sydney | 6 | Community | STV","players":null},{"server_id":49,"name":"Uncletopia | Warsaw | 1 | One Thousand Uncles","name_short":"waw-1","host":"waw-1.pl.uncletopia.com","port":27015,"enabled":true,"region":"eu","cc":"pl","latitude":52.2297,"longitude":21.017532,"reserved":0,"last_update":"0001-01-01T00:00:00Z","name_a2s":"Uncletopia | Warsaw | 1 | One Thousand Uncles","protocol":17,"map":"koth_highpass","folder":"tf","game":"Team Fortress","app_id":440,"player_count":0,"max_players":32,"Bots":0,"server_type":"Dedicated","server_os":"Linux","password":true,"vac":true,"version":"7961495","steam_id":85568392925397850,"keywords":["alltalk","cp","danepve","increased_maxplayers","nocrits","norespawntime","uncletopia"],"game_id":440,"stv_port":0,"stv_name":"","players":null},{"server_id":50,"name":"Uncletopia | Warsaw | 2 | One Thousand Uncles","name_short":"waw-2","host":"waw-1.pl.uncletopia.com","port":27025,"enabled":true,"region":"eu","cc":"pl","latitude":52.2297,"longitude":21.017532,"reserved":0,"last_update":"0001-01-01T00:00:00Z","name_a2s":"Uncletopia | Warsaw | 2 | One Thousand Uncles","protocol":17,"map":"cp_dustbowl","folder":"tf","game":"Team Fortress","app_id":440,"player_count":0,"max_players":32,"Bots":0,"server_type":"Dedicated","server_os":"Linux","password":true,"vac":true,"version":"7961495","steam_id":85568392925397851,"keywords":["alltalk","cp","danepve","increased_maxplayers","nocrits","norespawntime","uncletopia"],"game_id":440,"stv_port":0,"stv_name":"","players":null},{"server_id":51,"name":"Uncletopia | Warsaw | 3 | All Maps","name_short":"waw-3","host":"waw-1.pl.uncletopia.com","port":27035,"enabled":true,"region":"eu","cc":"pl","latitude":52.2297,"longitude":21.017532,"reserved":0,"last_update":"0001-01-01T00:00:00Z","name_a2s":"Uncletopia | Warsaw | 3 | All Maps","protocol":17,"map":"plr_pipeline","folder":"tf","game":"Team Fortress","app_id":440,"player_count":0,"max_players":24,"Bots":0,"server_type":"Dedicated","server_os":"Linux","password":true,"vac":true,"version":"7961495","steam_id":85568392925397852,"keywords":["nocrits","nodmgspread","payload","uncletopia"],"game_id":440,"stv_port":27036,"stv_name":"Uncletopia | Warsaw | 3 | All Maps | STV","players":null},{"server_id":52,"name":"Uncletopia | Warsaw | 4 | All Maps","name_short":"waw-4","host":"waw-1.pl.uncletopia.com","port":27045,"enabled":true,"region":"eu","cc":"pl","latitude":52.2297,"longitude":21.017532,"reserved":0,"last_update":"0001-01-01T00:00:00Z","name_a2s":"Uncletopia | Warsaw | 4 | All Maps","protocol":17,"map":"cp_coldfront","folder":"tf","game":"Team Fortress","app_id":440,"player_count":0,"max_players":24,"Bots":0,"server_type":"Dedicated","server_os":"Linux","password":true,"vac":true,"version":"7961495","steam_id":85568392925397853,"keywords":["cp","nocrits","nodmgspread","uncletopia"],"game_id":440,"stv_port":27046,"stv_name":"Uncletopia | Warsaw | 4 | All Maps | STV","players":null},{"server_id":53,"name":"Uncletopia | Warsaw | 5 | Stopwatch","name_short":"waw-5","host":"waw-1.pl.uncletopia.com","port":27055,"enabled":true,"region":"eu","cc":"pl","latitude":52.2297,"longitude":21.017532,"reserved":0,"last_update":"0001-01-01T00:00:00Z","name_a2s":"Uncletopia | Warsaw | 5 | Stopwatch","protocol":17,"map":"workshop/koth_bagel_rc6.ugc2514036946","folder":"tf","game":"Team Fortress","app_id":440,"player_count":0,"max_players":24,"Bots":0,"server_type":"Dedicated","server_os":"Linux","password":true,"vac":true,"version":"7961495","steam_id":85568392925397854,"keywords":["cp","nocrits","nodmgspread","uncletopia"],"game_id":440,"stv_port":27056,"stv_name":"Uncletopia | Warsaw | 5 | Stopwatch | STV","players":null},{"server_id":54,"name":"Uncletopia | Warsaw | 6 | Community","name_short":"waw-6","host":"waw-1.pl.uncletopia.com","port":27065,"enabled":true,"region":"eu","cc":"pl","latitude":52.2297,"longitude":21.017532,"reserved":0,"last_update":"0001-01-01T00:00:00Z","name_a2s":"Uncletopia | Warsaw | 6 | Community","protocol":17,"map":"workshop/pl_badwater_pro_v12.ugc2142942074","folder":"tf","game":"Team Fortress","app_id":440,"player_count":0,"max_players":24,"Bots":0,"server_type":"Dedicated","server_os":"Linux","password":true,"vac":true,"version":"7961495","steam_id":85568392925397856,"keywords":["nocrits","nodmgspread","payload","uncletopia"],"game_id":440,"stv_port":27066,"stv_name":"Uncletopia | Warsaw | 6 | Community | STV","players":null}]}