{"status":true,"message":"","result":[{"server_id":9,"name":"Uncletopia | Atlanta | 1 | All Maps","name_short":"atl-1","host":"atl-1.us.uncletopia.com","port":27015,"enabled":true,"region":"us-east","cc":"us","latitude":33.753746,"longitude":-84.38633,"reserved":0,"last_update":"0001-01-01T00:00:00Z","name_a2s":"Uncletopia | Atlanta | 1 | All Maps","protocol":17,"map":"pl_borneo","folder":"tf","game":"Team Fortress","app_id":440,"player_count":24,"max_players":24,"Bots":0,"server_type":"Dedicated","server_os":"Linux","password":true,"vac":true,"version":"7961495","steam_id":85568392924469982,"keywords":["nocrits","nodmgspread","payload","uncletopia"],"game_id":440,"stv_port":27016,"stv_name":"Uncletopia | Atlanta | 1 | All Maps | STV","players":[{"user_id":374,"name":"row","steam_id":76561198040946044,"connected_time":6166000000000,"state":"active","ping":66},{"user_id":285,"name":"Ashes!","steam_id":76561197998475441,"connected_time":12716000000000,"state":"active","ping":76},{"user_id":435,"name":"Grim","steam_id":76561198225241776,"connected_time":401000000000,"state":"active","ping":72},{"user_id":436,"name":"Splexiey","steam_id":76561199122155213,"connected_time":347000000000,"state":"active","ping":82},{"user_id":437,"name":"101_the_Robot","steam_id":76561198331039848,"connected_time":340000000000,"state":"active","ping":93},{"user_id":438,"name":"_Ya_Boy_Alpha_","steam_id":76561198835295433,"connected_time":334000000000,"state":"active","ping":114},{"user_id":411,"name":"neun_o2","steam_id":76561198795862574,"connected_time":2798000000000,"state":"active","ping":72},{"user_id":428,"name":"TacoMan4Life","steam_id":76561198832562728,"connected_time":1541000000000,"state":"active","ping":124},{"user_id":313,"name":"CoffeeZombee","steam_id":76561198172708053,"connected_time":10368000000000,"state":"active","ping":69},{"user_id":433,"name":"Mal","steam_id":76561198066074151,"connected_time":418000000000,"state":"active","ping":62},{"user_id":377,"name":"The CEO of cement","steam_id":76561199107177460,"connected_time":6097000000000,"state":"active","ping":112},{"user_id":425,"name":"Squigly","steam_id":76561198084811625,"connected_time":1584000000000,"state":"active","ping":98},{"user_id":415,"name":"yes daddy","steam_id":76561198166100997,"connected_time":2650000000000,"state":"active","ping":72},{"user_id":319,"name":"lynt","steam_id":76561198988333976,"connected_time":9787000000000,"state":"active","ping":42},{"user_id":439,"name":"Wiggs is the Shiggs","steam_id":76561198078379719,"connected_time":295000000000,"state":"active","ping":103},{"user_id":432,"name":"why","steam_id":76561199059732212,"connected_time":489000000000,"state":"active","ping":55},{"user_id":440,"name":"Johnny Lawrence #JohnnyMaxxing","steam_id":76561199367141671,"connected_time":270000000000,"state":"active","ping":71},{"user_id":431,"name":"eish","steam_id":76561198089463603,"connected_time":788000000000,"state":"active","ping":124},{"user_id":430,"name":"AckWhack","steam_id":76561199060503258,"connected_time":810000000000,"state":"active","ping":106},{"user_id":409,"name":"reis","steam_id":76561199232952016,"connected_time":3074000000000,"state":"active","ping":179},{"user_id":442,"name":"Blippity Blop","steam_id":76561198830927973,"connected_time":73000000000,"state":"active","ping":97},{"user_id":419,"name":"Zymiren","steam_id":76561198054985471,"connected_time":2571000000000,"state":"active","ping":115},{"user_id":398,"name":"Heathcliff","steam_id":76561198044288534,"connected_time":4136000000000,"state":"active","ping":76},{"user_id":426,"name":"he suckin on my rick til i mort","steam_id":76561198310711692,"connected_time":1584000000000,"state":"active","ping":166}]},{"server_id":104,"name":"Uncletopia | Atlanta | 2 | All Maps","name_short":"atl-2","host":"atl-1.us.uncletopia.com","port":27025,"enabled":true,"region":"us-east","cc":"us","latitude":33.753746,"longitude":-84.38633,"reserved":0,"last_update":"0001-01-01T00:00:00Z","name_a2s":"Uncletopia | Atlanta | 2 | All Maps","protocol":17,"map":"koth_cascade","folder":"tf","game":"Team Fortress","app_id":440,"player_count":0,"max_players":24,"Bots":0,"server_type":"Dedicated","server_os":"Linux","password":true,"vac":true,"version":"7961495","steam_id":85568392924469983,"keywords":["cp","nocrits","nodmgspread","uncletopia"],"game_id":440,"stv_port":27026,"stv_name":"Uncletopia | Atlanta | 2 | All Maps | STV","players":null},{"server_id":400,"name":"Uncletopia | Atlanta | 3 | Stopwatch","name_short":"atl-3","host":"atl-1.us.uncletopia.com","port":27035,"enabled":true,"region":"us-east","cc":"us","latitude":33.753746,"longitude":-84.38633,"reserved":0,"last_update":"0001-01-01T00:00:00Z","name_a2s":"Uncletopia | Atlanta | 3 | Stopwatch","protocol":17,"map":"workshop/pl_summercoast_rc8e.ugc1761528829","folder":"tf","game":"Team Fortress","app_id":440,"player_count":24,"max_players":24,"Bots":0,"server_type":"Dedicated","server_os":"Linux","password":true,"vac":true,"version":"7961495","steam_id":85568392924515187,"keywords":["nocrits","nodmgspread","payload","uncletopia"],"game_id":440,"stv_port":27036,"stv_name":"Uncletopia | Atlanta | 3 | Stopwatch | STV","players":[{"user_id":102,"name":"FTWillz","steam_id":76561199075636624,"connected_time":771000000000,"state":"active","ping":104},{"user_id":118,"name":"A-Side","steam_id":76561199188699397,"connected_time":330000000000,"state":"active","ping":88},{"user_id":81,"name":"Wengatang","steam_id":76561198021747059,"connected_time":2065000000000,"state":"active","ping":57},{"user_id":82,"name":"Butt Cheese Wanky","steam_id":76561198006569710,"connected_time":2020000000000,"state":"active","ping":90},{"user_id":104,"name":"ark","steam_id":76561198041066271,"connected_time":719000000000,"state":"active","ping":88},{"user_id":88,"name":"You hate kissing boys,Don't you","steam_id":76561198996218460,"connected_time":1240000000000,"state":"active","ping":66},{"user_id":105,"name":"speaker","steam_id":76561198016067244,"connected_time":690000000000,"state":"active","ping":52},{"user_id":89,"name":"Grandpa´s Last Drop of Cum","steam_id":76561198079516696,"connected_time":1196000000000,"state":"active","ping":105},{"user_id":90,"name":"box","steam_id":76561198985635309,"connected_time":1192000000000,"state":"active","ping":88},{"user_id":91,"name":"You Like Being Impregnated, Son","steam_id":76561198415006216,"connected_time":1182000000000,"state":"active","ping":81},{"user_id":106,"name":"TF2C | fac","steam_id":76561198009818412,"connected_time":679000000000,"state":"active","ping":74},{"user_id":107,"name":"ṽ⧉ cookie","steam_id":76561197998884823,"connected_time":658000000000,"state":"active","ping":86},{"user_id":119,"name":"DoctorDrew","steam_id":76561197962400538,"connected_time":175000000000,"state":"active","ping":106},{"user_id":108,"name":"Kmann","steam_id":76561199229843447,"connected_time":649000000000,"state":"active","ping":94},{"user_id":109,"name":"retard man from retard land","steam_id":76561198984228021,"connected_time":607000000000,"state":"active","ping":58},{"user_id":98,"name":"basilberry","steam_id":76561198145275937,"connected_time":865000000000,"state":"active","ping":89},{"user_id":77,"name":"RPGnoob","steam_id":76561198384913758,"connected_time":2481000000000,"state":"active","ping":76},{"user_id":112,"name":"Transformouse","steam_id":76561198004669368,"connected_time":514000000000,"state":"active","ping":77},{"user_id":111,"name":"nick","steam_id":76561198041362771,"connected_time":562000000000,"state":"active","ping":82},{"user_id":113,"name":"Meme Rights Activist","steam_id":76561198329460817,"connected_time":513000000000,"state":"active","ping":62},{"user_id":115,"name":"mac","steam_id":76561199192974905,"connected_time":452000000000,"state":"active","ping":79},{"user_id":117,"name":"dog","steam_id":76561198263873491,"connected_time":435000000000,"state":"active","ping":58},{"user_id":120,"name":"Yoshimelon","steam_id":76561198253054325,"connected_time":157000000000,"state":"active","ping":62},{"user_id":121,"name":"neo :)","steam_id":76561199092954930,"connected_time":133000000000,"state":"active","ping":78}]},{"server_id":401,"name":"Uncletopia | Atlanta | 4 | Community","name_short":"atl-4","host":"atl-1.us.uncletopia.com","port":27045,"enabled":true,"region":"us-east","cc":"us","latitude":33.753746,"longitude":-84.38633,"reserved":0,"last_update":"0001-01-01T00:00:00Z","name_a2s":"Uncletopia | Atlanta | 4 | Community","protocol":17,"map":"workshop/koth_ashville_final.ugc2130459942","folder":"tf","game":"Team Fortress","app_id":440,"player_count":0,"max_players":24,"Bots":0,"server_type":"Dedicated","server_os":"Linux","password":true,"vac":true,"version":"7961495","steam_id":85568392924515188,"keywords":["cp","nocrits","nodmgspread","uncletopia"],"game_id":440,"stv_port":27046,"stv_name":"Uncletopia | Atlanta | 4 | Community | STV","players":null},{"server_id":2,"name":"Uncletopia | Chicago | 1 | All Maps","name_short":"chi-1","host":"chi-1.us.uncletopia.com","port":27015,"enabled":true,"region":"us-central","cc":"us","latitude":41.881832,"longitude":-87.62318,"reserved":0,"last_update":"0001-01-01T00:00:00Z","name_a2s":"Uncletopia | Chicago | 1 | All Maps","protocol":17,"map":"pl_borneo","folder":"tf","game":"Team Fortress","app_id":440,"player_count":24,"max_players":24,"Bots":0,"server_type":"Dedicated","server_os":"Linux","password":true,"vac":true,"version":"7961495","steam_id":85568392924469984,"keywords":["nocrits","nodmgspread","payload","uncletopia"],"game_id":440,"stv_port":27016,"stv_name":"Uncletopia | Chicago | 1 | All Maps | STV","players":[{"user_id":316,"name":"Das Anchor","steam_id":76561198060173151,"connected_time":320000000000,"state":"active","ping":92},{"user_id":290,"name":"Oh, it's Zach","steam_id":76561198103309672,"connected_time":1807000000000,"state":"active","ping":58},{"user_id":297,"name":"Ganondorf","steam_id":76561198010421059,"connected_time":1340000000000,"state":"active","ping":52},{"user_id":307,"name":"Baller64","steam_id":76561199468366156,"connected_time":896000000000,"state":"active","ping":86},{"user_id":314,"name":"Other Players, My One Weakness","steam_id":76561197989247588,"connected_time":540000000000,"state":"active","ping":75},{"user_id":320,"name":"Comfy!","steam_id":76561198008818346,"connected_time":153000000000,"state":"active","ping":88},{"user_id":315,"name":"P.C. Baby","steam_id":76561198067011379,"connected_time":476000000000,"state":"active","ping":148},{"user_id":230,"name":"ZonedIn","steam_id":76561198042395286,"connected_time":5516000000000,"state":"active","ping":102},{"user_id":287,"name":"Robogineer","steam_id":76561198026994739,"connected_time":2011000000000,"state":"active","ping":103},{"user_id":321,"name":"Nestor","steam_id":76561198070782619,"connected_time":116000000000,"state":"active","ping":60},{"user_id":272,"name":"Your Local Queer Librarian","steam_id":76561198013077080,"connected_time":3331000000000,"state":"active","ping":58},{"user_id":296,"name":"Whoisthismaxguy","steam_id":76561198064247762,"connected_time":1418000000000,"state":"active","ping":38},{"user_id":301,"name":"Astoriae, Lover of Furriness","steam_id":76561199090168858,"connected_time":1114000000000,"state":"active","ping":68},{"user_id":298,"name":"V.IV","steam_id":76561198167411287,"connected_time":1232000000000,"state":"active","ping":48},{"user_id":318,"name":"JOOOOOOOOOOOOO!!!!!!","steam_id":76561199101638460,"connected_time":236000000000,"state":"active","ping":76},{"user_id":274,"name":"fried rice","steam_id":76561198928939100,"connected_time":2809000000000,"state":"active","ping":76},{"user_id":309,"name":"herb","steam_id":76561198185980055,"connected_time":808000000000,"state":"active","ping":60},{"user_id":322,"name":"-{SL}- Dr. Hoja","steam_id":76561198024601289,"connected_time":113000000000,"state":"active","ping":61},{"user_id":300,"name":"laz","steam_id":76561198334164507,"connected_time":1186000000000,"state":"active","ping":74},{"user_id":319,"name":"Dzhoshua","steam_id":76561198071915251,"connected_time":233000000000,"state":"active","ping":69},{"user_id":323,"name":"Rulers Reach fan","steam_id":76561198367340750,"connected_time":110000000000,"state":"active","ping":59},{"user_id":280,"name":"TittyBoii69","steam_id":76561198096412234,"connected_time":2234000000000,"state":"active","ping":64},{"user_id":265,"name":"DanO Tron ex","steam_id":76561198380959442,"connected_time":3934000000000,"state":"active","ping":86},{"user_id":324,"name":"redarcher42","steam_id":76561199027887687,"connected_time":79000000000,"state":"active","ping":83}]},{"server_id":106,"name":"Uncletopia | Chicago | 2 | All Maps","name_short":"chi-2","host":"chi-1.us.uncletopia.com","port":27025,"enabled":true,"region":"us-central","cc":"us","latitude":41.881832,"longitude":-87.62318,"reserved":0,"last_update":"0001-01-01T00:00:00Z","name_a2s":"Uncletopia | Chicago | 2 | All Maps","protocol":17,"map":"pl_swiftwater_final1","folder":"tf","game":"Team Fortress","app_id":440,"player_count":24,"max_players":24,"Bots":0,"server_type":"Dedicated","server_os":"Linux","password":true,"vac":true,"version":"7961495","steam_id":85568392924469985,"keywords":["nocrits","nodmgspread","payload","uncletopia"],"game_id":440,"stv_port":27026,"stv_name":"Uncletopia | Chicago | 2 | All Maps | STV","players":[{"user_id":247,"name":"sprot","steam_id":76561198140474431,"connected_time":301000000000,"state":"active","ping":99},{"user_id":226,"name":"♥HENRI_PEPPERBOTTOM♥","steam_id":76561199015384145,"connected_time":1389000000000,"state":"active","ping":86},{"user_id":192,"name":"Dosario","steam_id":76561198298095535,"connected_time":3311000000000,"state":"active","ping":105},{"user_id":232,"name":"The local hobo","steam_id":76561198289650060,"connected_time":1232000000000,"state":"active","ping":82},{"user_id":117,"name":"Lucy Lou!","steam_id":76561198078209088,"connected_time":9922000000000,"state":"active","ping":43},{"user_id":245,"name":"Ligmus Sigmus","steam_id":76561198168946002,"connected_time":396000000000,"state":"active","ping":58},{"user_id":219,"name":"I Must Frag","steam_id":76561198909415646,"connected_time":2453000000000,"state":"active","ping":79},{"user_id":218,"name":"AUSTIN THEORY","steam_id":76561198288743767,"connected_time":2475000000000,"state":"active","ping":112},{"user_id":222,"name":"Ninjoth","steam_id":76561198038611753,"connected_time":1472000000000,"state":"active","ping":83},{"user_id":195,"name":"Scoot the Burbs","steam_id":76561198079507179,"connected_time":3282000000000,"state":"active","ping":72},{"user_id":238,"name":"DysfunctionJunction","steam_id":76561198051815183,"connected_time":988000000000,"state":"active","ping":59},{"user_id":154,"name":"Bottom Trans Cowgirl","steam_id":76561198304239680,"connected_time":6075000000000,"state":"active","ping":75},{"user_id":221,"name":"Lunarthrope","steam_id":76561198292132147,"connected_time":1557000000000,"state":"active","ping":116},{"user_id":250,"name":"Flyinglab","steam_id":76561198042161408,"connected_time":153000000000,"state":"active","ping":77},{"user_id":234,"name":"DEA Agent Hank Schrader","steam_id":76561198061014043,"connected_time":1097000000000,"state":"active","ping":42},{"user_id":243,"name":"Luxembird","steam_id":76561198079992107,"connected_time":554000000000,"state":"active","ping":89},{"user_id":239,"name":"dadgummit","steam_id":76561198005806915,"connected_time":970000000000,"state":"active","ping":59},{"user_id":237,"name":"REEEEEEEEEEEEEEEEEEEE","steam_id":76561199411565786,"connected_time":1060000000000,"state":"active","ping":85},{"user_id":241,"name":"MCMXC","steam_id":76561199017754044,"connected_time":603000000000,"state":"active","ping":77},{"user_id":246,"name":"Octomal800","steam_id":76561199453595616,"connected_time":381000000000,"state":"active","ping":73},{"user_id":202,"name":"anonion","steam_id":76561198056477584,"connected_time":3086000000000,"state":"active","ping":86},{"user_id":242,"name":"Dreysidel","steam_id":76561198056496183,"connected_time":602000000000,"state":"active","ping":68},{"user_id":236,"name":"atlas","steam_id":76561198398383076,"connected_time":1074000000000,"state":"active","ping":118},{"user_id":182,"name":"viva la vida","steam_id":76561198072179483,"connected_time":4351000000000,"state":"active","ping":92}]},{"server_id":402,"name":"Uncletopia | Chicago | 3 | All Maps","name_short":"chi-3","host":"chi-1.us.uncletopia.com","port":27035,"enabled":true,"region":"us-central","cc":"us","latitude":41.881832,"longitude":-87.62318,"reserved":0,"last_update":"0001-01-01T00:00:00Z","name_a2s":"Uncletopia | Chicago | 3 | All Maps","protocol":17,"map":"pl_upward","folder":"tf","game":"Team Fortress","app_id":440,"player_count":23,"max_players":24,"Bots":0,"server_type":"Dedicated","server_os":"Linux","password":true,"vac":true,"version":"7961495","steam_id":85568392924515191,"keywords":["nocrits","nodmgspread","payload","uncletopia"],"game_id":440,"stv_port":27036,"stv_name":"Uncletopia | Chicago | 3 | All Maps | STV","players":[{"user_id":653,"name":"Sultan","steam_id":76561198447852406,"connected_time":461000000000,"state":"active","ping":67},{"user_id":652,"name":"eggo-on-a-stick","steam_id":76561198799357966,"connected_time":550000000000,"state":"active","ping":93},{"user_id":655,"name":"R@cing74m","steam_id":76561199036177043,"connected_time":109000000000,"state":"active","ping":66},{"user_id":645,"name":"bookreader","steam_id":76561198978568007,"connected_time":882000000000,"state":"active","ping":52},{"user_id":624,"name":"Bucc ee's Esports","steam_id":76561198148732087,"connected_time":1733000000000,"state":"active","ping":58},{"user_id":646,"name":"babywhoa","steam_id":76561198070854627,"connected_time":799000000000,"state":"active","ping":97},{"user_id":654,"name":"Discount TaDa #SaveTF2 Repeat.g","steam_id":76561198340196737,"connected_time":319000000000,"state":"active","ping":86},{"user_id":626,"name":"Major Woody","steam_id":76561198835541533,"connected_time":1690000000000,"state":"active","ping":76},{"user_id":647,"name":"whatever","steam_id":76561197994759007,"connected_time":761000000000,"state":"active","ping":75},{"user_id":637,"name":"DETCON 1","steam_id":76561198170859755,"connected_time":1106000000000,"state":"active","ping":65},{"user_id":627,"name":"LiterallyDJ","steam_id":76561198030293743,"connected_time":1680000000000,"state":"active","ping":101},{"user_id":590,"name":"Cubeclassic","steam_id":76561198040823289,"connected_time":3779000000000,"state":"active","ping":62},{"user_id":628,"name":"Cream Corn","steam_id":76561198043791586,"connected_time":1674000000000,"state":"active","ping":47},{"user_id":648,"name":"Vaudeville Villain","steam_id":76561197991063996,"connected_time":746000000000,"state":"active","ping":53},{"user_id":649,"name":"turbo shart","steam_id":76561198012351808,"connected_time":733000000000,"state":"active","ping":135},{"user_id":618,"name":"Delsym Sipper","steam_id":76561198206177593,"connected_time":1897000000000,"state":"active","ping":104},{"user_id":643,"name":"CaptainCupcake69.TTV","steam_id":76561198111951014,"connected_time":923000000000,"state":"active","ping":81},{"user_id":619,"name":"ArmyGuyIan","steam_id":76561198120926552,"connected_time":1875000000000,"state":"active","ping":69},{"user_id":630,"name":"Burny Sanders","steam_id":76561197961879048,"connected_time":1650000000000,"state":"active","ping":67},{"user_id":584,"name":"Ball Juggler","steam_id":76561198031675881,"connected_time":4139000000000,"state":"active","ping":43},{"user_id":596,"name":"Not Edward Elric","steam_id":76561198091609999,"connected_time":3479000000000,"state":"active","ping":81},{"user_id":651,"name":"Luci★Fer","steam_id":76561199030343810,"connected_time":703000000000,"state":"active","ping":59},{"user_id":620,"name":"Evelynn the Fox","steam_id":76561198050946208,"connected_time":1869000000000,"state":"active","ping":85}]},{"server_id":403,"name":"Uncletopia | Chicago | 4 | All Maps","name_short":"chi-4","host":"chi-1.us.uncletopia.com","port":27045,"enabled":true,"region":"us-central","cc":"us","latitude":41.881832,"longitude":-87.62318,"reserved":0,"last_update":"0001-01-01T00:00:00Z","name_a2s":"Uncletopia | Chicago | 4 | All Maps","protocol":17,"map":"pl_upward","folder":"tf","game":"Team Fortress","app_id":440,"player_count":24,"max_players":24,"Bots":0,"server_type":"Dedicated","server_os":"Linux","password":true,"vac":true,"version":"7961495","steam_id":85568392924515193,"keywords":["nocrits","nodmgspread","payload","uncletopia"],"game_id":440,"stv_port":27046,"stv_name":"Uncletopia | Chicago | 4 | All Maps | STV","players":[{"user_id":105,"name":"Your Loyal Familiar","steam_id":76561198106476075,"connected_time":4138000000000,"state":"active","ping":81},{"user_id":141,"name":"FlamingFox","steam_id":76561198107702313,"connected_time":1728000000000,"state":"active","ping":72},{"user_id":49,"name":"Vorgor","steam_id":76561198157692022,"connected_time":7645000000000,"state":"active","ping":144},{"user_id":163,"name":"feleven","steam_id":76561198853721046,"connected_time":558000000000,"state":"active","ping":73},{"user_id":140,"name":"ther","steam_id":76561199191376935,"connected_time":1790000000000,"state":"active","ping":77},{"user_id":161,"name":"Shady Businessman","steam_id":76561198143855968,"connected_time":622000000000,"state":"active","ping":92},{"user_id":167,"name":"Siz","steam_id":76561198072962154,"connected_time":74000000000,"state":"active","ping":61},{"user_id":94,"name":"Shoeshocker","steam_id":76561198174302467,"connected_time":4723000000000,"state":"active","ping":124},{"user_id":139,"name":"Violinja","steam_id":76561198324875899,"connected_time":1835000000000,"state":"active","ping":57},{"user_id":166,"name":"Dream","steam_id":76561198802024369,"connected_time":329000000000,"state":"active","ping":131},{"user_id":168,"name":"Sir Iasis","steam_id":76561198035666760,"connected_time":21000000000,"state":"active","ping":77},{"user_id":147,"name":".jpg","steam_id":76561198137237377,"connected_time":1218000000000,"state":"active","ping":69},{"user_id":118,"name":"Soupcan","steam_id":76561198012807915,"connected_time":3283000000000,"state":"active","ping":80},{"user_id":142,"name":"catboy extraordinaire","steam_id":76561197983889333,"connected_time":1710000000000,"state":"active","ping":169},{"user_id":148,"name":"Ninetees","steam_id":76561198119483989,"connected_time":1173000000000,"state":"active","ping":80},{"user_id":159,"name":"Tero","steam_id":76561198073147972,"connected_time":672000000000,"state":"active","ping":160},{"user_id":122,"name":"Dinosaur","steam_id":76561199079626189,"connected_time":3228000000000,"state":"active","ping":72},{"user_id":106,"name":"Digitic","steam_id":76561198080295536,"connected_time":4120000000000,"state":"active","ping":77},{"user_id":150,"name":"shai","steam_id":76561198144909435,"connected_time":1153000000000,"state":"active","ping":118},{"user_id":123,"name":"summerlis","steam_id":76561198165324438,"connected_time":3225000000000,"state":"active","ping":90},{"user_id":153,"name":"Blitzoetic","steam_id":76561198053239412,"connected_time":1083000000000,"state":"active","ping":104},{"user_id":155,"name":"Kek","steam_id":76561198067689989,"connected_time":954000000000,"state":"active","ping":58},{"user_id":157,"name":"Shrebbie","steam_id":76561198875230824,"connected_time":817000000000,"state":"active","ping":63},{"user_id":169,"name":"epic_charles","steam_id":76561198048485283,"connected_time":17000000000,"state":"active","ping":75}]},{"server_id":36,"name":"Uncletopia | Chicago | 5 | All Maps","name_short":"chi-5","host":"chi-2.us.uncletopia.com","port":27015,"enabled":true,"region":"us-central","cc":"us","latitude":41.881832,"longitude":-87.62318,"reserved":0,"last_update":"0001-01-01T00:00:00Z","name_a2s":"Uncletopia | Chicago | 5 | All Maps","protocol":17,"map":"koth_viaduct","folder":"tf","game":"Team Fortress","app_id":440,"player_count":0,"max_players":24,"Bots":0,"server_type":"Dedicated","server_os":"Linux","password":true,"vac":true,"version":"7961495","steam_id":85568392924866362,"keywords":["cp","nocrits","nodmgspread","uncletopia"],"game_id":440,"stv_port":27016,"stv_name":"Uncletopia | Chicago | 5 | All Maps | STV","players":null},{"server_id":37,"name":"Uncletopia | Chicago | 6 | All Maps","name_short":"chi-6","host":"chi-2.us.uncletopia.com","port":27025,"enabled":true,"region":"us-central","cc":"us","latitude":41.881832,"longitude":-87.62318,"reserved":0,"last_update":"0001-01-01T00:00:00Z","name_a2s":"Uncletopia | Chicago | 6 | All Maps","protocol":17,"map":"cp_steel","folder":"tf","game":"Team Fortress","app_id":440,"player_count":24,"max_players":24,"Bots":0,"server_type":"Dedicated","server_os":"Linux","password":true,"vac":true,"version":"7961495","steam_id":85568392924866363,"keywords":["cp","nocrits","nodmgspread","uncletopia"],"game_id":440,"stv_port":27026,"stv_name":"Uncletopia | Chicago | 6 | All Maps | STV","players":[{"user_id":22,"name":"dark souls boss","steam_id":76561198316610724,"connected_time":904000000000,"state":"active","ping":93},{"user_id":30,"name":"Girl Cock Enjoyer","steam_id":76561198087675425,"connected_time":615000000000,"state":"active","ping":43},{"user_id":31,"name":"RoFrogle","steam_id":76561199078941377,"connected_time":572000000000,"state":"active","ping":70},{"user_id":15,"name":"General Sherman","steam_id":76561198044769376,"connected_time":2056000000000,"state":"active","ping":72},{"user_id":39,"name":"MidSobbes08","steam_id":76561199013101925,"connected_time":206000000000,"state":"active","ping":118},{"user_id":33,"name":"Aztea","steam_id":76561198982089893,"connected_time":436000000000,"state":"active","ping":77},{"user_id":19,"name":"asm_ghost","steam_id":76561199205363547,"connected_time":1858000000000,"state":"active","ping":128},{"user_id":34,"name":"flarifier","steam_id":76561198315072848,"connected_time":383000000000,"state":"active","ping":71},{"user_id":25,"name":"dweamy","steam_id":76561198119181880,"connected_time":778000000000,"state":"active","ping":79},{"user_id":35,"name":"illness","steam_id":76561198881651324,"connected_time":301000000000,"state":"active","ping":74},{"user_id":36,"name":"Gamering_funy","steam_id":76561199006503777,"connected_time":298000000000,"state":"active","ping":46},{"user_id":37,"name":"Fernando Alonso","steam_id":76561198066822788,"connected_time":292000000000,"state":"active","ping":83},{"user_id":38,"name":"10 INCH TGIRL SCHLONG","steam_id":76561198122059018,"connected_time":272000000000,"state":"active","ping":46},{"user_id":40,"name":"G78Viper","steam_id":76561199246056664,"connected_time":191000000000,"state":"active","ping":400},{"user_id":41,"name":"Andrew Weber","steam_id":76561199359977174,"connected_time":161000000000,"state":"active","ping":99},{"user_id":42,"name":"Jefferton","steam_id":76561198406216568,"connected_time":160000000000,"state":"active","ping":74},{"user_id":43,"name":"pinglefingle","steam_id":76561198216580197,"connected_time":134000000000,"state":"active","ping":63},{"user_id":44,"name":"Bhutch","steam_id":76561198145654275,"connected_time":132000000000,"state":"active","ping":90},{"user_id":46,"name":"VAL-ARVIAL","steam_id":76561198162374962,"connected_time":47000000000,"state":"active","ping":62},{"user_id":47,"name":"delight","steam_id":76561197980280272,"connected_time":42000000000,"state":"active","ping":91},{"user_id":48,"name":"Kyle Kushman","steam_id":76561199257008060,"connected_time":25000000000,"state":"active","ping":71},{"user_id":49,"name":"Big Slime","steam_id":76561198801805642,"connected_time":20000000000,"state":"active","ping":89},{"user_id":50,"name":"otwtomarsoffdabars(spacecore)","steam_id":76561199085974120,"connected_time":19000000000,"state":"active","ping":73},{"user_id":51,"name":"Rasav","steam_id":76561198064172772,"connected_time":12000000000,"state":"spawning","ping":81}]},{"server_id":38,"name":"Uncletopia | Chicago | 7 | Stopwatch","name_short":"chi-7","host":"chi-2.us.uncletopia.com","port":27035,"enabled":true,"region":"us-central","cc":"us","latitude":41.881832,"longitude":-87.62318,"reserved":0,"last_update":"0001-01-01T00:00:00Z","name_a2s":"Uncletopia | Chicago | 7 | Stopwatch","protocol":17,"map":"workshop/koth_bagel_rc6.ugc2514036946","folder":"tf","game":"Team Fortress","app_id":440,"player_count":0,"max_players":24,"Bots":0,"server_type":"Dedicated","server_os":"Linux","password":true,"vac":true,"version":"7961495","steam_id":85568392924866364,"keywords":["cp","nocrits","nodmgspread","uncletopia"],"game_id":440,"stv_port":27036,"stv_name":"Uncletopia | Chicago | 7 | Stopwatch | STV","players":null},{"server_id":39,"name":"Uncletopia | Chicago | 8 | Community","name_short":"chi-8","host":"chi-2.us.uncletopia.com","port":27045,"enabled":true,"region":"us-central","cc":"us","latitude":41.881832,"longitude":-87.62318,"reserved":0,"last_update":"0001-01-01T00:00:00Z","name_a2s":"Uncletopia | Chicago | 8 | Community","protocol":17,"map":"workshop/koth_synthetic_rc6a.ugc1549817316","folder":"tf","game":"Team Fortress","app_id":440,"player_count":0,"max_players":24,"Bots":0,"server_type":"Dedicated","server_os":"Linux","password":true,"vac":true,"version":"7961495","steam_id":85568392924866365,"keywords":["cp","nocrits","nodmgspread","uncletopia"],"game_id":440,"stv_port":27046,"stv_name":"Uncletopia | Chicago | 8 | Community | STV","players":null},{"server_id":8,"name":"Uncletopia | Dallas | 1 | All Maps","name_short":"dal-1","host":"dal-1.us.uncletopia.com","port":27015,"enabled":true,"region":"us-central","cc":"us","latitude":32.779167,"longitude":-96.80889,"reserved":0,"last_update":"0001-01-01T00:00:00Z","name_a2s":"Uncletopia | Dallas | 1 | All Maps","protocol":17,"map":"koth_viaduct","folder":"tf","game":"Team Fortress","app_id":440,"player_count":0,"max_players":24,"Bots":0,"server_type":"Dedicated","server_os":"Linux","password":true,"vac":true,"version":"7961495","steam_id":85568392924469986,"keywords":["cp","nocrits","nodmgspread","uncletopia"],"game_id":440,"stv_port":27016,"stv_name":"Uncletopia | Dallas | 1 | All Maps | STV","players":null},{"server_id":108,"name":"Uncletopia | Dallas | 2 | All Maps","name_short":"dal-2","host":"dal-1.us.uncletopia.com","port":27025,"enabled":true,"region":"us-central","cc":"us","latitude":32.779167,"longitude":-96.80889,"reserved":0,"last_update":"0001-01-01T00:00:00Z","name_a2s":"Uncletopia | Dallas | 2 | All Maps","protocol":17,"map":"pl_upward","folder":"tf","game":"Team Fortress","app_id":440,"player_count":24,"max_players":24,"Bots":0,"server_type":"Dedicated","server_os":"Linux","password":true,"vac":true,"version":"7961495","steam_id":85568392924469988,"keywords":["nocrits","nodmgspread","payload","uncletopia"],"game_id":440,"stv_port":27026,"stv_name":"Uncletopia | Dallas | 2 | All Maps | STV","players":[{"user_id":354,"name":"ham salmontizer","steam_id":76561198168840293,"connected_time":2794000000000,"state":"active","ping":73},{"user_id":331,"name":"Kirby.exe","steam_id":76561198242714582,"connected_time":5299000000000,"state":"active","ping":47},{"user_id":352,"name":"HUMBY","steam_id":76561198065045867,"connected_time":2828000000000,"state":"active","ping":81},{"user_id":355,"name":"Dr. Bobo","steam_id":76561198271696761,"connected_time":2788000000000,"state":"active","ping":56},{"user_id":345,"name":"what a fukkin","steam_id":76561198298442983,"connected_time":3667000000000,"state":"active","ping":104},{"user_id":369,"name":"K2f","steam_id":76561198049600563,"connected_time":1391000000000,"state":"active","ping":76},{"user_id":346,"name":"Kung fu MUNGUS","steam_id":76561198069281556,"connected_time":3647000000000,"state":"active","ping":74},{"user_id":370,"name":"Timmy The Tyrant","steam_id":76561199156409732,"connected_time":1340000000000,"state":"active","ping":46},{"user_id":371,"name":"purple diesel","steam_id":76561197976548449,"connected_time":1331000000000,"state":"active","ping":91},{"user_id":379,"name":"StretchySnail59","steam_id":76561198073535005,"connected_time":631000000000,"state":"active","ping":75},{"user_id":343,"name":"ShapedSilver","steam_id":76561199073305310,"connected_time":3922000000000,"state":"active","ping":70},{"user_id":376,"name":"bruh","steam_id":76561198305505479,"connected_time":805000000000,"state":"active","ping":35},{"user_id":381,"name":"VaL-ASROC","steam_id":76561198886493635,"connected_time":468000000000,"state":"active","ping":75},{"user_id":383,"name":"uncletopia dallas 2 player","steam_id":76561198412786186,"connected_time":415000000000,"state":"active","ping":46},{"user_id":378,"name":"Astrocircuit","steam_id":76561198014437544,"connected_time":661000000000,"state":"active","ping":85},{"user_id":351,"name":"Waesel","steam_id":76561198069188177,"connected_time":2835000000000,"state":"active","ping":72},{"user_id":329,"name":"mkl","steam_id":76561197986401685,"connected_time":5726000000000,"state":"active","ping":60},{"user_id":360,"name":"American Toast","steam_id":76561198080750932,"connected_time":2756000000000,"state":"active","ping":55},{"user_id":297,"name":"theManMan","steam_id":76561199488457138,"connected_time":7428000000000,"state":"active","ping":113},{"user_id":368,"name":"zzzark","steam_id":76561199085322062,"connected_time":2071000000000,"state":"active","ping":71},{"user_id":385,"name":"UnkownGamerLOL","steam_id":76561198225902368,"connected_time":219000000000,"state":"active","ping":72},{"user_id":312,"name":"Oopsie Daisy ❋","steam_id":76561198042144492,"connected_time":6787000000000,"state":"active","ping":78},{"user_id":380,"name":"Lickity Split","steam_id":76561198132051047,"connected_time":562000000000,"state":"active","ping":121},{"user_id":348,"name":"floofy","steam_id":76561198389769098,"connected_time":3631000000000,"state":"active","ping":87}]},{"server_id":404,"name":"Uncletopia | Dallas | 3 | All Maps","name_short":"dal-3","host":"dal-1.us.uncletopia.com","port":27035,"enabled":true,"region":"us-central","cc":"us","latitude":32.779167,"longitude":-96.80889,"reserved":0,"last_update":"0001-01-01T00:00:00Z","name_a2s":"Uncletopia | Dallas | 3 | All Maps","protocol":17,"map":"cp_dustbowl","folder":"tf","game":"Team Fortress","app_id":440,"player_count":0,"max_players":24,"Bots":0,"server_type":"Dedicated","server_os":"Linux","password":true,"vac":true,"version":"7961495","steam_id":85568392924515219,"keywords":["cp","nocrits","nodmgspread","uncletopia"],"game_id":440,"stv_port":27036,"stv_name":"Uncletopia | Dallas | 3 | All Maps | STV","players":null},{"server_id":405,"name":"Uncletopia | Dallas | 4 | Community","name_short":"dal-4","host":"dal-1.us.uncletopia.com","port":27045,"enabled":true,"region":"us-central","cc":"us","latitude":32.779167,"longitude":-96.80889,"reserved":0,"last_update":"0001-01-01T00:00:00Z","name_a2s":"Uncletopia | Dallas | 4 | Community","protocol":17,"map":"workshop/pl_barnblitz_pro7.ugc582280235","folder":"tf","game":"Team Fortress","app_id":440,"player_count":0,"max_players":24,"Bots":0,"server_type":"Dedicated","server_os":"Linux","password":true,"vac":true,"version":"7961495","steam_id":85568392924515220,"keywords":["nocrits","nodmgspread","payload","uncletopia"],"game_id":440,"stv_port":27046,"stv_name":"Uncletopia | Dallas | 4 | Community | STV","players":null},{"server_id":5,"name":"Uncletopia | Frankfurt | 1 | All Maps","name_short":"frk-1","host":"frk-1.de.uncletopia.com","port":27015,"enabled":true,"region":"eu","cc":"de","latitude":50.110924,"longitude":8.682127,"reserved":0,"last_update":"0001-01-01T00:00:00Z","name_a2s":"Uncletopia | Frankfurt | 1 | All Maps","protocol":17,"map":"pl_borneo","folder":"tf","game":"Team Fortress","app_id":440,"player_count":24,"max_players":24,"Bots":0,"server_type":"Dedicated","server_os":"Linux","password":true,"vac":true,"version":"7961495","steam_id":85568392924469989,"keywords":["nocrits","nodmgspread","payload","uncletopia"],"game_id":440,"stv_port":27016,"stv_name":"Uncletopia | Frankfurt | 1 | All Maps | STV","players":[{"user_id":839,"name":"Adushka","steam_id":76561198053095808,"connected_time":1008000000000,"state":"active","ping":82},{"user_id":847,"name":"catface","steam_id":76561198963378933,"connected_time":885000000000,"state":"active","ping":53},{"user_id":831,"name":"pardner","steam_id":76561198451471161,"connected_time":1682000000000,"state":"active","ping":68},{"user_id":849,"name":"ywy","steam_id":76561198088624259,"connected_time":639000000000,"state":"active","ping":62},{"user_id":837,"name":"Çodar","steam_id":76561198235518444,"connected_time":1111000000000,"state":"active","ping":46},{"user_id":825,"name":"benjels big day","steam_id":76561198025970709,"connected_time":2231000000000,"state":"active","ping":51},{"user_id":828,"name":"Pvt. Prinny","steam_id":76561198030278562,"connected_time":1911000000000,"state":"active","ping":58},{"user_id":715,"name":"fish","steam_id":76561198092096689,"connected_time":11082000000000,"state":"active","ping":46},{"user_id":826,"name":"Brian","steam_id":76561198077756206,"connected_time":2077000000000,"state":"active","ping":57},{"user_id":819,"name":"Wattseyy","steam_id":76561198248567360,"connected_time":2394000000000,"state":"active","ping":57},{"user_id":841,"name":"Pipper","steam_id":76561197970326616,"connected_time":956000000000,"state":"active","ping":66},{"user_id":838,"name":"aqpw","steam_id":76561198346638308,"connected_time":1095000000000,"state":"active","ping":59},{"user_id":787,"name":"Markein","steam_id":76561198360754280,"connected_time":5543000000000,"state":"active","ping":45},{"user_id":843,"name":"BeZpOnToVyY_PiRoZhoK","steam_id":76561198163138497,"connected_time":904000000000,"state":"active","ping":84},{"user_id":815,"name":"dick cheese enjoyer","steam_id":76561198077421906,"connected_time":3084000000000,"state":"active","ping":55},{"user_id":844,"name":"Lao","steam_id":76561198004528684,"connected_time":900000000000,"state":"active","ping":81},{"user_id":817,"name":"Spotmonkey","steam_id":76561198003994092,"connected_time":2466000000000,"state":"active","ping":71},{"user_id":836,"name":"lawn","steam_id":76561198001243486,"connected_time":1181000000000,"state":"active","ping":57},{"user_id":829,"name":"I only care about points","steam_id":76561198061478257,"connected_time":1840000000000,"state":"active","ping":44},{"user_id":823,"name":"n-b?d!n","steam_id":76561198307037169,"connected_time":2314000000000,"state":"active","ping":66},{"user_id":790,"name":"Silverbolt","steam_id":76561198153165763,"connected_time":5318000000000,"state":"active","ping":66},{"user_id":835,"name":"booba","steam_id":76561198158018284,"connected_time":1287000000000,"state":"active","ping":61},{"user_id":848,"name":"nose.spooner67","steam_id":76561198119324108,"connected_time":877000000000,"state":"active","ping":55},{"user_id":846,"name":"leave me alone","steam_id":76561198345202997,"connected_time":894000000000,"state":"active","ping":127}]},{"server_id":110,"name":"Uncletopia | Frankfurt | 2 | All Maps","name_short":"frk-2","host":"frk-1.de.uncletopia.com","port":27025,"enabled":true,"region":"eu","cc":"de","latitude":50.110924,"longitude":8.682127,"reserved":0,"last_update":"0001-01-01T00:00:00Z","name_a2s":"Uncletopia | Frankfurt | 2 | All Maps","protocol":17,"map":"koth_viaduct","folder":"tf","game":"Team Fortress","app_id":440,"player_count":24,"max_players":24,"Bots":0,"server_type":"Dedicated","server_os":"Linux","password":true,"vac":true,"version":"7961495","steam_id":85568392924469990,"keywords":["cp","nocrits","nodmgspread","uncletopia"],"game_id":440,"stv_port":27026,"stv_name":"Uncletopia | Frankfurt | 2 | All Maps | STV","players":[{"user_id":538,"name":"doug walker far from home","steam_id":76561198190073005,"connected_time":5646000000000,"state":"active","ping":58},{"user_id":600,"name":"DiJin","steam_id":76561198154349638,"connected_time":126000000000,"state":"active","ping":60},{"user_id":569,"name":"God's Goofiest Goober","steam_id":76561198103175187,"connected_time":2581000000000,"state":"active","ping":60},{"user_id":577,"name":"worgeral","steam_id":76561198050781898,"connected_time":1503000000000,"state":"active","ping":61},{"user_id":587,"name":"Rudoss","steam_id":76561198018415787,"connected_time":761000000000,"state":"active","ping":61},{"user_id":583,"name":"Impusle_","steam_id":76561199001634963,"connected_time":1140000000000,"state":"active","ping":47},{"user_id":578,"name":"Chiers","steam_id":76561198073461642,"connected_time":1481000000000,"state":"active","ping":49},{"user_id":554,"name":"☩ Knightz ☩","steam_id":76561198040936414,"connected_time":4178000000000,"state":"active","ping":113},{"user_id":565,"name":"Snowmotion","steam_id":76561198075022454,"connected_time":2900000000000,"state":"active","ping":59},{"user_id":591,"name":"puddles","steam_id":76561198046196005,"connected_time":561000000000,"state":"active","ping":44},{"user_id":596,"name":"Doctor Rudy G. Numpad","steam_id":76561198440881106,"connected_time":368000000000,"state":"active","ping":73},{"user_id":598,"name":"N3lly","steam_id":76561198815271970,"connected_time":147000000000,"state":"active","ping":57},{"user_id":590,"name":"mq","steam_id":76561198091888948,"connected_time":601000000000,"state":"active","ping":61},{"user_id":571,"name":"CodaxTheVulture","steam_id":76561198079028652,"connected_time":1610000000000,"state":"active","ping":67},{"user_id":564,"name":"UltimateAura","steam_id":76561198338361324,"connected_time":2958000000000,"state":"active","ping":38},{"user_id":506,"name":"Yangus","steam_id":76561198147796010,"connected_time":8037000000000,"state":"active","ping":57},{"user_id":593,"name":"SendBob","steam_id":76561198151981614,"connected_time":515000000000,"state":"active","ping":87},{"user_id":599,"name":"MAGik","steam_id":76561198085793729,"connected_time":137000000000,"state":"active","ping":81},{"user_id":601,"name":"KrAk3rs","steam_id":76561198298179344,"connected_time":84000000000,"state":"active","ping":51},{"user_id":576,"name":"Slipher47","steam_id":76561198043425055,"connected_time":1510000000000,"state":"active","ping":72},{"user_id":588,"name":"American Chjeff (✪oficial)","steam_id":76561198019917466,"connected_time":758000000000,"state":"active","ping":69},{"user_id":602,"name":"Vershal Smershal","steam_id":76561198116223995,"connected_time":83000000000,"state":"active","ping":59},{"user_id":594,"name":"Sweetcheesus","steam_id":76561198022299033,"connected_time":471000000000,"state":"active","ping":60},{"user_id":584,"name":"kavun","steam_id":76561198023461869,"connected_time":1113000000000,"state":"active","ping":76}]},{"server_id":308,"name":"Uncletopia | Frankfurt | 3 | All Maps","name_short":"frk-3","host":"frk-1.de.uncletopia.com","port":27035,"enabled":true,"region":"eu","cc":"de","latitude":50.110924,"longitude":8.682127,"reserved":0,"last_update":"0001-01-01T00:00:00Z","name_a2s":"Uncletopia | Frankfurt | 3 | All Maps","protocol":17,"map":"pl_upward","folder":"tf","game":"Team Fortress","app_id":440,"player_count":15,"max_players":24,"Bots":0,"server_type":"Dedicated","server_os":"Linux","password":true,"vac":true,"version":"7961495","steam_id":85568392924504274,"keywords":["nocrits","nodmgspread","payload","uncletopia"],"game_id":440,"stv_port":27036,"stv_name":"Uncletopia | Frankfurt | 3 | All Maps | STV","players":[{"user_id":761,"name":"LETS GO LIQUID","steam_id":76561198403684042,"connected_time":202000000000,"state":"active","ping":60},{"user_id":757,"name":"Krefa12","steam_id":76561198268375393,"connected_time":491000000000,"state":"active","ping":75},{"user_id":758,"name":"decriminalise goblins","steam_id":76561198048257605,"connected_time":404000000000,"state":"active","ping":74},{"user_id":752,"name":"Monkey","steam_id":76561199008411791,"connected_time":1344000000000,"state":"active","ping":55},{"user_id":762,"name":"tr4ce","steam_id":76561198085296732,"connected_time":138000000000,"state":"active","ping":46},{"user_id":763,"name":"Industrial Revolution","steam_id":76561198230811124,"connected_time":110000000000,"state":"active","ping":54},{"user_id":760,"name":"Mega Saturn","steam_id":76561198024750500,"connected_time":364000000000,"state":"active","ping":88},{"user_id":742,"name":"tone","steam_id":76561197975301462,"connected_time":2799000000000,"state":"active","ping":74},{"user_id":764,"name":"JosepXXL","steam_id":76561198407124695,"connected_time":67000000000,"state":"active","ping":88},{"user_id":765,"name":"Blax","steam_id":76561198377155387,"connected_time":27000000000,"state":"spawning","ping":64},{"user_id":766,"name":"caramelldancin'","steam_id":76561198193357946,"connected_time":17000000000,"state":"spawning","ping":118},{"user_id":680,"name":"random gaming","steam_id":76561198087970118,"connected_time":6599000000000,"state":"active","ping":57},{"user_id":585,"name":"Papa Cheese","steam_id":76561198276351496,"connected_time":12658000000000,"state":"active","ping":55},{"user_id":682,"name":"Doctor Medic","steam_id":76561198100957443,"connected_time":6594000000000,"state":"active","ping":68},{"user_id":755,"name":"The Bucket","steam_id":76561199131973613,"connected_time":785000000000,"state":"active","ping":104}]},{"server_id":309,"name":"Uncletopia | Frankfurt | 4 | All Maps","name_short":"frk-4","host":"frk-1.de.uncletopia.com","port":27045,"enabled":true,"region":"eu","cc":"de","latitude":50.110924,"longitude":8.682127,"reserved":0,"last_update":"0001-01-01T00:00:00Z","name_a2s":"Uncletopia | Frankfurt | 4 | All Maps","protocol":17,"map":"pl_snowycoast","folder":"tf","game":"Team Fortress","app_id":440,"player_count":0,"max_players":24,"Bots":0,"server_type":"Dedicated","server_os":"Linux","password":true,"vac":true,"version":"7961495","steam_id":85568392924504275,"keywords":["nocrits","nodmgspread","payload","uncletopia"],"game_id":440,"stv_port":27046,"stv_name":"Uncletopia | Frankfurt | 4 | All Maps | STV","players":null},{"server_id":310,"name":"Uncletopia | Frankfurt | 5 | All Maps","name_short":"frk-5","host":"frk-1.de.uncletopia.com","port":27055,"enabled":true,"region":"eu","cc":"de","latitude":50.110924,"longitude":8.682127,"reserved":0,"last_update":"0001-01-01T00:00:00Z","name_a2s":"Uncletopia | Frankfurt | 5 | All Maps","protocol":17,"map":"pl_snowycoast","folder":"tf","game":"Team Fortress","app_id":440,"player_count":0,"max_players":24,"Bots":0,"server_type":"Dedicated","server_os":"Linux","password":true,"vac":true,"version":"7961495","steam_id":85568392924504277,"keywords":["nocrits","nodmgspread","payload","uncletopia"],"game_id":440,"stv_port":27056,"stv_name":"Uncletopia | Frankfurt | 5 | All Maps | STV","players":null},{"server_id":311,"name":"Uncletopia | Frankfurt | 6 | All Maps","name_short":"frk-6","host":"frk-1.de.uncletopia.com","port":27065,"enabled":true,"region":"eu","cc":"de","latitude":50.110924,"longitude":8.682127,"reserved":0,"last_update":"0001-01-01T00:00:00Z","name_a2s":"Uncletopia | Frankfurt | 6 | All Maps","protocol":17,"map":"cp_powerhouse","folder":"tf","game":"Team Fortress","app_id":440,"player_count":19,"max_players":24,"Bots":0,"server_type":"Dedicated","server_os":"Linux","password":true,"vac":true,"version":"7961495","steam_id":85568392924504278,"keywords":["cp","nocrits","nodmgspread","uncletopia"],"game_id":440,"stv_port":27066,"stv_name":"Uncletopia | Frankfurt | 6 | All Maps | STV","players":[{"user_id":546,"name":"☁ Lou1smeister ☁","steam_id":76561198004032968,"connected_time":13000000000,"state":"active","ping":241},{"user_id":521,"name":"Jureron","steam_id":76561198097535175,"connected_time":1683000000000,"state":"active","ping":58},{"user_id":544,"name":"simonjohna646","steam_id":76561199403481880,"connected_time":695000000000,"state":"active","ping":138},{"user_id":525,"name":"FoOzTV","steam_id":76561197998636728,"connected_time":1559000000000,"state":"active","ping":56},{"user_id":522,"name":"DaveRISK","steam_id":76561198143854076,"connected_time":1678000000000,"state":"active","ping":88},{"user_id":523,"name":"slnc","steam_id":76561198041151496,"connected_time":1660000000000,"state":"active","ping":56},{"user_id":538,"name":"naavki","steam_id":76561198255260602,"connected_time":1328000000000,"state":"active","ping":56},{"user_id":532,"name":"Pancake Medic","steam_id":76561199018423214,"connected_time":1379000000000,"state":"active","ping":55},{"user_id":520,"name":"herbal tea","steam_id":76561198179711137,"connected_time":1724000000000,"state":"active","ping":50},{"user_id":545,"name":"_420_StopItDudeCmon","steam_id":76561197997146481,"connected_time":56000000000,"state":"active","ping":52},{"user_id":533,"name":"golfmastr","steam_id":76561198993144124,"connected_time":1360000000000,"state":"active","ping":67},{"user_id":507,"name":"LILY-CHAN","steam_id":76561198035085893,"connected_time":2156000000000,"state":"active","ping":99},{"user_id":539,"name":"IT’S NESTING SEASON","steam_id":76561198015573257,"connected_time":1210000000000,"state":"active","ping":75},{"user_id":540,"name":"TidB","steam_id":76561198055342304,"connected_time":1202000000000,"state":"active","ping":45},{"user_id":541,"name":"Necro (Monkey Mode)","steam_id":76561198143041756,"connected_time":1179000000000,"state":"active","ping":60},{"user_id":543,"name":"Baba","steam_id":76561198214034403,"connected_time":839000000000,"state":"active","ping":69},{"user_id":516,"name":"you're wasting your time","steam_id":76561199282911650,"connected_time":1843000000000,"state":"active","ping":48},{"user_id":537,"name":"OneSolidJunky","steam_id":76561199086682942,"connected_time":1339000000000,"state":"active","ping":108},{"user_id":509,"name":"OnlyYeet","steam_id":76561199033385704,"connected_time":2130000000000,"state":"active","ping":46}]},{"server_id":23,"name":"Uncletopia | Frankfurt | 7 | Stopwatch","name_short":"frk-7","host":"frk-1.de.uncletopia.com","port":27075,"enabled":true,"region":"eu","cc":"de","latitude":50.110924,"longitude":8.682127,"reserved":0,"last_update":"0001-01-01T00:00:00Z","name_a2s":"Uncletopia | Frankfurt | 7 | Stopwatch","protocol":17,"map":"workshop/pl_badwater_pro_v12.ugc2142942074","folder":"tf","game":"Team Fortress","app_id":440,"player_count":0,"max_players":24,"Bots":0,"server_type":"Dedicated","server_os":"Linux","password":true,"vac":true,"version":"7961495","steam_id":85568392924742827,"keywords":["nocrits","nodmgspread","payload","uncletopia"],"game_id":440,"stv_port":27076,"stv_name":"Uncletopia | Frankfurt | 7 | Stopwatch | STV","players":null},{"server_id":24,"name":"Uncletopia | Frankfurt | 8 | Community","name_short":"frk-8","host":"frk-1.de.uncletopia.com","port":27085,"enabled":true,"region":"eu","cc":"de","latitude":50.110924,"longitude":8.682127,"reserved":0,"last_update":"0001-01-01T00:00:00Z","name_a2s":"Uncletopia | Frankfurt | 8 | Community","protocol":17,"map":"workshop/koth_bagel_rc6.ugc2514036946","folder":"tf","game":"Team Fortress","app_id":440,"player_count":0,"max_players":24,"Bots":0,"server_type":"Dedicated","server_os":"Linux","password":true,"vac":true,"version":"7961495","steam_id":85568392924742828,"keywords":["cp","nocrits","nodmgspread","uncletopia"],"game_id":440,"stv_port":27086,"stv_name":"Uncletopia | Frankfurt | 8 | Community | STV","players":null},{"server_id":202,"name":"Uncletopia | Hong Kong | 1 | All Maps","name_short":"hgk-1","host":"hgk-1.hk.uncletopia.com","port":27015,"enabled":true,"region":"asia","cc":"hk","latitude":22.302711,"longitude":114.177216,"reserved":0,"last_update":"0001-01-01T00:00:00Z","name_a2s":"Uncletopia | Hong Kong | 1 | All Maps","protocol":17,"map":"cp_process_final","folder":"tf","game":"Team Fortress","app_id":440,"player_count":0,"max_players":24,"Bots":0,"server_type":"Dedicated","server_os":"Linux","password":true,"vac":true,"version":"7961495","steam_id":85568392924494504,"keywords":["cp","nocrits","nodmgspread","uncletopia"],"game_id":440,"stv_port":27016,"stv_name":"Uncletopia | Hong Kong | 1 | All Maps | STV","players":null},{"server_id":1,"name":"Uncletopia | Los Angeles | 1 | All Maps","name_short":"lax-1","host":"lax-1.us.uncletopia.com","port":27015,"enabled":true,"region":"us-west","cc":"us","latitude":33.94279,"longitude":-118.41004,"reserved":0,"last_update":"0001-01-01T00:00:00Z","name_a2s":"Uncletopia | Los Angeles | 1 | All Maps","protocol":17,"map":"pl_frontier_final","folder":"tf","game":"Team Fortress","app_id":440,"player_count":24,"max_players":24,"Bots":0,"server_type":"Dedicated","server_os":"Linux","password":true,"vac":true,"version":"7961495","steam_id":85568392924469991,"keywords":["nocrits","nodmgspread","payload","uncletopia"],"game_id":440,"stv_port":27016,"stv_name":"Uncletopia | Los Angeles | 1 | All Maps | STV","players":[{"user_id":201,"name":"Cael","steam_id":76561198136789464,"connected_time":1194000000000,"state":"active","ping":48},{"user_id":193,"name":"[☯] randomshagz*","steam_id":76561197968666646,"connected_time":1855000000000,"state":"active","ping":62},{"user_id":184,"name":"The All-Seeing Tim","steam_id":76561198075510786,"connected_time":2714000000000,"state":"active","ping":76},{"user_id":155,"name":"Altruisticailuridae","steam_id":76561198335295596,"connected_time":4338000000000,"state":"active","ping":51},{"user_id":100,"name":"Eden","steam_id":76561198081284664,"connected_time":10704000000000,"state":"active","ping":48},{"user_id":197,"name":"Wendall555","steam_id":76561198985637603,"connected_time":1258000000000,"state":"active","ping":53},{"user_id":179,"name":"aBigPoo","steam_id":76561198425027856,"connected_time":2851000000000,"state":"active","ping":56},{"user_id":199,"name":"paypur -rng","steam_id":76561198214370515,"connected_time":1215000000000,"state":"active","ping":72},{"user_id":153,"name":"Anon","steam_id":76561198109740776,"connected_time":4342000000000,"state":"active","ping":54},{"user_id":196,"name":"dimm4","steam_id":76561198132803810,"connected_time":1562000000000,"state":"active","ping":95},{"user_id":185,"name":"chimpin","steam_id":76561198858089300,"connected_time":2701000000000,"state":"active","ping":131},{"user_id":219,"name":"SnappyPython","steam_id":76561198155631884,"connected_time":13000000000,"state":"active","ping":136},{"user_id":171,"name":"Urist McDwarf","steam_id":76561198164004939,"connected_time":3406000000000,"state":"active","ping":74},{"user_id":195,"name":"FellowAutist","steam_id":76561198053916629,"connected_time":1573000000000,"state":"active","ping":63},{"user_id":169,"name":"TENƎT","steam_id":76561198098061578,"connected_time":3597000000000,"state":"active","ping":60},{"user_id":192,"name":"dAiLyGrInD","steam_id":76561198163531915,"connected_time":2307000000000,"state":"active","ping":94},{"user_id":205,"name":"Thiscookieman","steam_id":76561199012117130,"connected_time":717000000000,"state":"active","ping":79},{"user_id":206,"name":"KaosInfinite","steam_id":76561198009126350,"connected_time":672000000000,"state":"active","ping":49},{"user_id":177,"name":"CookieMeister","steam_id":76561198112646899,"connected_time":3054000000000,"state":"active","ping":87},{"user_id":217,"name":"Clockwork0613","steam_id":76561198987121123,"connected_time":204000000000,"state":"active","ping":71},{"user_id":200,"name":"moe","steam_id":76561198929586245,"connected_time":1213000000000,"state":"active","ping":38},{"user_id":202,"name":"based, lit, bussin' burrito","steam_id":76561198131567365,"connected_time":1189000000000,"state":"active","ping":70},{"user_id":210,"name":"zinnk","steam_id":76561198092081825,"connected_time":570000000000,"state":"active","ping":47},{"user_id":218,"name":"Useless","steam_id":76561198116079299,"connected_time":176000000000,"state":"active","ping":74}]},{"server_id":112,"name":"Uncletopia | Los Angeles | 2 | All Maps","name_short":"lax-2","host":"lax-1.us.uncletopia.com","port":27025,"enabled":true,"region":"us-west","cc":"us","latitude":33.94279,"longitude":-118.41004,"reserved":0,"last_update":"0001-01-01T00:00:00Z","name_a2s":"Uncletopia | Los Angeles | 2 | All Maps","protocol":17,"map":"koth_highpass","folder":"tf","game":"Team Fortress","app_id":440,"player_count":0,"max_players":24,"Bots":0,"server_type":"Dedicated","server_os":"Linux","password":true,"vac":true,"version":"7961495","steam_id":85568392924469992,"keywords":["cp","nocrits","nodmgspread","uncletopia"],"game_id":440,"stv_port":27026,"stv_name":"Uncletopia | Los Angeles | 2 | All Maps | STV","players":null},{"server_id":324,"name":"Uncletopia | Los Angeles | 3 | All Maps","name_short":"lax-3","host":"lax-1.us.uncletopia.com","port":27035,"enabled":true,"region":"us-west","cc":"us","latitude":33.94279,"longitude":-118.41004,"reserved":0,"last_update":"0001-01-01T00:00:00Z","name_a2s":"Uncletopia | Los Angeles | 3 | All Maps","protocol":17,"map":"pl_upward","folder":"tf","game":"Team Fortress","app_id":440,"player_count":0,"max_players":24,"Bots":0,"server_type":"Dedicated","server_os":"Linux","password":true,"vac":true,"version":"7961495","steam_id":85568392924510198,"keywords":["nocrits","nodmgspread","payload","uncletopia"],"game_id":440,"stv_port":27036,"stv_name":"Uncletopia | Los Angeles | 3 | All Maps | STV","players":null},{"server_id":25,"name":"Uncletopia | Los Angeles | 4 | Stopwatch","name_short":"lax-4","host":"lax-1.us.uncletopia.com","port":27045,"enabled":true,"region":"us-west","cc":"us","latitude":33.94279,"longitude":-118.41004,"reserved":0,"last_update":"0001-01-01T00:00:00Z","name_a2s":"Uncletopia | Los Angeles | 4 | Stopwatch","protocol":17,"map":"pl_barnblitz","folder":"tf","game":"Team Fortress","app_id":440,"player_count":0,"max_players":24,"Bots":0,"server_type":"Dedicated","server_os":"Linux","password":true,"vac":true,"version":"7961495","steam_id":85568392924510199,"keywords":["nocrits","nodmgspread","payload","uncletopia"],"game_id":440,"stv_port":27046,"stv_name":"Uncletopia | Los Angeles | 4 | Stopwatch | STV","players":null},{"server_id":11,"name":"Uncletopia | London | 1 | All Maps","name_short":"lon-1","host":"lon-1.uk.uncletopia.com","port":27015,"enabled":true,"region":"eu","cc":"gb","latitude":51.509865,"longitude":-0.118092,"reserved":0,"last_update":"0001-01-01T00:00:00Z","name_a2s":"Uncletopia | London | 1 | All Maps","protocol":17,"map":"koth_nucleus","folder":"tf","game":"Team Fortress","app_id":440,"player_count":24,"max_players":24,"Bots":0,"server_type":"Dedicated","server_os":"Linux","password":true,"vac":true,"version":"7961495","steam_id":85568392924367362,"keywords":["cp","nocrits","nodmgspread","uncletopia"],"game_id":440,"stv_port":27016,"stv_name":"Uncletopia | London | 1 | All Maps | STV","players":[{"user_id":704,"name":"sora","steam_id":76561198096547662,"connected_time":2737000000000,"state":"active","ping":51},{"user_id":724,"name":"Marquis de Hoto","steam_id":76561198080687708,"connected_time":514000000000,"state":"active","ping":71},{"user_id":634,"name":"shooer!","steam_id":76561198110531281,"connected_time":7360000000000,"state":"active","ping":69},{"user_id":716,"name":"gibb (official)","steam_id":76561198074097655,"connected_time":1849000000000,"state":"active","ping":63},{"user_id":715,"name":"Colingaffney","steam_id":76561198197984574,"connected_time":1978000000000,"state":"active","ping":69},{"user_id":686,"name":"RomAnjentululiantiarion","steam_id":76561198161417211,"connected_time":3662000000000,"state":"active","ping":98},{"user_id":712,"name":"Trans Femtress 2","steam_id":76561198014056212,"connected_time":2145000000000,"state":"active","ping":69},{"user_id":620,"name":"Kahvi","steam_id":76561198723244199,"connected_time":8856000000000,"state":"active","ping":75},{"user_id":713,"name":"Black Tom","steam_id":76561198335730273,"connected_time":2122000000000,"state":"active","ping":61},{"user_id":680,"name":"KnugenIV","steam_id":76561198127091993,"connected_time":3770000000000,"state":"active","ping":91},{"user_id":718,"name":"Clown :o)","steam_id":76561198074657015,"connected_time":1739000000000,"state":"active","ping":58},{"user_id":696,"name":"GoblinGaming (Gabagool)","steam_id":76561198360395476,"connected_time":3307000000000,"state":"active","ping":30},{"user_id":702,"name":"kelpie (eepiest girl)","steam_id":76561198128327529,"connected_time":2797000000000,"state":"active","ping":48},{"user_id":631,"name":"Kphi(i)","steam_id":76561198970587061,"connected_time":7883000000000,"state":"active","ping":58},{"user_id":701,"name":"Velvet","steam_id":76561199394742012,"connected_time":2862000000000,"state":"active","ping":68},{"user_id":708,"name":"ඞauraඞ","steam_id":76561198066258544,"connected_time":2560000000000,"state":"active","ping":58},{"user_id":717,"name":"stroyo","steam_id":76561198409592046,"connected_time":1806000000000,"state":"active","ping":54},{"user_id":651,"name":"SKY_","steam_id":76561198080980508,"connected_time":6310000000000,"state":"active","ping":56},{"user_id":706,"name":"BreadBubbles","steam_id":76561198174332826,"connected_time":2669000000000,"state":"active","ping":61},{"user_id":720,"name":"albert","steam_id":76561198353496134,"connected_time":1009000000000,"state":"active","ping":51},{"user_id":721,"name":"beebo","steam_id":76561199120277007,"connected_time":996000000000,"state":"active","ping":54},{"user_id":711,"name":"goff","steam_id":76561198118989010,"connected_time":2155000000000,"state":"active","ping":52},{"user_id":714,"name":"ahh, eto... nya :3c","steam_id":76561198878171763,"connected_time":2057000000000,"state":"active","ping":56},{"user_id":726,"name":"xva","steam_id":76561198969286813,"connected_time":61000000000,"state":"active","ping":75}]},{"server_id":114,"name":"Uncletopia | London | 2 | All Maps","name_short":"lon-2","host":"lon-1.uk.uncletopia.com","port":27025,"enabled":true,"region":"eu","cc":"gb","latitude":51.509865,"longitude":-0.118092,"reserved":0,"last_update":"0001-01-01T00:00:00Z","name_a2s":"Uncletopia | London | 2 | All Maps","protocol":17,"map":"cp_sunshine","folder":"tf","game":"Team Fortress","app_id":440,"player_count":24,"max_players":24,"Bots":0,"server_type":"Dedicated","server_os":"Linux","password":true,"vac":true,"version":"7961495","steam_id":85568392924470941,"keywords":["cp","nocrits","nodmgspread","uncletopia"],"game_id":440,"stv_port":27026,"stv_name":"Uncletopia | London | 2 | All Maps | STV","players":[{"user_id":391,"name":"i pity the drool.","steam_id":76561199330937686,"connected_time":2419000000000,"state":"active","ping":78},{"user_id":410,"name":"Flying Squirrel","steam_id":76561198005202791,"connected_time":1682000000000,"state":"active","ping":81},{"user_id":440,"name":"Suetolog","steam_id":76561199053090212,"connected_time":141000000000,"state":"active","ping":63},{"user_id":418,"name":"Spliffendor","steam_id":76561198144020209,"connected_time":1456000000000,"state":"active","ping":50},{"user_id":357,"name":"Hugh","steam_id":76561198976348754,"connected_time":3995000000000,"state":"active","ping":39},{"user_id":435,"name":"IndigoJones","steam_id":76561198050284262,"connected_time":372000000000,"state":"active","ping":45},{"user_id":414,"name":"gabagool","steam_id":76561198307111838,"connected_time":1633000000000,"state":"active","ping":29},{"user_id":431,"name":"Skarp","steam_id":76561198034398376,"connected_time":502000000000,"state":"active","ping":55},{"user_id":436,"name":"pls watch puss in boots","steam_id":76561198046210501,"connected_time":367000000000,"state":"active","ping":82},{"user_id":433,"name":"scoot","steam_id":76561198035789194,"connected_time":492000000000,"state":"active","ping":71},{"user_id":423,"name":"Jimmy Poppadopolos","steam_id":76561198044825612,"connected_time":963000000000,"state":"active","ping":59},{"user_id":424,"name":"travis","steam_id":76561198138119811,"connected_time":931000000000,"state":"active","ping":46},{"user_id":373,"name":"Jaeger","steam_id":76561199392187099,"connected_time":3429000000000,"state":"active","ping":144},{"user_id":428,"name":"BOT Jeremus","steam_id":76561198072981684,"connected_time":583000000000,"state":"active","ping":46},{"user_id":437,"name":"Peat","steam_id":76561197992168067,"connected_time":363000000000,"state":"active","ping":67},{"user_id":426,"name":"Pats (Gifted items Collector)","steam_id":76561198418538887,"connected_time":891000000000,"state":"active","ping":80},{"user_id":422,"name":"GoatLord1","steam_id":76561198157964544,"connected_time":1236000000000,"state":"active","ping":51},{"user_id":439,"name":"trans werewolf","steam_id":76561198107235989,"connected_time":162000000000,"state":"active","ping":69},{"user_id":438,"name":"Underground Level G","steam_id":76561198317750546,"connected_time":359000000000,"state":"active","ping":106},{"user_id":420,"name":"Wanderer.","steam_id":76561198021837576,"connected_time":1277000000000,"state":"active","ping":43},{"user_id":416,"name":"tm`","steam_id":76561197993580412,"connected_time":1601000000000,"state":"active","ping":66},{"user_id":421,"name":"WEEP","steam_id":76561199499933159,"connected_time":1271000000000,"state":"active","ping":71},{"user_id":365,"name":"Snowy","steam_id":76561198169992461,"connected_time":3592000000000,"state":"active","ping":42},{"user_id":389,"name":"noah","steam_id":76561198099457089,"connected_time":2750000000000,"state":"active","ping":84}]},{"server_id":320,"name":"Uncletopia | London | 3 | All Maps","name_short":"lon-3","host":"lon-1.uk.uncletopia.com","port":27035,"enabled":true,"region":"eu","cc":"gb","latitude":51.509865,"longitude":-0.118092,"reserved":0,"last_update":"0001-01-01T00:00:00Z","name_a2s":"Uncletopia | London | 3 | All Maps","protocol":17,"map":"cp_process_final","folder":"tf","game":"Team Fortress","app_id":440,"player_count":24,"max_players":24,"Bots":0,"server_type":"Dedicated","server_os":"Linux","password":true,"vac":true,"version":"7961495","steam_id":85568392924510192,"keywords":["cp","nocrits","nodmgspread","uncletopia"],"game_id":440,"stv_port":27036,"stv_name":"Uncletopia | London | 3 | All Maps | STV","players":[{"user_id":335,"name":"Hank J Wimbleton","steam_id":76561198408623293,"connected_time":3105000000000,"state":"active","ping":54},{"user_id":387,"name":"My left foot itches","steam_id":76561198078411001,"connected_time":1124000000000,"state":"active","ping":90},{"user_id":391,"name":"AFerociousTeddyBearSlayer","steam_id":76561198247447256,"connected_time":789000000000,"state":"active","ping":48},{"user_id":374,"name":"BearWithMe","steam_id":76561198032715989,"connected_time":1313000000000,"state":"active","ping":55},{"user_id":355,"name":"car with air conditioning","steam_id":76561198368514674,"connected_time":2256000000000,"state":"active","ping":50},{"user_id":394,"name":"TheChickenman","steam_id":76561198077160025,"connected_time":583000000000,"state":"active","ping":45},{"user_id":365,"name":"f0x","steam_id":76561198072921704,"connected_time":1688000000000,"state":"active","ping":46},{"user_id":360,"name":"milk.mp4","steam_id":76561198376723362,"connected_time":2023000000000,"state":"active","ping":65},{"user_id":390,"name":"Isaac Boush","steam_id":76561198179746529,"connected_time":828000000000,"state":"active","ping":84},{"user_id":371,"name":"Cobalt","steam_id":76561198349228196,"connected_time":1385000000000,"state":"active","ping":57},{"user_id":376,"name":"King Nugget","steam_id":76561198134037464,"connected_time":1308000000000,"state":"active","ping":62},{"user_id":377,"name":"Duke Fishlord","steam_id":76561198079928327,"connected_time":1292000000000,"state":"active","ping":64},{"user_id":345,"name":"Skepingawich","steam_id":76561198038736553,"connected_time":2666000000000,"state":"active","ping":60},{"user_id":378,"name":"merry","steam_id":76561198060242699,"connected_time":1270000000000,"state":"active","ping":61},{"user_id":379,"name":"sleeping souls","steam_id":76561198205464653,"connected_time":1265000000000,"state":"active","ping":55},{"user_id":362,"name":"legalize marijuana","steam_id":76561198988882521,"connected_time":1912000000000,"state":"active","ping":89},{"user_id":315,"name":"C++, Git and Linux Enjoyer","steam_id":76561198277310442,"connected_time":3699000000000,"state":"active","ping":66},{"user_id":380,"name":"Koppa","steam_id":76561197972286376,"connected_time":1257000000000,"state":"active","ping":65},{"user_id":382,"name":"Chicken pot pie","steam_id":76561198084997090,"connected_time":1238000000000,"state":"active","ping":33},{"user_id":383,"name":"Jesse Pikmin","steam_id":76561198042793243,"connected_time":1230000000000,"state":"active","ping":55},{"user_id":384,"name":"the rat","steam_id":76561198079101313,"connected_time":1228000000000,"state":"active","ping":57},{"user_id":389,"name":"Panserbjorne","steam_id":76561198143964642,"connected_time":983000000000,"state":"active","ping":62},{"user_id":209,"name":"m0⁧⁧ ⁧⁧⁧⁧m","steam_id":76561198151388694,"connected_time":11384000000000,"state":"active","ping":69},{"user_id":367,"name":"Queef Smellington","steam_id":76561198394221491,"connected_time":1533000000000,"state":"active","ping":62}]},{"server_id":321,"name":"Uncletopia | London | 4 | All Maps","name_short":"lon-4","host":"lon-1.uk.uncletopia.com","port":27045,"enabled":true,"region":"eu","cc":"gb","latitude":51.509865,"longitude":-0.118092,"reserved":0,"last_update":"0001-01-01T00:00:00Z","name_a2s":"Uncletopia | London | 4 | All Maps","protocol":17,"map":"pl_borneo","folder":"tf","game":"Team Fortress","app_id":440,"player_count":24,"max_players":24,"Bots":0,"server_type":"Dedicated","server_os":"Linux","password":true,"vac":true,"version":"7961495","steam_id":85568392924510193,"keywords":["nocrits","nodmgspread","payload","uncletopia"],"game_id":440,"stv_port":27046,"stv_name":"Uncletopia | London | 4 | All Maps | STV","players":[{"user_id":415,"name":"Mike","steam_id":76561198228455736,"connected_time":2187000000000,"state":"active","ping":47},{"user_id":410,"name":"free back real estate","steam_id":76561197999437155,"connected_time":2647000000000,"state":"active","ping":54},{"user_id":484,"name":"thorn","steam_id":76561198089287999,"connected_time":126000000000,"state":"active","ping":35},{"user_id":386,"name":"JepCabestany","steam_id":76561198123812578,"connected_time":4510000000000,"state":"active","ping":88},{"user_id":425,"name":"ПИВНОЙ РЕСПАВН","steam_id":76561198807724266,"connected_time":1712000000000,"state":"active","ping":85},{"user_id":392,"name":"Nurse=Leave","steam_id":76561198103323356,"connected_time":4133000000000,"state":"active","ping":67},{"user_id":437,"name":"Name","steam_id":76561197990757157,"connected_time":1014000000000,"state":"active","ping":74},{"user_id":474,"name":"Bungus Stormblessed","steam_id":76561198121357619,"connected_time":400000000000,"state":"active","ping":157},{"user_id":485,"name":"hbivnm","steam_id":76561197996468677,"connected_time":106000000000,"state":"active","ping":60},{"user_id":434,"name":"Bill Carr","steam_id":76561198110033943,"connected_time":1290000000000,"state":"active","ping":35},{"user_id":441,"name":"Stefman","steam_id":76561199025104038,"connected_time":928000000000,"state":"active","ping":33},{"user_id":418,"name":"StumpKnuckle","steam_id":76561197995325320,"connected_time":1949000000000,"state":"active","ping":54},{"user_id":419,"name":"beer creator","steam_id":76561198039472276,"connected_time":1816000000000,"state":"active","ping":75},{"user_id":405,"name":"Domo","steam_id":76561198056790920,"connected_time":3355000000000,"state":"active","ping":58},{"user_id":487,"name":"BixenteN7Akantor","steam_id":76561198096635765,"connected_time":38000000000,"state":"spawning","ping":206},{"user_id":488,"name":"Alacan","steam_id":76561198203072472,"connected_time":25000000000,"state":"active","ping":69},{"user_id":443,"name":"BLÅHAJ","steam_id":76561197996473698,"connected_time":890000000000,"state":"active","ping":100},{"user_id":444,"name":"Caramelion","steam_id":76561198097429047,"connected_time":873000000000,"state":"active","ping":61},{"user_id":347,"name":"kluri","steam_id":76561198084518962,"connected_time":6348000000000,"state":"active","ping":75},{"user_id":400,"name":"Penis Contortionist","steam_id":76561198073663784,"connected_time":3837000000000,"state":"active","ping":35},{"user_id":486,"name":"Fried_Dough","steam_id":76561198068746207,"connected_time":99000000000,"state":"active","ping":142},{"user_id":433,"name":"Tornado","steam_id":76561198025684320,"connected_time":1379000000000,"state":"active","ping":35},{"user_id":411,"name":"Mega","steam_id":76561197970389664,"connected_time":2563000000000,"state":"active","ping":45},{"user_id":477,"name":"Jon","steam_id":76561199380849468,"connected_time":378000000000,"state":"active","ping":70}]},{"server_id":21,"name":"Uncletopia | London | 5 | All Maps","name_short":"lon-5","host":"lon-1.uk.uncletopia.com","port":27055,"enabled":true,"region":"eu","cc":"gb","latitude":51.509865,"longitude":-0.118092,"reserved":0,"last_update":"0001-01-01T00:00:00Z","name_a2s":"Uncletopia | London | 5 | All Maps","protocol":17,"map":"pl_badwater","folder":"tf","game":"Team Fortress","app_id":440,"player_count":24,"max_players":24,"Bots":0,"server_type":"Dedicated","server_os":"Linux","password":true,"vac":true,"version":"7961495","steam_id":85568392924742829,"keywords":["nocrits","nodmgspread","payload","uncletopia"],"game_id":440,"stv_port":27056,"stv_name":"Uncletopia | London | 5 | All Maps | STV","players":[{"user_id":209,"name":"N O U F E XD","steam_id":76561199386090066,"connected_time":953000000000,"state":"active","ping":77},{"user_id":219,"name":"finbar","steam_id":76561198056812396,"connected_time":251000000000,"state":"active","ping":82},{"user_id":108,"name":"Tombobx","steam_id":76561198862443949,"connected_time":6952000000000,"state":"active","ping":60},{"user_id":207,"name":"Raw Dough Enjoyer","steam_id":76561198957453004,"connected_time":1508000000000,"state":"active","ping":175},{"user_id":214,"name":"dex","steam_id":76561198095560087,"connected_time":656000000000,"state":"active","ping":82},{"user_id":177,"name":"Adam","steam_id":76561198083655265,"connected_time":3356000000000,"state":"active","ping":59},{"user_id":211,"name":"Gety0","steam_id":76561198044387185,"connected_time":693000000000,"state":"active","ping":85},{"user_id":200,"name":"Burrito","steam_id":76561198023919089,"connected_time":2037000000000,"state":"active","ping":82},{"user_id":195,"name":"ha,burger","steam_id":76561199093584225,"connected_time":2661000000000,"state":"active","ping":65},{"user_id":215,"name":"Umby","steam_id":76561198166584580,"connected_time":592000000000,"state":"active","ping":37},{"user_id":194,"name":"EricToGo","steam_id":76561198068019642,"connected_time":2879000000000,"state":"active","ping":73},{"user_id":218,"name":"joemamaAHAHAHHA","steam_id":76561199128528323,"connected_time":261000000000,"state":"active","ping":57},{"user_id":208,"name":"emer","steam_id":76561198001420975,"connected_time":1100000000000,"state":"active","ping":105},{"user_id":201,"name":"♡ Cursed ♡","steam_id":76561199161458959,"connected_time":1996000000000,"state":"active","ping":169},{"user_id":221,"name":"goz","steam_id":76561198155229347,"connected_time":129000000000,"state":"active","ping":42},{"user_id":205,"name":"SoaCrow","steam_id":76561198069420717,"connected_time":1909000000000,"state":"active","ping":70},{"user_id":176,"name":"FreyjaBreadWitch","steam_id":76561199211405367,"connected_time":3931000000000,"state":"active","ping":103},{"user_id":220,"name":"The worst TF2 player(Real)","steam_id":76561199184873889,"connected_time":204000000000,"state":"active","ping":73},{"user_id":154,"name":"raebbitos","steam_id":76561198167580006,"connected_time":5372000000000,"state":"active","ping":52},{"user_id":217,"name":"Victoria Wood (as seen on TV)","steam_id":76561198066243851,"connected_time":522000000000,"state":"active","ping":52},{"user_id":188,"name":"paypig","steam_id":76561198035137115,"connected_time":3174000000000,"state":"active","ping":45},{"user_id":192,"name":"avenje","steam_id":76561198155824845,"connected_time":2970000000000,"state":"active","ping":44},{"user_id":210,"name":"zayd","steam_id":76561198895235231,"connected_time":718000000000,"state":"active","ping":55}]},{"server_id":22,"name":"Uncletopia | London | 6 | All Maps","name_short":"lon-6","host":"lon-1.uk.uncletopia.com","port":27065,"enabled":true,"region":"eu","cc":"gb","latitude":51.509865,"longitude":-0.118092,"reserved":0,"last_update":"0001-01-01T00:00:00Z","name_a2s":"Uncletopia | London | 6 | All Maps","protocol":17,"map":"pl_snowycoast","folder":"tf","game":"Team Fortress","app_id":440,"player_count":0,"max_players":24,"Bots":0,"server_type":"Dedicated","server_os":"Linux","password":true,"vac":true,"version":"7961495","steam_id":85568392924742830,"keywords":["nocrits","nodmgspread","payload","uncletopia"],"game_id":440,"stv_port":27066,"stv_name":"Uncletopia | London | 6 | All Maps | STV","players":null},{"server_id":40,"name":"Uncletopia | London | 7 | Stopwatch","name_short":"lon-7","host":"lon-1.uk.uncletopia.com","port":27075,"enabled":true,"region":"eu","cc":"gb","latitude":51.509865,"longitude":-0.118092,"reserved":0,"last_update":"0001-01-01T00:00:00Z","name_a2s":"Uncletopia | London | 7 | Stopwatch","protocol":17,"map":"workshop/koth_ashville_final.ugc2130459942","folder":"tf","game":"Team Fortress","app_id":440,"player_count":0,"max_players":24,"Bots":0,"server_type":"Dedicated","server_os":"Linux","password":true,"vac":true,"version":"7961495","steam_id":85568392924964314,"keywords":["cp","nocrits","nodmgspread","uncletopia"],"game_id":440,"stv_port":27076,"stv_name":"Uncletopia | London | 7 | Stopwatch | STV","players":null},{"server_id":41,"name":"Uncletopia | London | 8 | Community","name_short":"lon-8","host":"lon-1.uk.uncletopia.com","port":27085,"enabled":true,"region":"eu","cc":"gb","latitude":51.509865,"longitude":-0.118092,"reserved":0,"last_update":"0001-01-01T00:00:00Z","name_a2s":"Uncletopia | London | 8 | Community","protocol":17,"map":"workshop/koth_slaughter_rc1.ugc1712845210","folder":"tf","game":"Team Fortress","app_id":440,"player_count":0,"max_players":24,"Bots":0,"server_type":"Dedicated","server_os":"Linux","password":true,"vac":true,"version":"7961495","steam_id":85568392924964315,"keywords":["cp","nocrits","nodmgspread","uncletopia"],"game_id":440,"stv_port":27086,"stv_name":"Uncletopia | London | 8 | Community | STV","players":null},{"server_id":300,"name":"Uncletopia | Montréal | 1 | One Thousand Uncles","name_short":"mtl-1","host":"mtl-1.ca.uncletopia.com","port":27015,"enabled":true,"region":"us-east","cc":"ca","latitude":45.50889,"longitude":-73.56167,"reserved":0,"last_update":"0001-01-01T00:00:00Z","name_a2s":"","protocol":0,"map":"","folder":"","game":"","app_id":0,"player_count":4,"max_players":0,"Bots":0,"server_type":"","server_os":"","password":false,"vac":false,"version":"","steam_id":0,"keywords":null,"game_id":0,"stv_port":0,"stv_name":"","players":[{"user_id":205,"name":"PiRA","steam_id":76561197962440292,"connected_time":1168000000000,"state":"active","ping":44},{"user_id":222,"name":"duck 🦆","steam_id":76561197998344127,"connected_time":1059000000000,"state":"active","ping":89},{"user_id":223,"name":"Rhutebeer","steam_id":76561198018302761,"connected_time":832000000000,"state":"active","ping":96},{"user_id":224,"name":"Waaagh!","steam_id":76561197995317887,"connected_time":430000000000,"state":"active","ping":36}]},{"server_id":301,"name":"Uncletopia | Montréal | 2 | One Thousand Uncles","name_short":"mtl-2","host":"mtl-1.ca.uncletopia.com","port":27025,"enabled":true,"region":"us-east","cc":"ca","latitude":45.50889,"longitude":-73.56167,"reserved":0,"last_update":"0001-01-01T00:00:00Z","name_a2s":"","protocol":0,"map":"","folder":"","game":"","app_id":0,"player_count":0,"max_players":0,"Bots":0,"server_type":"","server_os":"","password":false,"vac":false,"version":"","steam_id":0,"keywords":null,"game_id":0,"stv_port":0,"stv_name":"","players":null},{"server_id":302,"name":"Uncletopia | Montréal | 3 | One Thousand Uncles","name_short":"mtl-3","host":"mtl-1.ca.uncletopia.com","port":27035,"enabled":true,"region":"us-east","cc":"ca","latitude":45.50889,"longitude":-73.56167,"reserved":0,"last_update":"0001-01-01T00:00:00Z","name_a2s":"","protocol":0,"map":"","folder":"","game":"","app_id":0,"player_count":0,"max_players":0,"Bots":0,"server_type":"","server_os":"","password":false,"vac":false,"version":"","steam_id":0,"keywords":null,"game_id":0,"stv_port":0,"stv_name":"","players":null},{"server_id":13,"name":"Uncletopia | New York City | 1 | All Maps","name_short":"nyc-1","host":"nyc-1.us.uncletopia.com","port":27015,"enabled":true,"region":"us-east","cc":"us","latitude":40.73061,"longitude":-73.93524,"reserved":0,"last_update":"0001-01-01T00:00:00Z","name_a2s":"Uncletopia | New York City | 1 | All Maps","protocol":17,"map":"pl_frontier_final","folder":"tf","game":"Team Fortress","app_id":440,"player_count":23,"max_players":24,"Bots":0,"server_type":"Dedicated","server_os":"Linux","password":true,"vac":true,"version":"7961495","steam_id":85568392924469993,"keywords":["nocrits","nodmgspread","payload","uncletopia"],"game_id":440,"stv_port":27016,"stv_name":"Uncletopia | New York City | 1 | All Maps | STV","players":[{"user_id":268,"name":"D","steam_id":76561198292908619,"connected_time":465000000000,"state":"active","ping":79},{"user_id":229,"name":"your moms car","steam_id":76561199389283507,"connected_time":2652000000000,"state":"active","ping":63},{"user_id":246,"name":"George Washington","steam_id":76561199079034911,"connected_time":1440000000000,"state":"active","ping":61},{"user_id":267,"name":"jakobeo","steam_id":76561198415106043,"connected_time":484000000000,"state":"active","ping":60},{"user_id":272,"name":"just squid","steam_id":76561198088355581,"connected_time":334000000000,"state":"active","ping":108},{"user_id":254,"name":"Havok","steam_id":76561198063455003,"connected_time":954000000000,"state":"active","ping":51},{"user_id":273,"name":"ren","steam_id":76561198120134814,"connected_time":218000000000,"state":"active","ping":146},{"user_id":252,"name":"Kraftlos","steam_id":76561198074350350,"connected_time":1053000000000,"state":"active","ping":59},{"user_id":147,"name":"Strange Diplomat","steam_id":76561198428191920,"connected_time":8617000000000,"state":"active","ping":52},{"user_id":278,"name":"Goob-A-Bue","steam_id":76561198050535135,"connected_time":57000000000,"state":"active","ping":78},{"user_id":180,"name":"Tyth","steam_id":76561198062543298,"connected_time":5662000000000,"state":"active","ping":108},{"user_id":264,"name":"coupon bread","steam_id":76561197987154600,"connected_time":662000000000,"state":"active","ping":72},{"user_id":275,"name":"ndvr (femboy (REAL))","steam_id":76561199379200102,"connected_time":100000000000,"state":"active","ping":49},{"user_id":247,"name":"SalsaDaddy","steam_id":76561198358869108,"connected_time":1423000000000,"state":"active","ping":67},{"user_id":271,"name":"The jesus guy (FRNK)","steam_id":76561198237997622,"connected_time":381000000000,"state":"active","ping":150},{"user_id":262,"name":"Ecliptica","steam_id":76561198171951333,"connected_time":854000000000,"state":"active","ping":132},{"user_id":276,"name":"2002 Toyota Corolla VE","steam_id":76561198149172070,"connected_time":97000000000,"state":"active","ping":87},{"user_id":265,"name":"Mythic","steam_id":76561198028616665,"connected_time":634000000000,"state":"active","ping":50},{"user_id":277,"name":"Hi, I'm Jesus","steam_id":76561198015327152,"connected_time":69000000000,"state":"active","ping":53},{"user_id":209,"name":"Big Bill Haywood","steam_id":76561198142290733,"connected_time":3707000000000,"state":"active","ping":58},{"user_id":253,"name":"1st place love live fan","steam_id":76561198037951506,"connected_time":1050000000000,"state":"active","ping":59},{"user_id":258,"name":"Winter the Witchie","steam_id":76561198151971178,"connected_time":911000000000,"state":"active","ping":71},{"user_id":244,"name":"Hot Cheese Sundae","steam_id":76561198061189527,"connected_time":1502000000000,"state":"active","ping":83}]},{"server_id":14,"name":"Uncletopia | New York City | 2 | All Maps","name_short":"nyc-2","host":"nyc-1.us.uncletopia.com","port":27025,"enabled":true,"region":"us-east","cc":"us","latitude":40.73061,"longitude":-73.93524,"reserved":0,"last_update":"0001-01-01T00:00:00Z","name_a2s":"Uncletopia | New York City | 2 | All Maps","protocol":17,"map":"pl_badwater","folder":"tf","game":"Team Fortress","app_id":440,"player_count":16,"max_players":24,"Bots":0,"server_type":"Dedicated","server_os":"Linux","password":true,"vac":true,"version":"7961495","steam_id":85568392924469994,"keywords":["nocrits","nodmgspread","payload","uncletopia"],"game_id":440,"stv_port":27026,"stv_name":"Uncletopia | New York City | 2 | All Maps | STV","players":[{"user_id":111,"name":"✨ Rarity ✨","steam_id":76561199172206856,"connected_time":2354000000000,"state":"active","ping":115},{"user_id":127,"name":"Ting","steam_id":76561198111669760,"connected_time":1962000000000,"state":"active","ping":116},{"user_id":147,"name":"mr poop","steam_id":76561199195196632,"connected_time":389000000000,"state":"active","ping":77},{"user_id":91,"name":"AbbyRoads","steam_id":76561198868564212,"connected_time":3471000000000,"state":"active","ping":74},{"user_id":144,"name":"The Guy","steam_id":76561198799183693,"connected_time":471000000000,"state":"active","ping":75},{"user_id":155,"name":"Feared Gamer","steam_id":76561198350127514,"connected_time":58000000000,"state":"active","ping":42},{"user_id":151,"name":"Squope","steam_id":76561198983129293,"connected_time":168000000000,"state":"active","ping":52},{"user_id":152,"name":"filthy white trash","steam_id":76561198154176367,"connected_time":110000000000,"state":"active","ping":85},{"user_id":156,"name":"Rumplestiltskin","steam_id":76561198319600069,"connected_time":30000000000,"state":"active","ping":82},{"user_id":157,"name":"C4Nor5k1","steam_id":76561199140681987,"connected_time":28000000000,"state":"active","ping":187},{"user_id":51,"name":"Jango","steam_id":76561198084589742,"connected_time":6776000000000,"state":"active","ping":75},{"user_id":154,"name":"Karrot","steam_id":76561198058970903,"connected_time":98000000000,"state":"active","ping":83},{"user_id":158,"name":"TheRamenYouAteYesterday","steam_id":76561199474398508,"connected_time":23000000000,"state":"active","ping":69},{"user_id":125,"name":"EPGツ","steam_id":76561198155624038,"connected_time":1990000000000,"state":"active","ping":62},{"user_id":142,"name":"LeGamingProPlays","steam_id":76561198121304032,"connected_time":1077000000000,"state":"active","ping":79},{"user_id":129,"name":"Willham","steam_id":76561198065755781,"connected_time":1793000000000,"state":"active","ping":97}]},{"server_id":15,"name":"Uncletopia | New York City | 3 | Stopwatch","name_short":"nyc-3","host":"nyc-1.us.uncletopia.com","port":27035,"enabled":true,"region":"us-east","cc":"us","latitude":40.73061,"longitude":-73.93524,"reserved":0,"last_update":"0001-01-01T00:00:00Z","name_a2s":"Uncletopia | New York City | 3 | Stopwatch","protocol":17,"map":"pl_swiftwater_final1","folder":"tf","game":"Team Fortress","app_id":440,"player_count":0,"max_players":24,"Bots":0,"server_type":"Dedicated","server_os":"Linux","password":true,"vac":true,"version":"7961495","steam_id":85568392924742820,"keywords":["nocrits","nodmgspread","payload","uncletopia"],"game_id":440,"stv_port":27036,"stv_name":"Uncletopia | New York City | 3 | Stopwatch | STV","players":null},{"server_id":16,"name":"Uncletopia | New York City | 4 | Community","name_short":"nyc-4","host":"nyc-1.us.uncletopia.com","port":27045,"enabled":true,"region":"us-east","cc":"us","latitude":40.73061,"longitude":-73.93524,"reserved":0,"last_update":"0001-01-01T00:00:00Z","name_a2s":"Uncletopia | New York City | 4 | Community","protocol":17,"map":"workshop/pl_highwood_b13.ugc1769496557","folder":"tf","game":"Team Fortress","app_id":440,"player_count":6,"max_players":24,"Bots":0,"server_type":"Dedicated","server_os":"Linux","password":true,"vac":true,"version":"7961495","steam_id":85568392924742821,"keywords":["nocrits","nodmgspread","payload","uncletopia"],"game_id":440,"stv_port":27046,"stv_name":"Uncletopia | New York City | 4 | Community | STV","players":[{"user_id":32,"name":"Gary","steam_id":76561199466597572,"connected_time":301000000000,"state":"active","ping":85},{"user_id":14,"name":"WeebyGhost","steam_id":76561199009304339,"connected_time":3836000000000,"state":"active","ping":67},{"user_id":15,"name":"superbug3003","steam_id":76561198311447642,"connected_time":3817000000000,"state":"active","ping":57},{"user_id":27,"name":"Drewey","steam_id":76561198369218784,"connected_time":1675000000000,"state":"active","ping":67},{"user_id":23,"name":"faire","steam_id":76561198350747953,"connected_time":2012000000000,"state":"active","ping":44},{"user_id":28,"name":"Nyma_LeVrai","steam_id":76561198361423429,"connected_time":1467000000000,"state":"active","ping":72}]},{"server_id":142,"name":"Uncletopia | São Paulo | 1 | All Maps","name_short":"sao-1","host":"sao-1.br.uncletopia.com","port":27015,"enabled":true,"region":"sa","cc":"br","latitude":-23.533773,"longitude":-46.62529,"reserved":0,"last_update":"0001-01-01T00:00:00Z","name_a2s":"Uncletopia | São Paulo | 1 | All Maps","protocol":17,"map":"koth_cascade","folder":"tf","game":"Team Fortress","app_id":440,"player_count":0,"max_players":24,"Bots":0,"server_type":"Dedicated","server_os":"Linux","password":true,"vac":true,"version":"7961495","steam_id":85568392924469996,"keywords":["cp","nocrits","nodmgspread","uncletopia"],"game_id":440,"stv_port":27016,"stv_name":"Uncletopia | São Paulo | 1 | All Maps | STV","players":null},{"server_id":143,"name":"Uncletopia | São Paulo | 2 | Community","name_short":"sao-2","host":"sao-2.br.uncletopia.com","port":27015,"enabled":true,"region":"sa","cc":"br","latitude":-23.533773,"longitude":-46.62529,"reserved":0,"last_update":"0001-01-01T00:00:00Z","name_a2s":"Uncletopia | São Paulo | 2 | Community","protocol":17,"map":"workshop/koth_product_final.ugc454272353","folder":"tf","game":"Team Fortress","app_id":440,"player_count":0,"max_players":24,"Bots":0,"server_type":"Dedicated","server_os":"Linux","password":true,"vac":true,"version":"7961495","steam_id":85568392924485349,"keywords":["cp","nocrits","nodmgspread","uncletopia"],"game_id":440,"stv_port":27016,"stv_name":"Uncletopia | São Paulo | 2 | Community | STV","players":null},{"server_id":7,"name":"Uncletopia | Seattle | 1 | All Maps","name_short":"sea-1","host":"sea-1.us.uncletopia.com","port":27015,"enabled":true,"region":"us-west","cc":"us","latitude":47.608013,"longitude":-122.33517,"reserved":0,"last_update":"0001-01-01T00:00:00Z","name_a2s":"Uncletopia | Seattle | 1 | All Maps","protocol":17,"map":"pl_badwater","folder":"tf","game":"Team Fortress","app_id":440,"player_count":24,"max_players":24,"Bots":0,"server_type":"Dedicated","server_os":"Linux","password":true,"vac":true,"version":"7961495","steam_id":85568392924469997,"keywords":["nocrits","nodmgspread","payload","uncletopia"],"game_id":440,"stv_port":27016,"stv_name":"Uncletopia | Seattle | 1 | All Maps | STV","players":[{"user_id":291,"name":"jacix3 [silly doggie :3]","steam_id":76561198205004165,"connected_time":6322000000000,"state":"active","ping":53},{"user_id":373,"name":"[DATS➡] Sugar Meowth","steam_id":76561197995251793,"connected_time":99000000000,"state":"active","ping":37},{"user_id":354,"name":"Twitch.tv/Jinx_VM","steam_id":76561198280150602,"connected_time":1153000000000,"state":"active","ping":43},{"user_id":351,"name":"MerkZ","steam_id":76561198047620432,"connected_time":1198000000000,"state":"active","ping":73},{"user_id":364,"name":"Browix_Phoenix","steam_id":76561199076123618,"connected_time":976000000000,"state":"active","ping":74},{"user_id":374,"name":"nayme","steam_id":76561199180076789,"connected_time":80000000000,"state":"active","ping":44},{"user_id":353,"name":"Fox","steam_id":76561198076635466,"connected_time":1164000000000,"state":"active","ping":105},{"user_id":367,"name":"Nom Skirrett","steam_id":76561198014600788,"connected_time":807000000000,"state":"active","ping":62},{"user_id":335,"name":"stir-fried human tonsils","steam_id":76561198312126442,"connected_time":1975000000000,"state":"active","ping":57},{"user_id":334,"name":"The Population of Sweden","steam_id":76561198202201644,"connected_time":1991000000000,"state":"active","ping":41},{"user_id":360,"name":"Aglovail","steam_id":76561198276988844,"connected_time":1086000000000,"state":"active","ping":56},{"user_id":370,"name":"Eraser cat","steam_id":76561199045570463,"connected_time":428000000000,"state":"active","ping":44},{"user_id":337,"name":"Pi-er","steam_id":76561198450073779,"connected_time":1940000000000,"state":"active","ping":44},{"user_id":376,"name":"tom myers comedian","steam_id":76561198004619616,"connected_time":73000000000,"state":"active","ping":79},{"user_id":328,"name":"smeasly","steam_id":76561198028718812,"connected_time":2562000000000,"state":"active","ping":41},{"user_id":357,"name":"Bluedemon","steam_id":76561199212058684,"connected_time":1140000000000,"state":"active","ping":75},{"user_id":369,"name":"Walter White","steam_id":76561199102963294,"connected_time":708000000000,"state":"active","ping":65},{"user_id":358,"name":"Laxoloni","steam_id":76561199197045700,"connected_time":1118000000000,"state":"active","ping":76},{"user_id":318,"name":"Moomin","steam_id":76561198072726213,"connected_time":3730000000000,"state":"active","ping":64},{"user_id":333,"name":"Dimple","steam_id":76561198980324190,"connected_time":1997000000000,"state":"active","ping":61},{"user_id":359,"name":"Whimsy!","steam_id":76561197989578836,"connected_time":1115000000000,"state":"active","ping":62},{"user_id":319,"name":"RyInc","steam_id":76561198874261643,"connected_time":3729000000000,"state":"active","ping":95},{"user_id":377,"name":"hl3 hot gay sex","steam_id":76561199122281764,"connected_time":72000000000,"state":"spawning","ping":82},{"user_id":366,"name":"sobaka","steam_id":76561198116008934,"connected_time":907000000000,"state":"active","ping":77}]},{"server_id":119,"name":"Uncletopia | Seattle | 2 | All Maps","name_short":"sea-2","host":"sea-1.us.uncletopia.com","port":27025,"enabled":true,"region":"us-west","cc":"us","latitude":47.608013,"longitude":-122.33517,"reserved":0,"last_update":"0001-01-01T00:00:00Z","name_a2s":"Uncletopia | Seattle | 2 | All Maps","protocol":17,"map":"pl_upward","folder":"tf","game":"Team Fortress","app_id":440,"player_count":0,"max_players":24,"Bots":0,"server_type":"Dedicated","server_os":"Linux","password":true,"vac":true,"version":"7961495","steam_id":85568392924469998,"keywords":["nocrits","nodmgspread","payload","uncletopia"],"game_id":440,"stv_port":27026,"stv_name":"Uncletopia | Seattle | 2 | All Maps | STV","players":null},{"server_id":406,"name":"Uncletopia | Seattle | 3 | Stopwatch","name_short":"sea-3","host":"sea-1.us.uncletopia.com","port":27035,"enabled":true,"region":"us-west","cc":"us","latitude":47.608013,"longitude":-122.33517,"reserved":0,"last_update":"0001-01-01T00:00:00Z","name_a2s":"Uncletopia | Seattle | 3 | Stopwatch","protocol":17,"map":"workshop/pl_barnblitz_pro7.ugc582280235","folder":"tf","game":"Team Fortress","app_id":440,"player_count":0,"max_players":24,"Bots":0,"server_type":"Dedicated","server_os":"Linux","password":true,"vac":true,"version":"7961495","steam_id":85568392924515217,"keywords":["nocrits","nodmgspread","payload","uncletopia"],"game_id":440,"stv_port":27036,"stv_name":"Uncletopia | Seattle | 3 | Stopwatch | STV","players":null},{"server_id":17,"name":"Uncletopia | San Francisco | 1 | All Maps","name_short":"sfo-1","host":"sfo-1.us.uncletopia.com","port":27015,"enabled":true,"region":"us-west","cc":"us","latitude":37.77397,"longitude":-122.4313,"reserved":0,"last_update":"0001-01-01T00:00:00Z","name_a2s":"Uncletopia | San Francisco | 1 | All Maps","protocol":17,"map":"koth_cascade","folder":"tf","game":"Team Fortress","app_id":440,"player_count":0,"max_players":24,"Bots":0,"server_type":"Dedicated","server_os":"Linux","password":true,"vac":true,"version":"7961495","steam_id":85568392924469999,"keywords":["cp","nocrits","nodmgspread","uncletopia"],"game_id":440,"stv_port":27016,"stv_name":"Uncletopia | San Francisco | 1 | All Maps | STV","players":null},{"server_id":18,"name":"Uncletopia | San Francisco | 2 | All Maps","name_short":"sfo-2","host":"sfo-1.us.uncletopia.com","port":27025,"enabled":true,"region":"us-west","cc":"us","latitude":37.77397,"longitude":-122.4313,"reserved":0,"last_update":"0001-01-01T00:00:00Z","name_a2s":"Uncletopia | San Francisco | 2 | All Maps","protocol":17,"map":"cp_altitude","folder":"tf","game":"Team Fortress","app_id":440,"player_count":0,"max_players":24,"Bots":0,"server_type":"Dedicated","server_os":"Linux","password":true,"vac":true,"version":"7961495","steam_id":85568392924470000,"keywords":["cp","nocrits","nodmgspread","uncletopia"],"game_id":440,"stv_port":27026,"stv_name":"Uncletopia | San Francisco | 2 | All Maps | STV","players":null},{"server_id":19,"name":"Uncletopia | San Francisco | 3 | Stopwatch","name_short":"sfo-3","host":"sfo-1.us.uncletopia.com","port":27035,"enabled":true,"region":"us-west","cc":"us","latitude":37.77397,"longitude":-122.4313,"reserved":0,"last_update":"0001-01-01T00:00:00Z","name_a2s":"Uncletopia | San Francisco | 3 | Stopwatch","protocol":17,"map":"workshop/koth_product_final.ugc454272353","folder":"tf","game":"Team Fortress","app_id":440,"player_count":0,"max_players":24,"Bots":0,"server_type":"Dedicated","server_os":"Linux","password":true,"vac":true,"version":"7961495","steam_id":85568392924742824,"keywords":["cp","nocrits","nodmgspread","uncletopia"],"game_id":440,"stv_port":27036,"stv_name":"Uncletopia | San Francisco | 3 | Stopwatch | STV","players":null},{"server_id":20,"name":"Uncletopia | San Francisco | 4 | Community","name_short":"sfo-4","host":"sfo-1.us.uncletopia.com","port":27045,"enabled":true,"region":"us-west","cc":"us","latitude":37.77397,"longitude":-122.4313,"reserved":0,"last_update":"0001-01-01T00:00:00Z","name_a2s":"Uncletopia | San Francisco | 4 | Community","protocol":17,"map":"workshop/pl_badwater_pro_v12.ugc2142942074","folder":"tf","game":"Team Fortress","app_id":440,"player_count":0,"max_players":24,"Bots":0,"server_type":"Dedicated","server_os":"Linux","password":true,"vac":true,"version":"7961495","steam_id":85568392924742826,"keywords":["nocrits","nodmgspread","payload","uncletopia"],"game_id":440,"stv_port":27046,"stv_name":"Uncletopia | San Francisco | 4 | Community | STV","players":null},{"server_id":141,"name":"Uncletopia | Sydney | 1 | All Maps","name_short":"syd-1","host":"syd-1.au.uncletopia.com","port":27015,"enabled":true,"region":"au","cc":"au","latitude":-33.865143,"longitude":151.2099,"reserved":0,"last_update":"0001-01-01T00:00:00Z","name_a2s":"Uncletopia | Sydney | 1 | All Maps","protocol":17,"map":"koth_viaduct","folder":"tf","game":"Team Fortress","app_id":440,"player_count":0,"max_players":24,"Bots":0,"server_type":"Dedicated","server_os":"Linux","password":true,"vac":true,"version":"7961495","steam_id":85568392924470001,"keywords":["cp","nocrits","nodmgspread","uncletopia"],"game_id":440,"stv_port":27016,"stv_name":"Uncletopia | Sydney | 1 | All Maps | STV","players":null},{"server_id":123,"name":"Uncletopia | Sydney | 2 | All Maps","name_short":"syd-2","host":"syd-1.au.uncletopia.com","port":27025,"enabled":true,"region":"au","cc":"au","latitude":-33.865143,"longitude":151.2099,"reserved":0,"last_update":"0001-01-01T00:00:00Z","name_a2s":"Uncletopia | Sydney | 2 | All Maps","protocol":17,"map":"koth_lakeside_final","folder":"tf","game":"Team Fortress","app_id":440,"player_count":0,"max_players":24,"Bots":0,"server_type":"Dedicated","server_os":"Linux","password":true,"vac":true,"version":"7961495","steam_id":85568392924470002,"keywords":["cp","nocrits","nodmgspread","uncletopia"],"game_id":440,"stv_port":27026,"stv_name":"Uncletopia | Sydney | 2 | All Maps | STV","players":null},{"server_id":395,"name":"Uncletopia | Sydney | 3 | All Maps","name_short":"syd-3","host":"syd-1.au.uncletopia.com","port":27035,"enabled":true,"region":"au","cc":"au","latitude":-33.865143,"longitude":151.2099,"reserved":0,"last_update":"0001-01-01T00:00:00Z","name_a2s":"Uncletopia | Sydney | 3 | All Maps","protocol":17,"map":"pl_frontier_final","folder":"tf","game":"Team Fortress","app_id":440,"player_count":1,"max_players":24,"Bots":0,"server_type":"Dedicated","server_os":"Linux","password":true,"vac":true,"version":"7961495","steam_id":85568392925194467,"keywords":["nocrits","nodmgspread","payload","uncletopia"],"game_id":440,"stv_port":27036,"stv_name":"Uncletopia | Sydney | 3 | All Maps | STV","players":[{"user_id":3,"name":"Epsilon","steam_id":76561199258198740,"connected_time":95000000000,"state":"active","ping":75}]},{"server_id":396,"name":"Uncletopia | Sydney | 4 | All Maps","name_short":"syd-4","host":"syd-1.au.uncletopia.com","port":27045,"enabled":true,"region":"au","cc":"au","latitude":-33.865143,"longitude":151.2099,"reserved":0,"last_update":"0001-01-01T00:00:00Z","name_a2s":"Uncletopia | Sydney | 4 | All Maps","protocol":17,"map":"cp_process_final","folder":"tf","game":"Team Fortress","app_id":440,"player_count":0,"max_players":24,"Bots":0,"server_type":"Dedicated","server_os":"Linux","password":true,"vac":true,"version":"7961495","steam_id":85568392925397958,"keywords":["cp","nocrits","nodmgspread","uncletopia"],"game_id":440,"stv_port":27046,"stv_name":"Uncletopia | Sydney | 4 | All Maps | STV","players":null},{"server_id":58,"name":"Uncletopia | Sydney | 5 | Stopwatch","name_short":"syd-5","host":"syd-1.au.uncletopia.com","port":27055,"enabled":true,"region":"au","cc":"au","latitude":-33.865143,"longitude":151.2099,"reserved":0,"last_update":"0001-01-01T00:00:00Z","name_a2s":"Uncletopia | Sydney | 5 | Stopwatch","protocol":17,"map":"pl_frontier_final","folder":"tf","game":"Team Fortress","app_id":440,"player_count":0,"max_players":24,"Bots":0,"server_type":"Dedicated","server_os":"Linux","password":true,"vac":true,"version":"7961495","steam_id":85568392925397959,"keywords":["nocrits","nodmgspread","payload","uncletopia"],"game_id":440,"stv_port":27056,"stv_name":"Uncletopia | Sydney | 5 | Stopwatch | STV","players":null},{"server_id":59,"name":"Uncletopia | Sydney | 6 | Community","name_short":"syd-6","host":"syd-1.au.uncletopia.com","port":27065,"enabled":true,"region":"au","cc":"au","latitude":-33.865143,"longitude":151.2099,"reserved":0,"last_update":"0001-01-01T00:00:00Z","name_a2s":"Uncletopia | Sydney | 6 | Community","protocol":17,"map":"cp_sunshine","folder":"tf","game":"Team Fortress","app_id":440,"player_count":0,"max_players":24,"Bots":0,"server_type":"Dedicated","server_os":"Linux","password":true,"vac":true,"version":"7961495","steam_id":85568392925397960,"keywords":["cp","nocrits","nodmgspread","uncletopia"],"game_id":440,"stv_port":27066,"stv_name":"Uncletopia | Sydney | 6 | Community | STV","players":null},{"server_id":49,"name":"Uncletopia | Warsaw | 1 | One Thousand Uncles","name_short":"waw-1","host":"waw-1.pl.uncletopia.com","port":27015,"enabled":true,"region":"eu","cc":"pl","latitude":52.2297,"longitude":21.017532,"reserved":0,"last_update":"0001-01-01T00:00:00Z","name_a2s":"Uncletopia | Warsaw | 1 | One Thousand Uncles","protocol":17,"map":"pl_badwater","folder":"tf","game":"Team Fortress","app_id":440,"player_count":0,"max_players":32,"Bots":0,"server_type":"Dedicated","server_os":"Linux","password":true,"vac":true,"version":"7961495","steam_id":85568392925397850,"keywords":["alltalk","danepve","increased_maxplayers","nocrits","norespawntime","payload","uncletopia"],"game_id":440,"stv_port":0,"stv_name":"","players":null},{"server_id":50,"name":"Uncletopia | Warsaw | 2 | One Thousand Uncles","name_short":"waw-2","host":"waw-1.pl.uncletopia.com","port":27025,"enabled":true,"region":"eu","cc":"pl","latitude":52.2297,"longitude":21.017532,"reserved":0,"last_update":"0001-01-01T00:00:00Z","name_a2s":"Uncletopia | Warsaw | 2 | One Thousand Uncles","protocol":17,"map":"pl_badwater","folder":"tf","game":"Team Fortress","app_id":440,"player_count":25,"max_players":32,"Bots":16,"server_type":"Dedicated","server_os":"Linux","password":true,"vac":true,"version":"7961495","steam_id":85568392925397851,"keywords":["alltalk","bots","danepve","increased_maxplayers","nocrits","norespawntime","payload","uncletopia"],"game_id":440,"stv_port":0,"stv_name":"","players":[{"user_id":511,"name":"muwi","steam_id":76561198379039743,"connected_time":1692000000000,"state":"active","ping":102},{"user_id":418,"name":"The Detective","steam_id":76561198362995682,"connected_time":10652000000000,"state":"active","ping":93},{"user_id":512,"name":"chadGPT","steam_id":76561197994732044,"connected_time":1578000000000,"state":"active","ping":45},{"user_id":514,"name":"LizardMilk_19","steam_id":76561199435002235,"connected_time":1118000000000,"state":"active","ping":307},{"user_id":481,"name":"Mr_Pulse_","steam_id":76561198095001602,"connected_time":5182000000000,"state":"active","ping":102},{"user_id":494,"name":"DirtyDan701","steam_id":76561199135265012,"connected_time":2396000000000,"state":"active","ping":182},{"user_id":486,"name":"Voks_","steam_id":76561198159687785,"connected_time":4391000000000,"state":"active","ping":64},{"user_id":517,"name":"EL WIWI","steam_id":76561198134378108,"connected_time":606000000000,"state":"active","ping":90},{"user_id":520,"name":"Nari","steam_id":76561199220038535,"connected_time":157000000000,"state":"active","ping":177}]},{"server_id":51,"name":"Uncletopia | Warsaw | 3 | All Maps","name_short":"waw-3","host":"waw-1.pl.uncletopia.com","port":27035,"enabled":true,"region":"eu","cc":"pl","latitude":52.2297,"longitude":21.017532,"reserved":0,"last_update":"0001-01-01T00:00:00Z","name_a2s":"Uncletopia | Warsaw | 3 | All Maps","protocol":17,"map":"koth_viaduct","folder":"tf","game":"Team Fortress","app_id":440,"player_count":0,"max_players":24,"Bots":0,"server_type":"Dedicated","server_os":"Linux","password":true,"vac":true,"version":"7961495","steam_id":85568392925397852,"keywords":["cp","nocrits","nodmgspread","uncletopia"],"game_id":440,"stv_port":27036,"stv_name":"Uncletopia | Warsaw | 3 | All Maps | STV","players":null},{"server_id":52,"name":"Uncletopia | Warsaw | 4 | All Maps","name_short":"waw-4","host":"waw-1.pl.uncletopia.com","port":27045,"enabled":true,"region":"eu","cc":"pl","latitude":52.2297,"longitude":21.017532,"reserved":0,"last_update":"0001-01-01T00:00:00Z","name_a2s":"Uncletopia | Warsaw | 4 | All Maps","protocol":17,"map":"koth_viaduct","folder":"tf","game":"Team Fortress","app_id":440,"player_count":0,"max_players":24,"Bots":0,"server_type":"Dedicated","server_os":"Linux","password":true,"vac":true,"version":"7961495","steam_id":85568392925397853,"keywords":["cp","nocrits","nodmgspread","uncletopia"],"game_id":440,"stv_port":27046,"stv_name":"Uncletopia | Warsaw | 4 | All Maps | STV","players":null},{"server_id":53,"name":"Uncletopia | Warsaw | 5 | Stopwatch","name_short":"waw-5","host":"waw-1.pl.uncletopia.com","port":27055,"enabled":true,"region":"eu","cc":"pl","latitude":52.2297,"longitude":21.017532,"reserved":0,"last_update":"0001-01-01T00:00:00Z","name_a2s":"Uncletopia | Warsaw | 5 | Stopwatch","protocol":17,"map":"workshop/koth_ashville_final.ugc2130459942","folder":"tf","game":"Team Fortress","app_id":440,"player_count":0,"max_players":24,"Bots":0,"server_type":"Dedicated","server_os":"Linux","password":true,"vac":true,"version":"7961495","steam_id":85568392925397854,"keywords":["cp","nocrits","nodmgspread","uncletopia"],"game_id":440,"stv_port":27056,"stv_name":"Uncletopia | Warsaw | 5 | Stopwatch | STV","players":null},{"server_id":54,"name":"Uncletopia | Warsaw | 6 | Community","name_short":"waw-6","host":"waw-1.pl.uncletopia.com","port":27065,"enabled":true,"region":"eu","cc":"pl","latitude":52.2297,"longitude":21.017532,"reserved":0,"last_update":"0001-01-01T00:00:00Z","name_a2s":"Uncletopia | Warsaw | 6 | Community","protocol":17,"map":"workshop/koth_ashville_final.ugc2130459942","folder":"tf","game":"Team Fortress","app_id":440,"player_count":0,"max_players":24,"Bots":0,"server_type":"Dedicated","server_os":"Linux","password":true,"vac":true,"version":"7961495","steam_id":85568392925397856,"keywords":["cp","nocrits","nodmgspread","uncletopia"],"game_id":440,"stv_port":27066,"stv_name":"Uncletopia | Warsaw | 6 | Community | STV","players":null}]}