{"status":true,"message":"","result":[{"server_id":9,"name":"Uncletopia | Atlanta | 1 | All Maps","name_short":"atl-1","host":"atl-1.us.uncletopia.com","port":27015,"enabled":true,"region":"us-east","cc":"us","latitude":33.753746,"longitude":-84.38633,"reserved":0,"last_update":"0001-01-01T00:00:00Z","name_a2s":"Uncletopia | Atlanta | 1 | All Maps","protocol":17,"map":"pl_badwater","folder":"tf","game":"Team Fortress","app_id":440,"player_count":24,"max_players":24,"Bots":0,"server_type":"Dedicated","server_os":"Linux","password":true,"vac":true,"version":"7695204","steam_id":85568392924469982,"keywords":["nocrits","nodmgspread","payload","uncletopia"],"game_id":440,"stv_port":27016,"stv_name":"Uncletopia | Atlanta | 1 | All Maps | STV","players":[{"user_id":470,"name":"merry mommy","steam_id":76561199230929836,"connected_time":1209000000000,"state":"active","ping":84},{"user_id":478,"name":"HARRY","steam_id":76561198842067238,"connected_time":263000000000,"state":"active","ping":60},{"user_id":479,"name":"MysticalKnight","steam_id":76561198960216480,"connected_time":132000000000,"state":"active","ping":60},{"user_id":477,"name":"ATL1 | p4ka","steam_id":76561198315291317,"connected_time":284000000000,"state":"active","ping":77},{"user_id":449,"name":"Limbo_Darkness","steam_id":76561198127411819,"connected_time":3612000000000,"state":"active","ping":62},{"user_id":438,"name":"rose","steam_id":76561198048882285,"connected_time":5867000000000,"state":"active","ping":62},{"user_id":242,"name":"ATL1 | eish","steam_id":76561198089463603,"connected_time":22158000000000,"state":"active","ping":106},{"user_id":342,"name":"ATL6 Le4n Nog!!!","steam_id":76561198045522596,"connected_time":13133000000000,"state":"active","ping":60},{"user_id":451,"name":"PzVIIIMaus","steam_id":76561198346559365,"connected_time":3140000000000,"state":"active","ping":54},{"user_id":480,"name":"Singularity","steam_id":76561198000284742,"connected_time":117000000000,"state":"active","ping":58},{"user_id":484,"name":"Sgt","steam_id":76561198139818111,"connected_time":66000000000,"state":"active","ping":82},{"user_id":259,"name":"joe lft","steam_id":76561198045781320,"connected_time":20837000000000,"state":"active","ping":73},{"user_id":443,"name":"ATL1 | on my hunting trip","steam_id":76561198315341646,"connected_time":4597000000000,"state":"active","ping":69},{"user_id":482,"name":"quandavious dinglebottom","steam_id":76561199078842978,"connected_time":99000000000,"state":"active","ping":78},{"user_id":389,"name":"Mage","steam_id":76561198285026879,"connected_time":12175000000000,"state":"active","ping":76},{"user_id":469,"name":"Im High","steam_id":76561198049954886,"connected_time":1386000000000,"state":"active","ping":70},{"user_id":471,"name":"ATL1 | a very merry ma0re","steam_id":76561199231971506,"connected_time":1182000000000,"state":"active","ping":65},{"user_id":483,"name":"Unionized Gnoll","steam_id":76561198005577021,"connected_time":80000000000,"state":"active","ping":76},{"user_id":453,"name":"ATL1 | Kramer","steam_id":76561198083595936,"connected_time":3017000000000,"state":"active","ping":79},{"user_id":475,"name":"Bottom Trans Cowgirl","steam_id":76561198304239680,"connected_time":468000000000,"state":"active","ping":70},{"user_id":463,"name":"Memed2Much","steam_id":76561199032248010,"connected_time":1843000000000,"state":"active","ping":69},{"user_id":435,"name":"ATL1 | spoonful","steam_id":76561198927517471,"connected_time":6084000000000,"state":"active","ping":55},{"user_id":425,"name":"FemboyNate","steam_id":76561198146636410,"connected_time":7871000000000,"state":"active","ping":53},{"user_id":464,"name":"bogginwater","steam_id":76561198155547142,"connected_time":1722000000000,"state":"active","ping":90}]},{"server_id":400,"name":"Uncletopia | Atlanta | 3 | All Maps","name_short":"atl-3","host":"atl-1.us.uncletopia.com","port":27035,"enabled":true,"region":"us-east","cc":"us","latitude":33.753746,"longitude":-84.38633,"reserved":0,"last_update":"0001-01-01T00:00:00Z","name_a2s":"Uncletopia | Atlanta | 3 | All Maps","protocol":17,"map":"cp_altitude","folder":"tf","game":"Team Fortress","app_id":440,"player_count":24,"max_players":24,"Bots":0,"server_type":"Dedicated","server_os":"Linux","password":true,"vac":true,"version":"7695204","steam_id":85568392924515187,"keywords":["cp","nocrits","nodmgspread","uncletopia"],"game_id":440,"stv_port":27036,"stv_name":"Uncletopia | Atlanta | 3 | All Maps | STV","players":[{"user_id":280,"name":"Inevitable","steam_id":76561198210050169,"connected_time":647000000000,"state":"active","ping":71},{"user_id":251,"name":"Team Fortress 2","steam_id":76561198045746493,"connected_time":1747000000000,"state":"active","ping":51},{"user_id":253,"name":"John Creighton-Cruz Harrison","steam_id":76561198031611806,"connected_time":1676000000000,"state":"active","ping":60},{"user_id":258,"name":"brerbo","steam_id":76561198080875862,"connected_time":1460000000000,"state":"active","ping":65},{"user_id":266,"name":"Raccoondude","steam_id":76561199087899582,"connected_time":1144000000000,"state":"active","ping":69},{"user_id":96,"name":"Saucy","steam_id":76561198118914598,"connected_time":13843000000000,"state":"active","ping":59},{"user_id":260,"name":"Ace","steam_id":76561198162550368,"connected_time":1397000000000,"state":"active","ping":82},{"user_id":257,"name":"Collyn","steam_id":76561198081219598,"connected_time":1550000000000,"state":"active","ping":75},{"user_id":261,"name":"Open Mailbox","steam_id":76561198051933580,"connected_time":1306000000000,"state":"active","ping":77},{"user_id":262,"name":"The Amazing Perry","steam_id":76561198165964126,"connected_time":1275000000000,"state":"active","ping":70},{"user_id":263,"name":"jorjor wells","steam_id":76561199073429082,"connected_time":1244000000000,"state":"active","ping":64},{"user_id":264,"name":"Yoyo","steam_id":76561199122577289,"connected_time":1235000000000,"state":"active","ping":63},{"user_id":277,"name":"Bea","steam_id":76561199096485663,"connected_time":868000000000,"state":"active","ping":68},{"user_id":232,"name":"Synergy","steam_id":76561198098630198,"connected_time":3392000000000,"state":"active","ping":118},{"user_id":281,"name":"lauren/","steam_id":76561198048745798,"connected_time":563000000000,"state":"active","ping":60},{"user_id":269,"name":"mario","steam_id":76561198129272019,"connected_time":1118000000000,"state":"active","ping":161},{"user_id":270,"name":"toad","steam_id":76561197988729190,"connected_time":1117000000000,"state":"active","ping":68},{"user_id":271,"name":"Underdonehaircut","steam_id":76561198139902419,"connected_time":1087000000000,"state":"active","ping":76},{"user_id":272,"name":"ZekeThePlumber","steam_id":76561197995016724,"connected_time":1072000000000,"state":"active","ping":75},{"user_id":120,"name":"Fishotron","steam_id":76561198355634940,"connected_time":12052000000000,"state":"active","ping":58},{"user_id":274,"name":"garfield","steam_id":76561198114119308,"connected_time":1036000000000,"state":"active","ping":53},{"user_id":275,"name":"Starman 64","steam_id":76561198290273474,"connected_time":1023000000000,"state":"active","ping":110},{"user_id":276,"name":"ZEBRA","steam_id":76561198291592466,"connected_time":1009000000000,"state":"active","ping":112},{"user_id":279,"name":"ferscot1000","steam_id":76561198110722940,"connected_time":725000000000,"state":"active","ping":74}]},{"server_id":401,"name":"Uncletopia | Atlanta | 4 | No Payload","name_short":"atl-4","host":"atl-1.us.uncletopia.com","port":27045,"enabled":true,"region":"us-east","cc":"us","latitude":33.753746,"longitude":-84.38633,"reserved":0,"last_update":"0001-01-01T00:00:00Z","name_a2s":"Uncletopia | Atlanta | 4 | No Payload","protocol":17,"map":"cp_mountainlab","folder":"tf","game":"Team Fortress","app_id":440,"player_count":24,"max_players":24,"Bots":0,"server_type":"Dedicated","server_os":"Linux","password":true,"vac":true,"version":"7695204","steam_id":85568392924515188,"keywords":["cp","nocrits","nodmgspread","uncletopia"],"game_id":440,"stv_port":27046,"stv_name":"Uncletopia | Atlanta | 4 | No Payload | STV","players":[{"user_id":271,"name":"larry","steam_id":76561198139630467,"connected_time":24000000000,"state":"spawning","ping":74},{"user_id":249,"name":"salt","steam_id":76561198421921003,"connected_time":775000000000,"state":"active","ping":76},{"user_id":253,"name":"SC|Formuoli","steam_id":76561198254354595,"connected_time":544000000000,"state":"active","ping":57},{"user_id":255,"name":"Cheezyfrie","steam_id":76561199112210824,"connected_time":435000000000,"state":"active","ping":73},{"user_id":256,"name":"Arthur","steam_id":76561198051882162,"connected_time":303000000000,"state":"active","ping":75},{"user_id":257,"name":"SpiderString","steam_id":76561198092409181,"connected_time":301000000000,"state":"active","ping":104},{"user_id":262,"name":"Citizen Cyrus","steam_id":76561198158676927,"connected_time":193000000000,"state":"active","ping":75},{"user_id":236,"name":"CaptDongers","steam_id":76561198106341702,"connected_time":2210000000000,"state":"active","ping":98},{"user_id":243,"name":"ewio","steam_id":76561198447244031,"connected_time":1674000000000,"state":"active","ping":67},{"user_id":258,"name":"Motivational Man","steam_id":76561198414889101,"connected_time":301000000000,"state":"active","ping":90},{"user_id":260,"name":"Pwnedbyfatty - PMKBB","steam_id":76561197995037409,"connected_time":288000000000,"state":"active","ping":90},{"user_id":239,"name":"Spinch","steam_id":76561198296224166,"connected_time":1945000000000,"state":"active","ping":63},{"user_id":205,"name":"blob","steam_id":76561198122375328,"connected_time":5092000000000,"state":"active","ping":46},{"user_id":248,"name":"queer linux user","steam_id":76561199208765424,"connected_time":966000000000,"state":"active","ping":107},{"user_id":245,"name":"Vobo","steam_id":76561199159418598,"connected_time":1259000000000,"state":"active","ping":114},{"user_id":261,"name":"Volbia","steam_id":76561197979947734,"connected_time":257000000000,"state":"active","ping":54},{"user_id":267,"name":"festive Λlxium","steam_id":76561198131272900,"connected_time":100000000000,"state":"active","ping":62},{"user_id":265,"name":"eli","steam_id":76561198253198869,"connected_time":108000000000,"state":"active","ping":78},{"user_id":266,"name":"Plinko","steam_id":76561197968530638,"connected_time":105000000000,"state":"active","ping":31},{"user_id":268,"name":"Round King","steam_id":76561198273185290,"connected_time":90000000000,"state":"active","ping":71},{"user_id":269,"name":"Regi","steam_id":76561198271508598,"connected_time":82000000000,"state":"active","ping":74},{"user_id":272,"name":"Walter Malone","steam_id":76561198078661356,"connected_time":4000000000,"state":"spawning","ping":70},{"user_id":240,"name":"$200 Shirt","steam_id":76561197977329534,"connected_time":1869000000000,"state":"active","ping":89},{"user_id":226,"name":"unoriginal","steam_id":76561198205397801,"connected_time":3007000000000,"state":"active","ping":46}]},{"server_id":2,"name":"Uncletopia | Chicago | 1 | All Maps","name_short":"chi-1","host":"chi-1.us.uncletopia.com","port":27015,"enabled":true,"region":"us-central","cc":"us","latitude":41.881832,"longitude":-87.62318,"reserved":0,"last_update":"0001-01-01T00:00:00Z","name_a2s":"Uncletopia | Chicago | 1 | All Maps","protocol":17,"map":"pl_snowycoast","folder":"tf","game":"Team Fortress","app_id":440,"player_count":24,"max_players":24,"Bots":0,"server_type":"Dedicated","server_os":"Linux","password":true,"vac":true,"version":"7695204","steam_id":85568392924469984,"keywords":["nocrits","nodmgspread","payload","uncletopia"],"game_id":440,"stv_port":27016,"stv_name":"Uncletopia | Chicago | 1 | All Maps | STV","players":[{"user_id":573,"name":"im banned from skial","steam_id":76561199031775779,"connected_time":2909000000000,"state":"active","ping":72},{"user_id":629,"name":"No Binary","steam_id":76561198835593895,"connected_time":231000000000,"state":"active","ping":100},{"user_id":621,"name":"savagedachshund","steam_id":76561199208468955,"connected_time":645000000000,"state":"active","ping":93},{"user_id":594,"name":"VLADIMIR LENIN'S CAT","steam_id":76561198182999551,"connected_time":1831000000000,"state":"active","ping":62},{"user_id":609,"name":"Zero Rabb","steam_id":76561198119483989,"connected_time":1088000000000,"state":"active","ping":84},{"user_id":630,"name":"pandora da king","steam_id":76561198075490385,"connected_time":222000000000,"state":"active","ping":100},{"user_id":583,"name":"sneakyflamingo","steam_id":76561199093026056,"connected_time":2698000000000,"state":"active","ping":69},{"user_id":616,"name":"\"\"","steam_id":76561198032650652,"connected_time":834000000000,"state":"active","ping":97},{"user_id":579,"name":"rolt bagger","steam_id":76561198026664629,"connected_time":2751000000000,"state":"active","ping":57},{"user_id":631,"name":"A tree","steam_id":76561198309065247,"connected_time":216000000000,"state":"active","ping":82},{"user_id":626,"name":"Cooldude_15","steam_id":76561198346713382,"connected_time":399000000000,"state":"active","ping":44},{"user_id":619,"name":"floof","steam_id":76561198167756375,"connected_time":765000000000,"state":"active","ping":94},{"user_id":615,"name":"Quibbli","steam_id":76561199214866732,"connected_time":836000000000,"state":"active","ping":66},{"user_id":625,"name":"weed dragon of rad","steam_id":76561198064342804,"connected_time":415000000000,"state":"active","ping":178},{"user_id":632,"name":"Dr. Pl0x","steam_id":76561198040785401,"connected_time":203000000000,"state":"active","ping":94},{"user_id":628,"name":"BowTiedKzat","steam_id":76561198801079082,"connected_time":246000000000,"state":"active","ping":58},{"user_id":603,"name":"Casual Costanza","steam_id":76561198024409325,"connected_time":1621000000000,"state":"active","ping":66},{"user_id":620,"name":"Ping","steam_id":76561199206514106,"connected_time":741000000000,"state":"active","ping":47},{"user_id":617,"name":"zen","steam_id":76561198066485047,"connected_time":813000000000,"state":"active","ping":69},{"user_id":627,"name":"Basurado","steam_id":76561198819695655,"connected_time":336000000000,"state":"active","ping":60},{"user_id":622,"name":"anna","steam_id":76561197994492154,"connected_time":623000000000,"state":"active","ping":174},{"user_id":610,"name":"PeptoBismol135","steam_id":76561198135387121,"connected_time":1067000000000,"state":"active","ping":79},{"user_id":618,"name":"Dreysidel","steam_id":76561198056496183,"connected_time":812000000000,"state":"active","ping":72},{"user_id":613,"name":"wutville enjoyer (chad)","steam_id":76561198418178297,"connected_time":895000000000,"state":"active","ping":81}]},{"server_id":106,"name":"Uncletopia | Chicago | 2 | All Maps","name_short":"chi-2","host":"chi-1.us.uncletopia.com","port":27025,"enabled":true,"region":"us-central","cc":"us","latitude":41.881832,"longitude":-87.62318,"reserved":0,"last_update":"0001-01-01T00:00:00Z","name_a2s":"Uncletopia | Chicago | 2 | All Maps","protocol":17,"map":"pl_pier","folder":"tf","game":"Team Fortress","app_id":440,"player_count":24,"max_players":24,"Bots":0,"server_type":"Dedicated","server_os":"Linux","password":true,"vac":true,"version":"7695204","steam_id":85568392924469985,"keywords":["nocrits","nodmgspread","payload","uncletopia"],"game_id":440,"stv_port":27026,"stv_name":"Uncletopia | Chicago | 2 | All Maps | STV","players":[{"user_id":464,"name":"ham bone","steam_id":76561198351143785,"connected_time":102000000000,"state":"active","ping":59},{"user_id":445,"name":"Big_John.exe","steam_id":76561198149587627,"connected_time":1166000000000,"state":"active","ping":82},{"user_id":458,"name":"DazzlingMaggot","steam_id":76561197972716928,"connected_time":214000000000,"state":"active","ping":77},{"user_id":430,"name":"lambmyth","steam_id":76561199215261209,"connected_time":2072000000000,"state":"active","ping":84},{"user_id":444,"name":"thecal","steam_id":76561198307893384,"connected_time":1223000000000,"state":"active","ping":46},{"user_id":448,"name":"Mrangryface98","steam_id":76561198036776117,"connected_time":1025000000000,"state":"active","ping":75},{"user_id":463,"name":"ShadowisE","steam_id":76561197990144848,"connected_time":155000000000,"state":"active","ping":61},{"user_id":429,"name":"6t26j","steam_id":76561198278282836,"connected_time":2159000000000,"state":"active","ping":56},{"user_id":408,"name":"basil","steam_id":76561198075758026,"connected_time":3966000000000,"state":"active","ping":94},{"user_id":435,"name":"RyInc","steam_id":76561198874261643,"connected_time":1516000000000,"state":"active","ping":47},{"user_id":454,"name":"TallBit","steam_id":76561199059748976,"connected_time":599000000000,"state":"active","ping":51},{"user_id":459,"name":"rato","steam_id":76561198993641831,"connected_time":214000000000,"state":"active","ping":60},{"user_id":356,"name":"Xavibite","steam_id":76561198209380493,"connected_time":7706000000000,"state":"active","ping":60},{"user_id":465,"name":"a soundsmith wannabe","steam_id":76561198998252033,"connected_time":78000000000,"state":"active","ping":76},{"user_id":389,"name":"Frost","steam_id":76561198168870617,"connected_time":5072000000000,"state":"active","ping":71},{"user_id":451,"name":"sweaterfan","steam_id":76561199389567214,"connected_time":925000000000,"state":"active","ping":68},{"user_id":440,"name":"Alabit","steam_id":76561198065578560,"connected_time":1249000000000,"state":"active","ping":88},{"user_id":461,"name":",","steam_id":76561199174579733,"connected_time":175000000000,"state":"active","ping":75},{"user_id":449,"name":"SodaMazing","steam_id":76561198087297121,"connected_time":1003000000000,"state":"active","ping":93},{"user_id":447,"name":"Korra \u003c3","steam_id":76561198044991497,"connected_time":1146000000000,"state":"active","ping":94},{"user_id":462,"name":"Emperor Draka","steam_id":76561198442285002,"connected_time":173000000000,"state":"active","ping":66},{"user_id":450,"name":"Kamin","steam_id":76561198255299559,"connected_time":1001000000000,"state":"active","ping":80},{"user_id":412,"name":"oh shoot a red pen","steam_id":76561198421591995,"connected_time":3918000000000,"state":"active","ping":79},{"user_id":424,"name":"cringeass nae-nae girl","steam_id":76561198108753857,"connected_time":2582000000000,"state":"active","ping":77}]},{"server_id":402,"name":"Uncletopia | Chicago | 3 | All Maps","name_short":"chi-3","host":"chi-1.us.uncletopia.com","port":27035,"enabled":true,"region":"us-central","cc":"us","latitude":41.881832,"longitude":-87.62318,"reserved":0,"last_update":"0001-01-01T00:00:00Z","name_a2s":"Uncletopia | Chicago | 3 | All Maps","protocol":17,"map":"koth_suijin","folder":"tf","game":"Team Fortress","app_id":440,"player_count":24,"max_players":24,"Bots":0,"server_type":"Dedicated","server_os":"Linux","password":true,"vac":true,"version":"7695204","steam_id":85568392924515191,"keywords":["cp","nocrits","nodmgspread","uncletopia"],"game_id":440,"stv_port":27036,"stv_name":"Uncletopia | Chicago | 3 | All Maps | STV","players":[{"user_id":425,"name":"Seskova","steam_id":76561198090207032,"connected_time":2887000000000,"state":"active","ping":109},{"user_id":454,"name":"Ronnie","steam_id":76561198045894586,"connected_time":1365000000000,"state":"active","ping":83},{"user_id":438,"name":"\"Gay Panic\"","steam_id":76561198132531594,"connected_time":1793000000000,"state":"active","ping":90},{"user_id":432,"name":"the coolest sonic oc","steam_id":76561198123770728,"connected_time":2429000000000,"state":"active","ping":61},{"user_id":380,"name":"Mad Cow※","steam_id":76561198132498594,"connected_time":6101000000000,"state":"active","ping":51},{"user_id":458,"name":"merge without looking","steam_id":76561198056702628,"connected_time":691000000000,"state":"active","ping":59},{"user_id":418,"name":"RobloxFan2016","steam_id":76561198864845171,"connected_time":3240000000000,"state":"active","ping":108},{"user_id":427,"name":"mkwfreak","steam_id":76561198049000779,"connected_time":2862000000000,"state":"active","ping":103},{"user_id":439,"name":"Ion{M}","steam_id":76561197993457435,"connected_time":1789000000000,"state":"active","ping":76},{"user_id":459,"name":"k3nny11","steam_id":76561198182533757,"connected_time":222000000000,"state":"active","ping":65},{"user_id":378,"name":"JettSettRF_TTV","steam_id":76561198035927799,"connected_time":6464000000000,"state":"active","ping":52},{"user_id":453,"name":"Barracuda","steam_id":76561198013022083,"connected_time":1394000000000,"state":"active","ping":55},{"user_id":457,"name":"VioletSpecs","steam_id":76561198089366466,"connected_time":767000000000,"state":"active","ping":78},{"user_id":419,"name":"Le","steam_id":76561198817754233,"connected_time":3037000000000,"state":"active","ping":58},{"user_id":444,"name":"Pizza Party","steam_id":76561198165730754,"connected_time":1622000000000,"state":"active","ping":71},{"user_id":447,"name":"Captain Innocuous","steam_id":76561197968982943,"connected_time":1587000000000,"state":"active","ping":90},{"user_id":450,"name":"Bondrewd (Best Anime Dad)","steam_id":76561198115278249,"connected_time":1541000000000,"state":"active","ping":76},{"user_id":445,"name":"Pan Leadership","steam_id":76561198310951440,"connected_time":1619000000000,"state":"active","ping":80},{"user_id":446,"name":"Feldum","steam_id":76561198032537700,"connected_time":1595000000000,"state":"active","ping":73},{"user_id":401,"name":"Back with the milk","steam_id":76561199020105501,"connected_time":4559000000000,"state":"active","ping":73},{"user_id":460,"name":"StinkyAnimeFemboys.com","steam_id":76561198014939287,"connected_time":183000000000,"state":"active","ping":66},{"user_id":451,"name":"Anxious Nerd Bird","steam_id":76561198112178602,"connected_time":1526000000000,"state":"active","ping":109},{"user_id":461,"name":"helloyes_123","steam_id":76561198184669555,"connected_time":168000000000,"state":"active","ping":89},{"user_id":452,"name":"Nermal Fan 2000","steam_id":76561198255823904,"connected_time":1502000000000,"state":"active","ping":69}]},{"server_id":403,"name":"Uncletopia | Chicago | 4 | All Maps","name_short":"chi-4","host":"chi-1.us.uncletopia.com","port":27045,"enabled":true,"region":"us-central","cc":"us","latitude":41.881832,"longitude":-87.62318,"reserved":0,"last_update":"0001-01-01T00:00:00Z","name_a2s":"Uncletopia | Chicago | 4 | All Maps","protocol":17,"map":"pl_borneo","folder":"tf","game":"Team Fortress","app_id":440,"player_count":22,"max_players":24,"Bots":0,"server_type":"Dedicated","server_os":"Linux","password":true,"vac":true,"version":"7695204","steam_id":85568392924515193,"keywords":["nocrits","nodmgspread","payload","uncletopia"],"game_id":440,"stv_port":27046,"stv_name":"Uncletopia | Chicago | 4 | All Maps | STV","players":[{"user_id":504,"name":"Dwars","steam_id":76561197968737222,"connected_time":1005000000000,"state":"active","ping":62},{"user_id":510,"name":"jamalbob33","steam_id":76561198410281331,"connected_time":272000000000,"state":"active","ping":82},{"user_id":433,"name":"uneducated guess","steam_id":76561198140846580,"connected_time":8274000000000,"state":"active","ping":62},{"user_id":441,"name":"hhace","steam_id":76561198240217520,"connected_time":7902000000000,"state":"active","ping":64},{"user_id":512,"name":"Uncle Iroh","steam_id":76561198006259104,"connected_time":252000000000,"state":"active","ping":36},{"user_id":494,"name":"MarshMellO","steam_id":76561198041627377,"connected_time":1687000000000,"state":"active","ping":85},{"user_id":513,"name":"rlty","steam_id":76561198009395055,"connected_time":156000000000,"state":"active","ping":62},{"user_id":507,"name":"ItsMoxx1nTime","steam_id":76561199379463288,"connected_time":679000000000,"state":"active","ping":63},{"user_id":446,"name":"Fudgely","steam_id":76561198039425862,"connected_time":7641000000000,"state":"active","ping":76},{"user_id":447,"name":"☃ Yup Kup ☃","steam_id":76561198094119347,"connected_time":7638000000000,"state":"active","ping":62},{"user_id":496,"name":"catastrophic yippee","steam_id":76561198412310827,"connected_time":1592000000000,"state":"active","ping":86},{"user_id":490,"name":"Interrobang","steam_id":76561198385044529,"connected_time":1881000000000,"state":"active","ping":149},{"user_id":508,"name":"Very Merry Toaster","steam_id":76561198110748463,"connected_time":516000000000,"state":"active","ping":63},{"user_id":339,"name":"birbneedsumseed","steam_id":76561198853439850,"connected_time":15952000000000,"state":"active","ping":97},{"user_id":475,"name":"Stag","steam_id":76561198058537502,"connected_time":3620000000000,"state":"active","ping":103},{"user_id":487,"name":"biribiri","steam_id":76561198166827208,"connected_time":2272000000000,"state":"active","ping":93},{"user_id":430,"name":"Chode Mode","steam_id":76561198353840477,"connected_time":8634000000000,"state":"active","ping":52},{"user_id":493,"name":"RelativeToZero","steam_id":76561198175875733,"connected_time":1773000000000,"state":"active","ping":115},{"user_id":481,"name":"The Goat","steam_id":76561197960432083,"connected_time":3246000000000,"state":"active","ping":66},{"user_id":482,"name":"God of bread","steam_id":76561198373688035,"connected_time":3243000000000,"state":"active","ping":65},{"user_id":503,"name":"Draconic Ballad","steam_id":76561198027191515,"connected_time":1345000000000,"state":"active","ping":70},{"user_id":511,"name":"kakashi","steam_id":76561198077902438,"connected_time":272000000000,"state":"active","ping":89}]},{"server_id":36,"name":"Uncletopia | Chicago | 5 | All Maps","name_short":"chi-5","host":"chi-2.us.uncletopia.com","port":27015,"enabled":true,"region":"us-central","cc":"us","latitude":41.881832,"longitude":-87.62318,"reserved":0,"last_update":"0001-01-01T00:00:00Z","name_a2s":"Uncletopia | Chicago | 5 | All Maps","protocol":17,"map":"cp_dustbowl","folder":"tf","game":"Team Fortress","app_id":440,"player_count":24,"max_players":24,"Bots":0,"server_type":"Dedicated","server_os":"Linux","password":true,"vac":true,"version":"7695204","steam_id":85568392924866362,"keywords":["cp","nocrits","nodmgspread","uncletopia"],"game_id":440,"stv_port":27016,"stv_name":"Uncletopia | Chicago | 5 | All Maps | STV","players":[{"user_id":276,"name":"vieodmsgea","steam_id":76561198025295263,"connected_time":2504000000000,"state":"active","ping":75},{"user_id":303,"name":"Bowl","steam_id":76561198133931159,"connected_time":579000000000,"state":"active","ping":58},{"user_id":280,"name":"Civic Wayfinder","steam_id":76561198060320953,"connected_time":2259000000000,"state":"active","ping":65},{"user_id":296,"name":"viper","steam_id":76561198839942937,"connected_time":1255000000000,"state":"active","ping":62},{"user_id":275,"name":"Mr.Kevin120","steam_id":76561199186919096,"connected_time":2528000000000,"state":"active","ping":85},{"user_id":278,"name":"luser","steam_id":76561199186893169,"connected_time":2463000000000,"state":"active","ping":74},{"user_id":226,"name":"sock","steam_id":76561199117597830,"connected_time":5716000000000,"state":"active","ping":58},{"user_id":285,"name":"JACOB","steam_id":76561198211874895,"connected_time":2015000000000,"state":"active","ping":75},{"user_id":263,"name":"happyman","steam_id":76561199430019599,"connected_time":3242000000000,"state":"active","ping":58},{"user_id":281,"name":"finn #savetf2 (he/him)","steam_id":76561198257531708,"connected_time":2212000000000,"state":"active","ping":54},{"user_id":306,"name":"static","steam_id":76561198364916394,"connected_time":479000000000,"state":"active","ping":102},{"user_id":307,"name":"Wheatley","steam_id":76561199059006203,"connected_time":469000000000,"state":"active","ping":56},{"user_id":301,"name":"Pleiades","steam_id":76561198079590693,"connected_time":956000000000,"state":"active","ping":91},{"user_id":297,"name":"B. Nana","steam_id":76561198154033742,"connected_time":1241000000000,"state":"active","ping":59},{"user_id":298,"name":"Mattron1","steam_id":76561198012270524,"connected_time":1210000000000,"state":"active","ping":68},{"user_id":207,"name":"Medical Asshat","steam_id":76561198004584315,"connected_time":6997000000000,"state":"active","ping":65},{"user_id":302,"name":"defcon","steam_id":76561198100656328,"connected_time":600000000000,"state":"active","ping":75},{"user_id":308,"name":"LW | [wrd]HaloLagann","steam_id":76561198047561568,"connected_time":161000000000,"state":"active","ping":65},{"user_id":288,"name":"The Squid Gamer™","steam_id":76561198340621517,"connected_time":1924000000000,"state":"active","ping":109},{"user_id":309,"name":"SqueakyPiston","steam_id":76561198092321743,"connected_time":71000000000,"state":"active","ping":62},{"user_id":249,"name":"spaghetti man","steam_id":76561199020253203,"connected_time":4490000000000,"state":"active","ping":116},{"user_id":291,"name":"Dramatic","steam_id":76561199012990268,"connected_time":1830000000000,"state":"active","ping":61},{"user_id":292,"name":"pablo.gonzales.2004","steam_id":76561199217620385,"connected_time":1698000000000,"state":"active","ping":75},{"user_id":293,"name":"dj_Beanland","steam_id":76561198047500009,"connected_time":1690000000000,"state":"active","ping":101}]},{"server_id":37,"name":"Uncletopia | Chicago | 6 | All Maps","name_short":"chi-6","host":"chi-2.us.uncletopia.com","port":27025,"enabled":true,"region":"us-central","cc":"us","latitude":41.881832,"longitude":-87.62318,"reserved":0,"last_update":"0001-01-01T00:00:00Z","name_a2s":"Uncletopia | Chicago | 6 | All Maps","protocol":17,"map":"koth_lakeside_final","folder":"tf","game":"Team Fortress","app_id":440,"player_count":0,"max_players":24,"Bots":0,"server_type":"Dedicated","server_os":"Linux","password":true,"vac":true,"version":"7695204","steam_id":85568392924866363,"keywords":["cp","nocrits","nodmgspread","uncletopia"],"game_id":440,"stv_port":27026,"stv_name":"Uncletopia | Chicago | 6 | All Maps | STV","players":null},{"server_id":38,"name":"Uncletopia | Chicago | 7 | No Payload","name_short":"chi-7","host":"chi-2.us.uncletopia.com","port":27035,"enabled":true,"region":"us-central","cc":"us","latitude":41.881832,"longitude":-87.62318,"reserved":0,"last_update":"0001-01-01T00:00:00Z","name_a2s":"Uncletopia | Chicago | 7 | No Payload","protocol":17,"map":"koth_harvest_final","folder":"tf","game":"Team Fortress","app_id":440,"player_count":4,"max_players":24,"Bots":0,"server_type":"Dedicated","server_os":"Linux","password":true,"vac":true,"version":"7695204","steam_id":85568392924866364,"keywords":["cp","nocrits","nodmgspread","uncletopia"],"game_id":440,"stv_port":27036,"stv_name":"Uncletopia | Chicago | 7 | No Payload | STV","players":[{"user_id":31,"name":"Pebberoni","steam_id":76561199261321326,"connected_time":1109000000000,"state":"active","ping":95},{"user_id":33,"name":"twoobacam","steam_id":76561199440310319,"connected_time":1027000000000,"state":"active","ping":105},{"user_id":37,"name":"themadlad67","steam_id":76561199309554436,"connected_time":489000000000,"state":"active","ping":97},{"user_id":35,"name":"doop","steam_id":76561198370487545,"connected_time":907000000000,"state":"active","ping":69}]},{"server_id":39,"name":"Uncletopia | Chicago | 8 | Community","name_short":"chi-8","host":"chi-2.us.uncletopia.com","port":27045,"enabled":true,"region":"us-central","cc":"us","latitude":41.881832,"longitude":-87.62318,"reserved":0,"last_update":"0001-01-01T00:00:00Z","name_a2s":"Uncletopia | Chicago | 8 | Community","protocol":17,"map":"workshop/cp_logjam_rc12.ugc454812035","folder":"tf","game":"Team Fortress","app_id":440,"player_count":0,"max_players":24,"Bots":0,"server_type":"Dedicated","server_os":"Linux","password":true,"vac":true,"version":"7695204","steam_id":85568392924866365,"keywords":["cp","nocrits","nodmgspread","uncletopia"],"game_id":440,"stv_port":27046,"stv_name":"Uncletopia | Chicago | 8 | Community | STV","players":null},{"server_id":8,"name":"Uncletopia | Dallas | 1 | All Maps","name_short":"dal-1","host":"dal-1.us.uncletopia.com","port":27015,"enabled":true,"region":"us-central","cc":"us","latitude":32.779167,"longitude":-96.80889,"reserved":0,"last_update":"0001-01-01T00:00:00Z","name_a2s":"Uncletopia | Dallas | 1 | All Maps","protocol":17,"map":"pl_borneo","folder":"tf","game":"Team Fortress","app_id":440,"player_count":23,"max_players":24,"Bots":0,"server_type":"Dedicated","server_os":"Linux","password":true,"vac":true,"version":"7695204","steam_id":85568392924469986,"keywords":["nocrits","nodmgspread","payload","uncletopia"],"game_id":440,"stv_port":27016,"stv_name":"Uncletopia | Dallas | 1 | All Maps | STV","players":[{"user_id":713,"name":"ViralSpiralZ","steam_id":76561198356727752,"connected_time":1901000000000,"state":"active","ping":83},{"user_id":687,"name":"Jamie Hyneman","steam_id":76561199196036481,"connected_time":3571000000000,"state":"active","ping":62},{"user_id":730,"name":"mf","steam_id":76561198025668771,"connected_time":567000000000,"state":"active","ping":108},{"user_id":703,"name":"Pinetree w/ apples.","steam_id":76561198105411709,"connected_time":2212000000000,"state":"active","ping":105},{"user_id":704,"name":"sand","steam_id":76561198214390228,"connected_time":2072000000000,"state":"active","ping":76},{"user_id":553,"name":"Soap","steam_id":76561198074619142,"connected_time":12110000000000,"state":"active","ping":86},{"user_id":698,"name":"Karma","steam_id":76561198320530905,"connected_time":2777000000000,"state":"active","ping":49},{"user_id":734,"name":"sevanial","steam_id":76561198071532126,"connected_time":31000000000,"state":"active","ping":61},{"user_id":732,"name":"Daytona","steam_id":76561198422235683,"connected_time":294000000000,"state":"active","ping":83},{"user_id":731,"name":"colorfulg70","steam_id":76561199010363371,"connected_time":524000000000,"state":"active","ping":92},{"user_id":716,"name":"Hol Horse","steam_id":76561198078207743,"connected_time":1627000000000,"state":"active","ping":90},{"user_id":696,"name":"Hyden da kobobl","steam_id":76561198837931725,"connected_time":2916000000000,"state":"active","ping":69},{"user_id":724,"name":"hboflexin","steam_id":76561198323411839,"connected_time":889000000000,"state":"active","ping":100},{"user_id":715,"name":"Glitchy","steam_id":76561198037920420,"connected_time":1760000000000,"state":"active","ping":76},{"user_id":707,"name":"Majora","steam_id":76561199141733670,"connected_time":2029000000000,"state":"active","ping":104},{"user_id":722,"name":"Parauder","steam_id":76561198131593741,"connected_time":1388000000000,"state":"active","ping":87},{"user_id":710,"name":"anton ego","steam_id":76561199019583362,"connected_time":2003000000000,"state":"active","ping":86},{"user_id":725,"name":"Apollo","steam_id":76561199051493681,"connected_time":622000000000,"state":"active","ping":31},{"user_id":700,"name":"Madrox Who?","steam_id":76561197988859134,"connected_time":2627000000000,"state":"active","ping":99},{"user_id":711,"name":"Hamuktakali","steam_id":76561198039625579,"connected_time":1960000000000,"state":"active","ping":60},{"user_id":694,"name":"qiulongtao","steam_id":76561198977558717,"connected_time":3383000000000,"state":"active","ping":93},{"user_id":712,"name":"Drakon","steam_id":76561198078210822,"connected_time":1945000000000,"state":"active","ping":83},{"user_id":702,"name":"Steven","steam_id":76561198075526342,"connected_time":2253000000000,"state":"active","ping":46}]},{"server_id":108,"name":"Uncletopia | Dallas | 2 | All Maps","name_short":"dal-2","host":"dal-1.us.uncletopia.com","port":27025,"enabled":true,"region":"us-central","cc":"us","latitude":32.779167,"longitude":-96.80889,"reserved":0,"last_update":"0001-01-01T00:00:00Z","name_a2s":"Uncletopia | Dallas | 2 | All Maps","protocol":17,"map":"pl_upward","folder":"tf","game":"Team Fortress","app_id":440,"player_count":24,"max_players":24,"Bots":0,"server_type":"Dedicated","server_os":"Linux","password":true,"vac":true,"version":"7695204","steam_id":85568392924469988,"keywords":["nocrits","nodmgspread","payload","uncletopia"],"game_id":440,"stv_port":27026,"stv_name":"Uncletopia | Dallas | 2 | All Maps | STV","players":[{"user_id":441,"name":"Zyrok","steam_id":76561198271348982,"connected_time":2178000000000,"state":"active","ping":51},{"user_id":419,"name":"Uz|tella","steam_id":76561199430457546,"connected_time":4237000000000,"state":"active","ping":87},{"user_id":465,"name":"Pie™","steam_id":76561198158312625,"connected_time":1354000000000,"state":"active","ping":122},{"user_id":458,"name":"Queef Latina","steam_id":76561198069222333,"connected_time":1663000000000,"state":"active","ping":132},{"user_id":467,"name":"look up","steam_id":76561198057487880,"connected_time":1282000000000,"state":"active","ping":61},{"user_id":474,"name":"ANKYLOSAURUS eater5","steam_id":76561199070316785,"connected_time":925000000000,"state":"active","ping":129},{"user_id":450,"name":"eyeball","steam_id":76561198307697528,"connected_time":1911000000000,"state":"active","ping":70},{"user_id":481,"name":"Father of Lies","steam_id":76561198985847893,"connected_time":163000000000,"state":"active","ping":53},{"user_id":476,"name":"FunGi","steam_id":76561198881418662,"connected_time":881000000000,"state":"active","ping":74},{"user_id":478,"name":"lanoc","steam_id":76561198055415367,"connected_time":694000000000,"state":"active","ping":61},{"user_id":459,"name":"LobsterPot","steam_id":76561198072225973,"connected_time":1460000000000,"state":"active","ping":74},{"user_id":355,"name":"El Benjador","steam_id":76561198345883103,"connected_time":10252000000000,"state":"active","ping":62},{"user_id":377,"name":"sithreis","steam_id":76561198000564263,"connected_time":6956000000000,"state":"active","ping":68},{"user_id":480,"name":"JDizzle","steam_id":76561199122696841,"connected_time":661000000000,"state":"active","ping":77},{"user_id":438,"name":"holiday enthusiast","steam_id":76561197993919776,"connected_time":2445000000000,"state":"active","ping":98},{"user_id":479,"name":"viscodolante","steam_id":76561198013650292,"connected_time":689000000000,"state":"active","ping":105},{"user_id":468,"name":"Luna","steam_id":76561198075944196,"connected_time":1254000000000,"state":"active","ping":79},{"user_id":475,"name":"java","steam_id":76561198030276792,"connected_time":913000000000,"state":"active","ping":60},{"user_id":471,"name":"costco food court","steam_id":76561198971838406,"connected_time":1133000000000,"state":"active","ping":102},{"user_id":477,"name":"war criminal","steam_id":76561198106441652,"connected_time":770000000000,"state":"active","ping":60},{"user_id":453,"name":"Maranata","steam_id":76561198830158092,"connected_time":1859000000000,"state":"active","ping":80},{"user_id":454,"name":"Goofball","steam_id":76561198061211537,"connected_time":1851000000000,"state":"active","ping":83},{"user_id":457,"name":"AlecTheNefarious","steam_id":76561198035291230,"connected_time":1682000000000,"state":"active","ping":55},{"user_id":397,"name":"+","steam_id":76561198262422184,"connected_time":5244000000000,"state":"active","ping":61}]},{"server_id":5,"name":"Uncletopia | Frankfurt | 1 | All Maps","name_short":"frk-1","host":"frk-1.de.uncletopia.com","port":27015,"enabled":true,"region":"eu","cc":"de","latitude":50.110924,"longitude":8.682127,"reserved":0,"last_update":"0001-01-01T00:00:00Z","name_a2s":"Uncletopia | Frankfurt | 1 | All Maps","protocol":17,"map":"pl_thundermountain","folder":"tf","game":"Team Fortress","app_id":440,"player_count":0,"max_players":24,"Bots":0,"server_type":"Dedicated","server_os":"Linux","password":true,"vac":true,"version":"7695204","steam_id":85568392924469989,"keywords":["nocrits","nodmgspread","payload","uncletopia"],"game_id":440,"stv_port":27016,"stv_name":"Uncletopia | Frankfurt | 1 | All Maps | STV","players":null},{"server_id":110,"name":"Uncletopia | Frankfurt | 2 | All Maps","name_short":"frk-2","host":"frk-1.de.uncletopia.com","port":27025,"enabled":true,"region":"eu","cc":"de","latitude":50.110924,"longitude":8.682127,"reserved":0,"last_update":"0001-01-01T00:00:00Z","name_a2s":"Uncletopia | Frankfurt | 2 | All Maps","protocol":17,"map":"plr_hightower","folder":"tf","game":"Team Fortress","app_id":440,"player_count":0,"max_players":24,"Bots":0,"server_type":"Dedicated","server_os":"Linux","password":true,"vac":true,"version":"7695204","steam_id":85568392924469990,"keywords":["nocrits","nodmgspread","payload","uncletopia"],"game_id":440,"stv_port":27026,"stv_name":"Uncletopia | Frankfurt | 2 | All Maps | STV","players":null},{"server_id":308,"name":"Uncletopia | Frankfurt | 3 | All Maps","name_short":"frk-3","host":"frk-1.de.uncletopia.com","port":27035,"enabled":true,"region":"eu","cc":"de","latitude":50.110924,"longitude":8.682127,"reserved":0,"last_update":"0001-01-01T00:00:00Z","name_a2s":"Uncletopia | Frankfurt | 3 | All Maps","protocol":17,"map":"koth_lakeside_final","folder":"tf","game":"Team Fortress","app_id":440,"player_count":0,"max_players":24,"Bots":0,"server_type":"Dedicated","server_os":"Linux","password":true,"vac":true,"version":"7695204","steam_id":85568392924504274,"keywords":["cp","nocrits","nodmgspread","uncletopia"],"game_id":440,"stv_port":27036,"stv_name":"Uncletopia | Frankfurt | 3 | All Maps | STV","players":null},{"server_id":309,"name":"Uncletopia | Frankfurt | 4 | All Maps","name_short":"frk-4","host":"frk-1.de.uncletopia.com","port":27045,"enabled":true,"region":"eu","cc":"de","latitude":50.110924,"longitude":8.682127,"reserved":0,"last_update":"0001-01-01T00:00:00Z","name_a2s":"Uncletopia | Frankfurt | 4 | All Maps","protocol":17,"map":"pl_badwater","folder":"tf","game":"Team Fortress","app_id":440,"player_count":0,"max_players":24,"Bots":0,"server_type":"Dedicated","server_os":"Linux","password":true,"vac":true,"version":"7695204","steam_id":85568392924504275,"keywords":["nocrits","nodmgspread","payload","uncletopia"],"game_id":440,"stv_port":27046,"stv_name":"Uncletopia | Frankfurt | 4 | All Maps | STV","players":null},{"server_id":310,"name":"Uncletopia | Frankfurt | 5 | All Maps","name_short":"frk-5","host":"frk-1.de.uncletopia.com","port":27055,"enabled":true,"region":"eu","cc":"de","latitude":50.110924,"longitude":8.682127,"reserved":0,"last_update":"0001-01-01T00:00:00Z","name_a2s":"Uncletopia | Frankfurt | 5 | All Maps","protocol":17,"map":"cp_mountainlab","folder":"tf","game":"Team Fortress","app_id":440,"player_count":0,"max_players":24,"Bots":0,"server_type":"Dedicated","server_os":"Linux","password":true,"vac":true,"version":"7695204","steam_id":85568392924504277,"keywords":["cp","nocrits","nodmgspread","uncletopia"],"game_id":440,"stv_port":27056,"stv_name":"Uncletopia | Frankfurt | 5 | All Maps | STV","players":null},{"server_id":311,"name":"Uncletopia | Frankfurt | 6 | All Maps","name_short":"frk-6","host":"frk-1.de.uncletopia.com","port":27065,"enabled":true,"region":"eu","cc":"de","latitude":50.110924,"longitude":8.682127,"reserved":0,"last_update":"0001-01-01T00:00:00Z","name_a2s":"Uncletopia | Frankfurt | 6 | All Maps","protocol":17,"map":"koth_lakeside_final","folder":"tf","game":"Team Fortress","app_id":440,"player_count":0,"max_players":24,"Bots":0,"server_type":"Dedicated","server_os":"Linux","password":true,"vac":true,"version":"7695204","steam_id":85568392924504278,"keywords":["cp","nocrits","nodmgspread","uncletopia"],"game_id":440,"stv_port":27066,"stv_name":"Uncletopia | Frankfurt | 6 | All Maps | STV","players":null},{"server_id":23,"name":"Uncletopia | Frankfurt | 7 | No Payload","name_short":"frk-7","host":"frk-1.de.uncletopia.com","port":27075,"enabled":true,"region":"eu","cc":"de","latitude":50.110924,"longitude":8.682127,"reserved":0,"last_update":"0001-01-01T00:00:00Z","name_a2s":"Uncletopia | Frankfurt | 7 | No Payload","protocol":17,"map":"koth_badlands","folder":"tf","game":"Team Fortress","app_id":440,"player_count":0,"max_players":24,"Bots":0,"server_type":"Dedicated","server_os":"Linux","password":true,"vac":true,"version":"7695204","steam_id":85568392924742827,"keywords":["cp","nocrits","nodmgspread","uncletopia"],"game_id":440,"stv_port":27076,"stv_name":"Uncletopia | Frankfurt | 7 | No Payload | STV","players":null},{"server_id":24,"name":"Uncletopia | Frankfurt | 8 | Community","name_short":"frk-8","host":"frk-1.de.uncletopia.com","port":27085,"enabled":true,"region":"eu","cc":"de","latitude":50.110924,"longitude":8.682127,"reserved":0,"last_update":"0001-01-01T00:00:00Z","name_a2s":"Uncletopia | Frankfurt | 8 | Community","protocol":17,"map":"koth_lakeside_final","folder":"tf","game":"Team Fortress","app_id":440,"player_count":0,"max_players":24,"Bots":0,"server_type":"Dedicated","server_os":"Linux","password":true,"vac":true,"version":"7695204","steam_id":85568392924742828,"keywords":["cp","nocrits","nodmgspread","uncletopia"],"game_id":440,"stv_port":0,"stv_name":"","players":null},{"server_id":202,"name":"Uncletopia | Hong Kong | 1 | All Maps","name_short":"hgk-1","host":"hgk-1.hk.uncletopia.com","port":27015,"enabled":true,"region":"asia","cc":"hk","latitude":22.302711,"longitude":114.177216,"reserved":0,"last_update":"0001-01-01T00:00:00Z","name_a2s":"Uncletopia | Hong Kong | 1 | All Maps","protocol":17,"map":"pl_badwater","folder":"tf","game":"Team Fortress","app_id":440,"player_count":24,"max_players":24,"Bots":0,"server_type":"Dedicated","server_os":"Linux","password":true,"vac":true,"version":"7695204","steam_id":85568392924494504,"keywords":["nocrits","nodmgspread","payload","uncletopia"],"game_id":440,"stv_port":27016,"stv_name":"Uncletopia | Hong Kong | 1 | All Maps | STV","players":[{"user_id":28,"name":"Spskza","steam_id":76561199385504837,"connected_time":2958000000000,"state":"active","ping":67},{"user_id":9,"name":"S c u m p","steam_id":76561199172582978,"connected_time":5009000000000,"state":"active","ping":145},{"user_id":15,"name":"Javariced","steam_id":76561198069402937,"connected_time":4179000000000,"state":"active","ping":87},{"user_id":72,"name":"Kek","steam_id":76561199004616229,"connected_time":563000000000,"state":"active","ping":95},{"user_id":70,"name":"Patch","steam_id":76561198044432766,"connected_time":710000000000,"state":"active","ping":67},{"user_id":22,"name":"3wfFbdrjEze5d2G","steam_id":76561198435900451,"connected_time":3264000000000,"state":"active","ping":69},{"user_id":20,"name":"ProgressorBread24","steam_id":76561199070629046,"connected_time":3612000000000,"state":"active","ping":138},{"user_id":39,"name":"Gordon.Freeman","steam_id":76561198337746852,"connected_time":2003000000000,"state":"active","ping":60},{"user_id":55,"name":"Degenerate With Standards!!!!!","steam_id":76561199174449723,"connected_time":1428000000000,"state":"active","ping":90},{"user_id":26,"name":"Violezine","steam_id":76561199000502615,"connected_time":3124000000000,"state":"active","ping":79},{"user_id":74,"name":"Nephew Nate","steam_id":76561199137872034,"connected_time":144000000000,"state":"active","ping":95},{"user_id":30,"name":":)","steam_id":76561198437941450,"connected_time":2889000000000,"state":"active","ping":77},{"user_id":35,"name":"Milk❤","steam_id":76561198163911560,"connected_time":2394000000000,"state":"active","ping":104},{"user_id":33,"name":"Odoroki","steam_id":76561198060793803,"connected_time":2562000000000,"state":"active","ping":146},{"user_id":34,"name":"milk choco","steam_id":76561199138095456,"connected_time":2547000000000,"state":"active","ping":101},{"user_id":68,"name":"Cartoon","steam_id":76561199215858531,"connected_time":779000000000,"state":"active","ping":91},{"user_id":63,"name":"spaece","steam_id":76561198153448549,"connected_time":887000000000,"state":"active","ping":87},{"user_id":38,"name":"PotTimesTwo","steam_id":76561199405461327,"connected_time":2205000000000,"state":"active","ping":70},{"user_id":53,"name":"Agata","steam_id":76561198814038230,"connected_time":1550000000000,"state":"active","ping":87},{"user_id":43,"name":"fy","steam_id":76561198121591901,"connected_time":1897000000000,"state":"active","ping":118},{"user_id":71,"name":"mching","steam_id":76561198044327754,"connected_time":685000000000,"state":"active","ping":79},{"user_id":46,"name":"TomProPlayer","steam_id":76561199223292521,"connected_time":1860000000000,"state":"active","ping":68},{"user_id":47,"name":"GAMINGPRO9876","steam_id":76561199158573646,"connected_time":1859000000000,"state":"active","ping":76},{"user_id":56,"name":"Lúd","steam_id":76561198828840546,"connected_time":1403000000000,"state":"active","ping":58}]},{"server_id":1,"name":"Uncletopia | Los Angeles | 1 | All Maps","name_short":"lax-1","host":"lax-1.us.uncletopia.com","port":27015,"enabled":true,"region":"us-west","cc":"us","latitude":33.94279,"longitude":-118.41004,"reserved":0,"last_update":"0001-01-01T00:00:00Z","name_a2s":"Uncletopia | Los Angeles | 1 | All Maps","protocol":17,"map":"cp_process_final","folder":"tf","game":"Team Fortress","app_id":440,"player_count":0,"max_players":24,"Bots":0,"server_type":"Dedicated","server_os":"Linux","password":true,"vac":true,"version":"7695204","steam_id":85568392924469991,"keywords":["cp","nocrits","nodmgspread","uncletopia"],"game_id":440,"stv_port":27016,"stv_name":"Uncletopia | Los Angeles | 1 | All Maps | STV","players":null},{"server_id":112,"name":"Uncletopia | Los Angeles | 2 | All Maps","name_short":"lax-2","host":"lax-1.us.uncletopia.com","port":27025,"enabled":true,"region":"us-west","cc":"us","latitude":33.94279,"longitude":-118.41004,"reserved":0,"last_update":"0001-01-01T00:00:00Z","name_a2s":"Uncletopia | Los Angeles | 2 | All Maps","protocol":17,"map":"koth_highpass","folder":"tf","game":"Team Fortress","app_id":440,"player_count":0,"max_players":24,"Bots":0,"server_type":"Dedicated","server_os":"Linux","password":true,"vac":true,"version":"7695204","steam_id":85568392924469992,"keywords":["cp","nocrits","nodmgspread","uncletopia"],"game_id":440,"stv_port":27026,"stv_name":"Uncletopia | Los Angeles | 2 | All Maps | STV","players":null},{"server_id":324,"name":"Uncletopia | Los Angeles | 3 | All Maps","name_short":"lax-3","host":"lax-1.us.uncletopia.com","port":27035,"enabled":true,"region":"us-west","cc":"us","latitude":33.94279,"longitude":-118.41004,"reserved":0,"last_update":"0001-01-01T00:00:00Z","name_a2s":"Uncletopia | Los Angeles | 3 | All Maps","protocol":17,"map":"pl_barnblitz","folder":"tf","game":"Team Fortress","app_id":440,"player_count":24,"max_players":24,"Bots":0,"server_type":"Dedicated","server_os":"Linux","password":true,"vac":true,"version":"7695204","steam_id":85568392924510198,"keywords":["nocrits","nodmgspread","payload","uncletopia"],"game_id":440,"stv_port":27036,"stv_name":"Uncletopia | Los Angeles | 3 | All Maps | STV","players":[{"user_id":132,"name":"Sparks","steam_id":76561198050950496,"connected_time":1482000000000,"state":"active","ping":76},{"user_id":139,"name":"ck_rene","steam_id":76561199079260488,"connected_time":340000000000,"state":"active","ping":120},{"user_id":125,"name":"turn around","steam_id":76561198046526036,"connected_time":2074000000000,"state":"active","ping":49},{"user_id":137,"name":"Dispenser (Level 3)","steam_id":76561198316927664,"connected_time":543000000000,"state":"active","ping":104},{"user_id":119,"name":"Jamendithas","steam_id":76561198119537716,"connected_time":2494000000000,"state":"active","ping":112},{"user_id":135,"name":"Soldier?","steam_id":76561198064589733,"connected_time":731000000000,"state":"active","ping":95},{"user_id":97,"name":"|-HyperCube-|","steam_id":76561198167133597,"connected_time":4031000000000,"state":"active","ping":79},{"user_id":136,"name":"MyamE","steam_id":76561198133278462,"connected_time":661000000000,"state":"active","ping":110},{"user_id":134,"name":"Yakts","steam_id":76561198115044159,"connected_time":786000000000,"state":"active","ping":73},{"user_id":69,"name":"Grim","steam_id":76561198016978310,"connected_time":5442000000000,"state":"active","ping":98},{"user_id":116,"name":"cielael","steam_id":76561198043971956,"connected_time":2765000000000,"state":"active","ping":50},{"user_id":74,"name":"twitch.tv/skrpy","steam_id":76561198040969503,"connected_time":5261000000000,"state":"active","ping":55},{"user_id":127,"name":"⛧Alkahestry","steam_id":76561198109641497,"connected_time":2033000000000,"state":"active","ping":55},{"user_id":109,"name":"My controller broke","steam_id":76561198157280577,"connected_time":3403000000000,"state":"active","ping":73},{"user_id":129,"name":"Dare To Be Stupid","steam_id":76561197961107982,"connected_time":1910000000000,"state":"active","ping":104},{"user_id":138,"name":"Alice","steam_id":76561198869945051,"connected_time":420000000000,"state":"active","ping":97},{"user_id":47,"name":"crippling fumo addiction","steam_id":76561198115874625,"connected_time":7116000000000,"state":"active","ping":103},{"user_id":48,"name":"Phil Collins","steam_id":76561198068868644,"connected_time":7110000000000,"state":"active","ping":56},{"user_id":49,"name":"alpharuby","steam_id":76561198051638462,"connected_time":7099000000000,"state":"active","ping":49},{"user_id":73,"name":"Star","steam_id":76561198422395239,"connected_time":5405000000000,"state":"active","ping":45},{"user_id":112,"name":"Morse","steam_id":76561198039944542,"connected_time":3285000000000,"state":"active","ping":73},{"user_id":89,"name":"Peridarren","steam_id":76561198041104426,"connected_time":4356000000000,"state":"active","ping":58},{"user_id":76,"name":"Altruisticailuridae","steam_id":76561198335295596,"connected_time":4857000000000,"state":"active","ping":52},{"user_id":131,"name":"Adlai130s","steam_id":76561198571410221,"connected_time":1506000000000,"state":"active","ping":53}]},{"server_id":25,"name":"Uncletopia | Los Angeles | 4 | No Payload","name_short":"lax-4","host":"lax-1.us.uncletopia.com","port":27045,"enabled":true,"region":"us-west","cc":"us","latitude":33.94279,"longitude":-118.41004,"reserved":0,"last_update":"0001-01-01T00:00:00Z","name_a2s":"Uncletopia | Los Angeles | 4 | No Payload","protocol":17,"map":"ctf_2fort","folder":"tf","game":"Team Fortress","app_id":440,"player_count":0,"max_players":24,"Bots":0,"server_type":"Dedicated","server_os":"Linux","password":true,"vac":true,"version":"7695204","steam_id":85568392924510199,"keywords":["ctf","nocrits","nodmgspread","uncletopia"],"game_id":440,"stv_port":27046,"stv_name":"Uncletopia | Los Angeles | 4 | No Payload | STV","players":null},{"server_id":11,"name":"Uncletopia | London | 1 | All Maps","name_short":"lon-1","host":"lon-1.uk.uncletopia.com","port":27015,"enabled":true,"region":"eu","cc":"gb","latitude":51.509865,"longitude":-0.118092,"reserved":0,"last_update":"0001-01-01T00:00:00Z","name_a2s":"Uncletopia | London | 1 | All Maps","protocol":17,"map":"pl_barnblitz","folder":"tf","game":"Team Fortress","app_id":440,"player_count":22,"max_players":24,"Bots":0,"server_type":"Dedicated","server_os":"Linux","password":true,"vac":true,"version":"7695204","steam_id":85568392924367362,"keywords":["nocrits","nodmgspread","payload","uncletopia"],"game_id":440,"stv_port":27016,"stv_name":"Uncletopia | London | 1 | All Maps | STV","players":[{"user_id":415,"name":"i fell off","steam_id":76561198267463398,"connected_time":2277000000000,"state":"active","ping":60},{"user_id":380,"name":"New","steam_id":76561198402195911,"connected_time":4353000000000,"state":"active","ping":114},{"user_id":371,"name":"Hodgman, The Hoboverlord","steam_id":76561198380666998,"connected_time":4685000000000,"state":"active","ping":145},{"user_id":419,"name":"Stitch","steam_id":76561198104613474,"connected_time":1938000000000,"state":"active","ping":75},{"user_id":387,"name":"r06u3","steam_id":76561198254099253,"connected_time":4197000000000,"state":"active","ping":180},{"user_id":423,"name":"Gubad","steam_id":76561198105485260,"connected_time":1198000000000,"state":"active","ping":53},{"user_id":405,"name":"BrownBreadMan","steam_id":76561199092834214,"connected_time":3011000000000,"state":"active","ping":49},{"user_id":403,"name":"Gety0","steam_id":76561198044387185,"connected_time":3151000000000,"state":"active","ping":93},{"user_id":427,"name":"mimi","steam_id":76561198060648946,"connected_time":1087000000000,"state":"active","ping":70},{"user_id":408,"name":"BAGASSER","steam_id":76561198051283300,"connected_time":2556000000000,"state":"active","ping":90},{"user_id":428,"name":"casual zyzz praiser","steam_id":76561198022382969,"connected_time":1086000000000,"state":"active","ping":76},{"user_id":432,"name":"D9","steam_id":76561197999151357,"connected_time":652000000000,"state":"active","ping":152},{"user_id":438,"name":"(1):)","steam_id":76561198043201482,"connected_time":437000000000,"state":"active","ping":85},{"user_id":421,"name":"Nazuna","steam_id":76561198413225595,"connected_time":1652000000000,"state":"active","ping":102},{"user_id":434,"name":"TMC","steam_id":76561198077956157,"connected_time":587000000000,"state":"active","ping":39},{"user_id":372,"name":":)","steam_id":76561198422006468,"connected_time":4682000000000,"state":"active","ping":96},{"user_id":410,"name":"♥ Pocketed Femboy ♥","steam_id":76561198256573643,"connected_time":2472000000000,"state":"active","ping":67},{"user_id":435,"name":"shmlorf","steam_id":76561198166119691,"connected_time":575000000000,"state":"active","ping":48},{"user_id":436,"name":"frosty","steam_id":76561198094560834,"connected_time":541000000000,"state":"active","ping":49},{"user_id":422,"name":"outin","steam_id":76561198137734730,"connected_time":1324000000000,"state":"active","ping":61},{"user_id":430,"name":"Fortezza","steam_id":76561198972539903,"connected_time":739000000000,"state":"active","ping":60},{"user_id":413,"name":"cinny","steam_id":76561198832112629,"connected_time":2385000000000,"state":"active","ping":100}]},{"server_id":114,"name":"Uncletopia | London | 2 | All Maps","name_short":"lon-2","host":"lon-1.uk.uncletopia.com","port":27025,"enabled":true,"region":"eu","cc":"gb","latitude":51.509865,"longitude":-0.118092,"reserved":0,"last_update":"0001-01-01T00:00:00Z","name_a2s":"Uncletopia | London | 2 | All Maps","protocol":17,"map":"koth_cascade","folder":"tf","game":"Team Fortress","app_id":440,"player_count":0,"max_players":24,"Bots":0,"server_type":"Dedicated","server_os":"Linux","password":true,"vac":true,"version":"7695204","steam_id":85568392924470941,"keywords":["cp","nocrits","nodmgspread","uncletopia"],"game_id":440,"stv_port":27026,"stv_name":"Uncletopia | London | 2 | All Maps | STV","players":null},{"server_id":320,"name":"Uncletopia | London | 3 | All Maps","name_short":"lon-3","host":"lon-1.uk.uncletopia.com","port":27035,"enabled":true,"region":"eu","cc":"gb","latitude":51.509865,"longitude":-0.118092,"reserved":0,"last_update":"0001-01-01T00:00:00Z","name_a2s":"Uncletopia | London | 3 | All Maps","protocol":17,"map":"cp_snakewater_final1","folder":"tf","game":"Team Fortress","app_id":440,"player_count":22,"max_players":24,"Bots":0,"server_type":"Dedicated","server_os":"Linux","password":true,"vac":true,"version":"7695204","steam_id":85568392924510192,"keywords":["cp","nocrits","nodmgspread","uncletopia"],"game_id":440,"stv_port":27036,"stv_name":"Uncletopia | London | 3 | All Maps | STV","players":[{"user_id":610,"name":"Lego Jesus","steam_id":76561198049384188,"connected_time":2725000000000,"state":"active","ping":55},{"user_id":629,"name":"mishka.*","steam_id":76561198040003628,"connected_time":1358000000000,"state":"active","ping":77},{"user_id":607,"name":"ADrawingBrit","steam_id":76561198203058298,"connected_time":2863000000000,"state":"active","ping":43},{"user_id":564,"name":"HOI","steam_id":76561198061182117,"connected_time":5973000000000,"state":"active","ping":45},{"user_id":628,"name":"Raeews","steam_id":76561198254646517,"connected_time":1437000000000,"state":"active","ping":44},{"user_id":626,"name":"highwayman","steam_id":76561199230709660,"connected_time":1569000000000,"state":"active","ping":51},{"user_id":636,"name":"Essence of Sugarcoating","steam_id":76561198063618114,"connected_time":652000000000,"state":"active","ping":72},{"user_id":611,"name":"Derniemalslacht","steam_id":76561198871103245,"connected_time":2621000000000,"state":"active","ping":60},{"user_id":622,"name":"Weeb","steam_id":76561198297928869,"connected_time":1878000000000,"state":"active","ping":46},{"user_id":624,"name":"˹Fate's·Marionette˼","steam_id":76561198034197381,"connected_time":1832000000000,"state":"active","ping":46},{"user_id":605,"name":"hmscole09","steam_id":76561198811362788,"connected_time":3057000000000,"state":"active","ping":54},{"user_id":558,"name":"Peat","steam_id":76561197992168067,"connected_time":6900000000000,"state":"active","ping":67},{"user_id":625,"name":"NonProphet","steam_id":76561198280149820,"connected_time":1739000000000,"state":"active","ping":54},{"user_id":602,"name":"☃☃☃ARSEQUEEF☃☃☃","steam_id":76561198914610283,"connected_time":3365000000000,"state":"active","ping":75},{"user_id":597,"name":"ANGR","steam_id":76561198050647646,"connected_time":3743000000000,"state":"active","ping":51},{"user_id":623,"name":"ᚨᚾᛖᚢᚱ","steam_id":76561198125459690,"connected_time":1873000000000,"state":"active","ping":50},{"user_id":640,"name":"Mickey","steam_id":76561197976868960,"connected_time":79000000000,"state":"active","ping":56},{"user_id":627,"name":"glyph","steam_id":76561197980736364,"connected_time":1542000000000,"state":"active","ping":83},{"user_id":559,"name":"Gnaisse","steam_id":76561198010560642,"connected_time":6874000000000,"state":"active","ping":81},{"user_id":634,"name":"BomberNote","steam_id":76561198085392317,"connected_time":858000000000,"state":"active","ping":77},{"user_id":603,"name":"Another day another odlar","steam_id":76561198423902979,"connected_time":3360000000000,"state":"active","ping":55},{"user_id":632,"name":"Christmas Cat","steam_id":76561197970114051,"connected_time":1011000000000,"state":"active","ping":45}]},{"server_id":321,"name":"Uncletopia | London | 4 | All Maps","name_short":"lon-4","host":"lon-1.uk.uncletopia.com","port":27045,"enabled":true,"region":"eu","cc":"gb","latitude":51.509865,"longitude":-0.118092,"reserved":0,"last_update":"0001-01-01T00:00:00Z","name_a2s":"Uncletopia | London | 4 | All Maps","protocol":17,"map":"cp_mountainlab","folder":"tf","game":"Team Fortress","app_id":440,"player_count":2,"max_players":24,"Bots":0,"server_type":"Dedicated","server_os":"Linux","password":true,"vac":true,"version":"7695204","steam_id":85568392924510193,"keywords":["cp","nocrits","nodmgspread","uncletopia"],"game_id":440,"stv_port":27046,"stv_name":"Uncletopia | London | 4 | All Maps | STV","players":[{"user_id":737,"name":"LOLWOW:3","steam_id":76561198870007576,"connected_time":1491000000000,"state":"active","ping":134},{"user_id":738,"name":"Fonexia","steam_id":76561199191574357,"connected_time":1286000000000,"state":"active","ping":145}]},{"server_id":21,"name":"Uncletopia | London | 5 | All Maps","name_short":"lon-5","host":"lon-1.uk.uncletopia.com","port":27055,"enabled":true,"region":"eu","cc":"gb","latitude":51.509865,"longitude":-0.118092,"reserved":0,"last_update":"0001-01-01T00:00:00Z","name_a2s":"Uncletopia | London | 5 | All Maps","protocol":17,"map":"pd_snowville_event","folder":"tf","game":"Team Fortress","app_id":440,"player_count":3,"max_players":24,"Bots":0,"server_type":"Dedicated","server_os":"Linux","password":true,"vac":true,"version":"7695204","steam_id":85568392924742829,"keywords":["misc","nocrits","nodmgspread","pd","uncletopia"],"game_id":440,"stv_port":27056,"stv_name":"Uncletopia | London | 5 | All Maps | STV","players":[{"user_id":238,"name":"thomas the wank engine","steam_id":76561199013435970,"connected_time":4855000000000,"state":"active","ping":94},{"user_id":235,"name":"Toast Nook","steam_id":76561199093949301,"connected_time":4976000000000,"state":"active","ping":79},{"user_id":242,"name":"Alfiine","steam_id":76561198206082887,"connected_time":870000000000,"state":"active","ping":71}]},{"server_id":22,"name":"Uncletopia | London | 6 | All Maps","name_short":"lon-6","host":"lon-1.uk.uncletopia.com","port":27065,"enabled":true,"region":"eu","cc":"gb","latitude":51.509865,"longitude":-0.118092,"reserved":0,"last_update":"0001-01-01T00:00:00Z","name_a2s":"Uncletopia | London | 6 | All Maps","protocol":17,"map":"pl_badwater","folder":"tf","game":"Team Fortress","app_id":440,"player_count":0,"max_players":24,"Bots":0,"server_type":"Dedicated","server_os":"Linux","password":true,"vac":true,"version":"7695204","steam_id":85568392924742830,"keywords":["nocrits","nodmgspread","payload","uncletopia"],"game_id":440,"stv_port":27066,"stv_name":"Uncletopia | London | 6 | All Maps | STV","players":null},{"server_id":40,"name":"Uncletopia | London | 7 | No Payload","name_short":"lon-7","host":"lon-1.uk.uncletopia.com","port":27075,"enabled":true,"region":"eu","cc":"gb","latitude":51.509865,"longitude":-0.118092,"reserved":0,"last_update":"0001-01-01T00:00:00Z","name_a2s":"Uncletopia | London | 7 | No Payload","protocol":17,"map":"koth_king","folder":"tf","game":"Team Fortress","app_id":440,"player_count":0,"max_players":24,"Bots":0,"server_type":"Dedicated","server_os":"Linux","password":true,"vac":true,"version":"7695204","steam_id":85568392924964314,"keywords":["cp","nocrits","nodmgspread","uncletopia"],"game_id":440,"stv_port":27076,"stv_name":"Uncletopia | London | 7 | No Payload | STV","players":null},{"server_id":41,"name":"Uncletopia | London | 8 | Community","name_short":"lon-8","host":"lon-1.uk.uncletopia.com","port":27085,"enabled":true,"region":"eu","cc":"gb","latitude":51.509865,"longitude":-0.118092,"reserved":0,"last_update":"0001-01-01T00:00:00Z","name_a2s":"Uncletopia | London | 8 | Community","protocol":17,"map":"workshop/cp_overgrown_rc7b.ugc503939302","folder":"tf","game":"Team Fortress","app_id":440,"player_count":0,"max_players":24,"Bots":0,"server_type":"Dedicated","server_os":"Linux","password":true,"vac":true,"version":"7695204","steam_id":85568392924964315,"keywords":["cp","nocrits","nodmgspread","uncletopia"],"game_id":440,"stv_port":27086,"stv_name":"Uncletopia | London | 8 | Community | STV","players":null},{"server_id":300,"name":"Uncletopia | Montréal | 1 | All Maps","name_short":"mtl-1","host":"mtl-1.ca.uncletopia.com","port":27015,"enabled":true,"region":"us-east","cc":"ca","latitude":45.50889,"longitude":-73.56167,"reserved":0,"last_update":"0001-01-01T00:00:00Z","name_a2s":"Uncletopia | Montréal | 1 | All Maps","protocol":17,"map":"koth_cascade","folder":"tf","game":"Team Fortress","app_id":440,"player_count":0,"max_players":24,"Bots":0,"server_type":"Dedicated","server_os":"Linux","password":true,"vac":true,"version":"7695204","steam_id":85568392924500087,"keywords":["cp","nocrits","nodmgspread","uncletopia"],"game_id":440,"stv_port":27016,"stv_name":"Uncletopia | Montréal | 1 | All Maps | STV","players":null},{"server_id":301,"name":"Uncletopia | Montréal | 2 | All Maps","name_short":"mtl-2","host":"mtl-1.ca.uncletopia.com","port":27025,"enabled":true,"region":"us-east","cc":"ca","latitude":45.50889,"longitude":-73.56167,"reserved":0,"last_update":"0001-01-01T00:00:00Z","name_a2s":"Uncletopia | Montréal | 2 | All Maps","protocol":17,"map":"pl_pier","folder":"tf","game":"Team Fortress","app_id":440,"player_count":24,"max_players":24,"Bots":0,"server_type":"Dedicated","server_os":"Linux","password":true,"vac":true,"version":"7695204","steam_id":85568392924500088,"keywords":["nocrits","nodmgspread","payload","uncletopia"],"game_id":440,"stv_port":27026,"stv_name":"Uncletopia | Montréal | 2 | All Maps | STV","players":[{"user_id":90,"name":"Psychosis","steam_id":76561198078659070,"connected_time":22000000000,"state":"active","ping":87},{"user_id":73,"name":"Asanez3","steam_id":76561198037381436,"connected_time":617000000000,"state":"active","ping":64},{"user_id":86,"name":"aimee","steam_id":76561198834309212,"connected_time":155000000000,"state":"active","ping":52},{"user_id":48,"name":"ncc_42","steam_id":76561198066377700,"connected_time":2410000000000,"state":"active","ping":45},{"user_id":41,"name":"Cunk","steam_id":76561199122216665,"connected_time":3372000000000,"state":"active","ping":66},{"user_id":74,"name":"Johnny Lawrence #JohnnyMaxxing","steam_id":76561199367141671,"connected_time":597000000000,"state":"active","ping":57},{"user_id":69,"name":"mobotus","steam_id":76561198259690793,"connected_time":974000000000,"state":"active","ping":69},{"user_id":80,"name":"triangleman","steam_id":76561198972733542,"connected_time":297000000000,"state":"active","ping":78},{"user_id":43,"name":"Optical","steam_id":76561198135777733,"connected_time":3352000000000,"state":"active","ping":93},{"user_id":75,"name":"Nosferatu","steam_id":76561198048205270,"connected_time":579000000000,"state":"active","ping":63},{"user_id":45,"name":"Moonadoo","steam_id":76561198133377546,"connected_time":2944000000000,"state":"active","ping":87},{"user_id":81,"name":"hoodie (ethanol)","steam_id":76561198354284591,"connected_time":293000000000,"state":"active","ping":70},{"user_id":57,"name":"Wuzo","steam_id":76561198294104368,"connected_time":2050000000000,"state":"active","ping":62},{"user_id":49,"name":"Ministry of Justice","steam_id":76561198081737779,"connected_time":2335000000000,"state":"active","ping":76},{"user_id":50,"name":"jackskywalker10","steam_id":76561198176851907,"connected_time":2319000000000,"state":"active","ping":50},{"user_id":84,"name":"Quansen","steam_id":76561198151594550,"connected_time":224000000000,"state":"active","ping":45},{"user_id":82,"name":"Rudy","steam_id":76561198013456828,"connected_time":272000000000,"state":"active","ping":56},{"user_id":83,"name":"Samurai Sphen","steam_id":76561199016999537,"connected_time":254000000000,"state":"active","ping":89},{"user_id":85,"name":"Hector Salamanca","steam_id":76561199057354373,"connected_time":194000000000,"state":"active","ping":61},{"user_id":55,"name":"Корнішон","steam_id":76561197968575924,"connected_time":2156000000000,"state":"active","ping":146},{"user_id":56,"name":"CarniGavin","steam_id":76561198120712620,"connected_time":2135000000000,"state":"active","ping":74},{"user_id":87,"name":"...","steam_id":76561198312298321,"connected_time":148000000000,"state":"active","ping":45},{"user_id":88,"name":"strangedeath","steam_id":76561198154159297,"connected_time":145000000000,"state":"active","ping":81},{"user_id":89,"name":"sirsmit1","steam_id":76561199129778001,"connected_time":112000000000,"state":"active","ping":73}]},{"server_id":302,"name":"Uncletopia | Montréal | 3 | All Maps","name_short":"mtl-3","host":"mtl-1.ca.uncletopia.com","port":27035,"enabled":true,"region":"us-east","cc":"ca","latitude":45.50889,"longitude":-73.56167,"reserved":0,"last_update":"0001-01-01T00:00:00Z","name_a2s":"Uncletopia | Montréal | 3 | All Maps","protocol":17,"map":"koth_viaduct","folder":"tf","game":"Team Fortress","app_id":440,"player_count":0,"max_players":24,"Bots":0,"server_type":"Dedicated","server_os":"Linux","password":true,"vac":true,"version":"7695204","steam_id":85568392924500089,"keywords":["cp","nocrits","nodmgspread","uncletopia"],"game_id":440,"stv_port":0,"stv_name":"","players":null},{"server_id":303,"name":"Uncletopia | Montréal | 4 | No Payload","name_short":"mtl-4","host":"mtl-1.ca.uncletopia.com","port":27045,"enabled":true,"region":"us-east","cc":"ca","latitude":45.50889,"longitude":-73.56167,"reserved":0,"last_update":"0001-01-01T00:00:00Z","name_a2s":"Uncletopia | Montréal | 4 | No Payload","protocol":17,"map":"koth_king","folder":"tf","game":"Team Fortress","app_id":440,"player_count":0,"max_players":24,"Bots":0,"server_type":"Dedicated","server_os":"Linux","password":true,"vac":true,"version":"7695204","steam_id":85568392924500090,"keywords":["cp","nocrits","nodmgspread","uncletopia"],"game_id":440,"stv_port":27046,"stv_name":"Uncletopia | Montréal | 4 | No Payload | STV","players":null},{"server_id":13,"name":"Uncletopia | New York City | 1 | All Maps","name_short":"nyc-1","host":"nyc-1.us.uncletopia.com","port":27015,"enabled":true,"region":"us-east","cc":"us","latitude":40.73061,"longitude":-73.93524,"reserved":0,"last_update":"0001-01-01T00:00:00Z","name_a2s":"Uncletopia | New York City | 1 | All Maps","protocol":17,"map":"cp_steel","folder":"tf","game":"Team Fortress","app_id":440,"player_count":22,"max_players":24,"Bots":0,"server_type":"Dedicated","server_os":"Linux","password":true,"vac":true,"version":"7695204","steam_id":85568392924469993,"keywords":["cp","nocrits","nodmgspread","uncletopia"],"game_id":440,"stv_port":27016,"stv_name":"Uncletopia | New York City | 1 | All Maps | STV","players":[{"user_id":537,"name":"Tanker6115","steam_id":76561198354085983,"connected_time":2376000000000,"state":"active","ping":63},{"user_id":407,"name":"abomination","steam_id":76561198167974713,"connected_time":10821000000000,"state":"active","ping":73},{"user_id":534,"name":"Wintry","steam_id":76561198115809580,"connected_time":2432000000000,"state":"active","ping":55},{"user_id":502,"name":"merry trapmas","steam_id":76561198402801140,"connected_time":4448000000000,"state":"active","ping":81},{"user_id":554,"name":"Punished Gary","steam_id":76561198021182375,"connected_time":92000000000,"state":"active","ping":83},{"user_id":505,"name":"BeerPowder","steam_id":76561198058129400,"connected_time":4236000000000,"state":"active","ping":42},{"user_id":557,"name":"Juanelo","steam_id":76561199096390505,"connected_time":37000000000,"state":"spawning","ping":165},{"user_id":558,"name":"cellogamer","steam_id":76561198016937098,"connected_time":35000000000,"state":"active","ping":39},{"user_id":550,"name":"i have no ass and i must shit","steam_id":76561198123298824,"connected_time":699000000000,"state":"active","ping":100},{"user_id":544,"name":"Jolly evil little man","steam_id":76561198311053471,"connected_time":1177000000000,"state":"active","ping":75},{"user_id":555,"name":"Tannenbaum Trotsky","steam_id":76561199101638460,"connected_time":79000000000,"state":"active","ping":89},{"user_id":546,"name":"THE GIGGLER","steam_id":76561199275294643,"connected_time":963000000000,"state":"active","ping":85},{"user_id":520,"name":"Ignalis","steam_id":76561198025662927,"connected_time":3617000000000,"state":"active","ping":58},{"user_id":541,"name":"Ras","steam_id":76561198123546775,"connected_time":2122000000000,"state":"active","ping":71},{"user_id":508,"name":"Bird","steam_id":76561198247484514,"connected_time":3949000000000,"state":"active","ping":61},{"user_id":523,"name":"Souper Scott","steam_id":76561198045518926,"connected_time":3071000000000,"state":"active","ping":77},{"user_id":498,"name":"NautilusShell","steam_id":76561198061289498,"connected_time":4640000000000,"state":"active","ping":80},{"user_id":497,"name":"Bgm_","steam_id":76561198056452044,"connected_time":5197000000000,"state":"active","ping":132},{"user_id":556,"name":"Lawnmower","steam_id":76561198186680197,"connected_time":76000000000,"state":"active","ping":102},{"user_id":492,"name":"MissRaptor","steam_id":76561198105613110,"connected_time":5496000000000,"state":"active","ping":60},{"user_id":533,"name":"Zack","steam_id":76561198308083836,"connected_time":2437000000000,"state":"active","ping":45},{"user_id":530,"name":"Boat_Jerald","steam_id":76561198157124609,"connected_time":2534000000000,"state":"active","ping":54}]},{"server_id":14,"name":"Uncletopia | New York City | 2 | All Maps","name_short":"nyc-2","host":"nyc-1.us.uncletopia.com","port":27025,"enabled":true,"region":"us-east","cc":"us","latitude":40.73061,"longitude":-73.93524,"reserved":0,"last_update":"0001-01-01T00:00:00Z","name_a2s":"Uncletopia | New York City | 2 | All Maps","protocol":17,"map":"pl_goldrush","folder":"tf","game":"Team Fortress","app_id":440,"player_count":23,"max_players":24,"Bots":0,"server_type":"Dedicated","server_os":"Linux","password":true,"vac":true,"version":"7695204","steam_id":85568392924469994,"keywords":["nocrits","nodmgspread","payload","uncletopia"],"game_id":440,"stv_port":27026,"stv_name":"Uncletopia | New York City | 2 | All Maps | STV","players":[{"user_id":305,"name":"BlurryChase","steam_id":76561198068372573,"connected_time":2366000000000,"state":"spawning","ping":74},{"user_id":315,"name":"Glasses Jacket Shirt Man","steam_id":76561198071217597,"connected_time":1323000000000,"state":"spawning","ping":80},{"user_id":284,"name":"Fraglin","steam_id":76561198124964000,"connected_time":3505000000000,"state":"spawning","ping":62},{"user_id":310,"name":"Lovedaddy","steam_id":76561198006569710,"connected_time":1917000000000,"state":"spawning","ping":87},{"user_id":328,"name":"Autumn Clover","steam_id":76561198012295314,"connected_time":198000000000,"state":"spawning","ping":59},{"user_id":306,"name":"Snakeye3490","steam_id":76561198197060503,"connected_time":2351000000000,"state":"spawning","ping":92},{"user_id":279,"name":"Fewny","steam_id":76561198225977000,"connected_time":3977000000000,"state":"spawning","ping":74},{"user_id":314,"name":"ChefBoiHardD","steam_id":76561198139949783,"connected_time":1528000000000,"state":"spawning","ping":62},{"user_id":273,"name":"Anya Forger's Peanuts","steam_id":76561198008577961,"connected_time":4470000000000,"state":"spawning","ping":68},{"user_id":289,"name":"BMongrel","steam_id":76561198072166677,"connected_time":3096000000000,"state":"spawning","ping":90},{"user_id":317,"name":"HollowShards","steam_id":76561198040983753,"connected_time":1292000000000,"state":"spawning","ping":110},{"user_id":301,"name":"Phocae \u003c3","steam_id":76561199317584594,"connected_time":2563000000000,"state":"spawning","ping":274},{"user_id":327,"name":"avocado","steam_id":76561198207602709,"connected_time":509000000000,"state":"spawning","ping":66},{"user_id":316,"name":"thefruitloop","steam_id":76561199059988765,"connected_time":1322000000000,"state":"spawning","ping":64},{"user_id":324,"name":"davidflyswag","steam_id":76561198979060652,"connected_time":757000000000,"state":"spawning","ping":65},{"user_id":193,"name":"Zo","steam_id":76561198018758753,"connected_time":7719000000000,"state":"spawning","ping":91},{"user_id":330,"name":"jammy nutrient boy genius","steam_id":76561198165086917,"connected_time":1000000000,"state":"spawning","ping":71},{"user_id":331,"name":"Ms.Silver","steam_id":76561199194349087,"connected_time":0,"state":"spawning","ping":34},{"user_id":234,"name":"Essentially_Someone","steam_id":76561199435588199,"connected_time":5704000000000,"state":"spawning","ping":90},{"user_id":296,"name":"a zephyr","steam_id":76561198182506001,"connected_time":2971000000000,"state":"spawning","ping":47},{"user_id":205,"name":"Amaretto Sour","steam_id":76561198063112844,"connected_time":7067000000000,"state":"spawning","ping":67},{"user_id":297,"name":"Bucket of Spaghetti","steam_id":76561198126680822,"connected_time":2964000000000,"state":"spawning","ping":38},{"user_id":309,"name":"Big Domino","steam_id":76561198055743516,"connected_time":2021000000000,"state":"spawning","ping":51}]},{"server_id":15,"name":"Uncletopia | New York City | 3 | All Maps","name_short":"nyc-3","host":"nyc-1.us.uncletopia.com","port":27035,"enabled":true,"region":"us-east","cc":"us","latitude":40.73061,"longitude":-73.93524,"reserved":0,"last_update":"0001-01-01T00:00:00Z","name_a2s":"Uncletopia | New York City | 3 | All Maps","protocol":17,"map":"cp_dustbowl","folder":"tf","game":"Team Fortress","app_id":440,"player_count":21,"max_players":24,"Bots":0,"server_type":"Dedicated","server_os":"Linux","password":true,"vac":true,"version":"7695204","steam_id":85568392924742820,"keywords":["cp","nocrits","nodmgspread","uncletopia"],"game_id":440,"stv_port":27036,"stv_name":"Uncletopia | New York City | 3 | All Maps | STV","players":[{"user_id":537,"name":"CHAD","steam_id":76561199122232082,"connected_time":2308000000000,"state":"active","ping":60},{"user_id":545,"name":"Gene Wilder","steam_id":76561197973579461,"connected_time":1059000000000,"state":"active","ping":44},{"user_id":539,"name":"QuirkyNirvanaFan","steam_id":76561199163405931,"connected_time":1965000000000,"state":"active","ping":93},{"user_id":471,"name":"Uncle Kalashnikov","steam_id":76561198028608120,"connected_time":6516000000000,"state":"active","ping":60},{"user_id":424,"name":"CheeseCake488","steam_id":76561199407617942,"connected_time":9355000000000,"state":"active","ping":140},{"user_id":517,"name":"Pimpin' Aint Easy","steam_id":76561198228972504,"connected_time":3250000000000,"state":"active","ping":67},{"user_id":535,"name":"McMatthew","steam_id":76561198031741388,"connected_time":2472000000000,"state":"active","ping":82},{"user_id":506,"name":"Nakedkoops(#RemasterTTYD)","steam_id":76561199197961413,"connected_time":4083000000000,"state":"active","ping":43},{"user_id":533,"name":"panasonic blu-ray $99","steam_id":76561198062964879,"connected_time":2591000000000,"state":"active","ping":62},{"user_id":504,"name":"CreeperCatBengal","steam_id":76561198213193221,"connected_time":4102000000000,"state":"active","ping":62},{"user_id":548,"name":"Kelpy","steam_id":76561198294906383,"connected_time":23000000000,"state":"active","ping":45},{"user_id":492,"name":"JGatsby","steam_id":76561198023307584,"connected_time":5247000000000,"state":"active","ping":60},{"user_id":546,"name":"_","steam_id":76561198149536267,"connected_time":53000000000,"state":"active","ping":48},{"user_id":549,"name":"ReTrying","steam_id":76561198976162684,"connected_time":18000000000,"state":"active","ping":89},{"user_id":542,"name":"brappy","steam_id":76561198024958319,"connected_time":1865000000000,"state":"active","ping":66},{"user_id":538,"name":"Nabsin","steam_id":76561198208345304,"connected_time":2294000000000,"state":"active","ping":48},{"user_id":547,"name":"timB","steam_id":76561198045840264,"connected_time":53000000000,"state":"active","ping":49},{"user_id":523,"name":"IMPACT CPU","steam_id":76561198001344879,"connected_time":3018000000000,"state":"active","ping":60},{"user_id":488,"name":"Chechens Spotted","steam_id":76561199028910893,"connected_time":5553000000000,"state":"active","ping":87},{"user_id":493,"name":"Tangents","steam_id":76561198041705809,"connected_time":5237000000000,"state":"active","ping":53},{"user_id":544,"name":"raisedbybirds","steam_id":76561198131531646,"connected_time":1207000000000,"state":"active","ping":57}]},{"server_id":16,"name":"Uncletopia | New York City | 4 | Community","name_short":"nyc-4","host":"nyc-1.us.uncletopia.com","port":27045,"enabled":true,"region":"us-east","cc":"us","latitude":40.73061,"longitude":-73.93524,"reserved":0,"last_update":"0001-01-01T00:00:00Z","name_a2s":"Uncletopia | New York City | 4 | Community","protocol":17,"map":"workshop/koth_slaughter_rc1.ugc1712845210","folder":"tf","game":"Team Fortress","app_id":440,"player_count":7,"max_players":24,"Bots":0,"server_type":"Dedicated","server_os":"Linux","password":true,"vac":true,"version":"7695204","steam_id":85568392924742821,"keywords":["cp","nocrits","nodmgspread","uncletopia"],"game_id":440,"stv_port":27046,"stv_name":"Uncletopia | New York City | 4 | Community | STV","players":[{"user_id":73,"name":"Yse","steam_id":76561198844464681,"connected_time":79000000000,"state":"active","ping":46},{"user_id":66,"name":"Nazrei [F2P]","steam_id":76561199052495496,"connected_time":1852000000000,"state":"active","ping":53},{"user_id":54,"name":"Izerfun","steam_id":76561197977227320,"connected_time":4202000000000,"state":"active","ping":52},{"user_id":57,"name":"Metal_Fish","steam_id":76561198401062256,"connected_time":4087000000000,"state":"active","ping":53},{"user_id":68,"name":"ShitpostShaman","steam_id":76561198063533972,"connected_time":1191000000000,"state":"active","ping":51},{"user_id":72,"name":"Viking Seagull","steam_id":76561198806994127,"connected_time":259000000000,"state":"active","ping":61},{"user_id":74,"name":"McGangBang","steam_id":76561198862379865,"connected_time":13000000000,"state":"spawning","ping":157}]},{"server_id":142,"name":"Uncletopia | São Paulo | 1 | All Maps","name_short":"sao-1","host":"sao-1.br.uncletopia.com","port":27015,"enabled":true,"region":"sa","cc":"br","latitude":-23.533773,"longitude":-46.62529,"reserved":0,"last_update":"0001-01-01T00:00:00Z","name_a2s":"Uncletopia | São Paulo | 1 | All Maps","protocol":17,"map":"koth_highpass","folder":"tf","game":"Team Fortress","app_id":440,"player_count":0,"max_players":24,"Bots":0,"server_type":"Dedicated","server_os":"Linux","password":true,"vac":true,"version":"7695204","steam_id":85568392924469996,"keywords":["cp","nocrits","nodmgspread","uncletopia"],"game_id":440,"stv_port":27016,"stv_name":"Uncletopia | São Paulo | 1 | All Maps | STV","players":null},{"server_id":143,"name":"Uncletopia | São Paulo | 2 | All Maps","name_short":"sao-2","host":"sao-2.br.uncletopia.com","port":27015,"enabled":true,"region":"sa","cc":"br","latitude":-23.533773,"longitude":-46.62529,"reserved":0,"last_update":"0001-01-01T00:00:00Z","name_a2s":"Uncletopia | São Paulo | 2 | All Maps","protocol":17,"map":"pl_frontier_final","folder":"tf","game":"Team Fortress","app_id":440,"player_count":22,"max_players":24,"Bots":0,"server_type":"Dedicated","server_os":"Linux","password":true,"vac":true,"version":"7695204","steam_id":85568392924485349,"keywords":["nocrits","nodmgspread","payload","uncletopia"],"game_id":440,"stv_port":27016,"stv_name":"Uncletopia | São Paulo | 2 | All Maps | STV","players":[{"user_id":241,"name":"somelass231","steam_id":76561199084938235,"connected_time":116000000000,"state":"active","ping":61},{"user_id":203,"name":"Mortadella","steam_id":76561198057716113,"connected_time":3127000000000,"state":"active","ping":44},{"user_id":158,"name":"palmeri","steam_id":76561198276113571,"connected_time":6357000000000,"state":"active","ping":35},{"user_id":139,"name":"Pan","steam_id":76561198161899287,"connected_time":6873000000000,"state":"active","ping":77},{"user_id":207,"name":"Dandiablo","steam_id":76561198049841015,"connected_time":2762000000000,"state":"active","ping":111},{"user_id":171,"name":"Zoom!","steam_id":76561198289562649,"connected_time":5525000000000,"state":"active","ping":42},{"user_id":163,"name":"SPYRYTTS","steam_id":76561197983312920,"connected_time":5787000000000,"state":"active","ping":58},{"user_id":224,"name":"El13RÇ1N0","steam_id":76561198064725233,"connected_time":1828000000000,"state":"active","ping":44},{"user_id":198,"name":"3 R R 0 R","steam_id":76561197967635650,"connected_time":3713000000000,"state":"active","ping":52},{"user_id":210,"name":"LukeLeal","steam_id":76561198049822995,"connected_time":2707000000000,"state":"active","ping":44},{"user_id":140,"name":"Pathetic","steam_id":76561198051056987,"connected_time":6679000000000,"state":"active","ping":59},{"user_id":242,"name":"Pr公道レース","steam_id":76561198976110673,"connected_time":83000000000,"state":"active","ping":62},{"user_id":221,"name":"MilDol","steam_id":76561198338733365,"connected_time":2000000000000,"state":"active","ping":60},{"user_id":236,"name":"afiliado gold hotmart","steam_id":76561198095813297,"connected_time":465000000000,"state":"active","ping":85},{"user_id":239,"name":"DaisyIsBestGirl","steam_id":76561198353408382,"connected_time":135000000000,"state":"active","ping":106},{"user_id":205,"name":"ayumi","steam_id":76561197977365746,"connected_time":2885000000000,"state":"active","ping":46},{"user_id":217,"name":"nJur","steam_id":76561198136257443,"connected_time":2367000000000,"state":"active","ping":59},{"user_id":243,"name":"lordgabriel078","steam_id":76561199251891501,"connected_time":32000000000,"state":"active","ping":173},{"user_id":244,"name":"Terra","steam_id":76561198997677838,"connected_time":30000000000,"state":"active","ping":60},{"user_id":235,"name":"Idol","steam_id":76561198137606413,"connected_time":616000000000,"state":"active","ping":74},{"user_id":185,"name":"Every year is getting shorter","steam_id":76561198026672557,"connected_time":4914000000000,"state":"active","ping":44},{"user_id":240,"name":"DUNA PISTERO","steam_id":76561198260464059,"connected_time":134000000000,"state":"active","ping":78}]},{"server_id":7,"name":"Uncletopia | Seattle | 1 | All Maps","name_short":"sea-1","host":"sea-1.us.uncletopia.com","port":27015,"enabled":true,"region":"us-west","cc":"us","latitude":47.608013,"longitude":-122.33517,"reserved":0,"last_update":"0001-01-01T00:00:00Z","name_a2s":"Uncletopia | Seattle | 1 | All Maps","protocol":17,"map":"cp_mountainlab","folder":"tf","game":"Team Fortress","app_id":440,"player_count":19,"max_players":24,"Bots":0,"server_type":"Dedicated","server_os":"Linux","password":true,"vac":true,"version":"7695204","steam_id":85568392924469997,"keywords":["cp","nocrits","nodmgspread","uncletopia"],"game_id":440,"stv_port":27016,"stv_name":"Uncletopia | Seattle | 1 | All Maps | STV","players":[{"user_id":282,"name":"mega","steam_id":76561198089520959,"connected_time":6028000000000,"state":"active","ping":86},{"user_id":257,"name":"buppy holly","steam_id":76561199158847498,"connected_time":8620000000000,"state":"active","ping":67},{"user_id":340,"name":"Genius Meme","steam_id":76561198162911254,"connected_time":400000000000,"state":"active","ping":92},{"user_id":308,"name":"WarpdriveEngineer","steam_id":76561198073530973,"connected_time":3991000000000,"state":"active","ping":108},{"user_id":334,"name":"tconnors1976","steam_id":76561198840033336,"connected_time":1246000000000,"state":"active","ping":53},{"user_id":325,"name":"Mom","steam_id":76561198207936000,"connected_time":1980000000000,"state":"active","ping":62},{"user_id":284,"name":"vimdya gamign :)","steam_id":76561199175434022,"connected_time":5993000000000,"state":"active","ping":69},{"user_id":304,"name":"nosmas","steam_id":76561198113728520,"connected_time":4383000000000,"state":"active","ping":48},{"user_id":333,"name":"Pneumo.","steam_id":76561197987911883,"connected_time":1411000000000,"state":"active","ping":65},{"user_id":311,"name":"CasualCakeEater","steam_id":76561199406096223,"connected_time":3906000000000,"state":"active","ping":80},{"user_id":326,"name":"The Arm","steam_id":76561197983066285,"connected_time":1958000000000,"state":"active","ping":67},{"user_id":342,"name":"The Pepsi® Superbowl®!","steam_id":76561198080828981,"connected_time":109000000000,"state":"active","ping":70},{"user_id":336,"name":"Rusty","steam_id":76561198055585129,"connected_time":1034000000000,"state":"active","ping":50},{"user_id":312,"name":"tayzik","steam_id":76561199391478575,"connected_time":3905000000000,"state":"active","ping":60},{"user_id":319,"name":"Aspect1","steam_id":76561199006943927,"connected_time":2428000000000,"state":"active","ping":70},{"user_id":313,"name":"VerSaKa","steam_id":76561198052392540,"connected_time":3894000000000,"state":"active","ping":125},{"user_id":337,"name":"Frongus","steam_id":76561197979056451,"connected_time":1025000000000,"state":"active","ping":45},{"user_id":329,"name":"Fire_box41238","steam_id":76561199185673650,"connected_time":1918000000000,"state":"active","ping":51},{"user_id":338,"name":"MCman","steam_id":76561198412110305,"connected_time":1013000000000,"state":"active","ping":79}]},{"server_id":119,"name":"Uncletopia | Seattle | 2 | All Maps","name_short":"sea-2","host":"sea-1.us.uncletopia.com","port":27025,"enabled":true,"region":"us-west","cc":"us","latitude":47.608013,"longitude":-122.33517,"reserved":0,"last_update":"0001-01-01T00:00:00Z","name_a2s":"Uncletopia | Seattle | 2 | All Maps","protocol":17,"map":"cp_steel","folder":"tf","game":"Team Fortress","app_id":440,"player_count":24,"max_players":24,"Bots":0,"server_type":"Dedicated","server_os":"Linux","password":true,"vac":true,"version":"7695204","steam_id":85568392924469998,"keywords":["cp","nocrits","nodmgspread","uncletopia"],"game_id":440,"stv_port":27026,"stv_name":"Uncletopia | Seattle | 2 | All Maps | STV","players":[{"user_id":556,"name":"IgroSome","steam_id":76561198325586557,"connected_time":645000000000,"state":"active","ping":65},{"user_id":551,"name":"[DATS➡] Sugar Meowth","steam_id":76561197995251793,"connected_time":1295000000000,"state":"active","ping":44},{"user_id":557,"name":"EnemyPegasus288","steam_id":76561199345753657,"connected_time":598000000000,"state":"active","ping":68},{"user_id":558,"name":"For Whom The Taco Bell Tolls","steam_id":76561198418288939,"connected_time":574000000000,"state":"active","ping":68},{"user_id":559,"name":"boxy443 (f2p)","steam_id":76561199386363103,"connected_time":574000000000,"state":"active","ping":51},{"user_id":562,"name":"morbidly a beast","steam_id":76561198061653298,"connected_time":329000000000,"state":"active","ping":105},{"user_id":554,"name":"Joseph Stalin","steam_id":76561198126234142,"connected_time":799000000000,"state":"active","ping":67},{"user_id":542,"name":"Super Mighty G","steam_id":76561198020932806,"connected_time":2428000000000,"state":"active","ping":77},{"user_id":560,"name":"Boop Master","steam_id":76561198091582046,"connected_time":534000000000,"state":"active","ping":71},{"user_id":561,"name":"Caoticaos","steam_id":76561198114800227,"connected_time":451000000000,"state":"active","ping":178},{"user_id":552,"name":"xerro","steam_id":76561198323340524,"connected_time":834000000000,"state":"active","ping":121},{"user_id":549,"name":"BirdScruff","steam_id":76561198349249196,"connected_time":1710000000000,"state":"active","ping":118},{"user_id":563,"name":"a crazy hobo","steam_id":76561198289650060,"connected_time":262000000000,"state":"active","ping":76},{"user_id":570,"name":"Juntao","steam_id":76561199389584938,"connected_time":96000000000,"state":"active","ping":41},{"user_id":565,"name":"sink","steam_id":76561198084132037,"connected_time":226000000000,"state":"active","ping":44},{"user_id":566,"name":"marlex20","steam_id":76561198043779844,"connected_time":152000000000,"state":"active","ping":104},{"user_id":567,"name":"paypur -rng","steam_id":76561198214370515,"connected_time":136000000000,"state":"active","ping":112},{"user_id":553,"name":"{907}DarkestFury","steam_id":76561198103662458,"connected_time":832000000000,"state":"active","ping":74},{"user_id":541,"name":"ansoonii","steam_id":76561198092494136,"connected_time":2506000000000,"state":"active","ping":90},{"user_id":568,"name":"Fawny","steam_id":76561198311363172,"connected_time":129000000000,"state":"active","ping":75},{"user_id":569,"name":"DistantJragon","steam_id":76561198117563641,"connected_time":121000000000,"state":"active","ping":98},{"user_id":571,"name":"sord⚔","steam_id":76561198103337487,"connected_time":95000000000,"state":"active","ping":78},{"user_id":572,"name":"Level 2 Fat Scout (KaiserArc)","steam_id":76561198201702142,"connected_time":65000000000,"state":"active","ping":76},{"user_id":573,"name":"Charm #SaveTF2","steam_id":76561198120543277,"connected_time":65000000000,"state":"active","ping":62}]},{"server_id":17,"name":"Uncletopia | San Francisco | 1 | All Maps","name_short":"sfo-1","host":"sfo-1.us.uncletopia.com","port":27015,"enabled":true,"region":"us-west","cc":"us","latitude":37.77397,"longitude":-122.4313,"reserved":0,"last_update":"0001-01-01T00:00:00Z","name_a2s":"Uncletopia | San Francisco | 1 | All Maps","protocol":17,"map":"pl_pier","folder":"tf","game":"Team Fortress","app_id":440,"player_count":24,"max_players":24,"Bots":0,"server_type":"Dedicated","server_os":"Linux","password":true,"vac":true,"version":"7695204","steam_id":85568392924469999,"keywords":["nocrits","nodmgspread","payload","uncletopia"],"game_id":440,"stv_port":27016,"stv_name":"Uncletopia | San Francisco | 1 | All Maps | STV","players":[{"user_id":23,"name":"[㏈] Bumpercars","steam_id":76561198061591743,"connected_time":2421000000000,"state":"active","ping":114},{"user_id":24,"name":"[㏈] Pup de la Babe","steam_id":76561199170203468,"connected_time":2402000000000,"state":"active","ping":108},{"user_id":61,"name":"interthegalactic","steam_id":76561198072051005,"connected_time":236000000000,"state":"active","ping":63},{"user_id":26,"name":"helga \"the cunt\" borenstein","steam_id":76561198419326308,"connected_time":2281000000000,"state":"active","ping":161},{"user_id":28,"name":"veemo","steam_id":76561198321393225,"connected_time":1921000000000,"state":"active","ping":85},{"user_id":29,"name":"KnockOutClock","steam_id":76561199436877307,"connected_time":1847000000000,"state":"active","ping":66},{"user_id":55,"name":"Best in Ass","steam_id":76561198975632256,"connected_time":538000000000,"state":"active","ping":69},{"user_id":33,"name":"The Dumper","steam_id":76561198147302569,"connected_time":1621000000000,"state":"active","ping":115},{"user_id":35,"name":"Obama Nood","steam_id":76561198301526239,"connected_time":1553000000000,"state":"active","ping":101},{"user_id":42,"name":"=STT=Escopwner","steam_id":76561198020182589,"connected_time":947000000000,"state":"active","ping":52},{"user_id":39,"name":"Cooki","steam_id":76561198051705314,"connected_time":1196000000000,"state":"active","ping":162},{"user_id":46,"name":"Theory-Y","steam_id":76561198116419931,"connected_time":794000000000,"state":"active","ping":94},{"user_id":41,"name":"Slumdog","steam_id":76561198086613528,"connected_time":1026000000000,"state":"active","ping":73},{"user_id":43,"name":"goochi","steam_id":76561198086799316,"connected_time":906000000000,"state":"active","ping":61},{"user_id":64,"name":"TigerThorn","steam_id":76561198930701873,"connected_time":102000000000,"state":"active","ping":265},{"user_id":63,"name":"crunchie","steam_id":76561198042941560,"connected_time":143000000000,"state":"active","ping":53},{"user_id":47,"name":"PootisLife","steam_id":76561198074400568,"connected_time":779000000000,"state":"active","ping":60},{"user_id":48,"name":"moe","steam_id":76561198929586245,"connected_time":758000000000,"state":"active","ping":63},{"user_id":54,"name":"NoFaceNoCase","steam_id":76561198083048106,"connected_time":583000000000,"state":"active","ping":60},{"user_id":62,"name":"Pile of Spinach","steam_id":76561198043068841,"connected_time":225000000000,"state":"active","ping":75},{"user_id":51,"name":"tum","steam_id":76561198084712019,"connected_time":681000000000,"state":"active","ping":59},{"user_id":57,"name":"PERC FIEN","steam_id":76561198332818490,"connected_time":516000000000,"state":"active","ping":58},{"user_id":53,"name":"scauroboros","steam_id":76561198279392720,"connected_time":618000000000,"state":"active","ping":81},{"user_id":59,"name":"Master Of Whales","steam_id":76561198349104889,"connected_time":478000000000,"state":"active","ping":67}]},{"server_id":18,"name":"Uncletopia | San Francisco | 2 | All Maps","name_short":"sfo-2","host":"sfo-1.us.uncletopia.com","port":27025,"enabled":true,"region":"us-west","cc":"us","latitude":37.77397,"longitude":-122.4313,"reserved":0,"last_update":"0001-01-01T00:00:00Z","name_a2s":"Uncletopia | San Francisco | 2 | All Maps","protocol":17,"map":"koth_cascade","folder":"tf","game":"Team Fortress","app_id":440,"player_count":0,"max_players":24,"Bots":0,"server_type":"Dedicated","server_os":"Linux","password":true,"vac":true,"version":"7695204","steam_id":85568392924470000,"keywords":["cp","nocrits","nodmgspread","uncletopia"],"game_id":440,"stv_port":27026,"stv_name":"Uncletopia | San Francisco | 2 | All Maps | STV","players":null},{"server_id":19,"name":"Uncletopia | San Francisco | 3 | No Payload","name_short":"sfo-3","host":"sfo-1.us.uncletopia.com","port":27035,"enabled":true,"region":"us-west","cc":"us","latitude":37.77397,"longitude":-122.4313,"reserved":0,"last_update":"0001-01-01T00:00:00Z","name_a2s":"Uncletopia | San Francisco | 3 | No Payload","protocol":17,"map":"cp_junction_final","folder":"tf","game":"Team Fortress","app_id":440,"player_count":0,"max_players":24,"Bots":0,"server_type":"Dedicated","server_os":"Linux","password":true,"vac":true,"version":"7695204","steam_id":85568392924742824,"keywords":["cp","nocrits","nodmgspread","uncletopia"],"game_id":440,"stv_port":27036,"stv_name":"Uncletopia | San Francisco | 3 | No Payload | STV","players":null},{"server_id":20,"name":"Uncletopia | San Francisco | 4 | Community","name_short":"sfo-4","host":"sfo-1.us.uncletopia.com","port":27045,"enabled":true,"region":"us-west","cc":"us","latitude":37.77397,"longitude":-122.4313,"reserved":0,"last_update":"0001-01-01T00:00:00Z","name_a2s":"Uncletopia | San Francisco | 4 | Community","protocol":17,"map":"koth_highpass","folder":"tf","game":"Team Fortress","app_id":440,"player_count":0,"max_players":24,"Bots":0,"server_type":"Dedicated","server_os":"Linux","password":true,"vac":true,"version":"7695204","steam_id":85568392924742826,"keywords":["cp","nocrits","nodmgspread","uncletopia"],"game_id":440,"stv_port":0,"stv_name":"","players":null},{"server_id":141,"name":"Uncletopia | Sydney | 1 | All Maps","name_short":"syd-1","host":"syd-1.au.uncletopia.com","port":27015,"enabled":true,"region":"au","cc":"au","latitude":-33.865143,"longitude":151.2099,"reserved":0,"last_update":"0001-01-01T00:00:00Z","name_a2s":"Uncletopia | Sydney | 1 | All Maps","protocol":17,"map":"pl_frontier_final","folder":"tf","game":"Team Fortress","app_id":440,"player_count":24,"max_players":24,"Bots":0,"server_type":"Dedicated","server_os":"Linux","password":true,"vac":true,"version":"7695204","steam_id":85568392924470001,"keywords":["nocrits","nodmgspread","payload","uncletopia"],"game_id":440,"stv_port":27016,"stv_name":"Uncletopia | Sydney | 1 | All Maps | STV","players":[{"user_id":200,"name":"noguchi sensei","steam_id":76561198115314385,"connected_time":1996000000000,"state":"active","ping":167},{"user_id":201,"name":"Phoish","steam_id":76561198442526296,"connected_time":1809000000000,"state":"active","ping":74},{"user_id":210,"name":"RedEyes","steam_id":76561197973698135,"connected_time":824000000000,"state":"active","ping":68},{"user_id":197,"name":"Macca","steam_id":76561198010207998,"connected_time":2075000000000,"state":"active","ping":56},{"user_id":175,"name":"halfaeftlalffeftlalfeeftfalftef","steam_id":76561198076706359,"connected_time":3197000000000,"state":"active","ping":67},{"user_id":212,"name":"xip","steam_id":76561198067871876,"connected_time":648000000000,"state":"active","ping":102},{"user_id":195,"name":"Glockenspe (She/Her)","steam_id":76561199184115241,"connected_time":2127000000000,"state":"active","ping":51},{"user_id":213,"name":"CypressFluff (She/Her)","steam_id":76561198174667818,"connected_time":401000000000,"state":"active","ping":55},{"user_id":168,"name":"fanc","steam_id":76561198071106796,"connected_time":3732000000000,"state":"active","ping":48},{"user_id":214,"name":"hawk","steam_id":76561198135164277,"connected_time":232000000000,"state":"active","ping":55},{"user_id":216,"name":"The Goodnight Kiwi","steam_id":76561198866433807,"connected_time":223000000000,"state":"active","ping":61},{"user_id":137,"name":"Toody","steam_id":76561198212656752,"connected_time":5842000000000,"state":"active","ping":47},{"user_id":215,"name":"Azzy","steam_id":76561198096245286,"connected_time":230000000000,"state":"active","ping":52},{"user_id":185,"name":"cornbred","steam_id":76561198027726671,"connected_time":2930000000000,"state":"active","ping":39},{"user_id":199,"name":"BBXXZombie","steam_id":76561198361910361,"connected_time":2046000000000,"state":"active","ping":48},{"user_id":208,"name":"2200","steam_id":76561198048634605,"connected_time":1263000000000,"state":"active","ping":61},{"user_id":170,"name":"ุbifcheg","steam_id":76561198319806610,"connected_time":3699000000000,"state":"active","ping":63},{"user_id":194,"name":"deadmoi27","steam_id":76561198157061007,"connected_time":2135000000000,"state":"active","ping":59},{"user_id":177,"name":"Transgender Leonardo Da Vinci","steam_id":76561198056993432,"connected_time":3170000000000,"state":"active","ping":89},{"user_id":203,"name":"lavanderpumpernickle","steam_id":76561199093611800,"connected_time":1715000000000,"state":"active","ping":49},{"user_id":217,"name":"April","steam_id":76561198848287180,"connected_time":206000000000,"state":"active","ping":47},{"user_id":209,"name":"callistoAshley","steam_id":76561198178116375,"connected_time":1095000000000,"state":"active","ping":53},{"user_id":182,"name":"Ruby","steam_id":76561198423674328,"connected_time":2994000000000,"state":"active","ping":61},{"user_id":211,"name":"APVC","steam_id":76561199090168813,"connected_time":725000000000,"state":"active","ping":49}]},{"server_id":123,"name":"Uncletopia | Sydney | 2 | All Maps","name_short":"syd-2","host":"syd-1.au.uncletopia.com","port":27025,"enabled":true,"region":"au","cc":"au","latitude":-33.865143,"longitude":151.2099,"reserved":0,"last_update":"0001-01-01T00:00:00Z","name_a2s":"Uncletopia | Sydney | 2 | All Maps","protocol":17,"map":"cp_dustbowl","folder":"tf","game":"Team Fortress","app_id":440,"player_count":2,"max_players":24,"Bots":0,"server_type":"Dedicated","server_os":"Linux","password":true,"vac":true,"version":"7695204","steam_id":85568392924470002,"keywords":["cp","nocrits","nodmgspread","uncletopia"],"game_id":440,"stv_port":27026,"stv_name":"Uncletopia | Sydney | 2 | All Maps | STV","players":[{"user_id":10,"name":"lebron james sprite cranberry","steam_id":76561199405845129,"connected_time":106000000000,"state":"active","ping":38},{"user_id":11,"name":"Monty McTavish","steam_id":76561198093079335,"connected_time":59000000000,"state":"active","ping":93}]},{"server_id":395,"name":"Uncletopia | Sydney | 3 | All Maps","name_short":"syd-3","host":"syd-1.au.uncletopia.com","port":27035,"enabled":true,"region":"au","cc":"au","latitude":-33.865143,"longitude":151.2099,"reserved":0,"last_update":"0001-01-01T00:00:00Z","name_a2s":"Uncletopia | Sydney | 3 | All Maps","protocol":17,"map":"cp_altitude","folder":"tf","game":"Team Fortress","app_id":440,"player_count":0,"max_players":24,"Bots":0,"server_type":"Dedicated","server_os":"Linux","password":true,"vac":true,"version":"7695204","steam_id":85568392925194467,"keywords":["cp","nocrits","nodmgspread","uncletopia"],"game_id":440,"stv_port":27036,"stv_name":"Uncletopia | Sydney | 3 | All Maps | STV","players":null},{"server_id":396,"name":"Uncletopia | Sydney | 4 | All Maps","name_short":"syd-4","host":"syd-1.au.uncletopia.com","port":27045,"enabled":true,"region":"au","cc":"au","latitude":-33.865143,"longitude":151.2099,"reserved":0,"last_update":"0001-01-01T00:00:00Z","name_a2s":"Uncletopia | Sydney | 4 | All Maps","protocol":17,"map":"koth_viaduct","folder":"tf","game":"Team Fortress","app_id":440,"player_count":0,"max_players":24,"Bots":0,"server_type":"Dedicated","server_os":"Linux","password":true,"vac":true,"version":"7695204","steam_id":85568392925397958,"keywords":["cp","nocrits","nodmgspread","uncletopia"],"game_id":440,"stv_port":27046,"stv_name":"Uncletopia | Sydney | 4 | All Maps | STV","players":null},{"server_id":58,"name":"Uncletopia | Sydney | 5 | No Payload","name_short":"syd-5","host":"syd-1.au.uncletopia.com","port":27055,"enabled":true,"region":"au","cc":"au","latitude":-33.865143,"longitude":151.2099,"reserved":0,"last_update":"0001-01-01T00:00:00Z","name_a2s":"Uncletopia | Sydney | 5 | No Payload","protocol":17,"map":"koth_viaduct","folder":"tf","game":"Team Fortress","app_id":440,"player_count":0,"max_players":24,"Bots":0,"server_type":"Dedicated","server_os":"Linux","password":true,"vac":true,"version":"7695204","steam_id":85568392925397959,"keywords":["cp","nocrits","nodmgspread","uncletopia"],"game_id":440,"stv_port":0,"stv_name":"","players":null},{"server_id":59,"name":"Uncletopia | Sydney | 6 | Community","name_short":"syd-6","host":"syd-1.au.uncletopia.com","port":27065,"enabled":true,"region":"au","cc":"au","latitude":-33.865143,"longitude":151.2099,"reserved":0,"last_update":"0001-01-01T00:00:00Z","name_a2s":"Uncletopia | Sydney | 6 | Community","protocol":17,"map":"workshop/pl_fifthcurve_rc1.ugc648227046","folder":"tf","game":"Team Fortress","app_id":440,"player_count":1,"max_players":24,"Bots":0,"server_type":"Dedicated","server_os":"Linux","password":true,"vac":true,"version":"7695204","steam_id":85568392925397960,"keywords":["nocrits","nodmgspread","payload","uncletopia"],"game_id":440,"stv_port":27066,"stv_name":"Uncletopia | Sydney | 6 | Community | STV","players":[{"user_id":11,"name":"DivInflux","steam_id":76561198967034272,"connected_time":353000000000,"state":"active","ping":66}]},{"server_id":49,"name":"Uncletopia | Warsaw | 1 | All Maps","name_short":"waw-1","host":"waw-1.pl.uncletopia.com","port":27015,"enabled":true,"region":"eu","cc":"pl","latitude":52.2297,"longitude":21.017532,"reserved":0,"last_update":"0001-01-01T00:00:00Z","name_a2s":"Uncletopia | Warsaw | 1 | All Maps","protocol":17,"map":"koth_lakeside_final","folder":"tf","game":"Team Fortress","app_id":440,"player_count":0,"max_players":24,"Bots":0,"server_type":"Dedicated","server_os":"Linux","password":true,"vac":true,"version":"7695204","steam_id":85568392925397850,"keywords":["cp","nocrits","nodmgspread","uncletopia"],"game_id":440,"stv_port":27016,"stv_name":"Uncletopia | Warsaw | 1 | All Maps | STV","players":null},{"server_id":50,"name":"Uncletopia | Warsaw | 2 | All Maps","name_short":"waw-2","host":"waw-1.pl.uncletopia.com","port":27025,"enabled":true,"region":"eu","cc":"pl","latitude":52.2297,"longitude":21.017532,"reserved":0,"last_update":"0001-01-01T00:00:00Z","name_a2s":"Uncletopia | Warsaw | 2 | All Maps","protocol":17,"map":"cp_altitude","folder":"tf","game":"Team Fortress","app_id":440,"player_count":0,"max_players":24,"Bots":0,"server_type":"Dedicated","server_os":"Linux","password":true,"vac":true,"version":"7695204","steam_id":85568392925397851,"keywords":["cp","nocrits","nodmgspread","uncletopia"],"game_id":440,"stv_port":27026,"stv_name":"Uncletopia | Warsaw | 2 | All Maps | STV","players":null},{"server_id":51,"name":"Uncletopia | Warsaw | 3 | All Maps","name_short":"waw-3","host":"waw-1.pl.uncletopia.com","port":27035,"enabled":true,"region":"eu","cc":"pl","latitude":52.2297,"longitude":21.017532,"reserved":0,"last_update":"0001-01-01T00:00:00Z","name_a2s":"Uncletopia | Warsaw | 3 | All Maps","protocol":17,"map":"koth_lakeside_final","folder":"tf","game":"Team Fortress","app_id":440,"player_count":0,"max_players":24,"Bots":0,"server_type":"Dedicated","server_os":"Linux","password":true,"vac":true,"version":"7695204","steam_id":85568392925397852,"keywords":["cp","nocrits","nodmgspread","uncletopia"],"game_id":440,"stv_port":27036,"stv_name":"Uncletopia | Warsaw | 3 | All Maps | STV","players":null},{"server_id":52,"name":"Uncletopia | Warsaw | 4 | All Maps","name_short":"waw-4","host":"waw-1.pl.uncletopia.com","port":27045,"enabled":true,"region":"eu","cc":"pl","latitude":52.2297,"longitude":21.017532,"reserved":0,"last_update":"0001-01-01T00:00:00Z","name_a2s":"Uncletopia | Warsaw | 4 | All Maps","protocol":17,"map":"pl_borneo","folder":"tf","game":"Team Fortress","app_id":440,"player_count":0,"max_players":24,"Bots":0,"server_type":"Dedicated","server_os":"Linux","password":true,"vac":true,"version":"7695204","steam_id":85568392925397853,"keywords":["nocrits","nodmgspread","payload","uncletopia"],"game_id":440,"stv_port":27046,"stv_name":"Uncletopia | Warsaw | 4 | All Maps | STV","players":null},{"server_id":53,"name":"Uncletopia | Warsaw | 5 | No Payload","name_short":"waw-5","host":"waw-1.pl.uncletopia.com","port":27055,"enabled":true,"region":"eu","cc":"pl","latitude":52.2297,"longitude":21.017532,"reserved":0,"last_update":"0001-01-01T00:00:00Z","name_a2s":"Uncletopia | Warsaw | 5 | No Payload","protocol":17,"map":"koth_highpass","folder":"tf","game":"Team Fortress","app_id":440,"player_count":0,"max_players":24,"Bots":0,"server_type":"Dedicated","server_os":"Linux","password":true,"vac":true,"version":"7695204","steam_id":85568392925397854,"keywords":["cp","nocrits","nodmgspread","uncletopia"],"game_id":440,"stv_port":27056,"stv_name":"Uncletopia | Warsaw | 5 | No Payload | STV","players":null},{"server_id":54,"name":"Uncletopia | Warsaw | 6 | Community","name_short":"waw-6","host":"waw-1.pl.uncletopia.com","port":27065,"enabled":true,"region":"eu","cc":"pl","latitude":52.2297,"longitude":21.017532,"reserved":0,"last_update":"0001-01-01T00:00:00Z","name_a2s":"Uncletopia | Warsaw | 6 | Community","protocol":17,"map":"workshop/koth_product_final.ugc454272353","folder":"tf","game":"Team Fortress","app_id":440,"player_count":0,"max_players":24,"Bots":0,"server_type":"Dedicated","server_os":"Linux","password":true,"vac":true,"version":"7695204","steam_id":85568392925397856,"keywords":["cp","nocrits","nodmgspread","uncletopia"],"game_id":440,"stv_port":27066,"stv_name":"Uncletopia | Warsaw | 6 | Community | STV","players":null}]}