{"status":true,"message":"","result":[{"server_id":9,"name":"Uncletopia | Atlanta | 1 | All Maps","name_short":"atl-1","host":"atl-1.us.uncletopia.com","port":27015,"enabled":true,"region":"us-east","cc":"us","latitude":33.753746,"longitude":-84.38633,"reserved":0,"last_update":"0001-01-01T00:00:00Z","name_a2s":"Uncletopia | Atlanta | 1 | All Maps","protocol":17,"map":"pl_swiftwater_final1","folder":"tf","game":"Team Fortress","app_id":440,"player_count":24,"max_players":24,"Bots":0,"server_type":"Dedicated","server_os":"Linux","password":true,"vac":true,"version":"7961495","steam_id":85568392924469982,"keywords":["nocrits","nodmgspread","payload","uncletopia"],"game_id":440,"stv_port":27016,"stv_name":"Uncletopia | Atlanta | 1 | All Maps | STV","players":[{"user_id":713,"name":"Uncle Majic the Hip Hop Magicia","steam_id":76561198107924303,"connected_time":603000000000,"state":"active","ping":60},{"user_id":691,"name":"♡ Cursed ♡","steam_id":76561199161458959,"connected_time":2880000000000,"state":"active","ping":100},{"user_id":714,"name":"Waff00","steam_id":76561198848377100,"connected_time":579000000000,"state":"active","ping":74},{"user_id":700,"name":"Fiendish Frog","steam_id":76561198029478821,"connected_time":1621000000000,"state":"active","ping":102},{"user_id":556,"name":"CoffeeZombee","steam_id":76561198172708053,"connected_time":11232000000000,"state":"active","ping":69},{"user_id":701,"name":"bendera","steam_id":76561197965486503,"connected_time":1610000000000,"state":"active","ping":83},{"user_id":715,"name":"JustAnotherHuman","steam_id":76561199018122924,"connected_time":577000000000,"state":"active","ping":107},{"user_id":540,"name":"FEBLUCAXZ","steam_id":76561198355845884,"connected_time":12397000000000,"state":"active","ping":100},{"user_id":682,"name":"Ashes!","steam_id":76561197998475441,"connected_time":4083000000000,"state":"active","ping":72},{"user_id":712,"name":"Sarbanes-Oxley","steam_id":76561197975898479,"connected_time":611000000000,"state":"active","ping":66},{"user_id":704,"name":"The Notorious T.A.F.T.","steam_id":76561198073012352,"connected_time":1458000000000,"state":"active","ping":70},{"user_id":695,"name":"ShadyP00","steam_id":76561198065308906,"connected_time":2289000000000,"state":"active","ping":70},{"user_id":574,"name":"b etween d","steam_id":76561198802099686,"connected_time":8669000000000,"state":"active","ping":134},{"user_id":716,"name":"DAG","steam_id":76561198219508244,"connected_time":566000000000,"state":"active","ping":79},{"user_id":705,"name":"later aligater","steam_id":76561198021609442,"connected_time":1437000000000,"state":"active","ping":60},{"user_id":717,"name":"E","steam_id":76561198238236044,"connected_time":547000000000,"state":"active","ping":73},{"user_id":694,"name":"Tender","steam_id":76561199032665949,"connected_time":2493000000000,"state":"active","ping":136},{"user_id":693,"name":"Onyx","steam_id":76561198275349640,"connected_time":2608000000000,"state":"active","ping":134},{"user_id":718,"name":"peace dog","steam_id":76561198267988522,"connected_time":531000000000,"state":"active","ping":82},{"user_id":576,"name":"Motreir","steam_id":76561198151717946,"connected_time":8662000000000,"state":"active","ping":76},{"user_id":707,"name":"Captain Malarkey","steam_id":76561198869924281,"connected_time":1267000000000,"state":"active","ping":74},{"user_id":719,"name":"dogerich404","steam_id":76561199124102546,"connected_time":493000000000,"state":"active","ping":111},{"user_id":722,"name":"Esteban Delsin","steam_id":76561198433519639,"connected_time":123000000000,"state":"active","ping":118},{"user_id":721,"name":"Shrebbie","steam_id":76561198875230824,"connected_time":177000000000,"state":"active","ping":61}]},{"server_id":104,"name":"Uncletopia | Atlanta | 2 | All Maps","name_short":"atl-2","host":"atl-1.us.uncletopia.com","port":27025,"enabled":true,"region":"us-east","cc":"us","latitude":33.753746,"longitude":-84.38633,"reserved":0,"last_update":"0001-01-01T00:00:00Z","name_a2s":"Uncletopia | Atlanta | 2 | All Maps","protocol":17,"map":"cp_mountainlab","folder":"tf","game":"Team Fortress","app_id":440,"player_count":18,"max_players":24,"Bots":0,"server_type":"Dedicated","server_os":"Linux","password":true,"vac":true,"version":"7961495","steam_id":85568392924469983,"keywords":["cp","nocrits","nodmgspread","uncletopia"],"game_id":440,"stv_port":27026,"stv_name":"Uncletopia | Atlanta | 2 | All Maps | STV","players":[{"user_id":822,"name":"Jovyel","steam_id":76561198118777065,"connected_time":21000000000,"state":"active","ping":80},{"user_id":797,"name":"Honorificabilitudinitatibus","steam_id":76561198008301397,"connected_time":3215000000000,"state":"active","ping":83},{"user_id":815,"name":"Emma","steam_id":76561198318093783,"connected_time":1342000000000,"state":"active","ping":77},{"user_id":758,"name":"sloth (i have gay)","steam_id":76561198047098172,"connected_time":5118000000000,"state":"active","ping":77},{"user_id":814,"name":"Filthy Hobo","steam_id":76561198174373015,"connected_time":1546000000000,"state":"active","ping":97},{"user_id":791,"name":"Harbor Seal","steam_id":76561198162631724,"connected_time":3369000000000,"state":"active","ping":74},{"user_id":802,"name":"retard man from retard land","steam_id":76561198984228021,"connected_time":2408000000000,"state":"active","ping":57},{"user_id":811,"name":"Rat God","steam_id":76561198066161598,"connected_time":1671000000000,"state":"active","ping":79},{"user_id":804,"name":"dave :3","steam_id":76561198135961731,"connected_time":2281000000000,"state":"active","ping":57},{"user_id":765,"name":"+","steam_id":76561198262422184,"connected_time":5027000000000,"state":"active","ping":70},{"user_id":674,"name":"Monkey Mode","steam_id":76561197961267543,"connected_time":10820000000000,"state":"active","ping":56},{"user_id":747,"name":"Terror-Billy #SaveTF2","steam_id":76561198328141870,"connected_time":5880000000000,"state":"active","ping":81},{"user_id":821,"name":"Azazellotl","steam_id":76561198824814392,"connected_time":160000000000,"state":"active","ping":69},{"user_id":783,"name":"Kantamoe","steam_id":76561198046661611,"connected_time":4232000000000,"state":"active","ping":65},{"user_id":787,"name":"RangeDad","steam_id":76561198028186133,"connected_time":3736000000000,"state":"active","ping":63},{"user_id":819,"name":"raccocooon","steam_id":76561199138602425,"connected_time":922000000000,"state":"active","ping":71},{"user_id":816,"name":"Punkin","steam_id":76561198334301755,"connected_time":1276000000000,"state":"active","ping":64},{"user_id":729,"name":"Nathaninja","steam_id":76561199397388379,"connected_time":6972000000000,"state":"active","ping":67}]},{"server_id":400,"name":"Uncletopia | Atlanta | 3 | Stopwatch","name_short":"atl-3","host":"atl-1.us.uncletopia.com","port":27035,"enabled":true,"region":"us-east","cc":"us","latitude":33.753746,"longitude":-84.38633,"reserved":0,"last_update":"0001-01-01T00:00:00Z","name_a2s":"Uncletopia | Atlanta | 3 | Stopwatch","protocol":17,"map":"cp_gullywash_final1","folder":"tf","game":"Team Fortress","app_id":440,"player_count":0,"max_players":24,"Bots":0,"server_type":"Dedicated","server_os":"Linux","password":true,"vac":true,"version":"7961495","steam_id":85568392924515187,"keywords":["cp","nocrits","nodmgspread","uncletopia"],"game_id":440,"stv_port":27036,"stv_name":"Uncletopia | Atlanta | 3 | Stopwatch | STV","players":null},{"server_id":401,"name":"Uncletopia | Atlanta | 4 | Community","name_short":"atl-4","host":"atl-1.us.uncletopia.com","port":27045,"enabled":true,"region":"us-east","cc":"us","latitude":33.753746,"longitude":-84.38633,"reserved":0,"last_update":"0001-01-01T00:00:00Z","name_a2s":"Uncletopia | Atlanta | 4 | Community","protocol":17,"map":"workshop/koth_slaughter_rc1.ugc1712845210","folder":"tf","game":"Team Fortress","app_id":440,"player_count":0,"max_players":24,"Bots":0,"server_type":"Dedicated","server_os":"Linux","password":true,"vac":true,"version":"7961495","steam_id":85568392924515188,"keywords":["cp","nocrits","nodmgspread","uncletopia"],"game_id":440,"stv_port":27046,"stv_name":"Uncletopia | Atlanta | 4 | Community | STV","players":null},{"server_id":2,"name":"Uncletopia | Chicago | 1 | All Maps","name_short":"chi-1","host":"chi-1.us.uncletopia.com","port":27015,"enabled":true,"region":"us-central","cc":"us","latitude":41.881832,"longitude":-87.62318,"reserved":0,"last_update":"0001-01-01T00:00:00Z","name_a2s":"Uncletopia | Chicago | 1 | All Maps","protocol":17,"map":"cp_process_final","folder":"tf","game":"Team Fortress","app_id":440,"player_count":23,"max_players":24,"Bots":0,"server_type":"Dedicated","server_os":"Linux","password":true,"vac":true,"version":"7961495","steam_id":85568392924469984,"keywords":["cp","nocrits","nodmgspread","uncletopia"],"game_id":440,"stv_port":27016,"stv_name":"Uncletopia | Chicago | 1 | All Maps | STV","players":[{"user_id":834,"name":"Yon","steam_id":76561198098631397,"connected_time":182000000000,"state":"active","ping":53},{"user_id":835,"name":"sunglasses","steam_id":76561198173747227,"connected_time":170000000000,"state":"active","ping":59},{"user_id":826,"name":"Dr. Milker","steam_id":76561198068516964,"connected_time":346000000000,"state":"active","ping":122},{"user_id":827,"name":"JRB","steam_id":76561198054629439,"connected_time":328000000000,"state":"active","ping":55},{"user_id":828,"name":"anastasia","steam_id":76561197994492154,"connected_time":299000000000,"state":"active","ping":172},{"user_id":836,"name":"Quáy","steam_id":76561198068924418,"connected_time":166000000000,"state":"active","ping":89},{"user_id":821,"name":"sheeesh","steam_id":76561198038080028,"connected_time":1225000000000,"state":"active","ping":60},{"user_id":829,"name":"Anomalous Materials Scientist","steam_id":76561198092542997,"connected_time":241000000000,"state":"active","ping":60},{"user_id":830,"name":"green.fantastic","steam_id":76561197994104309,"connected_time":228000000000,"state":"active","ping":71},{"user_id":831,"name":"flintstones gummy","steam_id":76561198203171349,"connected_time":214000000000,"state":"active","ping":62},{"user_id":832,"name":"L to the OG","steam_id":76561199215811448,"connected_time":214000000000,"state":"active","ping":83},{"user_id":766,"name":"loser","steam_id":76561198259380127,"connected_time":6078000000000,"state":"active","ping":59},{"user_id":833,"name":"Papa Smoke","steam_id":76561198181348206,"connected_time":205000000000,"state":"active","ping":58},{"user_id":804,"name":"custodian","steam_id":76561198058793778,"connected_time":2339000000000,"state":"active","ping":74},{"user_id":820,"name":"Blackwing","steam_id":76561198225732032,"connected_time":1447000000000,"state":"active","ping":71},{"user_id":819,"name":"feed lips","steam_id":76561197971152439,"connected_time":1597000000000,"state":"active","ping":61},{"user_id":837,"name":"[S]Mr. X [No Monitor]","steam_id":76561197963746035,"connected_time":152000000000,"state":"active","ping":121},{"user_id":838,"name":"Biffy","steam_id":76561198026335945,"connected_time":73000000000,"state":"active","ping":60},{"user_id":839,"name":"Nexusuxen","steam_id":76561198117547131,"connected_time":68000000000,"state":"active","ping":68},{"user_id":840,"name":"The_RainbowTrout","steam_id":76561199309554436,"connected_time":36000000000,"state":"active","ping":95},{"user_id":811,"name":"LudicrousRed","steam_id":76561199047437703,"connected_time":2230000000000,"state":"active","ping":79},{"user_id":818,"name":"wincel hampton","steam_id":76561198083095146,"connected_time":1797000000000,"state":"active","ping":75},{"user_id":823,"name":"SoCal Kaizer","steam_id":76561198334361081,"connected_time":1205000000000,"state":"active","ping":126}]},{"server_id":106,"name":"Uncletopia | Chicago | 2 | All Maps","name_short":"chi-2","host":"chi-1.us.uncletopia.com","port":27025,"enabled":true,"region":"us-central","cc":"us","latitude":41.881832,"longitude":-87.62318,"reserved":0,"last_update":"0001-01-01T00:00:00Z","name_a2s":"Uncletopia | Chicago | 2 | All Maps","protocol":17,"map":"pl_badwater","folder":"tf","game":"Team Fortress","app_id":440,"player_count":24,"max_players":24,"Bots":0,"server_type":"Dedicated","server_os":"Linux","password":true,"vac":true,"version":"7961495","steam_id":85568392924469985,"keywords":["nocrits","nodmgspread","payload","uncletopia"],"game_id":440,"stv_port":27026,"stv_name":"Uncletopia | Chicago | 2 | All Maps | STV","players":[{"user_id":653,"name":"tim-","steam_id":76561199119101315,"connected_time":1736000000000,"state":"active","ping":67},{"user_id":660,"name":"Master Of Whales","steam_id":76561198349104889,"connected_time":1140000000000,"state":"active","ping":124},{"user_id":663,"name":"glam","steam_id":76561198059570070,"connected_time":1041000000000,"state":"active","ping":45},{"user_id":631,"name":"MiPlatypus","steam_id":76561198210393620,"connected_time":2847000000000,"state":"active","ping":48},{"user_id":617,"name":"TÖZI","steam_id":76561198045268695,"connected_time":3711000000000,"state":"active","ping":95},{"user_id":666,"name":"Tobo","steam_id":76561198085846393,"connected_time":555000000000,"state":"active","ping":75},{"user_id":673,"name":"plutonium isotope","steam_id":76561198319442494,"connected_time":352000000000,"state":"active","ping":124},{"user_id":668,"name":"YeshieSirYesSir","steam_id":76561198080214214,"connected_time":521000000000,"state":"active","ping":43},{"user_id":664,"name":"Belloq","steam_id":76561198060279052,"connected_time":759000000000,"state":"active","ping":52},{"user_id":656,"name":"Azalea","steam_id":76561199491138825,"connected_time":1724000000000,"state":"active","ping":74},{"user_id":619,"name":"the cart is not movin lads","steam_id":76561199184578185,"connected_time":3643000000000,"state":"active","ping":161},{"user_id":669,"name":"for the king","steam_id":76561197973488858,"connected_time":477000000000,"state":"active","ping":60},{"user_id":670,"name":"Skudge Sister","steam_id":76561198041766766,"connected_time":445000000000,"state":"active","ping":79},{"user_id":658,"name":"LunchTray ©","steam_id":76561197993337109,"connected_time":1714000000000,"state":"active","ping":104},{"user_id":651,"name":"Menachem","steam_id":76561198041226420,"connected_time":1903000000000,"state":"active","ping":48},{"user_id":646,"name":"Mad_Buu","steam_id":76561198047243682,"connected_time":2198000000000,"state":"active","ping":67},{"user_id":644,"name":"crunchy obama","steam_id":76561198044485217,"connected_time":2312000000000,"state":"active","ping":104},{"user_id":671,"name":"Nukeboy","steam_id":76561198147058560,"connected_time":428000000000,"state":"active","ping":103},{"user_id":647,"name":"Tom","steam_id":76561198070630154,"connected_time":2179000000000,"state":"active","ping":88},{"user_id":652,"name":"yin","steam_id":76561198450003554,"connected_time":1803000000000,"state":"active","ping":52},{"user_id":603,"name":"Goob-A-Bue","steam_id":76561198050535135,"connected_time":4490000000000,"state":"active","ping":69},{"user_id":604,"name":"RedBaron","steam_id":76561198972426107,"connected_time":4468000000000,"state":"active","ping":61},{"user_id":672,"name":"King","steam_id":76561198123927752,"connected_time":422000000000,"state":"active","ping":54},{"user_id":674,"name":"Howard Hamlin","steam_id":76561198881039861,"connected_time":264000000000,"state":"active","ping":68}]},{"server_id":402,"name":"Uncletopia | Chicago | 3 | All Maps","name_short":"chi-3","host":"chi-1.us.uncletopia.com","port":27035,"enabled":true,"region":"us-central","cc":"us","latitude":41.881832,"longitude":-87.62318,"reserved":0,"last_update":"0001-01-01T00:00:00Z","name_a2s":"Uncletopia | Chicago | 3 | All Maps","protocol":17,"map":"pl_upward","folder":"tf","game":"Team Fortress","app_id":440,"player_count":21,"max_players":24,"Bots":0,"server_type":"Dedicated","server_os":"Linux","password":true,"vac":true,"version":"7961495","steam_id":85568392924515191,"keywords":["nocrits","nodmgspread","payload","uncletopia"],"game_id":440,"stv_port":27036,"stv_name":"Uncletopia | Chicago | 3 | All Maps | STV","players":[{"user_id":363,"name":"hanktheguy","steam_id":76561198818252177,"connected_time":25000000000,"state":"active","ping":84},{"user_id":349,"name":"willow","steam_id":76561198068266114,"connected_time":1353000000000,"state":"active","ping":60},{"user_id":336,"name":"tsun.","steam_id":76561198079488962,"connected_time":2133000000000,"state":"active","ping":96},{"user_id":335,"name":"Lore","steam_id":76561198098407538,"connected_time":2337000000000,"state":"active","ping":46},{"user_id":332,"name":"Griffin_716","steam_id":76561198192498801,"connected_time":2547000000000,"state":"active","ping":48},{"user_id":337,"name":"¿?","steam_id":76561198224614084,"connected_time":2119000000000,"state":"active","ping":61},{"user_id":362,"name":"pathways","steam_id":76561198054832333,"connected_time":228000000000,"state":"active","ping":55},{"user_id":338,"name":"Bandoleon","steam_id":76561199075155791,"connected_time":2062000000000,"state":"active","ping":65},{"user_id":344,"name":"Dragus","steam_id":76561198032967285,"connected_time":1896000000000,"state":"active","ping":51},{"user_id":358,"name":"SteveC","steam_id":76561197994786195,"connected_time":512000000000,"state":"active","ping":65},{"user_id":275,"name":"totally not a pile of beans","steam_id":76561198119851931,"connected_time":6489000000000,"state":"active","ping":76},{"user_id":346,"name":"ThatOneKnight","steam_id":76561198388583650,"connected_time":1837000000000,"state":"active","ping":56},{"user_id":356,"name":"exten-z","steam_id":76561198004359190,"connected_time":656000000000,"state":"active","ping":48},{"user_id":354,"name":"Dokkibai","steam_id":76561198355935693,"connected_time":879000000000,"state":"active","ping":47},{"user_id":355,"name":"Womanwer","steam_id":76561198194760222,"connected_time":873000000000,"state":"active","ping":90},{"user_id":351,"name":"Shulgin_4-HO_MET","steam_id":76561198038784254,"connected_time":1260000000000,"state":"active","ping":60},{"user_id":347,"name":"Maurdakar","steam_id":76561197983420976,"connected_time":1827000000000,"state":"active","ping":69},{"user_id":329,"name":"Colin102004","steam_id":76561198202384334,"connected_time":3175000000000,"state":"active","ping":57},{"user_id":360,"name":"RollingCow","steam_id":76561198067114237,"connected_time":369000000000,"state":"active","ping":88},{"user_id":330,"name":"nobody","steam_id":76561198148059714,"connected_time":3165000000000,"state":"active","ping":72},{"user_id":348,"name":"Syndra's Futa Balls","steam_id":76561198058671296,"connected_time":1760000000000,"state":"active","ping":60}]},{"server_id":403,"name":"Uncletopia | Chicago | 4 | All Maps","name_short":"chi-4","host":"chi-1.us.uncletopia.com","port":27045,"enabled":true,"region":"us-central","cc":"us","latitude":41.881832,"longitude":-87.62318,"reserved":0,"last_update":"0001-01-01T00:00:00Z","name_a2s":"Uncletopia | Chicago | 4 | All Maps","protocol":17,"map":"pl_frontier_final","folder":"tf","game":"Team Fortress","app_id":440,"player_count":12,"max_players":24,"Bots":0,"server_type":"Dedicated","server_os":"Linux","password":true,"vac":true,"version":"7961495","steam_id":85568392924515193,"keywords":["nocrits","nodmgspread","payload","uncletopia"],"game_id":440,"stv_port":27046,"stv_name":"Uncletopia | Chicago | 4 | All Maps | STV","players":[{"user_id":360,"name":"Scarryo","steam_id":76561198069909083,"connected_time":10000000000,"state":"active","ping":78},{"user_id":355,"name":"Good Teammate","steam_id":76561198140604297,"connected_time":216000000000,"state":"active","ping":65},{"user_id":321,"name":"NovaSc6ut","steam_id":76561198277163301,"connected_time":2665000000000,"state":"active","ping":63},{"user_id":356,"name":"RusticCarp42989","steam_id":76561198361151865,"connected_time":191000000000,"state":"active","ping":121},{"user_id":306,"name":"StudioMania (#SAVETF2)","steam_id":76561198211315795,"connected_time":5443000000000,"state":"active","ping":66},{"user_id":259,"name":"Oogie (OddMonster)","steam_id":76561198026802918,"connected_time":9616000000000,"state":"active","ping":81},{"user_id":357,"name":"SiltyStar85","steam_id":76561198309175923,"connected_time":184000000000,"state":"active","ping":75},{"user_id":333,"name":"--_Cook_--","steam_id":76561198080855748,"connected_time":1233000000000,"state":"active","ping":74},{"user_id":350,"name":"Bingus esq.","steam_id":76561198959824394,"connected_time":726000000000,"state":"active","ping":61},{"user_id":343,"name":"Dusken","steam_id":76561198020696265,"connected_time":1063000000000,"state":"active","ping":62},{"user_id":329,"name":"C Papi","steam_id":76561198027779564,"connected_time":1638000000000,"state":"active","ping":49},{"user_id":345,"name":"SwaggyDingo","steam_id":76561198066500928,"connected_time":1053000000000,"state":"active","ping":114}]},{"server_id":36,"name":"Uncletopia | Chicago | 5 | All Maps","name_short":"chi-5","host":"chi-2.us.uncletopia.com","port":27015,"enabled":true,"region":"us-central","cc":"us","latitude":41.881832,"longitude":-87.62318,"reserved":0,"last_update":"0001-01-01T00:00:00Z","name_a2s":"Uncletopia | Chicago | 5 | All Maps","protocol":17,"map":"pl_swiftwater_final1","folder":"tf","game":"Team Fortress","app_id":440,"player_count":23,"max_players":24,"Bots":0,"server_type":"Dedicated","server_os":"Linux","password":true,"vac":true,"version":"7961495","steam_id":85568392924866362,"keywords":["nocrits","nodmgspread","payload","uncletopia"],"game_id":440,"stv_port":27016,"stv_name":"Uncletopia | Chicago | 5 | All Maps | STV","players":[{"user_id":287,"name":"Moss","steam_id":76561198200421851,"connected_time":3274000000000,"state":"active","ping":127},{"user_id":324,"name":"GENOCIDE","steam_id":76561198190587246,"connected_time":45000000000,"state":"active","ping":89},{"user_id":286,"name":"TheWhoman","steam_id":76561198103921750,"connected_time":3309000000000,"state":"active","ping":108},{"user_id":304,"name":"DeQuan Nigglesquirt","steam_id":76561198152179656,"connected_time":989000000000,"state":"active","ping":59},{"user_id":305,"name":"WaveSmash","steam_id":76561198208785485,"connected_time":987000000000,"state":"active","ping":83},{"user_id":306,"name":"genghis khan","steam_id":76561198213767636,"connected_time":976000000000,"state":"active","ping":65},{"user_id":323,"name":"Rudy","steam_id":76561198013456828,"connected_time":98000000000,"state":"active","ping":69},{"user_id":308,"name":"Luci★Fer","steam_id":76561199030343810,"connected_time":827000000000,"state":"active","ping":60},{"user_id":301,"name":"Team Fartpiss Poo","steam_id":76561199163591880,"connected_time":1799000000000,"state":"active","ping":92},{"user_id":257,"name":"Voodo133","steam_id":76561198042670351,"connected_time":5038000000000,"state":"active","ping":88},{"user_id":309,"name":"MayKay","steam_id":76561199016092265,"connected_time":703000000000,"state":"active","ping":98},{"user_id":264,"name":"sleepy","steam_id":76561198255015060,"connected_time":4757000000000,"state":"active","ping":99},{"user_id":311,"name":"HeHedron","steam_id":76561199199667164,"connected_time":689000000000,"state":"active","ping":140},{"user_id":266,"name":"Fruity","steam_id":76561198999674564,"connected_time":4731000000000,"state":"active","ping":86},{"user_id":312,"name":"cutie","steam_id":76561198153438537,"connected_time":639000000000,"state":"active","ping":105},{"user_id":313,"name":"Julius Pringle","steam_id":76561198189330642,"connected_time":635000000000,"state":"active","ping":101},{"user_id":314,"name":"Assitins","steam_id":76561198041572892,"connected_time":607000000000,"state":"active","ping":64},{"user_id":317,"name":"mop","steam_id":76561198083853538,"connected_time":583000000000,"state":"active","ping":78},{"user_id":293,"name":"Superskill","steam_id":76561198246266134,"connected_time":2833000000000,"state":"active","ping":90},{"user_id":252,"name":"Sahalanthro","steam_id":76561199073298722,"connected_time":5345000000000,"state":"active","ping":90},{"user_id":316,"name":"Charlie","steam_id":76561199098209171,"connected_time":604000000000,"state":"active","ping":76},{"user_id":280,"name":"imagine no burger","steam_id":76561198149666258,"connected_time":3824000000000,"state":"active","ping":71},{"user_id":297,"name":"I Must Frag","steam_id":76561198909415646,"connected_time":2208000000000,"state":"active","ping":77}]},{"server_id":37,"name":"Uncletopia | Chicago | 6 | All Maps","name_short":"chi-6","host":"chi-2.us.uncletopia.com","port":27025,"enabled":true,"region":"us-central","cc":"us","latitude":41.881832,"longitude":-87.62318,"reserved":0,"last_update":"0001-01-01T00:00:00Z","name_a2s":"Uncletopia | Chicago | 6 | All Maps","protocol":17,"map":"cp_altitude","folder":"tf","game":"Team Fortress","app_id":440,"player_count":0,"max_players":24,"Bots":0,"server_type":"Dedicated","server_os":"Linux","password":true,"vac":true,"version":"7961495","steam_id":85568392924866363,"keywords":["cp","nocrits","nodmgspread","uncletopia"],"game_id":440,"stv_port":27026,"stv_name":"Uncletopia | Chicago | 6 | All Maps | STV","players":null},{"server_id":38,"name":"Uncletopia | Chicago | 7 | Stopwatch","name_short":"chi-7","host":"chi-2.us.uncletopia.com","port":27035,"enabled":true,"region":"us-central","cc":"us","latitude":41.881832,"longitude":-87.62318,"reserved":0,"last_update":"0001-01-01T00:00:00Z","name_a2s":"Uncletopia | Chicago | 7 | Stopwatch","protocol":17,"map":"cp_process_final","folder":"tf","game":"Team Fortress","app_id":440,"player_count":0,"max_players":24,"Bots":0,"server_type":"Dedicated","server_os":"Linux","password":true,"vac":true,"version":"7961495","steam_id":85568392924866364,"keywords":["cp","nocrits","nodmgspread","uncletopia"],"game_id":440,"stv_port":27036,"stv_name":"Uncletopia | Chicago | 7 | Stopwatch | STV","players":null},{"server_id":39,"name":"Uncletopia | Chicago | 8 | Community","name_short":"chi-8","host":"chi-2.us.uncletopia.com","port":27045,"enabled":true,"region":"us-central","cc":"us","latitude":41.881832,"longitude":-87.62318,"reserved":0,"last_update":"0001-01-01T00:00:00Z","name_a2s":"Uncletopia | Chicago | 8 | Community","protocol":17,"map":"workshop/koth_synthetic_rc6a.ugc1549817316","folder":"tf","game":"Team Fortress","app_id":440,"player_count":0,"max_players":24,"Bots":0,"server_type":"Dedicated","server_os":"Linux","password":true,"vac":true,"version":"7961495","steam_id":85568392924866365,"keywords":["cp","nocrits","nodmgspread","uncletopia"],"game_id":440,"stv_port":27046,"stv_name":"Uncletopia | Chicago | 8 | Community | STV","players":null},{"server_id":8,"name":"Uncletopia | Dallas | 1 | All Maps","name_short":"dal-1","host":"dal-1.us.uncletopia.com","port":27015,"enabled":true,"region":"us-central","cc":"us","latitude":32.779167,"longitude":-96.80889,"reserved":0,"last_update":"0001-01-01T00:00:00Z","name_a2s":"Uncletopia | Dallas | 1 | All Maps","protocol":17,"map":"pl_thundermountain","folder":"tf","game":"Team Fortress","app_id":440,"player_count":24,"max_players":24,"Bots":0,"server_type":"Dedicated","server_os":"Linux","password":true,"vac":true,"version":"7961495","steam_id":85568392924469986,"keywords":["nocrits","nodmgspread","payload","uncletopia"],"game_id":440,"stv_port":27016,"stv_name":"Uncletopia | Dallas | 1 | All Maps | STV","players":[{"user_id":239,"name":"elcarlos1010","steam_id":76561198201986832,"connected_time":534000000000,"state":"active","ping":59},{"user_id":197,"name":"Franticraven177","steam_id":76561198334105579,"connected_time":4002000000000,"state":"active","ping":76},{"user_id":246,"name":"Valenhart","steam_id":76561198354036240,"connected_time":135000000000,"state":"active","ping":79},{"user_id":206,"name":"Bottom Fragger","steam_id":76561198044071055,"connected_time":2954000000000,"state":"active","ping":80},{"user_id":169,"name":"hollywood hill here!","steam_id":76561198009959034,"connected_time":6922000000000,"state":"active","ping":57},{"user_id":221,"name":"Dax","steam_id":76561198045549713,"connected_time":2296000000000,"state":"active","ping":66},{"user_id":240,"name":"Minislaughtr","steam_id":76561198044481155,"connected_time":487000000000,"state":"active","ping":73},{"user_id":191,"name":"Brody Yukin","steam_id":76561198084712019,"connected_time":4622000000000,"state":"active","ping":80},{"user_id":175,"name":"caiptaincreemo","steam_id":76561198221714116,"connected_time":6360000000000,"state":"active","ping":58},{"user_id":230,"name":"Donkski","steam_id":76561198406895347,"connected_time":1328000000000,"state":"active","ping":69},{"user_id":241,"name":"Nortel Network Telephone T7316","steam_id":76561198399261089,"connected_time":461000000000,"state":"active","ping":76},{"user_id":244,"name":"frank","steam_id":76561198137777483,"connected_time":307000000000,"state":"active","ping":89},{"user_id":245,"name":"drevott74","steam_id":76561199262592779,"connected_time":295000000000,"state":"active","ping":91},{"user_id":233,"name":"krebex","steam_id":76561198004660630,"connected_time":852000000000,"state":"active","ping":58},{"user_id":223,"name":"Michael Fettuccine","steam_id":76561198056953903,"connected_time":2289000000000,"state":"active","ping":82},{"user_id":218,"name":"A Person","steam_id":76561199012851944,"connected_time":2465000000000,"state":"active","ping":86},{"user_id":204,"name":"yesod","steam_id":76561198212866289,"connected_time":3359000000000,"state":"active","ping":87},{"user_id":227,"name":"Look a Bird","steam_id":76561198016294724,"connected_time":2091000000000,"state":"active","ping":80},{"user_id":194,"name":"Pile of Spinach","steam_id":76561198043068841,"connected_time":4584000000000,"state":"active","ping":83},{"user_id":159,"name":"barker bill","steam_id":76561198018451994,"connected_time":8077000000000,"state":"active","ping":61},{"user_id":172,"name":"Evil little man","steam_id":76561198311053471,"connected_time":6855000000000,"state":"active","ping":59},{"user_id":216,"name":"Fish","steam_id":76561198818620540,"connected_time":2541000000000,"state":"active","ping":61},{"user_id":202,"name":"The CEO of cement","steam_id":76561199107177460,"connected_time":3931000000000,"state":"active","ping":100},{"user_id":228,"name":"Bogey","steam_id":76561198096227944,"connected_time":1616000000000,"state":"active","ping":48}]},{"server_id":108,"name":"Uncletopia | Dallas | 2 | All Maps","name_short":"dal-2","host":"dal-1.us.uncletopia.com","port":27025,"enabled":true,"region":"us-central","cc":"us","latitude":32.779167,"longitude":-96.80889,"reserved":0,"last_update":"0001-01-01T00:00:00Z","name_a2s":"Uncletopia | Dallas | 2 | All Maps","protocol":17,"map":"cp_dustbowl","folder":"tf","game":"Team Fortress","app_id":440,"player_count":24,"max_players":24,"Bots":0,"server_type":"Dedicated","server_os":"Linux","password":true,"vac":true,"version":"7961495","steam_id":85568392924469988,"keywords":["cp","nocrits","nodmgspread","uncletopia"],"game_id":440,"stv_port":27026,"stv_name":"Uncletopia | Dallas | 2 | All Maps | STV","players":[{"user_id":450,"name":"Agent BSoD","steam_id":76561198050346368,"connected_time":105000000000,"state":"active","ping":95},{"user_id":309,"name":"C4K3","steam_id":76561197996963285,"connected_time":6135000000000,"state":"active","ping":63},{"user_id":445,"name":"Mike Bean Burritos","steam_id":76561198173430607,"connected_time":314000000000,"state":"active","ping":106},{"user_id":443,"name":"Shitty Pilot","steam_id":76561198042723469,"connected_time":401000000000,"state":"active","ping":56},{"user_id":348,"name":"dumbeeon","steam_id":76561198059351874,"connected_time":2770000000000,"state":"active","ping":81},{"user_id":436,"name":"Rat Smacker","steam_id":76561198043629646,"connected_time":993000000000,"state":"active","ping":58},{"user_id":431,"name":"Lagarto_comun","steam_id":76561198970173569,"connected_time":1043000000000,"state":"active","ping":85},{"user_id":317,"name":"Romeo","steam_id":76561198057889522,"connected_time":4462000000000,"state":"active","ping":95},{"user_id":267,"name":"stuffedidiot","steam_id":76561199181513019,"connected_time":9623000000000,"state":"active","ping":178},{"user_id":441,"name":"jneubauer1620","steam_id":76561199228634006,"connected_time":450000000000,"state":"active","ping":80},{"user_id":310,"name":"Gelisor","steam_id":76561198001581101,"connected_time":6132000000000,"state":"active","ping":112},{"user_id":444,"name":"Squigly","steam_id":76561198084811625,"connected_time":381000000000,"state":"active","ping":72},{"user_id":432,"name":"Genderneutron","steam_id":76561199022773775,"connected_time":1029000000000,"state":"active","ping":82},{"user_id":446,"name":"Snoman","steam_id":76561197969248675,"connected_time":293000000000,"state":"active","ping":73},{"user_id":439,"name":"HalfDead","steam_id":76561198049700226,"connected_time":592000000000,"state":"active","ping":100},{"user_id":325,"name":"Pinetree w/ apples.","steam_id":76561198105411709,"connected_time":3969000000000,"state":"active","ping":111},{"user_id":447,"name":"Kirby","steam_id":76561199161858008,"connected_time":273000000000,"state":"active","ping":71},{"user_id":332,"name":"little orange juice","steam_id":76561198245246892,"connected_time":3030000000000,"state":"active","ping":106},{"user_id":435,"name":"Sweater-Fan","steam_id":76561199389567214,"connected_time":1014000000000,"state":"active","ping":70},{"user_id":319,"name":"Luffliet.","steam_id":76561198186593707,"connected_time":4456000000000,"state":"active","ping":55},{"user_id":302,"name":"θάνατος χωρίς όν","steam_id":76561198021308963,"connected_time":6348000000000,"state":"active","ping":69},{"user_id":448,"name":"Tuffy","steam_id":76561198083778611,"connected_time":272000000000,"state":"active","ping":75},{"user_id":421,"name":"RC","steam_id":76561198048127881,"connected_time":1211000000000,"state":"active","ping":60},{"user_id":315,"name":"anonEDM","steam_id":76561197976560316,"connected_time":4681000000000,"state":"active","ping":100}]},{"server_id":404,"name":"Uncletopia | Dallas | 3 | All Maps","name_short":"dal-3","host":"dal-1.us.uncletopia.com","port":27035,"enabled":true,"region":"us-central","cc":"us","latitude":32.779167,"longitude":-96.80889,"reserved":0,"last_update":"0001-01-01T00:00:00Z","name_a2s":"Uncletopia | Dallas | 3 | All Maps","protocol":17,"map":"koth_cascade","folder":"tf","game":"Team Fortress","app_id":440,"player_count":0,"max_players":24,"Bots":0,"server_type":"Dedicated","server_os":"Linux","password":true,"vac":true,"version":"7961495","steam_id":85568392924515219,"keywords":["cp","nocrits","nodmgspread","uncletopia"],"game_id":440,"stv_port":27036,"stv_name":"Uncletopia | Dallas | 3 | All Maps | STV","players":null},{"server_id":405,"name":"Uncletopia | Dallas | 4 | Community","name_short":"dal-4","host":"dal-1.us.uncletopia.com","port":27045,"enabled":true,"region":"us-central","cc":"us","latitude":32.779167,"longitude":-96.80889,"reserved":0,"last_update":"0001-01-01T00:00:00Z","name_a2s":"Uncletopia | Dallas | 4 | Community","protocol":17,"map":"workshop/pl_fifthcurve_rc1.ugc648227046","folder":"tf","game":"Team Fortress","app_id":440,"player_count":0,"max_players":24,"Bots":0,"server_type":"Dedicated","server_os":"Linux","password":true,"vac":true,"version":"7961495","steam_id":85568392924515220,"keywords":["nocrits","nodmgspread","payload","uncletopia"],"game_id":440,"stv_port":27046,"stv_name":"Uncletopia | Dallas | 4 | Community | STV","players":null},{"server_id":5,"name":"Uncletopia | Frankfurt | 1 | All Maps","name_short":"frk-1","host":"frk-1.de.uncletopia.com","port":27015,"enabled":true,"region":"eu","cc":"de","latitude":50.110924,"longitude":8.682127,"reserved":0,"last_update":"0001-01-01T00:00:00Z","name_a2s":"Uncletopia | Frankfurt | 1 | All Maps","protocol":17,"map":"koth_highpass","folder":"tf","game":"Team Fortress","app_id":440,"player_count":0,"max_players":24,"Bots":0,"server_type":"Dedicated","server_os":"Linux","password":true,"vac":true,"version":"7961495","steam_id":85568392924469989,"keywords":["cp","nocrits","nodmgspread","uncletopia"],"game_id":440,"stv_port":27016,"stv_name":"Uncletopia | Frankfurt | 1 | All Maps | STV","players":null},{"server_id":110,"name":"Uncletopia | Frankfurt | 2 | All Maps","name_short":"frk-2","host":"frk-1.de.uncletopia.com","port":27025,"enabled":true,"region":"eu","cc":"de","latitude":50.110924,"longitude":8.682127,"reserved":0,"last_update":"0001-01-01T00:00:00Z","name_a2s":"Uncletopia | Frankfurt | 2 | All Maps","protocol":17,"map":"cp_dustbowl","folder":"tf","game":"Team Fortress","app_id":440,"player_count":0,"max_players":24,"Bots":0,"server_type":"Dedicated","server_os":"Linux","password":true,"vac":true,"version":"7961495","steam_id":85568392924469990,"keywords":["cp","nocrits","nodmgspread","uncletopia"],"game_id":440,"stv_port":27026,"stv_name":"Uncletopia | Frankfurt | 2 | All Maps | STV","players":null},{"server_id":308,"name":"Uncletopia | Frankfurt | 3 | All Maps","name_short":"frk-3","host":"frk-1.de.uncletopia.com","port":27035,"enabled":true,"region":"eu","cc":"de","latitude":50.110924,"longitude":8.682127,"reserved":0,"last_update":"0001-01-01T00:00:00Z","name_a2s":"Uncletopia | Frankfurt | 3 | All Maps","protocol":17,"map":"pl_barnblitz","folder":"tf","game":"Team Fortress","app_id":440,"player_count":0,"max_players":24,"Bots":0,"server_type":"Dedicated","server_os":"Linux","password":true,"vac":true,"version":"7961495","steam_id":85568392924504274,"keywords":["nocrits","nodmgspread","payload","uncletopia"],"game_id":440,"stv_port":27036,"stv_name":"Uncletopia | Frankfurt | 3 | All Maps | STV","players":null},{"server_id":309,"name":"Uncletopia | Frankfurt | 4 | All Maps","name_short":"frk-4","host":"frk-1.de.uncletopia.com","port":27045,"enabled":true,"region":"eu","cc":"de","latitude":50.110924,"longitude":8.682127,"reserved":0,"last_update":"0001-01-01T00:00:00Z","name_a2s":"Uncletopia | Frankfurt | 4 | All Maps","protocol":17,"map":"koth_highpass","folder":"tf","game":"Team Fortress","app_id":440,"player_count":0,"max_players":24,"Bots":0,"server_type":"Dedicated","server_os":"Linux","password":true,"vac":true,"version":"7961495","steam_id":85568392924504275,"keywords":["cp","nocrits","nodmgspread","uncletopia"],"game_id":440,"stv_port":27046,"stv_name":"Uncletopia | Frankfurt | 4 | All Maps | STV","players":null},{"server_id":310,"name":"Uncletopia | Frankfurt | 5 | All Maps","name_short":"frk-5","host":"frk-1.de.uncletopia.com","port":27055,"enabled":true,"region":"eu","cc":"de","latitude":50.110924,"longitude":8.682127,"reserved":0,"last_update":"0001-01-01T00:00:00Z","name_a2s":"Uncletopia | Frankfurt | 5 | All Maps","protocol":17,"map":"pl_badwater","folder":"tf","game":"Team Fortress","app_id":440,"player_count":0,"max_players":24,"Bots":0,"server_type":"Dedicated","server_os":"Linux","password":true,"vac":true,"version":"7961495","steam_id":85568392924504277,"keywords":["nocrits","nodmgspread","payload","uncletopia"],"game_id":440,"stv_port":27056,"stv_name":"Uncletopia | Frankfurt | 5 | All Maps | STV","players":null},{"server_id":311,"name":"Uncletopia | Frankfurt | 6 | All Maps","name_short":"frk-6","host":"frk-1.de.uncletopia.com","port":27065,"enabled":true,"region":"eu","cc":"de","latitude":50.110924,"longitude":8.682127,"reserved":0,"last_update":"0001-01-01T00:00:00Z","name_a2s":"Uncletopia | Frankfurt | 6 | All Maps","protocol":17,"map":"cp_altitude","folder":"tf","game":"Team Fortress","app_id":440,"player_count":0,"max_players":24,"Bots":0,"server_type":"Dedicated","server_os":"Linux","password":true,"vac":true,"version":"7961495","steam_id":85568392924504278,"keywords":["cp","nocrits","nodmgspread","uncletopia"],"game_id":440,"stv_port":27066,"stv_name":"Uncletopia | Frankfurt | 6 | All Maps | STV","players":null},{"server_id":23,"name":"Uncletopia | Frankfurt | 7 | Stopwatch","name_short":"frk-7","host":"frk-1.de.uncletopia.com","port":27075,"enabled":true,"region":"eu","cc":"de","latitude":50.110924,"longitude":8.682127,"reserved":0,"last_update":"0001-01-01T00:00:00Z","name_a2s":"Uncletopia | Frankfurt | 7 | Stopwatch","protocol":17,"map":"pl_frontier_final","folder":"tf","game":"Team Fortress","app_id":440,"player_count":0,"max_players":24,"Bots":0,"server_type":"Dedicated","server_os":"Linux","password":true,"vac":true,"version":"7961495","steam_id":85568392924742827,"keywords":["nocrits","nodmgspread","payload","uncletopia"],"game_id":440,"stv_port":27076,"stv_name":"Uncletopia | Frankfurt | 7 | Stopwatch | STV","players":null},{"server_id":24,"name":"Uncletopia | Frankfurt | 8 | Community","name_short":"frk-8","host":"frk-1.de.uncletopia.com","port":27085,"enabled":true,"region":"eu","cc":"de","latitude":50.110924,"longitude":8.682127,"reserved":0,"last_update":"0001-01-01T00:00:00Z","name_a2s":"Uncletopia | Frankfurt | 8 | Community","protocol":17,"map":"cp_mountainlab","folder":"tf","game":"Team Fortress","app_id":440,"player_count":0,"max_players":24,"Bots":0,"server_type":"Dedicated","server_os":"Linux","password":true,"vac":true,"version":"7961495","steam_id":85568392924742828,"keywords":["cp","nocrits","nodmgspread","uncletopia"],"game_id":440,"stv_port":27086,"stv_name":"Uncletopia | Frankfurt | 8 | Community | STV","players":null},{"server_id":202,"name":"Uncletopia | Hong Kong | 1 | All Maps","name_short":"hgk-1","host":"hgk-1.hk.uncletopia.com","port":27015,"enabled":true,"region":"asia","cc":"hk","latitude":22.302711,"longitude":114.177216,"reserved":0,"last_update":"0001-01-01T00:00:00Z","name_a2s":"Uncletopia | Hong Kong | 1 | All Maps","protocol":17,"map":"cp_dustbowl","folder":"tf","game":"Team Fortress","app_id":440,"player_count":1,"max_players":24,"Bots":0,"server_type":"Dedicated","server_os":"Linux","password":true,"vac":true,"version":"7961495","steam_id":85568392924494504,"keywords":["cp","nocrits","nodmgspread","uncletopia"],"game_id":440,"stv_port":27016,"stv_name":"Uncletopia | Hong Kong | 1 | All Maps | STV","players":[{"user_id":15,"name":"Asha","steam_id":76561199237432540,"connected_time":24000000000,"state":"active","ping":93}]},{"server_id":1,"name":"Uncletopia | Los Angeles | 1 | All Maps","name_short":"lax-1","host":"lax-1.us.uncletopia.com","port":27015,"enabled":true,"region":"us-west","cc":"us","latitude":33.94279,"longitude":-118.41004,"reserved":0,"last_update":"0001-01-01T00:00:00Z","name_a2s":"Uncletopia | Los Angeles | 1 | All Maps","protocol":17,"map":"pl_badwater","folder":"tf","game":"Team Fortress","app_id":440,"player_count":24,"max_players":24,"Bots":0,"server_type":"Dedicated","server_os":"Linux","password":true,"vac":true,"version":"7961495","steam_id":85568392924469991,"keywords":["nocrits","nodmgspread","payload","uncletopia"],"game_id":440,"stv_port":27016,"stv_name":"Uncletopia | Los Angeles | 1 | All Maps | STV","players":[{"user_id":594,"name":"Five","steam_id":76561198026640473,"connected_time":211000000000,"state":"active","ping":60},{"user_id":561,"name":"meph","steam_id":76561198149683030,"connected_time":3097000000000,"state":"active","ping":69},{"user_id":592,"name":"Evelyn! (she/her)","steam_id":76561198881145760,"connected_time":475000000000,"state":"active","ping":45},{"user_id":566,"name":"erm... krill yourself?","steam_id":76561198095121758,"connected_time":2855000000000,"state":"active","ping":53},{"user_id":562,"name":"Humble Learner","steam_id":76561198066091050,"connected_time":3087000000000,"state":"active","ping":87},{"user_id":540,"name":"VP of Gucci","steam_id":76561198281968441,"connected_time":4552000000000,"state":"active","ping":97},{"user_id":577,"name":"Dullahan","steam_id":76561198119668908,"connected_time":2240000000000,"state":"active","ping":57},{"user_id":582,"name":"HeroOfTime","steam_id":76561199096218001,"connected_time":1885000000000,"state":"active","ping":58},{"user_id":524,"name":"MORE BOUNCE TO THE OUNCE","steam_id":76561198243399336,"connected_time":5456000000000,"state":"active","ping":74},{"user_id":585,"name":"Sonny","steam_id":76561198042243689,"connected_time":1493000000000,"state":"active","ping":55},{"user_id":595,"name":"Katie_Fox","steam_id":76561198285289776,"connected_time":117000000000,"state":"active","ping":125},{"user_id":549,"name":"Toasterduds","steam_id":76561198163477584,"connected_time":3784000000000,"state":"active","ping":66},{"user_id":565,"name":"Tohubohu","steam_id":76561198077838448,"connected_time":3037000000000,"state":"active","ping":60},{"user_id":578,"name":"GreenApples","steam_id":76561198120559543,"connected_time":2236000000000,"state":"active","ping":59},{"user_id":557,"name":"zoinks","steam_id":76561198127238003,"connected_time":3333000000000,"state":"active","ping":55},{"user_id":579,"name":"FastestPizzaNA","steam_id":76561198050008896,"connected_time":2167000000000,"state":"active","ping":71},{"user_id":581,"name":"Grungus","steam_id":76561198047700230,"connected_time":2028000000000,"state":"active","ping":60},{"user_id":584,"name":"Mr. Luggy","steam_id":76561198072723392,"connected_time":1721000000000,"state":"active","ping":55},{"user_id":591,"name":"tom myers comedian","steam_id":76561198004619616,"connected_time":564000000000,"state":"active","ping":57},{"user_id":531,"name":"john.","steam_id":76561198982939658,"connected_time":5157000000000,"state":"active","ping":61},{"user_id":596,"name":"SoldMyKidneyForCollege","steam_id":76561198096329559,"connected_time":115000000000,"state":"active","ping":55},{"user_id":589,"name":"gyat","steam_id":76561198043684960,"connected_time":1115000000000,"state":"active","ping":80},{"user_id":558,"name":"lol","steam_id":76561198026491738,"connected_time":3261000000000,"state":"active","ping":71},{"user_id":580,"name":"MONKEY | videogamer1002","steam_id":76561198157110599,"connected_time":2119000000000,"state":"active","ping":91}]},{"server_id":112,"name":"Uncletopia | Los Angeles | 2 | All Maps","name_short":"lax-2","host":"lax-1.us.uncletopia.com","port":27025,"enabled":true,"region":"us-west","cc":"us","latitude":33.94279,"longitude":-118.41004,"reserved":0,"last_update":"0001-01-01T00:00:00Z","name_a2s":"Uncletopia | Los Angeles | 2 | All Maps","protocol":17,"map":"pl_frontier_final","folder":"tf","game":"Team Fortress","app_id":440,"player_count":25,"max_players":24,"Bots":0,"server_type":"Dedicated","server_os":"Linux","password":true,"vac":true,"version":"7961495","steam_id":85568392924469992,"keywords":["nocrits","nodmgspread","payload","uncletopia"],"game_id":440,"stv_port":27026,"stv_name":"Uncletopia | Los Angeles | 2 | All Maps | STV","players":[{"user_id":189,"name":"MaDeuce","steam_id":76561198110732835,"connected_time":3865000000000,"state":"active","ping":78},{"user_id":231,"name":"Seshreb","steam_id":76561198846614634,"connected_time":792000000000,"state":"active","ping":61},{"user_id":234,"name":"topp","steam_id":76561198365577271,"connected_time":419000000000,"state":"active","ping":58},{"user_id":225,"name":"Jurls","steam_id":76561198138077990,"connected_time":1291000000000,"state":"active","ping":87},{"user_id":235,"name":"Starfruit66","steam_id":76561198069917277,"connected_time":406000000000,"state":"active","ping":50},{"user_id":207,"name":"Nez","steam_id":76561197963109059,"connected_time":2721000000000,"state":"active","ping":69},{"user_id":232,"name":"ThatOneNooberax","steam_id":76561198263304196,"connected_time":695000000000,"state":"active","ping":45},{"user_id":176,"name":"Professor Prostate","steam_id":76561198053117503,"connected_time":4687000000000,"state":"active","ping":86},{"user_id":233,"name":"An00bis","steam_id":76561198044084508,"connected_time":450000000000,"state":"active","ping":57},{"user_id":226,"name":"Daikaiju15","steam_id":76561198383955066,"connected_time":1290000000000,"state":"active","ping":94},{"user_id":174,"name":"❤ Ashley ❤","steam_id":76561198056428303,"connected_time":4951000000000,"state":"active","ping":49},{"user_id":236,"name":"supcupman","steam_id":76561198051513866,"connected_time":262000000000,"state":"active","ping":71},{"user_id":237,"name":"un-flipped shoes","steam_id":76561198045964573,"connected_time":194000000000,"state":"active","ping":59},{"user_id":192,"name":"MelatoninRonin","steam_id":76561198128187664,"connected_time":3847000000000,"state":"active","ping":115},{"user_id":213,"name":"Jimmy","steam_id":76561198857959855,"connected_time":2118000000000,"state":"active","ping":44},{"user_id":238,"name":"Mr Beast","steam_id":76561198100385184,"connected_time":139000000000,"state":"active","ping":56},{"user_id":223,"name":"Prsm","steam_id":76561198053344995,"connected_time":1614000000000,"state":"active","ping":102},{"user_id":239,"name":"jwilliam.lei","steam_id":76561199488163989,"connected_time":129000000000,"state":"active","ping":84},{"user_id":129,"name":"Pheonix Fel Dragon","steam_id":76561198164974227,"connected_time":7971000000000,"state":"active","ping":78},{"user_id":173,"name":"self sufficient kitten","steam_id":76561197960592612,"connected_time":4971000000000,"state":"active","ping":75},{"user_id":201,"name":"Owl_eyes","steam_id":76561198066199203,"connected_time":3040000000000,"state":"active","ping":68},{"user_id":188,"name":"HopeTheNeko","steam_id":76561199159285465,"connected_time":4007000000000,"state":"active","ping":60},{"user_id":210,"name":"Pie","steam_id":76561198054721133,"connected_time":2625000000000,"state":"active","ping":56},{"user_id":240,"name":"KaiserArc","steam_id":76561198201702142,"connected_time":53000000000,"state":"connecting","ping":0},{"user_id":241,"name":"ShadowZiki","steam_id":76561198145930013,"connected_time":0,"state":"connecting","ping":0}]},{"server_id":324,"name":"Uncletopia | Los Angeles | 3 | All Maps","name_short":"lax-3","host":"lax-1.us.uncletopia.com","port":27035,"enabled":true,"region":"us-west","cc":"us","latitude":33.94279,"longitude":-118.41004,"reserved":0,"last_update":"0001-01-01T00:00:00Z","name_a2s":"Uncletopia | Los Angeles | 3 | All Maps","protocol":17,"map":"koth_lakeside_final","folder":"tf","game":"Team Fortress","app_id":440,"player_count":0,"max_players":24,"Bots":0,"server_type":"Dedicated","server_os":"Linux","password":true,"vac":true,"version":"7961495","steam_id":85568392924510198,"keywords":["cp","nocrits","nodmgspread","uncletopia"],"game_id":440,"stv_port":27036,"stv_name":"Uncletopia | Los Angeles | 3 | All Maps | STV","players":null},{"server_id":25,"name":"Uncletopia | Los Angeles | 4 | Stopwatch","name_short":"lax-4","host":"lax-1.us.uncletopia.com","port":27045,"enabled":true,"region":"us-west","cc":"us","latitude":33.94279,"longitude":-118.41004,"reserved":0,"last_update":"0001-01-01T00:00:00Z","name_a2s":"Uncletopia | Los Angeles | 4 | Stopwatch","protocol":17,"map":"koth_lakeside_final","folder":"tf","game":"Team Fortress","app_id":440,"player_count":0,"max_players":24,"Bots":0,"server_type":"Dedicated","server_os":"Linux","password":true,"vac":true,"version":"7961495","steam_id":85568392924510199,"keywords":["cp","nocrits","nodmgspread","uncletopia"],"game_id":440,"stv_port":27046,"stv_name":"Uncletopia | Los Angeles | 4 | Stopwatch | STV","players":null},{"server_id":11,"name":"Uncletopia | London | 1 | All Maps","name_short":"lon-1","host":"lon-1.uk.uncletopia.com","port":27015,"enabled":true,"region":"eu","cc":"gb","latitude":51.509865,"longitude":-0.118092,"reserved":0,"last_update":"0001-01-01T00:00:00Z","name_a2s":"Uncletopia | London | 1 | All Maps","protocol":17,"map":"cp_process_final","folder":"tf","game":"Team Fortress","app_id":440,"player_count":0,"max_players":24,"Bots":0,"server_type":"Dedicated","server_os":"Linux","password":true,"vac":true,"version":"7961495","steam_id":85568392924367362,"keywords":["cp","nocrits","nodmgspread","uncletopia"],"game_id":440,"stv_port":27016,"stv_name":"Uncletopia | London | 1 | All Maps | STV","players":null},{"server_id":114,"name":"Uncletopia | London | 2 | All Maps","name_short":"lon-2","host":"lon-1.uk.uncletopia.com","port":27025,"enabled":true,"region":"eu","cc":"gb","latitude":51.509865,"longitude":-0.118092,"reserved":0,"last_update":"0001-01-01T00:00:00Z","name_a2s":"Uncletopia | London | 2 | All Maps","protocol":17,"map":"cp_altitude","folder":"tf","game":"Team Fortress","app_id":440,"player_count":0,"max_players":24,"Bots":0,"server_type":"Dedicated","server_os":"Linux","password":true,"vac":true,"version":"7961495","steam_id":85568392924470941,"keywords":["cp","nocrits","nodmgspread","uncletopia"],"game_id":440,"stv_port":27026,"stv_name":"Uncletopia | London | 2 | All Maps | STV","players":null},{"server_id":320,"name":"Uncletopia | London | 3 | All Maps","name_short":"lon-3","host":"lon-1.uk.uncletopia.com","port":27035,"enabled":true,"region":"eu","cc":"gb","latitude":51.509865,"longitude":-0.118092,"reserved":0,"last_update":"0001-01-01T00:00:00Z","name_a2s":"Uncletopia | London | 3 | All Maps","protocol":17,"map":"koth_cascade","folder":"tf","game":"Team Fortress","app_id":440,"player_count":0,"max_players":24,"Bots":0,"server_type":"Dedicated","server_os":"Linux","password":true,"vac":true,"version":"7961495","steam_id":85568392924510192,"keywords":["cp","nocrits","nodmgspread","uncletopia"],"game_id":440,"stv_port":27036,"stv_name":"Uncletopia | London | 3 | All Maps | STV","players":null},{"server_id":321,"name":"Uncletopia | London | 4 | All Maps","name_short":"lon-4","host":"lon-1.uk.uncletopia.com","port":27045,"enabled":true,"region":"eu","cc":"gb","latitude":51.509865,"longitude":-0.118092,"reserved":0,"last_update":"0001-01-01T00:00:00Z","name_a2s":"Uncletopia | London | 4 | All Maps","protocol":17,"map":"koth_lakeside_final","folder":"tf","game":"Team Fortress","app_id":440,"player_count":0,"max_players":24,"Bots":0,"server_type":"Dedicated","server_os":"Linux","password":true,"vac":true,"version":"7961495","steam_id":85568392924510193,"keywords":["cp","nocrits","nodmgspread","uncletopia"],"game_id":440,"stv_port":27046,"stv_name":"Uncletopia | London | 4 | All Maps | STV","players":null},{"server_id":21,"name":"Uncletopia | London | 5 | All Maps","name_short":"lon-5","host":"lon-1.uk.uncletopia.com","port":27055,"enabled":true,"region":"eu","cc":"gb","latitude":51.509865,"longitude":-0.118092,"reserved":0,"last_update":"0001-01-01T00:00:00Z","name_a2s":"Uncletopia | London | 5 | All Maps","protocol":17,"map":"pl_swiftwater_final1","folder":"tf","game":"Team Fortress","app_id":440,"player_count":4,"max_players":24,"Bots":0,"server_type":"Dedicated","server_os":"Linux","password":true,"vac":true,"version":"7961495","steam_id":85568392924742829,"keywords":["nocrits","nodmgspread","payload","uncletopia"],"game_id":440,"stv_port":27056,"stv_name":"Uncletopia | London | 5 | All Maps | STV","players":[{"user_id":771,"name":"AnalPunisher2008","steam_id":76561198137650205,"connected_time":2978000000000,"state":"active","ping":74},{"user_id":787,"name":"Bahrtzock","steam_id":76561198236255206,"connected_time":92000000000,"state":"active","ping":70},{"user_id":784,"name":"Shadow wizard","steam_id":76561198043346902,"connected_time":587000000000,"state":"active","ping":71},{"user_id":786,"name":"@KINGDRIICK","steam_id":76561198048396162,"connected_time":130000000000,"state":"active","ping":85}]},{"server_id":22,"name":"Uncletopia | London | 6 | All Maps","name_short":"lon-6","host":"lon-1.uk.uncletopia.com","port":27065,"enabled":true,"region":"eu","cc":"gb","latitude":51.509865,"longitude":-0.118092,"reserved":0,"last_update":"0001-01-01T00:00:00Z","name_a2s":"Uncletopia | London | 6 | All Maps","protocol":17,"map":"koth_highpass","folder":"tf","game":"Team Fortress","app_id":440,"player_count":0,"max_players":24,"Bots":0,"server_type":"Dedicated","server_os":"Linux","password":true,"vac":true,"version":"7961495","steam_id":85568392924742830,"keywords":["cp","nocrits","nodmgspread","uncletopia"],"game_id":440,"stv_port":27066,"stv_name":"Uncletopia | London | 6 | All Maps | STV","players":null},{"server_id":40,"name":"Uncletopia | London | 7 | Stopwatch","name_short":"lon-7","host":"lon-1.uk.uncletopia.com","port":27075,"enabled":true,"region":"eu","cc":"gb","latitude":51.509865,"longitude":-0.118092,"reserved":0,"last_update":"0001-01-01T00:00:00Z","name_a2s":"Uncletopia | London | 7 | Stopwatch","protocol":17,"map":"koth_highpass","folder":"tf","game":"Team Fortress","app_id":440,"player_count":0,"max_players":24,"Bots":0,"server_type":"Dedicated","server_os":"Linux","password":true,"vac":true,"version":"7961495","steam_id":85568392924964314,"keywords":["cp","nocrits","nodmgspread","uncletopia"],"game_id":440,"stv_port":27076,"stv_name":"Uncletopia | London | 7 | Stopwatch | STV","players":null},{"server_id":41,"name":"Uncletopia | London | 8 | Community","name_short":"lon-8","host":"lon-1.uk.uncletopia.com","port":27085,"enabled":true,"region":"eu","cc":"gb","latitude":51.509865,"longitude":-0.118092,"reserved":0,"last_update":"0001-01-01T00:00:00Z","name_a2s":"Uncletopia | London | 8 | Community","protocol":17,"map":"cp_snakewater_final1","folder":"tf","game":"Team Fortress","app_id":440,"player_count":0,"max_players":24,"Bots":0,"server_type":"Dedicated","server_os":"Linux","password":true,"vac":true,"version":"7961495","steam_id":85568392924964315,"keywords":["cp","nocrits","nodmgspread","uncletopia"],"game_id":440,"stv_port":27086,"stv_name":"Uncletopia | London | 8 | Community | STV","players":null},{"server_id":300,"name":"Uncletopia | Montréal | 1 | One Thousand Uncles","name_short":"mtl-1","host":"mtl-1.ca.uncletopia.com","port":27015,"enabled":true,"region":"us-east","cc":"ca","latitude":45.50889,"longitude":-73.56167,"reserved":0,"last_update":"0001-01-01T00:00:00Z","name_a2s":"","protocol":0,"map":"","folder":"","game":"","app_id":0,"player_count":0,"max_players":0,"Bots":0,"server_type":"","server_os":"","password":false,"vac":false,"version":"","steam_id":0,"keywords":null,"game_id":0,"stv_port":0,"stv_name":"","players":null},{"server_id":301,"name":"Uncletopia | Montréal | 2 | One Thousand Uncles","name_short":"mtl-2","host":"mtl-1.ca.uncletopia.com","port":27025,"enabled":true,"region":"us-east","cc":"ca","latitude":45.50889,"longitude":-73.56167,"reserved":0,"last_update":"0001-01-01T00:00:00Z","name_a2s":"","protocol":0,"map":"","folder":"","game":"","app_id":0,"player_count":3,"max_players":0,"Bots":0,"server_type":"","server_os":"","password":false,"vac":false,"version":"","steam_id":0,"keywords":null,"game_id":0,"stv_port":0,"stv_name":"","players":[{"user_id":167,"name":"Holiday Fartcruise","steam_id":76561198043851584,"connected_time":2169000000000,"state":"active","ping":127},{"user_id":184,"name":"Zero-Xyfer","steam_id":76561198351621003,"connected_time":357000000000,"state":"active","ping":75},{"user_id":185,"name":"Phillip Jeffries","steam_id":76561198064052174,"connected_time":184000000000,"state":"active","ping":60}]},{"server_id":302,"name":"Uncletopia | Montréal | 3 | One Thousand Uncles","name_short":"mtl-3","host":"mtl-1.ca.uncletopia.com","port":27035,"enabled":true,"region":"us-east","cc":"ca","latitude":45.50889,"longitude":-73.56167,"reserved":0,"last_update":"0001-01-01T00:00:00Z","name_a2s":"","protocol":0,"map":"","folder":"","game":"","app_id":0,"player_count":0,"max_players":0,"Bots":0,"server_type":"","server_os":"","password":false,"vac":false,"version":"","steam_id":0,"keywords":null,"game_id":0,"stv_port":0,"stv_name":"","players":null},{"server_id":13,"name":"Uncletopia | New York City | 1 | All Maps","name_short":"nyc-1","host":"nyc-1.us.uncletopia.com","port":27015,"enabled":true,"region":"us-east","cc":"us","latitude":40.73061,"longitude":-73.93524,"reserved":0,"last_update":"0001-01-01T00:00:00Z","name_a2s":"Uncletopia | New York City | 1 | All Maps","protocol":17,"map":"pl_frontier_final","folder":"tf","game":"Team Fortress","app_id":440,"player_count":24,"max_players":24,"Bots":0,"server_type":"Dedicated","server_os":"Linux","password":true,"vac":true,"version":"7961495","steam_id":85568392924469993,"keywords":["nocrits","nodmgspread","payload","uncletopia"],"game_id":440,"stv_port":27016,"stv_name":"Uncletopia | New York City | 1 | All Maps | STV","players":[{"user_id":499,"name":"the clown","steam_id":76561198316181591,"connected_time":2174000000000,"state":"active","ping":123},{"user_id":419,"name":"ndvr (femboy (REAL))","steam_id":76561199379200102,"connected_time":8050000000000,"state":"active","ping":50},{"user_id":490,"name":"Tokyo_Timeshift_","steam_id":76561198048677523,"connected_time":3290000000000,"state":"active","ping":60},{"user_id":500,"name":"Girthworm Jim","steam_id":76561198007433376,"connected_time":2144000000000,"state":"active","ping":53},{"user_id":517,"name":"tack","steam_id":76561198408477421,"connected_time":277000000000,"state":"active","ping":108},{"user_id":456,"name":"Yuzu","steam_id":76561198417913035,"connected_time":5323000000000,"state":"active","ping":65},{"user_id":511,"name":"dysesthesia","steam_id":76561198027159018,"connected_time":910000000000,"state":"active","ping":85},{"user_id":512,"name":"[NAME-REDACTED]","steam_id":76561198035682975,"connected_time":895000000000,"state":"active","ping":55},{"user_id":502,"name":"Drake the Pixel","steam_id":76561198131824401,"connected_time":2136000000000,"state":"active","ping":41},{"user_id":518,"name":"Vibe Check","steam_id":76561198087326826,"connected_time":142000000000,"state":"active","ping":66},{"user_id":460,"name":"Your Loyal Familiar","steam_id":76561198106476075,"connected_time":5218000000000,"state":"active","ping":74},{"user_id":505,"name":"BREAD GOD","steam_id":76561198090935745,"connected_time":2027000000000,"state":"active","ping":131},{"user_id":493,"name":"He rolls his own","steam_id":76561198058162684,"connected_time":2754000000000,"state":"active","ping":66},{"user_id":497,"name":"drunk puppy #6","steam_id":76561198278008225,"connected_time":2425000000000,"state":"active","ping":73},{"user_id":514,"name":"Lemon Soda","steam_id":76561198140208761,"connected_time":773000000000,"state":"active","ping":54},{"user_id":498,"name":"randomusername","steam_id":76561199078214700,"connected_time":2211000000000,"state":"active","ping":90},{"user_id":507,"name":"Grazzunk","steam_id":76561198290227691,"connected_time":1524000000000,"state":"active","ping":61},{"user_id":487,"name":"Generic Name","steam_id":76561198094225684,"connected_time":3709000000000,"state":"active","ping":83},{"user_id":515,"name":"Gram Tokers Count Doinkula","steam_id":76561198112811565,"connected_time":750000000000,"state":"active","ping":58},{"user_id":516,"name":"Cowboy Bee Boat","steam_id":76561198063498761,"connected_time":559000000000,"state":"active","ping":93},{"user_id":441,"name":"space man","steam_id":76561198066333670,"connected_time":6637000000000,"state":"active","ping":74},{"user_id":488,"name":"Catfish","steam_id":76561198088009583,"connected_time":3704000000000,"state":"active","ping":76},{"user_id":495,"name":"Robo Boss","steam_id":76561199067098696,"connected_time":2712000000000,"state":"active","ping":91},{"user_id":496,"name":"Brook Prime","steam_id":76561198185126222,"connected_time":2712000000000,"state":"active","ping":116}]},{"server_id":14,"name":"Uncletopia | New York City | 2 | All Maps","name_short":"nyc-2","host":"nyc-1.us.uncletopia.com","port":27025,"enabled":true,"region":"us-east","cc":"us","latitude":40.73061,"longitude":-73.93524,"reserved":0,"last_update":"0001-01-01T00:00:00Z","name_a2s":"Uncletopia | New York City | 2 | All Maps","protocol":17,"map":"pl_swiftwater_final1","folder":"tf","game":"Team Fortress","app_id":440,"player_count":24,"max_players":24,"Bots":0,"server_type":"Dedicated","server_os":"Linux","password":true,"vac":true,"version":"7961495","steam_id":85568392924469994,"keywords":["nocrits","nodmgspread","payload","uncletopia"],"game_id":440,"stv_port":27026,"stv_name":"Uncletopia | New York City | 2 | All Maps | STV","players":[{"user_id":406,"name":"BigWilly123","steam_id":76561198347934029,"connected_time":1261000000000,"state":"active","ping":46},{"user_id":407,"name":"vareh","steam_id":76561197993190926,"connected_time":1252000000000,"state":"active","ping":143},{"user_id":403,"name":"Big Bill Haywood","steam_id":76561198142290733,"connected_time":1331000000000,"state":"active","ping":63},{"user_id":398,"name":"Xx_GH4ND1_xX","steam_id":76561198072183182,"connected_time":2347000000000,"state":"active","ping":65},{"user_id":409,"name":"A sad cat","steam_id":76561198290738927,"connected_time":1197000000000,"state":"active","ping":92},{"user_id":404,"name":"Shmeapalicious7","steam_id":76561198425865340,"connected_time":1321000000000,"state":"active","ping":63},{"user_id":405,"name":"Nanraku","steam_id":76561198079664213,"connected_time":1280000000000,"state":"active","ping":171},{"user_id":387,"name":"Jolteon","steam_id":76561198027379377,"connected_time":3455000000000,"state":"active","ping":189},{"user_id":408,"name":"dirty30","steam_id":76561198021226566,"connected_time":1225000000000,"state":"active","ping":110},{"user_id":410,"name":"boof^","steam_id":76561198087074444,"connected_time":1137000000000,"state":"active","ping":103},{"user_id":411,"name":"Khorne Flakes","steam_id":76561198058699167,"connected_time":1081000000000,"state":"active","ping":85},{"user_id":412,"name":"Gainsdalf the Egg White","steam_id":76561198018213050,"connected_time":1077000000000,"state":"active","ping":56},{"user_id":425,"name":"i really hate walls","steam_id":76561199188849156,"connected_time":426000000000,"state":"active","ping":120},{"user_id":414,"name":"Ceige LFT","steam_id":76561198068538473,"connected_time":1029000000000,"state":"active","ping":90},{"user_id":389,"name":"[F2P]Linkstman","steam_id":76561198044093885,"connected_time":3426000000000,"state":"active","ping":44},{"user_id":415,"name":"ᗜˬᗜ","steam_id":76561198049076233,"connected_time":964000000000,"state":"active","ping":55},{"user_id":416,"name":"Q Whang","steam_id":76561198122479810,"connected_time":964000000000,"state":"active","ping":73},{"user_id":361,"name":"Dylanxp300","steam_id":76561198271974937,"connected_time":5787000000000,"state":"active","ping":69},{"user_id":417,"name":"spaghetti_dance","steam_id":76561199018275563,"connected_time":960000000000,"state":"active","ping":83},{"user_id":431,"name":"R O C C","steam_id":76561198374114587,"connected_time":193000000000,"state":"active","ping":75},{"user_id":430,"name":"juanjoesc","steam_id":76561198186368430,"connected_time":355000000000,"state":"active","ping":124},{"user_id":420,"name":"Alejandro","steam_id":76561197970051493,"connected_time":885000000000,"state":"active","ping":131},{"user_id":249,"name":"the action gamemaster","steam_id":76561198007494744,"connected_time":13677000000000,"state":"active","ping":120}]},{"server_id":15,"name":"Uncletopia | New York City | 3 | Stopwatch","name_short":"nyc-3","host":"nyc-1.us.uncletopia.com","port":27035,"enabled":true,"region":"us-east","cc":"us","latitude":40.73061,"longitude":-73.93524,"reserved":0,"last_update":"0001-01-01T00:00:00Z","name_a2s":"Uncletopia | New York City | 3 | Stopwatch","protocol":17,"map":"pl_snowycoast","folder":"tf","game":"Team Fortress","app_id":440,"player_count":0,"max_players":24,"Bots":0,"server_type":"Dedicated","server_os":"Linux","password":true,"vac":true,"version":"7961495","steam_id":85568392924742820,"keywords":["nocrits","nodmgspread","payload","uncletopia"],"game_id":440,"stv_port":27036,"stv_name":"Uncletopia | New York City | 3 | Stopwatch | STV","players":null},{"server_id":16,"name":"Uncletopia | New York City | 4 | Community","name_short":"nyc-4","host":"nyc-1.us.uncletopia.com","port":27045,"enabled":true,"region":"us-east","cc":"us","latitude":40.73061,"longitude":-73.93524,"reserved":0,"last_update":"0001-01-01T00:00:00Z","name_a2s":"Uncletopia | New York City | 4 | Community","protocol":17,"map":"workshop/koth_slaughter_rc1.ugc1712845210","folder":"tf","game":"Team Fortress","app_id":440,"player_count":0,"max_players":24,"Bots":0,"server_type":"Dedicated","server_os":"Linux","password":true,"vac":true,"version":"7961495","steam_id":85568392924742821,"keywords":["cp","nocrits","nodmgspread","uncletopia"],"game_id":440,"stv_port":27046,"stv_name":"Uncletopia | New York City | 4 | Community | STV","players":null},{"server_id":142,"name":"Uncletopia | São Paulo | 1 | All Maps","name_short":"sao-1","host":"sao-1.br.uncletopia.com","port":27015,"enabled":true,"region":"sa","cc":"br","latitude":-23.533773,"longitude":-46.62529,"reserved":0,"last_update":"0001-01-01T00:00:00Z","name_a2s":"Uncletopia | São Paulo | 1 | All Maps","protocol":17,"map":"koth_highpass","folder":"tf","game":"Team Fortress","app_id":440,"player_count":0,"max_players":24,"Bots":0,"server_type":"Dedicated","server_os":"Linux","password":true,"vac":true,"version":"7961495","steam_id":85568392924469996,"keywords":["cp","nocrits","nodmgspread","uncletopia"],"game_id":440,"stv_port":27016,"stv_name":"Uncletopia | São Paulo | 1 | All Maps | STV","players":null},{"server_id":143,"name":"Uncletopia | São Paulo | 2 | Community","name_short":"sao-2","host":"sao-2.br.uncletopia.com","port":27015,"enabled":true,"region":"sa","cc":"br","latitude":-23.533773,"longitude":-46.62529,"reserved":0,"last_update":"0001-01-01T00:00:00Z","name_a2s":"Uncletopia | São Paulo | 2 | Community","protocol":17,"map":"workshop/pl_highwood_b13.ugc1769496557","folder":"tf","game":"Team Fortress","app_id":440,"player_count":0,"max_players":24,"Bots":0,"server_type":"Dedicated","server_os":"Linux","password":true,"vac":true,"version":"7961495","steam_id":85568392924485349,"keywords":["nocrits","nodmgspread","payload","uncletopia"],"game_id":440,"stv_port":27016,"stv_name":"Uncletopia | São Paulo | 2 | Community | STV","players":null},{"server_id":7,"name":"Uncletopia | Seattle | 1 | All Maps","name_short":"sea-1","host":"sea-1.us.uncletopia.com","port":27015,"enabled":true,"region":"us-west","cc":"us","latitude":47.608013,"longitude":-122.33517,"reserved":0,"last_update":"0001-01-01T00:00:00Z","name_a2s":"Uncletopia | Seattle | 1 | All Maps","protocol":17,"map":"pl_goldrush","folder":"tf","game":"Team Fortress","app_id":440,"player_count":23,"max_players":24,"Bots":0,"server_type":"Dedicated","server_os":"Linux","password":true,"vac":true,"version":"7961495","steam_id":85568392924469997,"keywords":["nocrits","nodmgspread","payload","uncletopia"],"game_id":440,"stv_port":27016,"stv_name":"Uncletopia | Seattle | 1 | All Maps | STV","players":[{"user_id":456,"name":"PopcornBucketGames","steam_id":76561199089562026,"connected_time":946000000000,"state":"active","ping":42},{"user_id":442,"name":"The Population of Sweden","steam_id":76561198202201644,"connected_time":2375000000000,"state":"active","ping":38},{"user_id":431,"name":"Cheezbeargur","steam_id":76561198164702899,"connected_time":3212000000000,"state":"active","ping":61},{"user_id":428,"name":"TROY","steam_id":76561197983852176,"connected_time":3236000000000,"state":"active","ping":75},{"user_id":448,"name":"Nom Skirrett","steam_id":76561198014600788,"connected_time":1874000000000,"state":"active","ping":75},{"user_id":454,"name":"Pi-er","steam_id":76561198450073779,"connected_time":1297000000000,"state":"active","ping":45},{"user_id":461,"name":"Daz","steam_id":76561198041431938,"connected_time":340000000000,"state":"active","ping":45},{"user_id":465,"name":"Bob Sapp's Liver","steam_id":76561198011675372,"connected_time":8000000000,"state":"spawning","ping":88},{"user_id":358,"name":"rat gets the cheese","steam_id":76561198031234032,"connected_time":10347000000000,"state":"active","ping":93},{"user_id":408,"name":"Ayayayayayayayayayayayayahuasca","steam_id":76561199002906056,"connected_time":5158000000000,"state":"active","ping":52},{"user_id":446,"name":"Jae","steam_id":76561198060026844,"connected_time":1945000000000,"state":"active","ping":111},{"user_id":463,"name":"Mignyanne :3","steam_id":76561198048754056,"connected_time":203000000000,"state":"active","ping":70},{"user_id":453,"name":"Why does glass taste like blood","steam_id":76561198253922494,"connected_time":1466000000000,"state":"active","ping":75},{"user_id":439,"name":"ikuyo","steam_id":76561198996950205,"connected_time":2735000000000,"state":"active","ping":64},{"user_id":348,"name":"you just got dyked on","steam_id":76561198018977723,"connected_time":10667000000000,"state":"active","ping":51},{"user_id":418,"name":"Havi","steam_id":76561198197832829,"connected_time":4237000000000,"state":"active","ping":46},{"user_id":414,"name":"Sniff","steam_id":76561198010270922,"connected_time":4297000000000,"state":"active","ping":72},{"user_id":458,"name":"Sove67","steam_id":76561198069919807,"connected_time":579000000000,"state":"active","ping":42},{"user_id":464,"name":"Turban Grease","steam_id":76561198072052434,"connected_time":32000000000,"state":"active","ping":47},{"user_id":457,"name":"Dirty-Deeds_Done_Dirt-Cheap","steam_id":76561198113836432,"connected_time":637000000000,"state":"active","ping":165},{"user_id":427,"name":"Zee✞","steam_id":76561198274550638,"connected_time":3627000000000,"state":"active","ping":105},{"user_id":462,"name":"DubiousDodo","steam_id":76561198828172686,"connected_time":339000000000,"state":"active","ping":76},{"user_id":459,"name":"PainInTheRuss","steam_id":76561197977960543,"connected_time":512000000000,"state":"active","ping":63}]},{"server_id":119,"name":"Uncletopia | Seattle | 2 | All Maps","name_short":"sea-2","host":"sea-1.us.uncletopia.com","port":27025,"enabled":true,"region":"us-west","cc":"us","latitude":47.608013,"longitude":-122.33517,"reserved":0,"last_update":"0001-01-01T00:00:00Z","name_a2s":"Uncletopia | Seattle | 2 | All Maps","protocol":17,"map":"pl_badwater","folder":"tf","game":"Team Fortress","app_id":440,"player_count":24,"max_players":24,"Bots":0,"server_type":"Dedicated","server_os":"Linux","password":true,"vac":true,"version":"7961495","steam_id":85568392924469998,"keywords":["nocrits","nodmgspread","payload","uncletopia"],"game_id":440,"stv_port":27026,"stv_name":"Uncletopia | Seattle | 2 | All Maps | STV","players":[{"user_id":70,"name":"spiderland","steam_id":76561198335992132,"connected_time":2132000000000,"state":"active","ping":42},{"user_id":97,"name":"DoxPlaysGames","steam_id":76561198240339332,"connected_time":955000000000,"state":"active","ping":95},{"user_id":108,"name":"Testical Tester","steam_id":76561199223021963,"connected_time":160000000000,"state":"active","ping":70},{"user_id":111,"name":"oo","steam_id":76561198119626492,"connected_time":83000000000,"state":"active","ping":84},{"user_id":90,"name":"demoknight","steam_id":76561199067766868,"connected_time":1346000000000,"state":"active","ping":49},{"user_id":101,"name":"Pouty","steam_id":76561198163313089,"connected_time":667000000000,"state":"active","ping":46},{"user_id":62,"name":"Sporp","steam_id":76561197987957133,"connected_time":3198000000000,"state":"active","ping":117},{"user_id":106,"name":"VOLCON","steam_id":76561198116023052,"connected_time":251000000000,"state":"active","ping":80},{"user_id":72,"name":"Mom","steam_id":76561198207936000,"connected_time":1972000000000,"state":"active","ping":60},{"user_id":102,"name":"John Fortnite Kennedy","steam_id":76561199075426891,"connected_time":658000000000,"state":"active","ping":48},{"user_id":113,"name":"The local hobo","steam_id":76561198289650060,"connected_time":19000000000,"state":"active","ping":73},{"user_id":109,"name":"Banana Sword","steam_id":76561199076361445,"connected_time":157000000000,"state":"active","ping":63},{"user_id":100,"name":"Truck","steam_id":76561198144594945,"connected_time":760000000000,"state":"active","ping":67},{"user_id":94,"name":"mooney","steam_id":76561199110622484,"connected_time":1249000000000,"state":"active","ping":58},{"user_id":46,"name":"U ω U","steam_id":76561198118802562,"connected_time":4317000000000,"state":"active","ping":81},{"user_id":48,"name":"mub","steam_id":76561197961943948,"connected_time":4276000000000,"state":"active","ping":45},{"user_id":96,"name":"Rabblerouser","steam_id":76561198127930963,"connected_time":1061000000000,"state":"active","ping":53},{"user_id":88,"name":"KarmaKid","steam_id":76561198079580094,"connected_time":1571000000000,"state":"active","ping":112},{"user_id":104,"name":"reiidaya","steam_id":76561198325306660,"connected_time":615000000000,"state":"active","ping":50},{"user_id":105,"name":"Marmalude","steam_id":76561198805886541,"connected_time":564000000000,"state":"active","ping":48},{"user_id":80,"name":"Furikuri","steam_id":76561197998277739,"connected_time":1809000000000,"state":"active","ping":34},{"user_id":112,"name":"KaiserArc","steam_id":76561198201702142,"connected_time":35000000000,"state":"active","ping":74},{"user_id":92,"name":"Day Man","steam_id":76561198067154807,"connected_time":1328000000000,"state":"active","ping":45}]},{"server_id":406,"name":"Uncletopia | Seattle | 3 | Stopwatch","name_short":"sea-3","host":"sea-1.us.uncletopia.com","port":27035,"enabled":true,"region":"us-west","cc":"us","latitude":47.608013,"longitude":-122.33517,"reserved":0,"last_update":"0001-01-01T00:00:00Z","name_a2s":"Uncletopia | Seattle | 3 | Stopwatch","protocol":17,"map":"workshop/koth_ramjam_rc1.ugc459778887","folder":"tf","game":"Team Fortress","app_id":440,"player_count":0,"max_players":24,"Bots":0,"server_type":"Dedicated","server_os":"Linux","password":true,"vac":true,"version":"7961495","steam_id":85568392924515217,"keywords":["cp","nocrits","nodmgspread","uncletopia"],"game_id":440,"stv_port":27036,"stv_name":"Uncletopia | Seattle | 3 | Stopwatch | STV","players":null},{"server_id":17,"name":"Uncletopia | San Francisco | 1 | All Maps","name_short":"sfo-1","host":"sfo-1.us.uncletopia.com","port":27015,"enabled":true,"region":"us-west","cc":"us","latitude":37.77397,"longitude":-122.4313,"reserved":0,"last_update":"0001-01-01T00:00:00Z","name_a2s":"Uncletopia | San Francisco | 1 | All Maps","protocol":17,"map":"ctf_doublecross","folder":"tf","game":"Team Fortress","app_id":440,"player_count":23,"max_players":24,"Bots":0,"server_type":"Dedicated","server_os":"Linux","password":true,"vac":true,"version":"7961495","steam_id":85568392924469999,"keywords":["ctf","nocrits","nodmgspread","uncletopia"],"game_id":440,"stv_port":27016,"stv_name":"Uncletopia | San Francisco | 1 | All Maps | STV","players":[{"user_id":183,"name":"babywhoa","steam_id":76561198070854627,"connected_time":1964000000000,"state":"active","ping":53},{"user_id":206,"name":"PacDraws","steam_id":76561198302801819,"connected_time":1327000000000,"state":"active","ping":82},{"user_id":211,"name":"Gamer1243","steam_id":76561199073760355,"connected_time":887000000000,"state":"active","ping":52},{"user_id":214,"name":"Psycho Raptor","steam_id":76561198325853767,"connected_time":822000000000,"state":"active","ping":64},{"user_id":147,"name":"Buswolley","steam_id":76561197995205571,"connected_time":4024000000000,"state":"active","ping":45},{"user_id":210,"name":"Hound_","steam_id":76561199389781834,"connected_time":894000000000,"state":"active","ping":69},{"user_id":174,"name":"Username","steam_id":76561198198918781,"connected_time":2550000000000,"state":"active","ping":74},{"user_id":222,"name":"man i love frogs","steam_id":76561198168492250,"connected_time":325000000000,"state":"active","ping":60},{"user_id":192,"name":"austinsmith","steam_id":76561198167838540,"connected_time":1644000000000,"state":"active","ping":114},{"user_id":213,"name":"the killer","steam_id":76561198300167622,"connected_time":872000000000,"state":"active","ping":58},{"user_id":196,"name":"mobe","steam_id":76561198121633820,"connected_time":1474000000000,"state":"active","ping":58},{"user_id":221,"name":"Copy","steam_id":76561198025031590,"connected_time":613000000000,"state":"active","ping":66},{"user_id":223,"name":"Optimore","steam_id":76561198047662990,"connected_time":186000000000,"state":"active","ping":53},{"user_id":180,"name":"big fish","steam_id":76561198186479818,"connected_time":2067000000000,"state":"active","ping":72},{"user_id":216,"name":"Booba","steam_id":76561198150959184,"connected_time":793000000000,"state":"active","ping":82},{"user_id":165,"name":"Mirce","steam_id":76561198100889621,"connected_time":2767000000000,"state":"active","ping":107},{"user_id":198,"name":"Garfelf","steam_id":76561198419850129,"connected_time":1446000000000,"state":"active","ping":83},{"user_id":217,"name":"LOW INTELLIGENCE SPECIMEN","steam_id":76561198333985626,"connected_time":780000000000,"state":"active","ping":76},{"user_id":202,"name":"puffer","steam_id":76561199049164456,"connected_time":1394000000000,"state":"active","ping":65},{"user_id":219,"name":"Dietary Thunder","steam_id":76561198036177601,"connected_time":705000000000,"state":"active","ping":75},{"user_id":168,"name":"Viewie","steam_id":76561198280108853,"connected_time":2752000000000,"state":"active","ping":125},{"user_id":205,"name":"Fwoofy Miraidon","steam_id":76561199102029534,"connected_time":1356000000000,"state":"active","ping":85},{"user_id":220,"name":"robloxscream","steam_id":76561199048027781,"connected_time":703000000000,"state":"active","ping":68}]},{"server_id":18,"name":"Uncletopia | San Francisco | 2 | All Maps","name_short":"sfo-2","host":"sfo-1.us.uncletopia.com","port":27025,"enabled":true,"region":"us-west","cc":"us","latitude":37.77397,"longitude":-122.4313,"reserved":0,"last_update":"0001-01-01T00:00:00Z","name_a2s":"Uncletopia | San Francisco | 2 | All Maps","protocol":17,"map":"pl_pier","folder":"tf","game":"Team Fortress","app_id":440,"player_count":24,"max_players":24,"Bots":0,"server_type":"Dedicated","server_os":"Linux","password":true,"vac":true,"version":"7961495","steam_id":85568392924470000,"keywords":["nocrits","nodmgspread","payload","uncletopia"],"game_id":440,"stv_port":27026,"stv_name":"Uncletopia | San Francisco | 2 | All Maps | STV","players":[{"user_id":264,"name":"Quigi","steam_id":76561198144645874,"connected_time":799000000000,"state":"active","ping":70},{"user_id":258,"name":"Flops","steam_id":76561197961030141,"connected_time":1157000000000,"state":"active","ping":64},{"user_id":238,"name":"Igrium","steam_id":76561198119549811,"connected_time":2459000000000,"state":"active","ping":48},{"user_id":226,"name":"Lucky","steam_id":76561198124910662,"connected_time":3195000000000,"state":"active","ping":63},{"user_id":265,"name":"AAAAAAAAAAAAAAAAAAAAAAAAAAAAAAA","steam_id":76561198125467937,"connected_time":690000000000,"state":"active","ping":66},{"user_id":271,"name":"aeseu","steam_id":76561198066319618,"connected_time":317000000000,"state":"active","ping":104},{"user_id":267,"name":"Majin","steam_id":76561198198244701,"connected_time":552000000000,"state":"active","ping":73},{"user_id":259,"name":"ghostglitch","steam_id":76561197991608573,"connected_time":1062000000000,"state":"active","ping":43},{"user_id":263,"name":"Mochi","steam_id":76561198119696557,"connected_time":934000000000,"state":"active","ping":69},{"user_id":261,"name":"Drilly22","steam_id":76561198068838338,"connected_time":1003000000000,"state":"active","ping":102},{"user_id":247,"name":"jon pickle water","steam_id":76561199036212135,"connected_time":1643000000000,"state":"active","ping":88},{"user_id":260,"name":"w a o w","steam_id":76561198060769385,"connected_time":1061000000000,"state":"active","ping":69},{"user_id":237,"name":"Livin' Like Larry","steam_id":76561198313360974,"connected_time":2941000000000,"state":"active","ping":37},{"user_id":206,"name":"Platinum","steam_id":76561198052463484,"connected_time":4659000000000,"state":"active","ping":45},{"user_id":255,"name":"warren","steam_id":76561198136331136,"connected_time":1310000000000,"state":"active","ping":115},{"user_id":251,"name":"raduski","steam_id":76561198795699119,"connected_time":1535000000000,"state":"active","ping":90},{"user_id":252,"name":"Tying the knot","steam_id":76561198247794130,"connected_time":1529000000000,"state":"active","ping":102},{"user_id":235,"name":"DiogenicBishop","steam_id":76561198093478794,"connected_time":3012000000000,"state":"active","ping":77},{"user_id":244,"name":"AST Sir Pantoja","steam_id":76561198118858300,"connected_time":1787000000000,"state":"active","ping":71},{"user_id":272,"name":"mr.meaner","steam_id":76561199468236392,"connected_time":14000000000,"state":"spawning","ping":45},{"user_id":268,"name":"5oc","steam_id":76561199196300397,"connected_time":477000000000,"state":"active","ping":73},{"user_id":243,"name":"SkadooshPlayz","steam_id":76561198310986662,"connected_time":1820000000000,"state":"active","ping":57},{"user_id":269,"name":"zuzu","steam_id":76561197969622110,"connected_time":371000000000,"state":"active","ping":88},{"user_id":225,"name":"Mk","steam_id":76561198139790822,"connected_time":3490000000000,"state":"active","ping":116}]},{"server_id":19,"name":"Uncletopia | San Francisco | 3 | Stopwatch","name_short":"sfo-3","host":"sfo-1.us.uncletopia.com","port":27035,"enabled":true,"region":"us-west","cc":"us","latitude":37.77397,"longitude":-122.4313,"reserved":0,"last_update":"0001-01-01T00:00:00Z","name_a2s":"Uncletopia | San Francisco | 3 | Stopwatch","protocol":17,"map":"cp_sunshine","folder":"tf","game":"Team Fortress","app_id":440,"player_count":0,"max_players":24,"Bots":0,"server_type":"Dedicated","server_os":"Linux","password":true,"vac":true,"version":"7961495","steam_id":85568392924742824,"keywords":["cp","nocrits","nodmgspread","uncletopia"],"game_id":440,"stv_port":27036,"stv_name":"Uncletopia | San Francisco | 3 | Stopwatch | STV","players":null},{"server_id":20,"name":"Uncletopia | San Francisco | 4 | Community","name_short":"sfo-4","host":"sfo-1.us.uncletopia.com","port":27045,"enabled":true,"region":"us-west","cc":"us","latitude":37.77397,"longitude":-122.4313,"reserved":0,"last_update":"0001-01-01T00:00:00Z","name_a2s":"Uncletopia | San Francisco | 4 | Community","protocol":17,"map":"workshop/koth_synthetic_rc6a.ugc1549817316","folder":"tf","game":"Team Fortress","app_id":440,"player_count":0,"max_players":24,"Bots":0,"server_type":"Dedicated","server_os":"Linux","password":true,"vac":true,"version":"7961495","steam_id":85568392924742826,"keywords":["cp","nocrits","nodmgspread","uncletopia"],"game_id":440,"stv_port":27046,"stv_name":"Uncletopia | San Francisco | 4 | Community | STV","players":null},{"server_id":141,"name":"Uncletopia | Sydney | 1 | All Maps","name_short":"syd-1","host":"syd-1.au.uncletopia.com","port":27015,"enabled":true,"region":"au","cc":"au","latitude":-33.865143,"longitude":151.2099,"reserved":0,"last_update":"0001-01-01T00:00:00Z","name_a2s":"Uncletopia | Sydney | 1 | All Maps","protocol":17,"map":"cp_snakewater_final1","folder":"tf","game":"Team Fortress","app_id":440,"player_count":0,"max_players":24,"Bots":0,"server_type":"Dedicated","server_os":"Linux","password":true,"vac":true,"version":"7961495","steam_id":85568392924470001,"keywords":["cp","nocrits","nodmgspread","uncletopia"],"game_id":440,"stv_port":27016,"stv_name":"Uncletopia | Sydney | 1 | All Maps | STV","players":null},{"server_id":123,"name":"Uncletopia | Sydney | 2 | All Maps","name_short":"syd-2","host":"syd-1.au.uncletopia.com","port":27025,"enabled":true,"region":"au","cc":"au","latitude":-33.865143,"longitude":151.2099,"reserved":0,"last_update":"0001-01-01T00:00:00Z","name_a2s":"Uncletopia | Sydney | 2 | All Maps","protocol":17,"map":"ctf_2fort","folder":"tf","game":"Team Fortress","app_id":440,"player_count":0,"max_players":24,"Bots":0,"server_type":"Dedicated","server_os":"Linux","password":true,"vac":true,"version":"7961495","steam_id":85568392924470002,"keywords":["ctf","nocrits","nodmgspread","uncletopia"],"game_id":440,"stv_port":27026,"stv_name":"Uncletopia | Sydney | 2 | All Maps | STV","players":null},{"server_id":395,"name":"Uncletopia | Sydney | 3 | All Maps","name_short":"syd-3","host":"syd-1.au.uncletopia.com","port":27035,"enabled":true,"region":"au","cc":"au","latitude":-33.865143,"longitude":151.2099,"reserved":0,"last_update":"0001-01-01T00:00:00Z","name_a2s":"Uncletopia | Sydney | 3 | All Maps","protocol":17,"map":"ctf_2fort","folder":"tf","game":"Team Fortress","app_id":440,"player_count":0,"max_players":24,"Bots":0,"server_type":"Dedicated","server_os":"Linux","password":true,"vac":true,"version":"7961495","steam_id":85568392925194467,"keywords":["ctf","nocrits","nodmgspread","uncletopia"],"game_id":440,"stv_port":27036,"stv_name":"Uncletopia | Sydney | 3 | All Maps | STV","players":null},{"server_id":396,"name":"Uncletopia | Sydney | 4 | All Maps","name_short":"syd-4","host":"syd-1.au.uncletopia.com","port":27045,"enabled":true,"region":"au","cc":"au","latitude":-33.865143,"longitude":151.2099,"reserved":0,"last_update":"0001-01-01T00:00:00Z","name_a2s":"Uncletopia | Sydney | 4 | All Maps","protocol":17,"map":"pl_frontier_final","folder":"tf","game":"Team Fortress","app_id":440,"player_count":0,"max_players":24,"Bots":0,"server_type":"Dedicated","server_os":"Linux","password":true,"vac":true,"version":"7961495","steam_id":85568392925397958,"keywords":["nocrits","nodmgspread","payload","uncletopia"],"game_id":440,"stv_port":27046,"stv_name":"Uncletopia | Sydney | 4 | All Maps | STV","players":null},{"server_id":58,"name":"Uncletopia | Sydney | 5 | Stopwatch","name_short":"syd-5","host":"syd-1.au.uncletopia.com","port":27055,"enabled":true,"region":"au","cc":"au","latitude":-33.865143,"longitude":151.2099,"reserved":0,"last_update":"0001-01-01T00:00:00Z","name_a2s":"Uncletopia | Sydney | 5 | Stopwatch","protocol":17,"map":"pl_swiftwater_final1","folder":"tf","game":"Team Fortress","app_id":440,"player_count":0,"max_players":24,"Bots":0,"server_type":"Dedicated","server_os":"Linux","password":true,"vac":true,"version":"7961495","steam_id":85568392925397959,"keywords":["nocrits","nodmgspread","payload","uncletopia"],"game_id":440,"stv_port":27056,"stv_name":"Uncletopia | Sydney | 5 | Stopwatch | STV","players":null},{"server_id":59,"name":"Uncletopia | Sydney | 6 | Community","name_short":"syd-6","host":"syd-1.au.uncletopia.com","port":27065,"enabled":true,"region":"au","cc":"au","latitude":-33.865143,"longitude":151.2099,"reserved":0,"last_update":"0001-01-01T00:00:00Z","name_a2s":"Uncletopia | Sydney | 6 | Community","protocol":17,"map":"cp_sunshine","folder":"tf","game":"Team Fortress","app_id":440,"player_count":0,"max_players":24,"Bots":0,"server_type":"Dedicated","server_os":"Linux","password":true,"vac":true,"version":"7961495","steam_id":85568392925397960,"keywords":["cp","nocrits","nodmgspread","uncletopia"],"game_id":440,"stv_port":27066,"stv_name":"Uncletopia | Sydney | 6 | Community | STV","players":null},{"server_id":49,"name":"Uncletopia | Warsaw | 1 | One Thousand Uncles","name_short":"waw-1","host":"waw-1.pl.uncletopia.com","port":27015,"enabled":true,"region":"eu","cc":"pl","latitude":52.2297,"longitude":21.017532,"reserved":0,"last_update":"0001-01-01T00:00:00Z","name_a2s":"Uncletopia | Warsaw | 1 | One Thousand Uncles","protocol":17,"map":"koth_highpass","folder":"tf","game":"Team Fortress","app_id":440,"player_count":0,"max_players":32,"Bots":0,"server_type":"Dedicated","server_os":"Linux","password":true,"vac":true,"version":"7961495","steam_id":85568392925397850,"keywords":["alltalk","cp","danepve","increased_maxplayers","nocrits","norespawntime","uncletopia"],"game_id":440,"stv_port":0,"stv_name":"","players":null},{"server_id":50,"name":"Uncletopia | Warsaw | 2 | One Thousand Uncles","name_short":"waw-2","host":"waw-1.pl.uncletopia.com","port":27025,"enabled":true,"region":"eu","cc":"pl","latitude":52.2297,"longitude":21.017532,"reserved":0,"last_update":"0001-01-01T00:00:00Z","name_a2s":"Uncletopia | Warsaw | 2 | One Thousand Uncles","protocol":17,"map":"pl_goldrush","folder":"tf","game":"Team Fortress","app_id":440,"player_count":0,"max_players":32,"Bots":0,"server_type":"Dedicated","server_os":"Linux","password":true,"vac":true,"version":"7961495","steam_id":85568392925397851,"keywords":["alltalk","danepve","increased_maxplayers","nocrits","norespawntime","payload","uncletopia"],"game_id":440,"stv_port":0,"stv_name":"","players":null},{"server_id":51,"name":"Uncletopia | Warsaw | 3 | All Maps","name_short":"waw-3","host":"waw-1.pl.uncletopia.com","port":27035,"enabled":true,"region":"eu","cc":"pl","latitude":52.2297,"longitude":21.017532,"reserved":0,"last_update":"0001-01-01T00:00:00Z","name_a2s":"Uncletopia | Warsaw | 3 | All Maps","protocol":17,"map":"plr_pipeline","folder":"tf","game":"Team Fortress","app_id":440,"player_count":0,"max_players":24,"Bots":0,"server_type":"Dedicated","server_os":"Linux","password":true,"vac":true,"version":"7961495","steam_id":85568392925397852,"keywords":["nocrits","nodmgspread","payload","uncletopia"],"game_id":440,"stv_port":27036,"stv_name":"Uncletopia | Warsaw | 3 | All Maps | STV","players":null},{"server_id":52,"name":"Uncletopia | Warsaw | 4 | All Maps","name_short":"waw-4","host":"waw-1.pl.uncletopia.com","port":27045,"enabled":true,"region":"eu","cc":"pl","latitude":52.2297,"longitude":21.017532,"reserved":0,"last_update":"0001-01-01T00:00:00Z","name_a2s":"Uncletopia | Warsaw | 4 | All Maps","protocol":17,"map":"cp_coldfront","folder":"tf","game":"Team Fortress","app_id":440,"player_count":0,"max_players":24,"Bots":0,"server_type":"Dedicated","server_os":"Linux","password":true,"vac":true,"version":"7961495","steam_id":85568392925397853,"keywords":["cp","nocrits","nodmgspread","uncletopia"],"game_id":440,"stv_port":27046,"stv_name":"Uncletopia | Warsaw | 4 | All Maps | STV","players":null},{"server_id":53,"name":"Uncletopia | Warsaw | 5 | Stopwatch","name_short":"waw-5","host":"waw-1.pl.uncletopia.com","port":27055,"enabled":true,"region":"eu","cc":"pl","latitude":52.2297,"longitude":21.017532,"reserved":0,"last_update":"0001-01-01T00:00:00Z","name_a2s":"Uncletopia | Warsaw | 5 | Stopwatch","protocol":17,"map":"workshop/koth_bagel_rc6.ugc2514036946","folder":"tf","game":"Team Fortress","app_id":440,"player_count":0,"max_players":24,"Bots":0,"server_type":"Dedicated","server_os":"Linux","password":true,"vac":true,"version":"7961495","steam_id":85568392925397854,"keywords":["cp","nocrits","nodmgspread","uncletopia"],"game_id":440,"stv_port":27056,"stv_name":"Uncletopia | Warsaw | 5 | Stopwatch | STV","players":null},{"server_id":54,"name":"Uncletopia | Warsaw | 6 | Community","name_short":"waw-6","host":"waw-1.pl.uncletopia.com","port":27065,"enabled":true,"region":"eu","cc":"pl","latitude":52.2297,"longitude":21.017532,"reserved":0,"last_update":"0001-01-01T00:00:00Z","name_a2s":"Uncletopia | Warsaw | 6 | Community","protocol":17,"map":"workshop/pl_badwater_pro_v12.ugc2142942074","folder":"tf","game":"Team Fortress","app_id":440,"player_count":0,"max_players":24,"Bots":0,"server_type":"Dedicated","server_os":"Linux","password":true,"vac":true,"version":"7961495","steam_id":85568392925397856,"keywords":["nocrits","nodmgspread","payload","uncletopia"],"game_id":440,"stv_port":27066,"stv_name":"Uncletopia | Warsaw | 6 | Community | STV","players":null}]}