{"status":true,"message":"","result":[{"server_id":9,"name":"Uncletopia | Atlanta | 1 | All Maps","name_short":"atl-1","host":"atl-1.us.uncletopia.com","port":27015,"enabled":true,"region":"us-east","cc":"us","latitude":33.753746,"longitude":-84.38633,"reserved":0,"last_update":"0001-01-01T00:00:00Z","name_a2s":"Uncletopia | Atlanta | 1 | All Maps","protocol":17,"map":"pl_badwater","folder":"tf","game":"Team Fortress","app_id":440,"player_count":17,"max_players":24,"Bots":0,"server_type":"Dedicated","server_os":"Linux","password":true,"vac":true,"version":"7757534","steam_id":85568392924469982,"keywords":["nocrits","nodmgspread","payload","uncletopia"],"game_id":440,"stv_port":27016,"stv_name":"Uncletopia | Atlanta | 1 | All Maps | STV","players":[{"user_id":9,"name":"Joh'Tar Kubo","steam_id":76561199075390591,"connected_time":2162000000000,"state":"active","ping":65},{"user_id":12,"name":"Lone Rider","steam_id":76561198091978968,"connected_time":1392000000000,"state":"active","ping":65},{"user_id":13,"name":"Crotonga","steam_id":76561198077178900,"connected_time":1372000000000,"state":"active","ping":70},{"user_id":19,"name":"Cooki","steam_id":76561198051705314,"connected_time":273000000000,"state":"active","ping":88},{"user_id":15,"name":"Checkered Scones","steam_id":76561198162786894,"connected_time":1235000000000,"state":"active","ping":104},{"user_id":22,"name":"BladedBloom4611","steam_id":76561198416655215,"connected_time":179000000000,"state":"active","ping":137},{"user_id":17,"name":"Jin Gulilo","steam_id":76561198065151242,"connected_time":742000000000,"state":"active","ping":72},{"user_id":18,"name":"ATL1 | on my hunting trip","steam_id":76561198315341646,"connected_time":624000000000,"state":"active","ping":68},{"user_id":20,"name":"traxton-hale","steam_id":76561199387350583,"connected_time":273000000000,"state":"active","ping":121},{"user_id":21,"name":"Cresant Ape","steam_id":76561198127425559,"connected_time":258000000000,"state":"active","ping":46},{"user_id":23,"name":"ATL1 | p4ka","steam_id":76561198315291317,"connected_time":179000000000,"state":"active","ping":67},{"user_id":24,"name":"Cannoli","steam_id":76561198078570889,"connected_time":148000000000,"state":"active","ping":122},{"user_id":25,"name":"ShadowBolt","steam_id":76561198061610985,"connected_time":90000000000,"state":"active","ping":116},{"user_id":26,"name":"Spiffo Raccoon (love this anima","steam_id":76561198035667824,"connected_time":76000000000,"state":"active","ping":51},{"user_id":27,"name":"Ironfyn","steam_id":76561198256850182,"connected_time":65000000000,"state":"spawning","ping":63},{"user_id":28,"name":"exploding_dustrags","steam_id":76561199196042784,"connected_time":51000000000,"state":"active","ping":77},{"user_id":29,"name":"Schopenhauer","steam_id":76561197990166387,"connected_time":50000000000,"state":"active","ping":77}]},{"server_id":104,"name":"Uncletopia | Atlanta | 2 | All Maps","name_short":"atl-2","host":"atl-1.us.uncletopia.com","port":27025,"enabled":true,"region":"us-east","cc":"us","latitude":33.753746,"longitude":-84.38633,"reserved":0,"last_update":"0001-01-01T00:00:00Z","name_a2s":"Uncletopia | Atlanta | 2 | All Maps","protocol":17,"map":"pl_frontier_final","folder":"tf","game":"Team Fortress","app_id":440,"player_count":24,"max_players":24,"Bots":0,"server_type":"Dedicated","server_os":"Linux","password":true,"vac":true,"version":"7757534","steam_id":85568392924469983,"keywords":["nocrits","nodmgspread","payload","uncletopia"],"game_id":440,"stv_port":27026,"stv_name":"Uncletopia | Atlanta | 2 | All Maps | STV","players":[{"user_id":121,"name":"Sea raider","steam_id":76561198123982355,"connected_time":2358000000000,"state":"active","ping":86},{"user_id":164,"name":"Gian","steam_id":76561198041434512,"connected_time":996000000000,"state":"active","ping":94},{"user_id":30,"name":"Market.","steam_id":76561198196219378,"connected_time":9177000000000,"state":"active","ping":103},{"user_id":157,"name":"Weird","steam_id":76561199082362722,"connected_time":1242000000000,"state":"active","ping":91},{"user_id":177,"name":"VVB","steam_id":76561198056367220,"connected_time":484000000000,"state":"active","ping":90},{"user_id":86,"name":"Winkrill","steam_id":76561198108515561,"connected_time":5240000000000,"state":"active","ping":70},{"user_id":172,"name":"polaris","steam_id":76561198212481737,"connected_time":557000000000,"state":"active","ping":64},{"user_id":168,"name":"ƐՌѴƳ","steam_id":76561198099470277,"connected_time":841000000000,"state":"active","ping":61},{"user_id":161,"name":"Quansen","steam_id":76561198151594550,"connected_time":1074000000000,"state":"active","ping":73},{"user_id":169,"name":"Casulal_M","steam_id":76561198386175277,"connected_time":670000000000,"state":"active","ping":74},{"user_id":92,"name":"Anxious Bird Nerd","steam_id":76561198112178602,"connected_time":5046000000000,"state":"active","ping":114},{"user_id":111,"name":"D(b) Hell","steam_id":76561198067869016,"connected_time":3175000000000,"state":"active","ping":65},{"user_id":182,"name":"Likely Scripting|Bitch Im Geeke","steam_id":76561199173343569,"connected_time":3000000000,"state":"spawning","ping":58},{"user_id":109,"name":"keffers","steam_id":76561198202338796,"connected_time":3402000000000,"state":"active","ping":98},{"user_id":170,"name":"1TheExterminator","steam_id":76561198972879727,"connected_time":630000000000,"state":"active","ping":75},{"user_id":126,"name":"sentry turret","steam_id":76561198327057433,"connected_time":2226000000000,"state":"active","ping":85},{"user_id":140,"name":"Nick","steam_id":76561199065776495,"connected_time":1620000000000,"state":"active","ping":76},{"user_id":171,"name":"crack crisis","steam_id":76561198332519926,"connected_time":614000000000,"state":"active","ping":67},{"user_id":180,"name":"XDDRIMMER","steam_id":76561199435675799,"connected_time":241000000000,"state":"active","ping":191},{"user_id":173,"name":"Sketch gaming","steam_id":76561198863658864,"connected_time":551000000000,"state":"active","ping":162},{"user_id":129,"name":"goooot","steam_id":76561198155591052,"connected_time":2143000000000,"state":"active","ping":71},{"user_id":174,"name":"Brock O'Brian","steam_id":76561198117839474,"connected_time":530000000000,"state":"active","ping":85},{"user_id":178,"name":"Crunchy Cheesy Wasp Wrap","steam_id":76561198004429020,"connected_time":479000000000,"state":"active","ping":89},{"user_id":179,"name":"ITS YA BOI GERMAIN","steam_id":76561199089292944,"connected_time":396000000000,"state":"active","ping":124}]},{"server_id":400,"name":"Uncletopia | Atlanta | 3 | Community","name_short":"atl-3","host":"atl-1.us.uncletopia.com","port":27035,"enabled":true,"region":"us-east","cc":"us","latitude":33.753746,"longitude":-84.38633,"reserved":0,"last_update":"0001-01-01T00:00:00Z","name_a2s":"Uncletopia | Atlanta | 3 | Community","protocol":17,"map":"workshop/pl_highwood_b13.ugc1769496557","folder":"tf","game":"Team Fortress","app_id":440,"player_count":0,"max_players":24,"Bots":0,"server_type":"Dedicated","server_os":"Linux","password":true,"vac":true,"version":"7757534","steam_id":85568392924515187,"keywords":["nocrits","nodmgspread","payload","uncletopia"],"game_id":440,"stv_port":27036,"stv_name":"Uncletopia | Atlanta | 3 | Community | STV","players":null},{"server_id":401,"name":"Uncletopia | Atlanta | 4 | No Payload","name_short":"atl-4","host":"atl-1.us.uncletopia.com","port":27045,"enabled":true,"region":"us-east","cc":"us","latitude":33.753746,"longitude":-84.38633,"reserved":0,"last_update":"0001-01-01T00:00:00Z","name_a2s":"","protocol":0,"map":"","folder":"","game":"","app_id":0,"player_count":0,"max_players":0,"Bots":0,"server_type":"","server_os":"","password":false,"vac":false,"version":"","steam_id":0,"keywords":null,"game_id":0,"stv_port":0,"stv_name":"","players":null},{"server_id":2,"name":"Uncletopia | Chicago | 1 | All Maps","name_short":"chi-1","host":"chi-1.us.uncletopia.com","port":27015,"enabled":true,"region":"us-central","cc":"us","latitude":41.881832,"longitude":-87.62318,"reserved":0,"last_update":"0001-01-01T00:00:00Z","name_a2s":"Uncletopia | Chicago | 1 | All Maps","protocol":17,"map":"koth_lakeside_final","folder":"tf","game":"Team Fortress","app_id":440,"player_count":24,"max_players":24,"Bots":0,"server_type":"Dedicated","server_os":"Linux","password":true,"vac":true,"version":"7757534","steam_id":85568392924469984,"keywords":["cp","nocrits","nodmgspread","uncletopia"],"game_id":440,"stv_port":27016,"stv_name":"Uncletopia | Chicago | 1 | All Maps | STV","players":[{"user_id":367,"name":"Jin","steam_id":76561198119873148,"connected_time":117000000000,"state":"active","ping":59},{"user_id":299,"name":"Chinese \"Weather\" Balloon","steam_id":76561198031675881,"connected_time":3665000000000,"state":"active","ping":63},{"user_id":261,"name":"rat","steam_id":76561198271946754,"connected_time":6704000000000,"state":"active","ping":75},{"user_id":345,"name":"Old St. Scat","steam_id":76561198322096569,"connected_time":1668000000000,"state":"active","ping":83},{"user_id":358,"name":"The Drunk Clown","steam_id":76561197986850426,"connected_time":560000000000,"state":"active","ping":76},{"user_id":338,"name":"hämis","steam_id":76561198089616341,"connected_time":1854000000000,"state":"active","ping":69},{"user_id":314,"name":"Mimic","steam_id":76561198060164147,"connected_time":3009000000000,"state":"active","ping":58},{"user_id":312,"name":"stupid ape","steam_id":76561198350027075,"connected_time":3019000000000,"state":"active","ping":58},{"user_id":359,"name":"Dr. Wario","steam_id":76561198901238861,"connected_time":481000000000,"state":"active","ping":104},{"user_id":368,"name":"gio","steam_id":76561198219185620,"connected_time":101000000000,"state":"active","ping":179},{"user_id":322,"name":"Nassu","steam_id":76561198147367577,"connected_time":2663000000000,"state":"active","ping":69},{"user_id":324,"name":"Scorpie Doodle","steam_id":76561198021845763,"connected_time":2568000000000,"state":"active","ping":50},{"user_id":341,"name":"Oopsie Daisy ❋","steam_id":76561198042144492,"connected_time":1780000000000,"state":"active","ping":78},{"user_id":269,"name":"poe","steam_id":76561198155720118,"connected_time":6490000000000,"state":"active","ping":51},{"user_id":349,"name":"reanimator","steam_id":76561198085830470,"connected_time":1406000000000,"state":"active","ping":65},{"user_id":350,"name":"Eosson","steam_id":76561198108642113,"connected_time":1358000000000,"state":"active","ping":64},{"user_id":348,"name":"-π- BakaD","steam_id":76561197960559169,"connected_time":1528000000000,"state":"active","ping":51},{"user_id":227,"name":"Brokayo","steam_id":76561198053802723,"connected_time":9540000000000,"state":"active","ping":91},{"user_id":366,"name":"barbara","steam_id":76561198072417792,"connected_time":273000000000,"state":"active","ping":85},{"user_id":369,"name":"Goober","steam_id":76561198988863807,"connected_time":22000000000,"state":"active","ping":73},{"user_id":355,"name":"Big Phony","steam_id":76561199092395311,"connected_time":863000000000,"state":"active","ping":60},{"user_id":331,"name":"bear1boss fan","steam_id":76561198047850813,"connected_time":2392000000000,"state":"active","ping":92},{"user_id":353,"name":"Domo","steam_id":76561199440809546,"connected_time":1176000000000,"state":"active","ping":49},{"user_id":361,"name":"LordZahe","steam_id":76561198241749034,"connected_time":419000000000,"state":"active","ping":72}]},{"server_id":106,"name":"Uncletopia | Chicago | 2 | All Maps","name_short":"chi-2","host":"chi-1.us.uncletopia.com","port":27025,"enabled":true,"region":"us-central","cc":"us","latitude":41.881832,"longitude":-87.62318,"reserved":0,"last_update":"0001-01-01T00:00:00Z","name_a2s":"Uncletopia | Chicago | 2 | All Maps","protocol":17,"map":"cp_altitude","folder":"tf","game":"Team Fortress","app_id":440,"player_count":0,"max_players":24,"Bots":0,"server_type":"Dedicated","server_os":"Linux","password":true,"vac":true,"version":"7757534","steam_id":85568392924469985,"keywords":["cp","nocrits","nodmgspread","uncletopia"],"game_id":440,"stv_port":27026,"stv_name":"Uncletopia | Chicago | 2 | All Maps | STV","players":null},{"server_id":402,"name":"Uncletopia | Chicago | 3 | All Maps","name_short":"chi-3","host":"chi-1.us.uncletopia.com","port":27035,"enabled":true,"region":"us-central","cc":"us","latitude":41.881832,"longitude":-87.62318,"reserved":0,"last_update":"0001-01-01T00:00:00Z","name_a2s":"Uncletopia | Chicago | 3 | All Maps","protocol":17,"map":"pl_pier","folder":"tf","game":"Team Fortress","app_id":440,"player_count":21,"max_players":24,"Bots":0,"server_type":"Dedicated","server_os":"Linux","password":true,"vac":true,"version":"7757534","steam_id":85568392924515191,"keywords":["nocrits","nodmgspread","payload","uncletopia"],"game_id":440,"stv_port":27036,"stv_name":"Uncletopia | Chicago | 3 | All Maps | STV","players":[{"user_id":240,"name":"Albino Jellyfish","steam_id":76561198208561097,"connected_time":70000000000,"state":"active","ping":65},{"user_id":224,"name":"NoahSherlock(wln.tf)","steam_id":76561199015641953,"connected_time":875000000000,"state":"active","ping":131},{"user_id":189,"name":"WatchWill","steam_id":76561198157237945,"connected_time":3670000000000,"state":"active","ping":76},{"user_id":199,"name":"dansci","steam_id":76561198269530717,"connected_time":2750000000000,"state":"active","ping":75},{"user_id":221,"name":"merkmywords ttttttv","steam_id":76561198066840152,"connected_time":1380000000000,"state":"active","ping":44},{"user_id":220,"name":"Nutbrain123","steam_id":76561198962725294,"connected_time":1567000000000,"state":"active","ping":109},{"user_id":241,"name":"Tommy Pickles (Very Cool)","steam_id":76561198391261463,"connected_time":36000000000,"state":"active","ping":67},{"user_id":126,"name":"Training Arc","steam_id":76561198038832034,"connected_time":6677000000000,"state":"active","ping":105},{"user_id":227,"name":"giveit5","steam_id":76561198030815437,"connected_time":754000000000,"state":"active","ping":89},{"user_id":228,"name":"Decs","steam_id":76561198825197974,"connected_time":724000000000,"state":"active","ping":121},{"user_id":239,"name":"Loogey03","steam_id":76561198155483586,"connected_time":131000000000,"state":"active","ping":49},{"user_id":229,"name":"bojack from the show bojack hor","steam_id":76561198053006712,"connected_time":710000000000,"state":"active","ping":51},{"user_id":215,"name":"Mr. Klauk","steam_id":76561199085666301,"connected_time":2033000000000,"state":"active","ping":66},{"user_id":230,"name":"POKIMANES FEET","steam_id":76561198250540576,"connected_time":695000000000,"state":"active","ping":76},{"user_id":223,"name":"lynt","steam_id":76561198988333976,"connected_time":918000000000,"state":"active","ping":48},{"user_id":235,"name":"Balerion the Black Dread","steam_id":76561198003728369,"connected_time":432000000000,"state":"active","ping":60},{"user_id":231,"name":"mobe","steam_id":76561198121633820,"connected_time":645000000000,"state":"active","ping":101},{"user_id":217,"name":"daBigBoss","steam_id":76561198120428029,"connected_time":1872000000000,"state":"active","ping":95},{"user_id":210,"name":"Indicative","steam_id":76561199076612537,"connected_time":2310000000000,"state":"active","ping":48},{"user_id":237,"name":"shadow elite","steam_id":76561198165212575,"connected_time":388000000000,"state":"active","ping":60},{"user_id":182,"name":"Fudgely","steam_id":76561198039425862,"connected_time":4436000000000,"state":"active","ping":71}]},{"server_id":403,"name":"Uncletopia | Chicago | 4 | All Maps","name_short":"chi-4","host":"chi-1.us.uncletopia.com","port":27045,"enabled":true,"region":"us-central","cc":"us","latitude":41.881832,"longitude":-87.62318,"reserved":0,"last_update":"0001-01-01T00:00:00Z","name_a2s":"Uncletopia | Chicago | 4 | All Maps","protocol":17,"map":"pl_borneo","folder":"tf","game":"Team Fortress","app_id":440,"player_count":18,"max_players":24,"Bots":0,"server_type":"Dedicated","server_os":"Linux","password":true,"vac":true,"version":"7757534","steam_id":85568392924515193,"keywords":["nocrits","nodmgspread","payload","uncletopia"],"game_id":440,"stv_port":27046,"stv_name":"Uncletopia | Chicago | 4 | All Maps | STV","players":[{"user_id":25,"name":"Soil","steam_id":76561198943879122,"connected_time":3721000000000,"state":"active","ping":63},{"user_id":66,"name":"Frodo T Baggins","steam_id":76561198048090297,"connected_time":197000000000,"state":"active","ping":56},{"user_id":27,"name":"Jee","steam_id":76561198237639548,"connected_time":3542000000000,"state":"active","ping":78},{"user_id":67,"name":"oomoo","steam_id":76561198328618417,"connected_time":153000000000,"state":"active","ping":97},{"user_id":61,"name":"lorelius hogglefart","steam_id":76561198211781375,"connected_time":1383000000000,"state":"active","ping":81},{"user_id":64,"name":"porz","steam_id":76561198195711453,"connected_time":988000000000,"state":"active","ping":49},{"user_id":44,"name":"ShadBad","steam_id":76561198248287390,"connected_time":2629000000000,"state":"active","ping":106},{"user_id":68,"name":"Misty Blu ♥ Scout","steam_id":76561198011442255,"connected_time":139000000000,"state":"active","ping":107},{"user_id":35,"name":"JustCoffee","steam_id":76561199389473180,"connected_time":2868000000000,"state":"active","ping":71},{"user_id":58,"name":"Mug Moment Gaming","steam_id":76561198233098136,"connected_time":1634000000000,"state":"active","ping":46},{"user_id":38,"name":"QueenPinharam","steam_id":76561199015626409,"connected_time":2834000000000,"state":"active","ping":83},{"user_id":59,"name":"Dr. Cocktor","steam_id":76561198187744622,"connected_time":1631000000000,"state":"active","ping":85},{"user_id":40,"name":"ṽ⧉ cookie","steam_id":76561197998884823,"connected_time":2824000000000,"state":"active","ping":60},{"user_id":69,"name":"Henry Ota-Clay","steam_id":76561198053232470,"connected_time":89000000000,"state":"active","ping":58},{"user_id":42,"name":"Krellah","steam_id":76561198287045069,"connected_time":2770000000000,"state":"active","ping":59},{"user_id":65,"name":"Monster","steam_id":76561198189429665,"connected_time":544000000000,"state":"active","ping":70},{"user_id":49,"name":"IanTheAwsm","steam_id":76561198093031738,"connected_time":2346000000000,"state":"active","ping":61},{"user_id":54,"name":"Magik","steam_id":76561198115443354,"connected_time":1935000000000,"state":"active","ping":54}]},{"server_id":36,"name":"Uncletopia | Chicago | 5 | All Maps","name_short":"chi-5","host":"chi-2.us.uncletopia.com","port":27015,"enabled":true,"region":"us-central","cc":"us","latitude":41.881832,"longitude":-87.62318,"reserved":0,"last_update":"0001-01-01T00:00:00Z","name_a2s":"Uncletopia | Chicago | 5 | All Maps","protocol":17,"map":"cp_process_final","folder":"tf","game":"Team Fortress","app_id":440,"player_count":17,"max_players":24,"Bots":0,"server_type":"Dedicated","server_os":"Linux","password":true,"vac":true,"version":"7757534","steam_id":85568392924866362,"keywords":["cp","nocrits","nodmgspread","uncletopia"],"game_id":440,"stv_port":27016,"stv_name":"Uncletopia | Chicago | 5 | All Maps | STV","players":[{"user_id":40,"name":"MAK","steam_id":76561198089361823,"connected_time":61000000000,"state":"active","ping":116},{"user_id":41,"name":"wahoomario888","steam_id":76561199125410522,"connected_time":38000000000,"state":"active","ping":177},{"user_id":7,"name":"Jeb \"The Captain\" Bush","steam_id":76561198095134205,"connected_time":1986000000000,"state":"active","ping":101},{"user_id":33,"name":"jinx, you owe me a soda","steam_id":76561198108685037,"connected_time":338000000000,"state":"active","ping":68},{"user_id":31,"name":"JustLooking","steam_id":76561198207877387,"connected_time":525000000000,"state":"active","ping":86},{"user_id":22,"name":"TDR","steam_id":76561198093243434,"connected_time":948000000000,"state":"active","ping":62},{"user_id":16,"name":"๖ۣۜ≫Ð!ϟ☾☉ℛÐ","steam_id":76561198095974361,"connected_time":1259000000000,"state":"active","ping":96},{"user_id":17,"name":"Chicken","steam_id":76561198220970932,"connected_time":1236000000000,"state":"active","ping":115},{"user_id":19,"name":"mighty","steam_id":76561198129310938,"connected_time":1007000000000,"state":"active","ping":54},{"user_id":34,"name":"a mass hallucination","steam_id":76561198259092181,"connected_time":337000000000,"state":"active","ping":60},{"user_id":21,"name":"somuch4stardust","steam_id":76561198174415170,"connected_time":960000000000,"state":"active","ping":45},{"user_id":35,"name":"Ashamedassisen","steam_id":76561198065356128,"connected_time":333000000000,"state":"active","ping":86},{"user_id":24,"name":"Evolution","steam_id":76561198144767370,"connected_time":865000000000,"state":"active","ping":55},{"user_id":29,"name":"Orion","steam_id":76561198415125637,"connected_time":675000000000,"state":"active","ping":94},{"user_id":32,"name":"Mr. Dick™","steam_id":76561198047309044,"connected_time":522000000000,"state":"active","ping":54},{"user_id":38,"name":"Gino Fratelli","steam_id":76561198166409300,"connected_time":223000000000,"state":"active","ping":60},{"user_id":37,"name":"RainbowHeavy","steam_id":76561198070800159,"connected_time":323000000000,"state":"active","ping":102}]},{"server_id":37,"name":"Uncletopia | Chicago | 6 | All Maps","name_short":"chi-6","host":"chi-2.us.uncletopia.com","port":27025,"enabled":true,"region":"us-central","cc":"us","latitude":41.881832,"longitude":-87.62318,"reserved":0,"last_update":"0001-01-01T00:00:00Z","name_a2s":"Uncletopia | Chicago | 6 | All Maps","protocol":17,"map":"pl_borneo","folder":"tf","game":"Team Fortress","app_id":440,"player_count":4,"max_players":24,"Bots":0,"server_type":"Dedicated","server_os":"Linux","password":true,"vac":true,"version":"7757534","steam_id":85568392924866363,"keywords":["nocrits","nodmgspread","payload","uncletopia"],"game_id":440,"stv_port":27026,"stv_name":"Uncletopia | Chicago | 6 | All Maps | STV","players":[{"user_id":4,"name":"HappyHitchhiker","steam_id":76561198080228697,"connected_time":221000000000,"state":"active","ping":60},{"user_id":5,"name":"Nedrog the Lost","steam_id":76561198272270244,"connected_time":200000000000,"state":"active","ping":71},{"user_id":8,"name":"ImBread","steam_id":76561198347426531,"connected_time":97000000000,"state":"active","ping":133},{"user_id":7,"name":"TypicalGiftig","steam_id":76561198170372495,"connected_time":135000000000,"state":"active","ping":63}]},{"server_id":38,"name":"Uncletopia | Chicago | 7 | Stopwatch Beta","name_short":"chi-7","host":"chi-2.us.uncletopia.com","port":27035,"enabled":true,"region":"us-central","cc":"us","latitude":41.881832,"longitude":-87.62318,"reserved":0,"last_update":"0001-01-01T00:00:00Z","name_a2s":"Uncletopia | Chicago | 7 | Stopwatch Beta","protocol":17,"map":"pl_barnblitz","folder":"tf","game":"Team Fortress","app_id":440,"player_count":0,"max_players":24,"Bots":0,"server_type":"Dedicated","server_os":"Linux","password":true,"vac":true,"version":"7757534","steam_id":85568392924866364,"keywords":["nocrits","nodmgspread","payload","uncletopia"],"game_id":440,"stv_port":27036,"stv_name":"Uncletopia | Chicago | 7 | Stopwatch Beta | STV","players":null},{"server_id":39,"name":"Uncletopia | Chicago | 8 | Community","name_short":"chi-8","host":"chi-2.us.uncletopia.com","port":27045,"enabled":true,"region":"us-central","cc":"us","latitude":41.881832,"longitude":-87.62318,"reserved":0,"last_update":"0001-01-01T00:00:00Z","name_a2s":"Uncletopia | Chicago | 8 | Community","protocol":17,"map":"workshop/cp_propaganda_b18.ugc1603743849","folder":"tf","game":"Team Fortress","app_id":440,"player_count":8,"max_players":24,"Bots":0,"server_type":"Dedicated","server_os":"Linux","password":true,"vac":true,"version":"7757534","steam_id":85568392924866365,"keywords":["cp","nocrits","nodmgspread","uncletopia"],"game_id":440,"stv_port":27046,"stv_name":"Uncletopia | Chicago | 8 | Community | STV","players":[{"user_id":60,"name":"bash -lc ./asshat.sh","steam_id":76561198004584315,"connected_time":1211000000000,"state":"active","ping":63},{"user_id":61,"name":"[DEEP] Danmar33","steam_id":76561198056453091,"connected_time":1106000000000,"state":"active","ping":53},{"user_id":65,"name":"DannyM","steam_id":76561198351165570,"connected_time":282000000000,"state":"active","ping":59},{"user_id":62,"name":"lana_del_Rei.com","steam_id":76561198172447621,"connected_time":1002000000000,"state":"active","ping":88},{"user_id":68,"name":"Chucklez","steam_id":76561198058193135,"connected_time":112000000000,"state":"active","ping":55},{"user_id":34,"name":"PinguEnjoyer6","steam_id":76561199186723516,"connected_time":3328000000000,"state":"active","ping":86},{"user_id":32,"name":"*Gage*","steam_id":76561197975233869,"connected_time":3470000000000,"state":"active","ping":89},{"user_id":42,"name":"I Am Alpharius","steam_id":76561198799197135,"connected_time":3058000000000,"state":"active","ping":56}]},{"server_id":8,"name":"Uncletopia | Dallas | 1 | All Maps","name_short":"dal-1","host":"dal-1.us.uncletopia.com","port":27015,"enabled":true,"region":"us-central","cc":"us","latitude":32.779167,"longitude":-96.80889,"reserved":0,"last_update":"0001-01-01T00:00:00Z","name_a2s":"Uncletopia | Dallas | 1 | All Maps","protocol":17,"map":"koth_cascade","folder":"tf","game":"Team Fortress","app_id":440,"player_count":0,"max_players":24,"Bots":0,"server_type":"Dedicated","server_os":"Linux","password":true,"vac":true,"version":"7757534","steam_id":85568392924469986,"keywords":["cp","nocrits","nodmgspread","uncletopia"],"game_id":440,"stv_port":27016,"stv_name":"Uncletopia | Dallas | 1 | All Maps | STV","players":null},{"server_id":108,"name":"Uncletopia | Dallas | 2 | All Maps","name_short":"dal-2","host":"dal-1.us.uncletopia.com","port":27025,"enabled":true,"region":"us-central","cc":"us","latitude":32.779167,"longitude":-96.80889,"reserved":0,"last_update":"0001-01-01T00:00:00Z","name_a2s":"Uncletopia | Dallas | 2 | All Maps","protocol":17,"map":"cp_snakewater_final1","folder":"tf","game":"Team Fortress","app_id":440,"player_count":21,"max_players":24,"Bots":0,"server_type":"Dedicated","server_os":"Linux","password":true,"vac":true,"version":"7757534","steam_id":85568392924469988,"keywords":["cp","nocrits","nodmgspread","uncletopia"],"game_id":440,"stv_port":27026,"stv_name":"Uncletopia | Dallas | 2 | All Maps | STV","players":[{"user_id":277,"name":"chanoc","steam_id":76561198026734746,"connected_time":1585000000000,"state":"active","ping":80},{"user_id":292,"name":"turd ferguson","steam_id":76561198071620782,"connected_time":684000000000,"state":"active","ping":102},{"user_id":285,"name":"profile name","steam_id":76561198990223681,"connected_time":1348000000000,"state":"active","ping":123},{"user_id":293,"name":"J.D. Cash Money","steam_id":76561198265582585,"connected_time":438000000000,"state":"active","ping":69},{"user_id":284,"name":"esper","steam_id":76561198200002859,"connected_time":1447000000000,"state":"active","ping":60},{"user_id":261,"name":"Blue Necromancer","steam_id":76561198275755146,"connected_time":3389000000000,"state":"active","ping":95},{"user_id":262,"name":"ZimuxNowChock","steam_id":76561198799942265,"connected_time":3360000000000,"state":"active","ping":104},{"user_id":274,"name":"the lazy gamer","steam_id":76561199070127039,"connected_time":1996000000000,"state":"active","ping":121},{"user_id":270,"name":"Funboringness","steam_id":76561198115648071,"connected_time":2378000000000,"state":"active","ping":36},{"user_id":271,"name":"PLak-PlaK","steam_id":76561198115688122,"connected_time":2198000000000,"state":"active","ping":90},{"user_id":129,"name":"endo","steam_id":76561197995204381,"connected_time":18429000000000,"state":"active","ping":75},{"user_id":249,"name":"Dreamy \u003c3","steam_id":76561198129908521,"connected_time":5005000000000,"state":"active","ping":70},{"user_id":241,"name":"【 caden / karma 】","steam_id":76561198072276429,"connected_time":6097000000000,"state":"active","ping":83},{"user_id":141,"name":"smugdoug","steam_id":76561198021381678,"connected_time":17466000000000,"state":"active","ping":65},{"user_id":290,"name":"Team Fortress Forever","steam_id":76561199192132061,"connected_time":1017000000000,"state":"active","ping":77},{"user_id":294,"name":"Buswolley","steam_id":76561197995205571,"connected_time":435000000000,"state":"active","ping":80},{"user_id":211,"name":"Voraxic","steam_id":76561198148266239,"connected_time":9605000000000,"state":"active","ping":74},{"user_id":276,"name":"Humon Player","steam_id":76561198013593178,"connected_time":1591000000000,"state":"active","ping":48},{"user_id":295,"name":"floppy muppet","steam_id":76561198003076261,"connected_time":406000000000,"state":"active","ping":90},{"user_id":291,"name":"Bad Pyro","steam_id":76561199019647814,"connected_time":993000000000,"state":"active","ping":49},{"user_id":124,"name":"Joe Swanson","steam_id":76561199089907740,"connected_time":19368000000000,"state":"active","ping":60}]},{"server_id":5,"name":"Uncletopia | Frankfurt | 1 | All Maps","name_short":"frk-1","host":"frk-1.de.uncletopia.com","port":27015,"enabled":true,"region":"eu","cc":"de","latitude":50.110924,"longitude":8.682127,"reserved":0,"last_update":"0001-01-01T00:00:00Z","name_a2s":"Uncletopia | Frankfurt | 1 | All Maps","protocol":17,"map":"cp_process_final","folder":"tf","game":"Team Fortress","app_id":440,"player_count":15,"max_players":24,"Bots":0,"server_type":"Dedicated","server_os":"Linux","password":true,"vac":true,"version":"7757534","steam_id":85568392924469989,"keywords":["cp","nocrits","nodmgspread","uncletopia"],"game_id":440,"stv_port":27016,"stv_name":"Uncletopia | Frankfurt | 1 | All Maps | STV","players":[{"user_id":20,"name":"Torttu","steam_id":76561198013980029,"connected_time":2261000000000,"state":"active","ping":58},{"user_id":22,"name":"Kuntmeister","steam_id":76561198016076012,"connected_time":2177000000000,"state":"active","ping":124},{"user_id":33,"name":"Pilaarius","steam_id":76561198120273212,"connected_time":883000000000,"state":"active","ping":106},{"user_id":24,"name":"nibs","steam_id":76561198040099538,"connected_time":2094000000000,"state":"active","ping":75},{"user_id":29,"name":"THE MICROWAVER","steam_id":76561198327068020,"connected_time":1686000000000,"state":"active","ping":72},{"user_id":41,"name":"Charrky","steam_id":76561198054398642,"connected_time":357000000000,"state":"active","ping":45},{"user_id":34,"name":"Kvicha Kvaratskhelia","steam_id":76561198179339326,"connected_time":875000000000,"state":"active","ping":75},{"user_id":38,"name":"mumbler","steam_id":76561197970641239,"connected_time":445000000000,"state":"active","ping":46},{"user_id":39,"name":"xavier","steam_id":76561198076494034,"connected_time":410000000000,"state":"active","ping":51},{"user_id":40,"name":"ScoutPilgrim","steam_id":76561198013007215,"connected_time":391000000000,"state":"active","ping":43},{"user_id":42,"name":"Vershal Smershal","steam_id":76561198116223995,"connected_time":325000000000,"state":"active","ping":53},{"user_id":43,"name":"Mr Manager","steam_id":76561198021775885,"connected_time":254000000000,"state":"active","ping":47},{"user_id":44,"name":"MDehh","steam_id":76561198057745208,"connected_time":251000000000,"state":"active","ping":50},{"user_id":46,"name":"EagleFire","steam_id":76561198352938403,"connected_time":30000000000,"state":"active","ping":61},{"user_id":47,"name":"TheFox.tf","steam_id":76561197996851702,"connected_time":20000000000,"state":"active","ping":65}]},{"server_id":110,"name":"Uncletopia | Frankfurt | 2 | All Maps","name_short":"frk-2","host":"frk-1.de.uncletopia.com","port":27025,"enabled":true,"region":"eu","cc":"de","latitude":50.110924,"longitude":8.682127,"reserved":0,"last_update":"0001-01-01T00:00:00Z","name_a2s":"Uncletopia | Frankfurt | 2 | All Maps","protocol":17,"map":"pl_frontier_final","folder":"tf","game":"Team Fortress","app_id":440,"player_count":1,"max_players":24,"Bots":0,"server_type":"Dedicated","server_os":"Linux","password":true,"vac":true,"version":"7757534","steam_id":85568392924469990,"keywords":["nocrits","nodmgspread","payload","uncletopia"],"game_id":440,"stv_port":27026,"stv_name":"Uncletopia | Frankfurt | 2 | All Maps | STV","players":[{"user_id":23,"name":"Klifton","steam_id":76561198803743443,"connected_time":1363000000000,"state":"active","ping":71}]},{"server_id":308,"name":"Uncletopia | Frankfurt | 3 | All Maps","name_short":"frk-3","host":"frk-1.de.uncletopia.com","port":27035,"enabled":true,"region":"eu","cc":"de","latitude":50.110924,"longitude":8.682127,"reserved":0,"last_update":"0001-01-01T00:00:00Z","name_a2s":"Uncletopia | Frankfurt | 3 | All Maps","protocol":17,"map":"pl_badwater","folder":"tf","game":"Team Fortress","app_id":440,"player_count":24,"max_players":24,"Bots":0,"server_type":"Dedicated","server_os":"Linux","password":true,"vac":true,"version":"7757534","steam_id":85568392924504274,"keywords":["nocrits","nodmgspread","payload","uncletopia"],"game_id":440,"stv_port":27036,"stv_name":"Uncletopia | Frankfurt | 3 | All Maps | STV","players":[{"user_id":550,"name":"SomethingDeveloper","steam_id":76561198369567080,"connected_time":456000000000,"state":"active","ping":60},{"user_id":517,"name":"chrisOnFire","steam_id":76561199093219473,"connected_time":1963000000000,"state":"active","ping":71},{"user_id":539,"name":"KLAMA  ❤","steam_id":76561198351549661,"connected_time":1207000000000,"state":"active","ping":74},{"user_id":510,"name":"happeanes","steam_id":76561198044293799,"connected_time":2417000000000,"state":"active","ping":58},{"user_id":535,"name":"peku","steam_id":76561198082074666,"connected_time":1488000000000,"state":"active","ping":75},{"user_id":551,"name":"Mogwai","steam_id":76561198078832314,"connected_time":435000000000,"state":"active","ping":76},{"user_id":546,"name":"DraGOs512","steam_id":76561198438519964,"connected_time":655000000000,"state":"active","ping":87},{"user_id":554,"name":"Dorich","steam_id":76561198287126217,"connected_time":1000000000,"state":"spawning","ping":72},{"user_id":509,"name":"cat","steam_id":76561198037237664,"connected_time":2624000000000,"state":"active","ping":67},{"user_id":543,"name":"Earthman","steam_id":76561198137424821,"connected_time":1012000000000,"state":"active","ping":53},{"user_id":545,"name":"daanvanliempt05","steam_id":76561198355398948,"connected_time":725000000000,"state":"active","ping":45},{"user_id":520,"name":"Eme","steam_id":76561198171619442,"connected_time":1872000000000,"state":"active","ping":75},{"user_id":524,"name":"SupLemon","steam_id":76561199147537491,"connected_time":1799000000000,"state":"active","ping":85},{"user_id":540,"name":"xoxoji19910501","steam_id":76561199037007405,"connected_time":1112000000000,"state":"active","ping":83},{"user_id":552,"name":"Lassie","steam_id":76561198131924713,"connected_time":427000000000,"state":"active","ping":53},{"user_id":542,"name":"shavedmyheadchangedmyname","steam_id":76561199042470246,"connected_time":1044000000000,"state":"active","ping":59},{"user_id":528,"name":"★","steam_id":76561198080168182,"connected_time":1782000000000,"state":"active","ping":75},{"user_id":537,"name":"Omni","steam_id":76561197964320557,"connected_time":1316000000000,"state":"active","ping":67},{"user_id":547,"name":"mun","steam_id":76561198256097786,"connected_time":643000000000,"state":"active","ping":39},{"user_id":530,"name":"The Punch","steam_id":76561198212488780,"connected_time":1776000000000,"state":"active","ping":61},{"user_id":548,"name":"chssdk","steam_id":76561198262231733,"connected_time":584000000000,"state":"active","ping":67},{"user_id":483,"name":"finbar","steam_id":76561198056812396,"connected_time":4799000000000,"state":"active","ping":86},{"user_id":538,"name":"onion knight","steam_id":76561198328543549,"connected_time":1299000000000,"state":"active","ping":83},{"user_id":502,"name":"Piox","steam_id":76561198125689157,"connected_time":3187000000000,"state":"active","ping":76}]},{"server_id":309,"name":"Uncletopia | Frankfurt | 4 | All Maps","name_short":"frk-4","host":"frk-1.de.uncletopia.com","port":27045,"enabled":true,"region":"eu","cc":"de","latitude":50.110924,"longitude":8.682127,"reserved":0,"last_update":"0001-01-01T00:00:00Z","name_a2s":"Uncletopia | Frankfurt | 4 | All Maps","protocol":17,"map":"koth_cascade","folder":"tf","game":"Team Fortress","app_id":440,"player_count":0,"max_players":24,"Bots":0,"server_type":"Dedicated","server_os":"Linux","password":true,"vac":true,"version":"7757534","steam_id":85568392924504275,"keywords":["cp","nocrits","nodmgspread","uncletopia"],"game_id":440,"stv_port":27046,"stv_name":"Uncletopia | Frankfurt | 4 | All Maps | STV","players":null},{"server_id":310,"name":"Uncletopia | Frankfurt | 5 | All Maps","name_short":"frk-5","host":"frk-1.de.uncletopia.com","port":27055,"enabled":true,"region":"eu","cc":"de","latitude":50.110924,"longitude":8.682127,"reserved":0,"last_update":"0001-01-01T00:00:00Z","name_a2s":"Uncletopia | Frankfurt | 5 | All Maps","protocol":17,"map":"pl_barnblitz","folder":"tf","game":"Team Fortress","app_id":440,"player_count":24,"max_players":24,"Bots":0,"server_type":"Dedicated","server_os":"Linux","password":true,"vac":true,"version":"7757534","steam_id":85568392924504277,"keywords":["nocrits","nodmgspread","payload","uncletopia"],"game_id":440,"stv_port":27056,"stv_name":"Uncletopia | Frankfurt | 5 | All Maps | STV","players":[{"user_id":556,"name":"Bits\u0026Peices","steam_id":76561199225453607,"connected_time":85000000000,"state":"active","ping":103},{"user_id":555,"name":"Rubi","steam_id":76561198139410003,"connected_time":120000000000,"state":"active","ping":88},{"user_id":361,"name":"Falamp™","steam_id":76561198300127856,"connected_time":6501000000000,"state":"active","ping":82},{"user_id":523,"name":"ඞbominasus 2137  #SaveTF2","steam_id":76561198030062981,"connected_time":952000000000,"state":"active","ping":67},{"user_id":345,"name":"Milca_11 [Original Onslaught]","steam_id":76561198848650365,"connected_time":7408000000000,"state":"active","ping":87},{"user_id":496,"name":"Waltcha","steam_id":76561198007691468,"connected_time":1630000000000,"state":"active","ping":60},{"user_id":552,"name":"Michael","steam_id":76561198003146906,"connected_time":160000000000,"state":"active","ping":59},{"user_id":433,"name":"Senator Armstrong","steam_id":76561198984346408,"connected_time":3439000000000,"state":"active","ping":74},{"user_id":536,"name":"BoPoe","steam_id":76561198093333882,"connected_time":499000000000,"state":"active","ping":126},{"user_id":544,"name":"☁ Lou1smeister ☁","steam_id":76561198004032968,"connected_time":330000000000,"state":"active","ping":74},{"user_id":502,"name":"FUKTARD2005","steam_id":76561198839121591,"connected_time":1544000000000,"state":"active","ping":68},{"user_id":485,"name":"Kati","steam_id":76561198007231088,"connected_time":1886000000000,"state":"active","ping":65},{"user_id":553,"name":"SantiTzePug","steam_id":76561199049615996,"connected_time":156000000000,"state":"active","ping":75},{"user_id":521,"name":"X45Y","steam_id":76561198112534025,"connected_time":984000000000,"state":"active","ping":45},{"user_id":525,"name":"quabens","steam_id":76561198277858041,"connected_time":828000000000,"state":"active","ping":98},{"user_id":526,"name":"DogeDudeFX","steam_id":76561199154459568,"connected_time":810000000000,"state":"active","ping":99},{"user_id":538,"name":"horny jail","steam_id":76561199402473517,"connected_time":476000000000,"state":"active","ping":142},{"user_id":391,"name":"DeCypher [She/Her]","steam_id":76561198171992619,"connected_time":4917000000000,"state":"active","ping":66},{"user_id":557,"name":"Hamtastic","steam_id":76561198879769410,"connected_time":77000000000,"state":"active","ping":84},{"user_id":529,"name":"moser23","steam_id":76561197960543171,"connected_time":713000000000,"state":"active","ping":52},{"user_id":498,"name":"risan071","steam_id":76561198280690113,"connected_time":1614000000000,"state":"active","ping":86},{"user_id":542,"name":"anders McFlanders","steam_id":76561198022811995,"connected_time":406000000000,"state":"active","ping":62},{"user_id":543,"name":"Wabbajack","steam_id":76561199147501514,"connected_time":385000000000,"state":"active","ping":74},{"user_id":453,"name":"Kron Krian","steam_id":76561198122541754,"connected_time":2961000000000,"state":"active","ping":75}]},{"server_id":311,"name":"Uncletopia | Frankfurt | 6 | All Maps","name_short":"frk-6","host":"frk-1.de.uncletopia.com","port":27065,"enabled":true,"region":"eu","cc":"de","latitude":50.110924,"longitude":8.682127,"reserved":0,"last_update":"0001-01-01T00:00:00Z","name_a2s":"Uncletopia | Frankfurt | 6 | All Maps","protocol":17,"map":"pl_barnblitz","folder":"tf","game":"Team Fortress","app_id":440,"player_count":24,"max_players":24,"Bots":0,"server_type":"Dedicated","server_os":"Linux","password":true,"vac":true,"version":"7757534","steam_id":85568392924504278,"keywords":["nocrits","nodmgspread","payload","uncletopia"],"game_id":440,"stv_port":27066,"stv_name":"Uncletopia | Frankfurt | 6 | All Maps | STV","players":[{"user_id":237,"name":"Gimli","steam_id":76561198004149706,"connected_time":1120000000000,"state":"active","ping":82},{"user_id":243,"name":"pepper","steam_id":76561198059782462,"connected_time":993000000000,"state":"active","ping":50},{"user_id":161,"name":"bigwish | bmod.tf","steam_id":76561197997859723,"connected_time":6825000000000,"state":"active","ping":71},{"user_id":229,"name":"悪","steam_id":76561198095879087,"connected_time":1335000000000,"state":"active","ping":60},{"user_id":255,"name":"Not A Fake Uncletopia Server","steam_id":76561198152871288,"connected_time":356000000000,"state":"active","ping":60},{"user_id":223,"name":"Doriian","steam_id":76561198071438810,"connected_time":2581000000000,"state":"active","ping":80},{"user_id":240,"name":"mt","steam_id":76561197961319303,"connected_time":1073000000000,"state":"active","ping":51},{"user_id":241,"name":"The Nintendo Guy #killsavetf2","steam_id":76561199069995033,"connected_time":1069000000000,"state":"active","ping":52},{"user_id":257,"name":"Space","steam_id":76561198021572167,"connected_time":250000000000,"state":"active","ping":60},{"user_id":207,"name":"Clitorina","steam_id":76561198077570815,"connected_time":3327000000000,"state":"active","ping":59},{"user_id":258,"name":"Canny8","steam_id":76561199142022395,"connected_time":208000000000,"state":"active","ping":65},{"user_id":234,"name":"2023 Pegging Champion","steam_id":76561198060638325,"connected_time":1155000000000,"state":"active","ping":44},{"user_id":253,"name":"PASITA","steam_id":76561198347903262,"connected_time":472000000000,"state":"active","ping":81},{"user_id":224,"name":"w0rm","steam_id":76561197981402363,"connected_time":2137000000000,"state":"active","ping":58},{"user_id":208,"name":"After8","steam_id":76561198090750865,"connected_time":3283000000000,"state":"active","ping":67},{"user_id":182,"name":"decommandpro","steam_id":76561198971647041,"connected_time":5237000000000,"state":"active","ping":86},{"user_id":252,"name":"John Noob","steam_id":76561197999170026,"connected_time":527000000000,"state":"active","ping":94},{"user_id":157,"name":"Penis Contortionist","steam_id":76561198073663784,"connected_time":7078000000000,"state":"active","ping":43},{"user_id":219,"name":"Valoxi","steam_id":76561197995042938,"connected_time":2918000000000,"state":"active","ping":69},{"user_id":189,"name":"Trebox78","steam_id":76561198071963357,"connected_time":4768000000000,"state":"active","ping":80},{"user_id":251,"name":"Birdseye","steam_id":76561198025852216,"connected_time":638000000000,"state":"active","ping":61},{"user_id":244,"name":"sam-","steam_id":76561198013770973,"connected_time":889000000000,"state":"active","ping":139},{"user_id":227,"name":"Cheers Mate!","steam_id":76561198265192382,"connected_time":2024000000000,"state":"active","ping":64},{"user_id":250,"name":"★poyo★","steam_id":76561198150078959,"connected_time":661000000000,"state":"active","ping":82}]},{"server_id":23,"name":"Uncletopia | Frankfurt | 7 | Stopwatch Beta","name_short":"frk-7","host":"frk-1.de.uncletopia.com","port":27075,"enabled":true,"region":"eu","cc":"de","latitude":50.110924,"longitude":8.682127,"reserved":0,"last_update":"0001-01-01T00:00:00Z","name_a2s":"Uncletopia | Frankfurt | 7 | Stopwatch Beta","protocol":17,"map":"workshop/koth_ramjam_rc1.ugc459778887","folder":"tf","game":"Team Fortress","app_id":440,"player_count":0,"max_players":24,"Bots":0,"server_type":"Dedicated","server_os":"Linux","password":true,"vac":true,"version":"7757534","steam_id":85568392924742827,"keywords":["cp","nocrits","nodmgspread","uncletopia"],"game_id":440,"stv_port":27076,"stv_name":"Uncletopia | Frankfurt | 7 | Stopwatch Beta | STV","players":null},{"server_id":24,"name":"Uncletopia | Frankfurt | 8 | Community","name_short":"frk-8","host":"frk-1.de.uncletopia.com","port":27085,"enabled":true,"region":"eu","cc":"de","latitude":50.110924,"longitude":8.682127,"reserved":0,"last_update":"0001-01-01T00:00:00Z","name_a2s":"Uncletopia | Frankfurt | 8 | Community","protocol":17,"map":"workshop/koth_ashville_final.ugc2130459942","folder":"tf","game":"Team Fortress","app_id":440,"player_count":0,"max_players":24,"Bots":0,"server_type":"Dedicated","server_os":"Linux","password":true,"vac":true,"version":"7757534","steam_id":85568392924742828,"keywords":["cp","nocrits","nodmgspread","uncletopia"],"game_id":440,"stv_port":27086,"stv_name":"Uncletopia | Frankfurt | 8 | Community | STV","players":null},{"server_id":202,"name":"Uncletopia | Hong Kong | 1 | All Maps","name_short":"hgk-1","host":"hgk-1.hk.uncletopia.com","port":27015,"enabled":true,"region":"asia","cc":"hk","latitude":22.302711,"longitude":114.177216,"reserved":0,"last_update":"0001-01-01T00:00:00Z","name_a2s":"Uncletopia | Hong Kong | 1 | All Maps","protocol":17,"map":"koth_cascade","folder":"tf","game":"Team Fortress","app_id":440,"player_count":0,"max_players":24,"Bots":0,"server_type":"Dedicated","server_os":"Linux","password":true,"vac":true,"version":"7757534","steam_id":85568392924494504,"keywords":["cp","nocrits","nodmgspread","uncletopia"],"game_id":440,"stv_port":27016,"stv_name":"Uncletopia | Hong Kong | 1 | All Maps | STV","players":null},{"server_id":1,"name":"Uncletopia | Los Angeles | 1 | All Maps","name_short":"lax-1","host":"lax-1.us.uncletopia.com","port":27015,"enabled":true,"region":"us-west","cc":"us","latitude":33.94279,"longitude":-118.41004,"reserved":0,"last_update":"0001-01-01T00:00:00Z","name_a2s":"Uncletopia | Los Angeles | 1 | All Maps","protocol":17,"map":"koth_lakeside_final","folder":"tf","game":"Team Fortress","app_id":440,"player_count":0,"max_players":24,"Bots":0,"server_type":"Dedicated","server_os":"Linux","password":true,"vac":true,"version":"7757534","steam_id":85568392924469991,"keywords":["cp","nocrits","nodmgspread","uncletopia"],"game_id":440,"stv_port":27016,"stv_name":"Uncletopia | Los Angeles | 1 | All Maps | STV","players":null},{"server_id":112,"name":"Uncletopia | Los Angeles | 2 | All Maps","name_short":"lax-2","host":"lax-1.us.uncletopia.com","port":27025,"enabled":true,"region":"us-west","cc":"us","latitude":33.94279,"longitude":-118.41004,"reserved":0,"last_update":"0001-01-01T00:00:00Z","name_a2s":"Uncletopia | Los Angeles | 2 | All Maps","protocol":17,"map":"pl_badwater","folder":"tf","game":"Team Fortress","app_id":440,"player_count":0,"max_players":24,"Bots":0,"server_type":"Dedicated","server_os":"Linux","password":true,"vac":true,"version":"7757534","steam_id":85568392924469992,"keywords":["nocrits","nodmgspread","payload","uncletopia"],"game_id":440,"stv_port":27026,"stv_name":"Uncletopia | Los Angeles | 2 | All Maps | STV","players":null},{"server_id":324,"name":"Uncletopia | Los Angeles | 3 | All Maps","name_short":"lax-3","host":"lax-1.us.uncletopia.com","port":27035,"enabled":true,"region":"us-west","cc":"us","latitude":33.94279,"longitude":-118.41004,"reserved":0,"last_update":"0001-01-01T00:00:00Z","name_a2s":"Uncletopia | Los Angeles | 3 | All Maps","protocol":17,"map":"cp_sunshine","folder":"tf","game":"Team Fortress","app_id":440,"player_count":1,"max_players":24,"Bots":0,"server_type":"Dedicated","server_os":"Linux","password":true,"vac":true,"version":"7757534","steam_id":85568392924510198,"keywords":["cp","nocrits","nodmgspread","uncletopia"],"game_id":440,"stv_port":27036,"stv_name":"Uncletopia | Los Angeles | 3 | All Maps | STV","players":[{"user_id":7,"name":"Ricky PeePee","steam_id":76561198269636900,"connected_time":31000000000,"state":"active","ping":104}]},{"server_id":25,"name":"Uncletopia | Los Angeles | 4 | Stopwatch Beta","name_short":"lax-4","host":"lax-1.us.uncletopia.com","port":27045,"enabled":true,"region":"us-west","cc":"us","latitude":33.94279,"longitude":-118.41004,"reserved":0,"last_update":"0001-01-01T00:00:00Z","name_a2s":"Uncletopia | Los Angeles | 4 | Stopwatch Beta","protocol":17,"map":"pl_swiftwater_final1","folder":"tf","game":"Team Fortress","app_id":440,"player_count":0,"max_players":24,"Bots":0,"server_type":"Dedicated","server_os":"Linux","password":true,"vac":true,"version":"7757534","steam_id":85568392924510199,"keywords":["nocrits","nodmgspread","payload","uncletopia"],"game_id":440,"stv_port":27046,"stv_name":"Uncletopia | Los Angeles | 4 | Stopwatch Beta | STV","players":null},{"server_id":11,"name":"Uncletopia | London | 1 | All Maps","name_short":"lon-1","host":"lon-1.uk.uncletopia.com","port":27015,"enabled":true,"region":"eu","cc":"gb","latitude":51.509865,"longitude":-0.118092,"reserved":0,"last_update":"0001-01-01T00:00:00Z","name_a2s":"Uncletopia | London | 1 | All Maps","protocol":17,"map":"pl_barnblitz","folder":"tf","game":"Team Fortress","app_id":440,"player_count":24,"max_players":24,"Bots":0,"server_type":"Dedicated","server_os":"Linux","password":true,"vac":true,"version":"7757534","steam_id":85568392924367362,"keywords":["nocrits","nodmgspread","payload","uncletopia"],"game_id":440,"stv_port":27016,"stv_name":"Uncletopia | London | 1 | All Maps | STV","players":[{"user_id":480,"name":"on1on (roughly chopped)","steam_id":76561197995304137,"connected_time":4110000000000,"state":"active","ping":73},{"user_id":527,"name":"Officer Big Mac","steam_id":76561197972008326,"connected_time":562000000000,"state":"active","ping":74},{"user_id":448,"name":"Bobirulez","steam_id":76561198009125458,"connected_time":5891000000000,"state":"active","ping":75},{"user_id":519,"name":"Mafew","steam_id":76561198119993886,"connected_time":823000000000,"state":"active","ping":57},{"user_id":520,"name":"Jag är ett anka","steam_id":76561198059978438,"connected_time":795000000000,"state":"active","ping":60},{"user_id":521,"name":"f l я n","steam_id":76561198079595755,"connected_time":782000000000,"state":"active","ping":54},{"user_id":528,"name":"BSantos57","steam_id":76561198000597094,"connected_time":554000000000,"state":"active","ping":95},{"user_id":530,"name":"kotamine","steam_id":76561198068907991,"connected_time":426000000000,"state":"active","ping":70},{"user_id":498,"name":"TheBeardedM1G","steam_id":76561198040208946,"connected_time":2588000000000,"state":"active","ping":46},{"user_id":513,"name":"jerf(god i want estrogen)","steam_id":76561199213901239,"connected_time":1789000000000,"state":"active","ping":46},{"user_id":523,"name":"Davey","steam_id":76561198256879107,"connected_time":755000000000,"state":"active","ping":74},{"user_id":475,"name":"cheriberry","steam_id":76561198093577036,"connected_time":4525000000000,"state":"active","ping":71},{"user_id":534,"name":"tay zondayzay tonday","steam_id":76561198381889211,"connected_time":66000000000,"state":"active","ping":136},{"user_id":535,"name":"Hegyi tahó F2P","steam_id":76561199219150356,"connected_time":44000000000,"state":"active","ping":91},{"user_id":500,"name":"trite","steam_id":76561197983765323,"connected_time":2556000000000,"state":"active","ping":55},{"user_id":517,"name":"dunduu","steam_id":76561198875240717,"connected_time":1170000000000,"state":"active","ping":79},{"user_id":495,"name":"Luk3","steam_id":76561198340519063,"connected_time":2741000000000,"state":"active","ping":65},{"user_id":452,"name":"Ged","steam_id":76561198079288943,"connected_time":5640000000000,"state":"active","ping":103},{"user_id":529,"name":"socaramel","steam_id":76561197984480336,"connected_time":472000000000,"state":"active","ping":79},{"user_id":473,"name":"Carl","steam_id":76561198045638738,"connected_time":4545000000000,"state":"active","ping":82},{"user_id":499,"name":"Tomo -ƒ$-","steam_id":76561199015097595,"connected_time":2584000000000,"state":"active","ping":45},{"user_id":525,"name":"fumo?","steam_id":76561198148074472,"connected_time":677000000000,"state":"active","ping":46},{"user_id":532,"name":"Tort","steam_id":76561198329646769,"connected_time":378000000000,"state":"active","ping":56},{"user_id":526,"name":"афганистан ветер","steam_id":76561198147277460,"connected_time":654000000000,"state":"active","ping":60}]},{"server_id":114,"name":"Uncletopia | London | 2 | All Maps","name_short":"lon-2","host":"lon-1.uk.uncletopia.com","port":27025,"enabled":true,"region":"eu","cc":"gb","latitude":51.509865,"longitude":-0.118092,"reserved":0,"last_update":"0001-01-01T00:00:00Z","name_a2s":"Uncletopia | London | 2 | All Maps","protocol":17,"map":"pl_barnblitz","folder":"tf","game":"Team Fortress","app_id":440,"player_count":24,"max_players":24,"Bots":0,"server_type":"Dedicated","server_os":"Linux","password":true,"vac":true,"version":"7757534","steam_id":85568392924470941,"keywords":["nocrits","nodmgspread","payload","uncletopia"],"game_id":440,"stv_port":27026,"stv_name":"Uncletopia | London | 2 | All Maps | STV","players":[{"user_id":316,"name":"VORTEX(COMMS OPEN)","steam_id":76561199074746528,"connected_time":651000000000,"state":"active","ping":71},{"user_id":331,"name":"Zodiac","steam_id":76561199034380287,"connected_time":83000000000,"state":"active","ping":201},{"user_id":317,"name":"Johan","steam_id":76561199380849468,"connected_time":639000000000,"state":"active","ping":61},{"user_id":318,"name":"Asfreild","steam_id":76561198055901120,"connected_time":579000000000,"state":"active","ping":75},{"user_id":307,"name":"pfear","steam_id":76561197999207328,"connected_time":1005000000000,"state":"active","ping":89},{"user_id":255,"name":"Soup Dog","steam_id":76561198237878322,"connected_time":3500000000000,"state":"active","ping":70},{"user_id":326,"name":"Big Al","steam_id":76561198067692439,"connected_time":395000000000,"state":"active","ping":103},{"user_id":327,"name":".::[SerafeTTiN]::.","steam_id":76561198009471724,"connected_time":365000000000,"state":"active","ping":99},{"user_id":264,"name":"DocTwoEight","steam_id":76561198153488940,"connected_time":3298000000000,"state":"active","ping":75},{"user_id":279,"name":"madman hesus","steam_id":76561198159702599,"connected_time":2553000000000,"state":"active","ping":83},{"user_id":244,"name":"psilo","steam_id":76561198148059714,"connected_time":3820000000000,"state":"active","ping":118},{"user_id":245,"name":"Anonymous47007","steam_id":76561199005211417,"connected_time":3776000000000,"state":"active","ping":78},{"user_id":265,"name":"Carrot Arc","steam_id":76561198164957006,"connected_time":3296000000000,"state":"active","ping":87},{"user_id":312,"name":"aspect","steam_id":76561198315032412,"connected_time":917000000000,"state":"active","ping":67},{"user_id":295,"name":"Meki","steam_id":76561198108279631,"connected_time":1448000000000,"state":"active","ping":106},{"user_id":296,"name":"Vezage","steam_id":76561198064916164,"connected_time":1431000000000,"state":"active","ping":72},{"user_id":314,"name":"Doctor Pyro","steam_id":76561198240400118,"connected_time":770000000000,"state":"active","ping":174},{"user_id":309,"name":"EGirlGang","steam_id":76561198257435792,"connected_time":978000000000,"state":"active","ping":84},{"user_id":313,"name":"Topi","steam_id":76561198165732391,"connected_time":821000000000,"state":"active","ping":86},{"user_id":276,"name":"Edison Trent","steam_id":76561198067133145,"connected_time":2787000000000,"state":"active","ping":68},{"user_id":329,"name":"Dolcelatte","steam_id":76561198038501770,"connected_time":343000000000,"state":"active","ping":67},{"user_id":330,"name":"funkliner","steam_id":76561198436902492,"connected_time":343000000000,"state":"active","ping":125},{"user_id":311,"name":"Topia","steam_id":76561198163571788,"connected_time":935000000000,"state":"active","ping":87},{"user_id":325,"name":"ishbell","steam_id":76561198211990879,"connected_time":499000000000,"state":"active","ping":48}]},{"server_id":320,"name":"Uncletopia | London | 3 | All Maps","name_short":"lon-3","host":"lon-1.uk.uncletopia.com","port":27035,"enabled":true,"region":"eu","cc":"gb","latitude":51.509865,"longitude":-0.118092,"reserved":0,"last_update":"0001-01-01T00:00:00Z","name_a2s":"Uncletopia | London | 3 | All Maps","protocol":17,"map":"cp_process_final","folder":"tf","game":"Team Fortress","app_id":440,"player_count":23,"max_players":24,"Bots":0,"server_type":"Dedicated","server_os":"Linux","password":true,"vac":true,"version":"7757534","steam_id":85568392924510192,"keywords":["cp","nocrits","nodmgspread","uncletopia"],"game_id":440,"stv_port":27036,"stv_name":"Uncletopia | London | 3 | All Maps | STV","players":[{"user_id":410,"name":"TheFallenFox","steam_id":76561199074190919,"connected_time":1168000000000,"state":"active","ping":63},{"user_id":428,"name":"Misctek","steam_id":76561199037541925,"connected_time":256000000000,"state":"active","ping":60},{"user_id":395,"name":"Egor Pomidor","steam_id":76561199175688390,"connected_time":1920000000000,"state":"active","ping":83},{"user_id":424,"name":"Krabs","steam_id":76561198161679477,"connected_time":306000000000,"state":"active","ping":47},{"user_id":415,"name":"poliakov.noam","steam_id":76561199259322961,"connected_time":781000000000,"state":"active","ping":101},{"user_id":416,"name":"Mowelic","steam_id":76561198873641222,"connected_time":762000000000,"state":"active","ping":89},{"user_id":423,"name":"APLHAooz","steam_id":76561199116065096,"connected_time":344000000000,"state":"active","ping":48},{"user_id":432,"name":"Dr. Funkenstein","steam_id":76561197977816210,"connected_time":117000000000,"state":"active","ping":57},{"user_id":403,"name":"bAdmon","steam_id":76561197961785793,"connected_time":1354000000000,"state":"active","ping":64},{"user_id":372,"name":"Kestrel","steam_id":76561198144033005,"connected_time":3115000000000,"state":"active","ping":54},{"user_id":433,"name":"Burpman","steam_id":76561198022897937,"connected_time":24000000000,"state":"spawning","ping":50},{"user_id":400,"name":"KRÁL PODSVĚTÍ","steam_id":76561198060698967,"connected_time":1554000000000,"state":"active","ping":54},{"user_id":399,"name":"THVG","steam_id":76561199156685368,"connected_time":1594000000000,"state":"active","ping":69},{"user_id":406,"name":"SKFBoge","steam_id":76561198269038278,"connected_time":1235000000000,"state":"active","ping":71},{"user_id":397,"name":"kojitori","steam_id":76561198838072150,"connected_time":1634000000000,"state":"active","ping":44},{"user_id":425,"name":"LGM-30G \"Minuteman\"","steam_id":76561198371292653,"connected_time":303000000000,"state":"active","ping":86},{"user_id":429,"name":"average critter","steam_id":76561198056152479,"connected_time":247000000000,"state":"active","ping":30},{"user_id":401,"name":"IONYCH","steam_id":76561198378350040,"connected_time":1482000000000,"state":"active","ping":88},{"user_id":430,"name":"Pong Lenis","steam_id":76561199050054470,"connected_time":220000000000,"state":"active","ping":97},{"user_id":405,"name":"Sirky","steam_id":76561198082407725,"connected_time":1307000000000,"state":"active","ping":52},{"user_id":431,"name":"powej","steam_id":76561198056381418,"connected_time":205000000000,"state":"active","ping":31},{"user_id":402,"name":"giclure :;","steam_id":76561197986362828,"connected_time":1362000000000,"state":"active","ping":54},{"user_id":413,"name":"Pauler le one","steam_id":76561198398152855,"connected_time":1080000000000,"state":"active","ping":88}]},{"server_id":321,"name":"Uncletopia | London | 4 | All Maps","name_short":"lon-4","host":"lon-1.uk.uncletopia.com","port":27045,"enabled":true,"region":"eu","cc":"gb","latitude":51.509865,"longitude":-0.118092,"reserved":0,"last_update":"0001-01-01T00:00:00Z","name_a2s":"Uncletopia | London | 4 | All Maps","protocol":17,"map":"koth_viaduct","folder":"tf","game":"Team Fortress","app_id":440,"player_count":0,"max_players":24,"Bots":0,"server_type":"Dedicated","server_os":"Linux","password":true,"vac":true,"version":"7757534","steam_id":85568392924510193,"keywords":["cp","nocrits","nodmgspread","uncletopia"],"game_id":440,"stv_port":27046,"stv_name":"Uncletopia | London | 4 | All Maps | STV","players":null},{"server_id":21,"name":"Uncletopia | London | 5 | All Maps","name_short":"lon-5","host":"lon-1.uk.uncletopia.com","port":27055,"enabled":true,"region":"eu","cc":"gb","latitude":51.509865,"longitude":-0.118092,"reserved":0,"last_update":"0001-01-01T00:00:00Z","name_a2s":"Uncletopia | London | 5 | All Maps","protocol":17,"map":"pl_upward","folder":"tf","game":"Team Fortress","app_id":440,"player_count":24,"max_players":24,"Bots":0,"server_type":"Dedicated","server_os":"Linux","password":true,"vac":true,"version":"7757534","steam_id":85568392924742829,"keywords":["nocrits","nodmgspread","payload","uncletopia"],"game_id":440,"stv_port":27056,"stv_name":"Uncletopia | London | 5 | All Maps | STV","players":[{"user_id":81,"name":"Bigson","steam_id":76561198114214362,"connected_time":230000000000,"state":"active","ping":55},{"user_id":70,"name":"Icaras","steam_id":76561198416724843,"connected_time":1342000000000,"state":"active","ping":45},{"user_id":56,"name":"GrzMik","steam_id":76561198061951968,"connected_time":1625000000000,"state":"active","ping":89},{"user_id":53,"name":"a freakin' knight","steam_id":76561198371341044,"connected_time":1940000000000,"state":"active","ping":174},{"user_id":31,"name":"Badass gangnam style minion","steam_id":76561198297602677,"connected_time":3466000000000,"state":"active","ping":203},{"user_id":54,"name":"meatsoupcube","steam_id":76561198276802249,"connected_time":1766000000000,"state":"active","ping":102},{"user_id":50,"name":"***** ***","steam_id":76561198048037379,"connected_time":2086000000000,"state":"active","ping":99},{"user_id":29,"name":"MGE Bro","steam_id":76561198796600155,"connected_time":3581000000000,"state":"active","ping":92},{"user_id":51,"name":"ZE DISPENSER GOES HEEYA!!","steam_id":76561198951441673,"connected_time":2077000000000,"state":"active","ping":44},{"user_id":43,"name":"Valentine","steam_id":76561198121343565,"connected_time":2241000000000,"state":"active","ping":60},{"user_id":45,"name":"donal rump","steam_id":76561198136239861,"connected_time":2174000000000,"state":"active","ping":46},{"user_id":63,"name":"hades","steam_id":76561199435854673,"connected_time":1423000000000,"state":"active","ping":52},{"user_id":48,"name":"r0nja_","steam_id":76561197963298322,"connected_time":2143000000000,"state":"active","ping":75},{"user_id":57,"name":"nyanezt","steam_id":76561198253734265,"connected_time":1518000000000,"state":"active","ping":102},{"user_id":58,"name":"Gearless","steam_id":76561198362367074,"connected_time":1507000000000,"state":"active","ping":86},{"user_id":59,"name":"AYE","steam_id":76561198181368101,"connected_time":1505000000000,"state":"active","ping":67},{"user_id":78,"name":"Fridge","steam_id":76561198071665589,"connected_time":730000000000,"state":"active","ping":102},{"user_id":68,"name":"KFC Enjoyer","steam_id":76561198840259819,"connected_time":1349000000000,"state":"active","ping":59},{"user_id":77,"name":"Arecibo","steam_id":76561198014359615,"connected_time":806000000000,"state":"active","ping":62},{"user_id":69,"name":"A Shiny Meat Bicycle","steam_id":76561198358757709,"connected_time":1348000000000,"state":"active","ping":163},{"user_id":76,"name":"Dooble donk man look at me donk","steam_id":76561198225523596,"connected_time":1113000000000,"state":"active","ping":64},{"user_id":75,"name":"ELON MUSK","steam_id":76561198132788284,"connected_time":1251000000000,"state":"active","ping":56},{"user_id":80,"name":"KingVoker","steam_id":76561198039602539,"connected_time":664000000000,"state":"active","ping":75},{"user_id":74,"name":"Abhorrent","steam_id":76561198056338288,"connected_time":1289000000000,"state":"active","ping":48}]},{"server_id":22,"name":"Uncletopia | London | 6 | All Maps","name_short":"lon-6","host":"lon-1.uk.uncletopia.com","port":27065,"enabled":true,"region":"eu","cc":"gb","latitude":51.509865,"longitude":-0.118092,"reserved":0,"last_update":"0001-01-01T00:00:00Z","name_a2s":"Uncletopia | London | 6 | All Maps","protocol":17,"map":"cp_dustbowl","folder":"tf","game":"Team Fortress","app_id":440,"player_count":0,"max_players":24,"Bots":0,"server_type":"Dedicated","server_os":"Linux","password":true,"vac":true,"version":"7757534","steam_id":85568392924742830,"keywords":["cp","nocrits","nodmgspread","uncletopia"],"game_id":440,"stv_port":27066,"stv_name":"Uncletopia | London | 6 | All Maps | STV","players":null},{"server_id":40,"name":"Uncletopia | London | 7 | No Payload","name_short":"lon-7","host":"lon-1.uk.uncletopia.com","port":27075,"enabled":true,"region":"eu","cc":"gb","latitude":51.509865,"longitude":-0.118092,"reserved":0,"last_update":"0001-01-01T00:00:00Z","name_a2s":"Uncletopia | London | 7 | No Payload","protocol":17,"map":"cp_steel","folder":"tf","game":"Team Fortress","app_id":440,"player_count":21,"max_players":24,"Bots":0,"server_type":"Dedicated","server_os":"Linux","password":true,"vac":true,"version":"7757534","steam_id":85568392924964314,"keywords":["cp","nocrits","nodmgspread","uncletopia"],"game_id":440,"stv_port":27076,"stv_name":"Uncletopia | London | 7 | No Payload | STV","players":[{"user_id":73,"name":"Minimi","steam_id":76561198873850443,"connected_time":2165000000000,"state":"active","ping":38},{"user_id":76,"name":"Staffy #CommunityServers♡♡","steam_id":76561198859722036,"connected_time":1882000000000,"state":"active","ping":123},{"user_id":81,"name":"i am bread","steam_id":76561199180277321,"connected_time":862000000000,"state":"active","ping":57},{"user_id":85,"name":"Vialdauty","steam_id":76561198325220094,"connected_time":637000000000,"state":"active","ping":55},{"user_id":97,"name":"Amon Gus","steam_id":76561199094540960,"connected_time":127000000000,"state":"active","ping":73},{"user_id":86,"name":"Oki","steam_id":76561198138444201,"connected_time":637000000000,"state":"active","ping":50},{"user_id":14,"name":"TSx* Osa__PL","steam_id":76561198027016799,"connected_time":5227000000000,"state":"active","ping":72},{"user_id":15,"name":"TSx* Naxer","steam_id":76561198011986779,"connected_time":5188000000000,"state":"active","ping":75},{"user_id":88,"name":"omar whateew omar","steam_id":76561198078862151,"connected_time":483000000000,"state":"active","ping":66},{"user_id":95,"name":"noobdog","steam_id":76561198036486671,"connected_time":186000000000,"state":"active","ping":71},{"user_id":55,"name":"Qwaden","steam_id":76561198881784698,"connected_time":3673000000000,"state":"active","ping":82},{"user_id":56,"name":"Chocofrolik","steam_id":76561198454779847,"connected_time":3450000000000,"state":"active","ping":62},{"user_id":90,"name":"Tomau5","steam_id":76561198027409468,"connected_time":426000000000,"state":"active","ping":51},{"user_id":91,"name":"BELADIT","steam_id":76561198011911501,"connected_time":422000000000,"state":"active","ping":75},{"user_id":70,"name":"Mr.Cobretti","steam_id":76561198089905715,"connected_time":2519000000000,"state":"active","ping":80},{"user_id":71,"name":"Pinkchup","steam_id":76561198106802803,"connected_time":2507000000000,"state":"active","ping":75},{"user_id":58,"name":"nick murphy","steam_id":76561198086592534,"connected_time":3299000000000,"state":"active","ping":41},{"user_id":92,"name":"justpixels","steam_id":76561198143717568,"connected_time":284000000000,"state":"active","ping":111},{"user_id":93,"name":"Queen","steam_id":76561198300679364,"connected_time":265000000000,"state":"active","ping":107},{"user_id":96,"name":"Mineboi98","steam_id":76561199076830259,"connected_time":182000000000,"state":"active","ping":138},{"user_id":94,"name":"Xineoph","steam_id":76561198011568457,"connected_time":248000000000,"state":"active","ping":66}]},{"server_id":41,"name":"Uncletopia | London | 8 | Community","name_short":"lon-8","host":"lon-1.uk.uncletopia.com","port":27085,"enabled":true,"region":"eu","cc":"gb","latitude":51.509865,"longitude":-0.118092,"reserved":0,"last_update":"0001-01-01T00:00:00Z","name_a2s":"Uncletopia | London | 8 | Community","protocol":17,"map":"workshop/pl_badwater_pro_v12.ugc2142942074","folder":"tf","game":"Team Fortress","app_id":440,"player_count":22,"max_players":24,"Bots":0,"server_type":"Dedicated","server_os":"Linux","password":true,"vac":true,"version":"7757534","steam_id":85568392924964315,"keywords":["nocrits","nodmgspread","payload","uncletopia"],"game_id":440,"stv_port":27086,"stv_name":"Uncletopia | London | 8 | Community | STV","players":[{"user_id":225,"name":"Er Pomata","steam_id":76561198133085347,"connected_time":2651000000000,"state":"active","ping":60},{"user_id":246,"name":"rabbitface26","steam_id":76561198327540113,"connected_time":899000000000,"state":"active","ping":44},{"user_id":165,"name":"PizzaPete123","steam_id":76561198089478290,"connected_time":7938000000000,"state":"active","ping":45},{"user_id":243,"name":"Spetse","steam_id":76561197990649972,"connected_time":1332000000000,"state":"active","ping":91},{"user_id":252,"name":"ムGeRmAn |×UA×ム","steam_id":76561199044754898,"connected_time":233000000000,"state":"active","ping":76},{"user_id":241,"name":"tired","steam_id":76561198046838168,"connected_time":1377000000000,"state":"active","ping":61},{"user_id":255,"name":"Bumblebee","steam_id":76561198033551105,"connected_time":20000000000,"state":"spawning","ping":123},{"user_id":253,"name":"Qpangfire","steam_id":76561198094354139,"connected_time":164000000000,"state":"active","ping":46},{"user_id":248,"name":"akakez","steam_id":76561198095432821,"connected_time":847000000000,"state":"active","ping":115},{"user_id":228,"name":"Fat Pigeon","steam_id":76561198817940142,"connected_time":2296000000000,"state":"active","ping":46},{"user_id":233,"name":"static","steam_id":76561198836825741,"connected_time":1824000000000,"state":"active","ping":45},{"user_id":240,"name":"player","steam_id":76561198054474684,"connected_time":1428000000000,"state":"active","ping":86},{"user_id":215,"name":"James ;)","steam_id":76561198123159605,"connected_time":3305000000000,"state":"active","ping":53},{"user_id":251,"name":"boudgra","steam_id":76561198035380064,"connected_time":351000000000,"state":"active","ping":47},{"user_id":176,"name":"Topme","steam_id":76561198091734693,"connected_time":6653000000000,"state":"active","ping":64},{"user_id":245,"name":"Adrenaline","steam_id":76561197970852048,"connected_time":1086000000000,"state":"active","ping":71},{"user_id":232,"name":"ALARM","steam_id":76561198120686521,"connected_time":1991000000000,"state":"active","ping":59},{"user_id":239,"name":"yaldabaoth","steam_id":76561198084606869,"connected_time":1574000000000,"state":"active","ping":143},{"user_id":254,"name":"masterfoxfn","steam_id":76561198999258509,"connected_time":80000000000,"state":"active","ping":69},{"user_id":220,"name":"Aregularhuman","steam_id":76561198343319848,"connected_time":3113000000000,"state":"active","ping":47},{"user_id":227,"name":"benibachi","steam_id":76561198190816499,"connected_time":2476000000000,"state":"active","ping":82},{"user_id":221,"name":"I AM DOT","steam_id":76561198354118090,"connected_time":3080000000000,"state":"active","ping":83}]},{"server_id":300,"name":"Uncletopia | Montréal | 1 | All Maps","name_short":"mtl-1","host":"mtl-1.ca.uncletopia.com","port":27015,"enabled":true,"region":"us-east","cc":"ca","latitude":45.50889,"longitude":-73.56167,"reserved":0,"last_update":"0001-01-01T00:00:00Z","name_a2s":"Uncletopia | Montréal | 1 | All Maps","protocol":17,"map":"koth_viaduct","folder":"tf","game":"Team Fortress","app_id":440,"player_count":0,"max_players":24,"Bots":0,"server_type":"Dedicated","server_os":"Linux","password":true,"vac":true,"version":"7757534","steam_id":85568392924500087,"keywords":["cp","nocrits","nodmgspread","uncletopia"],"game_id":440,"stv_port":27016,"stv_name":"Uncletopia | Montréal | 1 | All Maps | STV","players":null},{"server_id":301,"name":"Uncletopia | Montréal | 2 | All Maps","name_short":"mtl-2","host":"mtl-1.ca.uncletopia.com","port":27025,"enabled":true,"region":"us-east","cc":"ca","latitude":45.50889,"longitude":-73.56167,"reserved":0,"last_update":"0001-01-01T00:00:00Z","name_a2s":"Uncletopia | Montréal | 2 | All Maps","protocol":17,"map":"pl_snowycoast","folder":"tf","game":"Team Fortress","app_id":440,"player_count":0,"max_players":24,"Bots":0,"server_type":"Dedicated","server_os":"Linux","password":true,"vac":true,"version":"7757534","steam_id":85568392924500088,"keywords":["nocrits","nodmgspread","payload","uncletopia"],"game_id":440,"stv_port":27026,"stv_name":"Uncletopia | Montréal | 2 | All Maps | STV","players":null},{"server_id":302,"name":"Uncletopia | Montréal | 3 | All Maps","name_short":"mtl-3","host":"mtl-1.ca.uncletopia.com","port":27035,"enabled":true,"region":"us-east","cc":"ca","latitude":45.50889,"longitude":-73.56167,"reserved":0,"last_update":"0001-01-01T00:00:00Z","name_a2s":"Uncletopia | Montréal | 3 | All Maps","protocol":17,"map":"pl_swiftwater_final1","folder":"tf","game":"Team Fortress","app_id":440,"player_count":0,"max_players":24,"Bots":0,"server_type":"Dedicated","server_os":"Linux","password":true,"vac":true,"version":"7757534","steam_id":85568392924500089,"keywords":["nocrits","nodmgspread","payload","uncletopia"],"game_id":440,"stv_port":27036,"stv_name":"Uncletopia | Montréal | 3 | All Maps | STV","players":null},{"server_id":303,"name":"Uncletopia | Montréal | 4 | No Payload","name_short":"mtl-4","host":"mtl-1.ca.uncletopia.com","port":27045,"enabled":true,"region":"us-east","cc":"ca","latitude":45.50889,"longitude":-73.56167,"reserved":0,"last_update":"0001-01-01T00:00:00Z","name_a2s":"Uncletopia | Montréal | 4 | No Payload","protocol":17,"map":"cp_gravelpit","folder":"tf","game":"Team Fortress","app_id":440,"player_count":0,"max_players":24,"Bots":0,"server_type":"Dedicated","server_os":"Linux","password":true,"vac":true,"version":"7757534","steam_id":85568392924500090,"keywords":["cp","nocrits","nodmgspread","uncletopia"],"game_id":440,"stv_port":27046,"stv_name":"Uncletopia | Montréal | 4 | No Payload | STV","players":null},{"server_id":13,"name":"Uncletopia | New York City | 1 | All Maps","name_short":"nyc-1","host":"nyc-1.us.uncletopia.com","port":27015,"enabled":true,"region":"us-east","cc":"us","latitude":40.73061,"longitude":-73.93524,"reserved":0,"last_update":"0001-01-01T00:00:00Z","name_a2s":"Uncletopia | New York City | 1 | All Maps","protocol":17,"map":"koth_highpass","folder":"tf","game":"Team Fortress","app_id":440,"player_count":5,"max_players":24,"Bots":0,"server_type":"Dedicated","server_os":"Linux","password":true,"vac":true,"version":"7757534","steam_id":85568392924469993,"keywords":["cp","nocrits","nodmgspread","uncletopia"],"game_id":440,"stv_port":27016,"stv_name":"Uncletopia | New York City | 1 | All Maps | STV","players":[{"user_id":22,"name":"mycoolcucumber","steam_id":76561198177586211,"connected_time":382000000000,"state":"active","ping":75},{"user_id":23,"name":"Ianc11","steam_id":76561198116227422,"connected_time":177000000000,"state":"active","ping":132},{"user_id":24,"name":"The Cannoneer","steam_id":76561198071368120,"connected_time":147000000000,"state":"active","ping":55},{"user_id":11,"name":"Zoro from Wano Country","steam_id":76561198221619936,"connected_time":4314000000000,"state":"active","ping":85},{"user_id":14,"name":"Conrad Murray","steam_id":76561198141682876,"connected_time":3751000000000,"state":"active","ping":49}]},{"server_id":14,"name":"Uncletopia | New York City | 2 | All Maps","name_short":"nyc-2","host":"nyc-1.us.uncletopia.com","port":27025,"enabled":true,"region":"us-east","cc":"us","latitude":40.73061,"longitude":-73.93524,"reserved":0,"last_update":"0001-01-01T00:00:00Z","name_a2s":"Uncletopia | New York City | 2 | All Maps","protocol":17,"map":"pl_borneo","folder":"tf","game":"Team Fortress","app_id":440,"player_count":24,"max_players":24,"Bots":0,"server_type":"Dedicated","server_os":"Linux","password":true,"vac":true,"version":"7757534","steam_id":85568392924469994,"keywords":["nocrits","nodmgspread","payload","uncletopia"],"game_id":440,"stv_port":27026,"stv_name":"Uncletopia | New York City | 2 | All Maps | STV","players":[{"user_id":228,"name":"white ray","steam_id":76561198026664629,"connected_time":1518000000000,"state":"active","ping":44},{"user_id":256,"name":"Lil' ButterHead","steam_id":76561198344264859,"connected_time":131000000000,"state":"active","ping":106},{"user_id":194,"name":"The Land Admiral","steam_id":76561198159356609,"connected_time":3661000000000,"state":"active","ping":53},{"user_id":206,"name":"ROGUE-PLANET","steam_id":76561198116023052,"connected_time":2655000000000,"state":"active","ping":84},{"user_id":241,"name":"Romo","steam_id":76561198243101572,"connected_time":1129000000000,"state":"active","ping":83},{"user_id":213,"name":"Coughdrop Addict [F2P]","steam_id":76561199254281550,"connected_time":2282000000000,"state":"active","ping":51},{"user_id":242,"name":"Reckless Sorcerer","steam_id":76561198062370413,"connected_time":1125000000000,"state":"active","ping":71},{"user_id":252,"name":"Defiant Statement.","steam_id":76561199101373436,"connected_time":434000000000,"state":"active","ping":71},{"user_id":257,"name":"Hoofuyu","steam_id":76561199022142345,"connected_time":115000000000,"state":"active","ping":84},{"user_id":244,"name":"LunarrD","steam_id":76561198811220107,"connected_time":1059000000000,"state":"active","ping":61},{"user_id":223,"name":"Vl@iM@","steam_id":76561198044762641,"connected_time":1755000000000,"state":"active","ping":103},{"user_id":258,"name":"Bozanimal","steam_id":76561198044096897,"connected_time":79000000000,"state":"active","ping":44},{"user_id":212,"name":"Resident Thrussy Lender","steam_id":76561198071790583,"connected_time":2287000000000,"state":"active","ping":53},{"user_id":200,"name":"Spaces","steam_id":76561198853826710,"connected_time":3296000000000,"state":"active","ping":68},{"user_id":251,"name":"Guil","steam_id":76561197993289176,"connected_time":703000000000,"state":"active","ping":69},{"user_id":253,"name":"Dr. Philurmom","steam_id":76561199389132651,"connected_time":232000000000,"state":"active","ping":58},{"user_id":189,"name":"aiden","steam_id":76561198449527009,"connected_time":4094000000000,"state":"active","ping":62},{"user_id":230,"name":"nup noodle","steam_id":76561198101278181,"connected_time":1459000000000,"state":"active","ping":95},{"user_id":259,"name":"titan","steam_id":76561198197388678,"connected_time":75000000000,"state":"active","ping":69},{"user_id":246,"name":"megaboi796","steam_id":76561198122995438,"connected_time":1032000000000,"state":"active","ping":65},{"user_id":260,"name":"you forgot the sauce","steam_id":76561198387016713,"connected_time":51000000000,"state":"active","ping":62},{"user_id":234,"name":"BERBBLES","steam_id":76561198815107994,"connected_time":1356000000000,"state":"active","ping":46},{"user_id":215,"name":"ChaoticAngel","steam_id":76561198293528217,"connected_time":2249000000000,"state":"active","ping":56},{"user_id":250,"name":"SuperFresh","steam_id":76561198200723198,"connected_time":871000000000,"state":"active","ping":52}]},{"server_id":15,"name":"Uncletopia | New York City | 3 | Stopwatch Beta","name_short":"nyc-3","host":"nyc-1.us.uncletopia.com","port":27035,"enabled":true,"region":"us-east","cc":"us","latitude":40.73061,"longitude":-73.93524,"reserved":0,"last_update":"0001-01-01T00:00:00Z","name_a2s":"Uncletopia | New York City | 3 | Stopwatch Beta","protocol":17,"map":"koth_lakeside_final","folder":"tf","game":"Team Fortress","app_id":440,"player_count":0,"max_players":24,"Bots":0,"server_type":"Dedicated","server_os":"Linux","password":true,"vac":true,"version":"7757534","steam_id":85568392924742820,"keywords":["cp","nocrits","nodmgspread","uncletopia"],"game_id":440,"stv_port":27036,"stv_name":"Uncletopia | New York City | 3 | Stopwatch Beta | STV","players":null},{"server_id":16,"name":"Uncletopia | New York City | 4 | Community","name_short":"nyc-4","host":"nyc-1.us.uncletopia.com","port":27045,"enabled":true,"region":"us-east","cc":"us","latitude":40.73061,"longitude":-73.93524,"reserved":0,"last_update":"0001-01-01T00:00:00Z","name_a2s":"Uncletopia | New York City | 4 | Community","protocol":17,"map":"pl_swiftwater_final1","folder":"tf","game":"Team Fortress","app_id":440,"player_count":0,"max_players":24,"Bots":0,"server_type":"Dedicated","server_os":"Linux","password":true,"vac":true,"version":"7757534","steam_id":85568392924742821,"keywords":["nocrits","nodmgspread","payload","uncletopia"],"game_id":440,"stv_port":27046,"stv_name":"Uncletopia | New York City | 4 | Community | STV","players":null},{"server_id":142,"name":"Uncletopia | São Paulo | 1 | All Maps","name_short":"sao-1","host":"sao-1.br.uncletopia.com","port":27015,"enabled":true,"region":"sa","cc":"br","latitude":-23.533773,"longitude":-46.62529,"reserved":0,"last_update":"0001-01-01T00:00:00Z","name_a2s":"Uncletopia | São Paulo | 1 | All Maps","protocol":17,"map":"koth_lakeside_final","folder":"tf","game":"Team Fortress","app_id":440,"player_count":0,"max_players":24,"Bots":0,"server_type":"Dedicated","server_os":"Linux","password":true,"vac":true,"version":"7757534","steam_id":85568392924469996,"keywords":["cp","nocrits","nodmgspread","uncletopia"],"game_id":440,"stv_port":27016,"stv_name":"Uncletopia | São Paulo | 1 | All Maps | STV","players":null},{"server_id":143,"name":"Uncletopia | São Paulo | 2 | All Maps","name_short":"sao-2","host":"sao-2.br.uncletopia.com","port":27015,"enabled":true,"region":"sa","cc":"br","latitude":-23.533773,"longitude":-46.62529,"reserved":0,"last_update":"0001-01-01T00:00:00Z","name_a2s":"Uncletopia | São Paulo | 2 | All Maps","protocol":17,"map":"koth_cascade","folder":"tf","game":"Team Fortress","app_id":440,"player_count":0,"max_players":24,"Bots":0,"server_type":"Dedicated","server_os":"Linux","password":true,"vac":true,"version":"7757534","steam_id":85568392924485349,"keywords":["cp","nocrits","nodmgspread","uncletopia"],"game_id":440,"stv_port":27016,"stv_name":"Uncletopia | São Paulo | 2 | All Maps | STV","players":null},{"server_id":7,"name":"Uncletopia | Seattle | 1 | All Maps","name_short":"sea-1","host":"sea-1.us.uncletopia.com","port":27015,"enabled":true,"region":"us-west","cc":"us","latitude":47.608013,"longitude":-122.33517,"reserved":0,"last_update":"0001-01-01T00:00:00Z","name_a2s":"Uncletopia | Seattle | 1 | All Maps","protocol":17,"map":"pl_upward","folder":"tf","game":"Team Fortress","app_id":440,"player_count":24,"max_players":24,"Bots":0,"server_type":"Dedicated","server_os":"Linux","password":true,"vac":true,"version":"7757534","steam_id":85568392924469997,"keywords":["nocrits","nodmgspread","payload","uncletopia"],"game_id":440,"stv_port":27016,"stv_name":"Uncletopia | Seattle | 1 | All Maps | STV","players":[{"user_id":206,"name":"[TrC] Dackstrus","steam_id":76561197973518509,"connected_time":2906000000000,"state":"active","ping":52},{"user_id":223,"name":"Tom","steam_id":76561198070630154,"connected_time":1509000000000,"state":"active","ping":71},{"user_id":236,"name":"internet","steam_id":76561197975080641,"connected_time":102000000000,"state":"active","ping":64},{"user_id":234,"name":"God approaches","steam_id":76561198081617990,"connected_time":502000000000,"state":"active","ping":111},{"user_id":43,"name":"fancyfreak","steam_id":76561198326466375,"connected_time":14042000000000,"state":"active","ping":74},{"user_id":113,"name":"autumn","steam_id":76561199000378486,"connected_time":9378000000000,"state":"active","ping":70},{"user_id":238,"name":"Combustionaut","steam_id":76561198164877813,"connected_time":69000000000,"state":"active","ping":46},{"user_id":214,"name":"Prof. Eggnog","steam_id":76561198193389166,"connected_time":1977000000000,"state":"active","ping":129},{"user_id":239,"name":"The Bombinomicon","steam_id":76561198209881263,"connected_time":0,"state":"spawning","ping":42},{"user_id":208,"name":"Tyler\u0026Fingers","steam_id":76561198085154485,"connected_time":2737000000000,"state":"active","ping":133},{"user_id":220,"name":"Marc G","steam_id":76561198062650363,"connected_time":1744000000000,"state":"active","ping":93},{"user_id":235,"name":"shy guy","steam_id":76561198151246059,"connected_time":266000000000,"state":"active","ping":67},{"user_id":199,"name":"Keamy","steam_id":76561199471434875,"connected_time":3609000000000,"state":"active","ping":40},{"user_id":215,"name":"toes","steam_id":76561198221151676,"connected_time":1968000000000,"state":"active","ping":60},{"user_id":181,"name":"1dk","steam_id":76561198135104742,"connected_time":5511000000000,"state":"active","ping":45},{"user_id":227,"name":"AmiableNebula","steam_id":76561198094306627,"connected_time":1202000000000,"state":"active","ping":75},{"user_id":216,"name":"iMxmories","steam_id":76561198163295584,"connected_time":1963000000000,"state":"active","ping":75},{"user_id":229,"name":"Cousin Balki","steam_id":76561198070496395,"connected_time":876000000000,"state":"active","ping":134},{"user_id":185,"name":"DanielDaSavage9","steam_id":76561198401532367,"connected_time":5423000000000,"state":"active","ping":68},{"user_id":228,"name":"船尾","steam_id":76561198128764422,"connected_time":1009000000000,"state":"active","ping":27},{"user_id":230,"name":"tailorturtle","steam_id":76561198107481127,"connected_time":870000000000,"state":"active","ping":122},{"user_id":163,"name":"my monitor is off","steam_id":76561198074499537,"connected_time":6213000000000,"state":"active","ping":107},{"user_id":231,"name":"jacix3 [gay wolfgirl]{she/it}","steam_id":76561198205004165,"connected_time":834000000000,"state":"active","ping":58},{"user_id":237,"name":"SAMURAI!","steam_id":76561198140751601,"connected_time":101000000000,"state":"active","ping":39}]},{"server_id":119,"name":"Uncletopia | Seattle | 2 | All Maps","name_short":"sea-2","host":"sea-1.us.uncletopia.com","port":27025,"enabled":true,"region":"us-west","cc":"us","latitude":47.608013,"longitude":-122.33517,"reserved":0,"last_update":"0001-01-01T00:00:00Z","name_a2s":"Uncletopia | Seattle | 2 | All Maps","protocol":17,"map":"pl_upward","folder":"tf","game":"Team Fortress","app_id":440,"player_count":0,"max_players":24,"Bots":0,"server_type":"Dedicated","server_os":"Linux","password":true,"vac":true,"version":"7757534","steam_id":85568392924469998,"keywords":["nocrits","nodmgspread","payload","uncletopia"],"game_id":440,"stv_port":27026,"stv_name":"Uncletopia | Seattle | 2 | All Maps | STV","players":null},{"server_id":406,"name":"Uncletopia | Seattle | 3 | Stopwatch Beta","name_short":"sea-3","host":"sea-1.us.uncletopia.com","port":27035,"enabled":true,"region":"us-west","cc":"us","latitude":47.608013,"longitude":-122.33517,"reserved":0,"last_update":"0001-01-01T00:00:00Z","name_a2s":"Uncletopia | Seattle | 3 | Stopwatch Beta","protocol":17,"map":"cp_dustbowl","folder":"tf","game":"Team Fortress","app_id":440,"player_count":0,"max_players":24,"Bots":0,"server_type":"Dedicated","server_os":"Linux","password":true,"vac":true,"version":"7757534","steam_id":85568392924515217,"keywords":["cp","nocrits","nodmgspread","uncletopia"],"game_id":440,"stv_port":27036,"stv_name":"Uncletopia | Seattle | 3 | Stopwatch Beta | STV","players":null},{"server_id":17,"name":"Uncletopia | San Francisco | 1 | All Maps","name_short":"sfo-1","host":"sfo-1.us.uncletopia.com","port":27015,"enabled":true,"region":"us-west","cc":"us","latitude":37.77397,"longitude":-122.4313,"reserved":0,"last_update":"0001-01-01T00:00:00Z","name_a2s":"Uncletopia | San Francisco | 1 | All Maps","protocol":17,"map":"cp_process_final","folder":"tf","game":"Team Fortress","app_id":440,"player_count":0,"max_players":24,"Bots":0,"server_type":"Dedicated","server_os":"Linux","password":true,"vac":true,"version":"7757534","steam_id":85568392924469999,"keywords":["cp","nocrits","nodmgspread","uncletopia"],"game_id":440,"stv_port":27016,"stv_name":"Uncletopia | San Francisco | 1 | All Maps | STV","players":null},{"server_id":18,"name":"Uncletopia | San Francisco | 2 | All Maps","name_short":"sfo-2","host":"sfo-1.us.uncletopia.com","port":27025,"enabled":true,"region":"us-west","cc":"us","latitude":37.77397,"longitude":-122.4313,"reserved":0,"last_update":"0001-01-01T00:00:00Z","name_a2s":"Uncletopia | San Francisco | 2 | All Maps","protocol":17,"map":"koth_highpass","folder":"tf","game":"Team Fortress","app_id":440,"player_count":0,"max_players":24,"Bots":0,"server_type":"Dedicated","server_os":"Linux","password":true,"vac":true,"version":"7757534","steam_id":85568392924470000,"keywords":["cp","nocrits","nodmgspread","uncletopia"],"game_id":440,"stv_port":27026,"stv_name":"Uncletopia | San Francisco | 2 | All Maps | STV","players":null},{"server_id":19,"name":"Uncletopia | San Francisco | 3 | Stopwatch Beta","name_short":"sfo-3","host":"sfo-1.us.uncletopia.com","port":27035,"enabled":true,"region":"us-west","cc":"us","latitude":37.77397,"longitude":-122.4313,"reserved":0,"last_update":"0001-01-01T00:00:00Z","name_a2s":"Uncletopia | San Francisco | 3 | Stopwatch Beta","protocol":17,"map":"koth_lakeside_final","folder":"tf","game":"Team Fortress","app_id":440,"player_count":0,"max_players":24,"Bots":0,"server_type":"Dedicated","server_os":"Linux","password":true,"vac":true,"version":"7757534","steam_id":85568392924742824,"keywords":["cp","nocrits","nodmgspread","uncletopia"],"game_id":440,"stv_port":27036,"stv_name":"Uncletopia | San Francisco | 3 | Stopwatch Beta | STV","players":null},{"server_id":20,"name":"Uncletopia | San Francisco | 4 | Community","name_short":"sfo-4","host":"sfo-1.us.uncletopia.com","port":27045,"enabled":true,"region":"us-west","cc":"us","latitude":37.77397,"longitude":-122.4313,"reserved":0,"last_update":"0001-01-01T00:00:00Z","name_a2s":"Uncletopia | San Francisco | 4 | Community","protocol":17,"map":"cp_altitude","folder":"tf","game":"Team Fortress","app_id":440,"player_count":0,"max_players":24,"Bots":0,"server_type":"Dedicated","server_os":"Linux","password":true,"vac":true,"version":"7757534","steam_id":85568392924742826,"keywords":["cp","nocrits","nodmgspread","uncletopia"],"game_id":440,"stv_port":27046,"stv_name":"Uncletopia | San Francisco | 4 | Community | STV","players":null},{"server_id":141,"name":"Uncletopia | Sydney | 1 | All Maps","name_short":"syd-1","host":"syd-1.au.uncletopia.com","port":27015,"enabled":true,"region":"au","cc":"au","latitude":-33.865143,"longitude":151.2099,"reserved":0,"last_update":"0001-01-01T00:00:00Z","name_a2s":"Uncletopia | Sydney | 1 | All Maps","protocol":17,"map":"koth_viaduct","folder":"tf","game":"Team Fortress","app_id":440,"player_count":2,"max_players":24,"Bots":0,"server_type":"Dedicated","server_os":"Linux","password":true,"vac":true,"version":"7757534","steam_id":85568392924470001,"keywords":["cp","nocrits","nodmgspread","uncletopia"],"game_id":440,"stv_port":27016,"stv_name":"Uncletopia | Sydney | 1 | All Maps | STV","players":[{"user_id":3,"name":"don't bully me, I'll cum :(","steam_id":76561198306660831,"connected_time":1594000000000,"state":"active","ping":68},{"user_id":5,"name":"Kosa","steam_id":76561198349147160,"connected_time":432000000000,"state":"active","ping":317}]},{"server_id":123,"name":"Uncletopia | Sydney | 2 | All Maps","name_short":"syd-2","host":"syd-1.au.uncletopia.com","port":27025,"enabled":true,"region":"au","cc":"au","latitude":-33.865143,"longitude":151.2099,"reserved":0,"last_update":"0001-01-01T00:00:00Z","name_a2s":"Uncletopia | Sydney | 2 | All Maps","protocol":17,"map":"cp_process_final","folder":"tf","game":"Team Fortress","app_id":440,"player_count":0,"max_players":24,"Bots":0,"server_type":"Dedicated","server_os":"Linux","password":true,"vac":true,"version":"7757534","steam_id":85568392924470002,"keywords":["cp","nocrits","nodmgspread","uncletopia"],"game_id":440,"stv_port":27026,"stv_name":"Uncletopia | Sydney | 2 | All Maps | STV","players":null},{"server_id":395,"name":"Uncletopia | Sydney | 3 | All Maps","name_short":"syd-3","host":"syd-1.au.uncletopia.com","port":27035,"enabled":true,"region":"au","cc":"au","latitude":-33.865143,"longitude":151.2099,"reserved":0,"last_update":"0001-01-01T00:00:00Z","name_a2s":"Uncletopia | Sydney | 3 | All Maps","protocol":17,"map":"pl_swiftwater_final1","folder":"tf","game":"Team Fortress","app_id":440,"player_count":0,"max_players":24,"Bots":0,"server_type":"Dedicated","server_os":"Linux","password":true,"vac":true,"version":"7757534","steam_id":85568392925194467,"keywords":["nocrits","nodmgspread","payload","uncletopia"],"game_id":440,"stv_port":27036,"stv_name":"Uncletopia | Sydney | 3 | All Maps | STV","players":null},{"server_id":396,"name":"Uncletopia | Sydney | 4 | All Maps","name_short":"syd-4","host":"syd-1.au.uncletopia.com","port":27045,"enabled":true,"region":"au","cc":"au","latitude":-33.865143,"longitude":151.2099,"reserved":0,"last_update":"0001-01-01T00:00:00Z","name_a2s":"Uncletopia | Sydney | 4 | All Maps","protocol":17,"map":"koth_highpass","folder":"tf","game":"Team Fortress","app_id":440,"player_count":0,"max_players":24,"Bots":0,"server_type":"Dedicated","server_os":"Linux","password":true,"vac":true,"version":"7757534","steam_id":85568392925397958,"keywords":["cp","nocrits","nodmgspread","uncletopia"],"game_id":440,"stv_port":27046,"stv_name":"Uncletopia | Sydney | 4 | All Maps | STV","players":null},{"server_id":58,"name":"Uncletopia | Sydney | 5 | Stopwatch Beta","name_short":"syd-5","host":"syd-1.au.uncletopia.com","port":27055,"enabled":true,"region":"au","cc":"au","latitude":-33.865143,"longitude":151.2099,"reserved":0,"last_update":"0001-01-01T00:00:00Z","name_a2s":"Uncletopia | Sydney | 5 | Stopwatch Beta","protocol":17,"map":"koth_cascade","folder":"tf","game":"Team Fortress","app_id":440,"player_count":0,"max_players":24,"Bots":0,"server_type":"Dedicated","server_os":"Linux","password":true,"vac":true,"version":"7757534","steam_id":85568392925397959,"keywords":["cp","nocrits","nodmgspread","uncletopia"],"game_id":440,"stv_port":27056,"stv_name":"Uncletopia | Sydney | 5 | Stopwatch Beta | STV","players":null},{"server_id":59,"name":"Uncletopia | Sydney | 6 | Community","name_short":"syd-6","host":"syd-1.au.uncletopia.com","port":27065,"enabled":true,"region":"au","cc":"au","latitude":-33.865143,"longitude":151.2099,"reserved":0,"last_update":"0001-01-01T00:00:00Z","name_a2s":"Uncletopia | Sydney | 6 | Community","protocol":17,"map":"cp_snakewater_final1","folder":"tf","game":"Team Fortress","app_id":440,"player_count":0,"max_players":24,"Bots":0,"server_type":"Dedicated","server_os":"Linux","password":true,"vac":true,"version":"7757534","steam_id":85568392925397960,"keywords":["cp","nocrits","nodmgspread","uncletopia"],"game_id":440,"stv_port":27066,"stv_name":"Uncletopia | Sydney | 6 | Community | STV","players":null},{"server_id":49,"name":"Uncletopia | Warsaw | 1 | All Maps","name_short":"waw-1","host":"waw-1.pl.uncletopia.com","port":27015,"enabled":true,"region":"eu","cc":"pl","latitude":52.2297,"longitude":21.017532,"reserved":0,"last_update":"0001-01-01T00:00:00Z","name_a2s":"","protocol":0,"map":"","folder":"","game":"","app_id":0,"player_count":0,"max_players":0,"Bots":0,"server_type":"","server_os":"","password":false,"vac":false,"version":"","steam_id":0,"keywords":null,"game_id":0,"stv_port":0,"stv_name":"","players":null},{"server_id":50,"name":"Uncletopia | Warsaw | 2 | All Maps","name_short":"waw-2","host":"waw-1.pl.uncletopia.com","port":27025,"enabled":true,"region":"eu","cc":"pl","latitude":52.2297,"longitude":21.017532,"reserved":0,"last_update":"0001-01-01T00:00:00Z","name_a2s":"Uncletopia | Warsaw | 2 | All Maps","protocol":17,"map":"koth_viaduct","folder":"tf","game":"Team Fortress","app_id":440,"player_count":0,"max_players":24,"Bots":0,"server_type":"Dedicated","server_os":"Linux","password":true,"vac":true,"version":"7757534","steam_id":85568392925397851,"keywords":["cp","nocrits","nodmgspread","uncletopia"],"game_id":440,"stv_port":27026,"stv_name":"Uncletopia | Warsaw | 2 | All Maps | STV","players":null},{"server_id":51,"name":"Uncletopia | Warsaw | 3 | All Maps","name_short":"waw-3","host":"waw-1.pl.uncletopia.com","port":27035,"enabled":true,"region":"eu","cc":"pl","latitude":52.2297,"longitude":21.017532,"reserved":0,"last_update":"0001-01-01T00:00:00Z","name_a2s":"Uncletopia | Warsaw | 3 | All Maps","protocol":17,"map":"pl_badwater","folder":"tf","game":"Team Fortress","app_id":440,"player_count":0,"max_players":24,"Bots":0,"server_type":"Dedicated","server_os":"Linux","password":true,"vac":true,"version":"7757534","steam_id":85568392925397852,"keywords":["nocrits","nodmgspread","payload","uncletopia"],"game_id":440,"stv_port":27036,"stv_name":"Uncletopia | Warsaw | 3 | All Maps | STV","players":null},{"server_id":52,"name":"Uncletopia | Warsaw | 4 | All Maps","name_short":"waw-4","host":"waw-1.pl.uncletopia.com","port":27045,"enabled":true,"region":"eu","cc":"pl","latitude":52.2297,"longitude":21.017532,"reserved":0,"last_update":"0001-01-01T00:00:00Z","name_a2s":"Uncletopia | Warsaw | 4 | All Maps","protocol":17,"map":"koth_lakeside_final","folder":"tf","game":"Team Fortress","app_id":440,"player_count":0,"max_players":24,"Bots":0,"server_type":"Dedicated","server_os":"Linux","password":true,"vac":true,"version":"7757534","steam_id":85568392925397853,"keywords":["cp","nocrits","nodmgspread","uncletopia"],"game_id":440,"stv_port":27046,"stv_name":"Uncletopia | Warsaw | 4 | All Maps | STV","players":null},{"server_id":53,"name":"Uncletopia | Warsaw | 5 | Stopwatch Beta","name_short":"waw-5","host":"waw-1.pl.uncletopia.com","port":27055,"enabled":true,"region":"eu","cc":"pl","latitude":52.2297,"longitude":21.017532,"reserved":0,"last_update":"0001-01-01T00:00:00Z","name_a2s":"Uncletopia | Warsaw | 5 | Stopwatch Beta","protocol":17,"map":"pl_borneo","folder":"tf","game":"Team Fortress","app_id":440,"player_count":0,"max_players":24,"Bots":0,"server_type":"Dedicated","server_os":"Linux","password":true,"vac":true,"version":"7757534","steam_id":85568392925397854,"keywords":["nocrits","nodmgspread","payload","uncletopia"],"game_id":440,"stv_port":27056,"stv_name":"Uncletopia | Warsaw | 5 | Stopwatch Beta | STV","players":null},{"server_id":54,"name":"Uncletopia | Warsaw | 6 | Community","name_short":"waw-6","host":"waw-1.pl.uncletopia.com","port":27065,"enabled":true,"region":"eu","cc":"pl","latitude":52.2297,"longitude":21.017532,"reserved":0,"last_update":"0001-01-01T00:00:00Z","name_a2s":"Uncletopia | Warsaw | 6 | Community","protocol":17,"map":"koth_lakeside_final","folder":"tf","game":"Team Fortress","app_id":440,"player_count":0,"max_players":24,"Bots":0,"server_type":"Dedicated","server_os":"Linux","password":true,"vac":true,"version":"7757534","steam_id":85568392925397856,"keywords":["cp","nocrits","nodmgspread","uncletopia"],"game_id":440,"stv_port":27066,"stv_name":"Uncletopia | Warsaw | 6 | Community | STV","players":null}]}