{"status":true,"message":"","result":[{"server_id":9,"name":"Uncletopia | Atlanta | 1 | All Maps","name_short":"atl-1","host":"atl-1.us.uncletopia.com","port":27015,"enabled":true,"region":"us-east","cc":"us","latitude":33.753746,"longitude":-84.38633,"reserved":0,"last_update":"0001-01-01T00:00:00Z","name_a2s":"Uncletopia | Atlanta | 1 | All Maps","protocol":17,"map":"pl_upward","folder":"tf","game":"Team Fortress","app_id":440,"player_count":23,"max_players":24,"Bots":0,"server_type":"Dedicated","server_os":"Linux","password":true,"vac":true,"version":"7961495","steam_id":85568392924469982,"keywords":["nocrits","nodmgspread","payload","uncletopia"],"game_id":440,"stv_port":27016,"stv_name":"Uncletopia | Atlanta | 1 | All Maps | STV","players":[{"user_id":206,"name":"The Potato Romancer","steam_id":76561198204197648,"connected_time":310000000000,"state":"active","ping":102},{"user_id":198,"name":"isaiah","steam_id":76561197962607364,"connected_time":1034000000000,"state":"active","ping":50},{"user_id":194,"name":"Amy Roxwell","steam_id":76561198303391830,"connected_time":1089000000000,"state":"active","ping":105},{"user_id":202,"name":"Intro Bonito","steam_id":76561198119478838,"connected_time":559000000000,"state":"active","ping":45},{"user_id":150,"name":"gerf.","steam_id":76561198811706201,"connected_time":4854000000000,"state":"active","ping":45},{"user_id":204,"name":"The_Stomach_Stone_Surgeon","steam_id":76561198044643725,"connected_time":350000000000,"state":"active","ping":46},{"user_id":180,"name":"AttackCommander","steam_id":76561198111522679,"connected_time":2437000000000,"state":"active","ping":77},{"user_id":196,"name":"TV12Lime","steam_id":76561199036195384,"connected_time":1062000000000,"state":"active","ping":62},{"user_id":175,"name":"lil hog","steam_id":76561199230929836,"connected_time":2822000000000,"state":"active","ping":93},{"user_id":167,"name":"Whyamidoingthisaaaa","steam_id":76561199168837342,"connected_time":3401000000000,"state":"active","ping":70},{"user_id":95,"name":"ed","steam_id":76561198083276946,"connected_time":8123000000000,"state":"active","ping":64},{"user_id":199,"name":"JustSomeInternetGuy","steam_id":76561199066037843,"connected_time":960000000000,"state":"active","ping":85},{"user_id":197,"name":"com lag","steam_id":76561198019019392,"connected_time":1054000000000,"state":"active","ping":65},{"user_id":132,"name":"Im High","steam_id":76561198049954886,"connected_time":5365000000000,"state":"active","ping":76},{"user_id":163,"name":"kite","steam_id":76561198346516392,"connected_time":3692000000000,"state":"active","ping":87},{"user_id":207,"name":"mel","steam_id":76561198292814336,"connected_time":136000000000,"state":"active","ping":64},{"user_id":183,"name":"mxgic","steam_id":76561198354656195,"connected_time":2194000000000,"state":"active","ping":112},{"user_id":156,"name":"Motorolª","steam_id":76561198358119669,"connected_time":4490000000000,"state":"active","ping":113},{"user_id":205,"name":"custodian","steam_id":76561198058793778,"connected_time":347000000000,"state":"active","ping":77},{"user_id":105,"name":"Heathcliff","steam_id":76561198044288534,"connected_time":7411000000000,"state":"active","ping":76},{"user_id":182,"name":"Not Slavoj Žižek","steam_id":76561198004619616,"connected_time":2372000000000,"state":"active","ping":119},{"user_id":201,"name":"(1)ED","steam_id":76561198441715445,"connected_time":673000000000,"state":"active","ping":83},{"user_id":172,"name":"dr. stretch nuts","steam_id":76561198057076267,"connected_time":3079000000000,"state":"active","ping":100}]},{"server_id":104,"name":"Uncletopia | Atlanta | 2 | All Maps","name_short":"atl-2","host":"atl-1.us.uncletopia.com","port":27025,"enabled":true,"region":"us-east","cc":"us","latitude":33.753746,"longitude":-84.38633,"reserved":0,"last_update":"0001-01-01T00:00:00Z","name_a2s":"Uncletopia | Atlanta | 2 | All Maps","protocol":17,"map":"ctf_2fort","folder":"tf","game":"Team Fortress","app_id":440,"player_count":0,"max_players":24,"Bots":0,"server_type":"Dedicated","server_os":"Linux","password":true,"vac":true,"version":"7961495","steam_id":85568392924469983,"keywords":["ctf","nocrits","nodmgspread","uncletopia"],"game_id":440,"stv_port":27026,"stv_name":"Uncletopia | Atlanta | 2 | All Maps | STV","players":null},{"server_id":400,"name":"Uncletopia | Atlanta | 3 | Stopwatch","name_short":"atl-3","host":"atl-1.us.uncletopia.com","port":27035,"enabled":true,"region":"us-east","cc":"us","latitude":33.753746,"longitude":-84.38633,"reserved":0,"last_update":"0001-01-01T00:00:00Z","name_a2s":"Uncletopia | Atlanta | 3 | Stopwatch","protocol":17,"map":"workshop/koth_ashville_final.ugc2130459942","folder":"tf","game":"Team Fortress","app_id":440,"player_count":0,"max_players":24,"Bots":0,"server_type":"Dedicated","server_os":"Linux","password":true,"vac":true,"version":"7961495","steam_id":85568392924515187,"keywords":["cp","nocrits","nodmgspread","uncletopia"],"game_id":440,"stv_port":27036,"stv_name":"Uncletopia | Atlanta | 3 | Stopwatch | STV","players":null},{"server_id":401,"name":"Uncletopia | Atlanta | 4 | Community","name_short":"atl-4","host":"atl-1.us.uncletopia.com","port":27045,"enabled":true,"region":"us-east","cc":"us","latitude":33.753746,"longitude":-84.38633,"reserved":0,"last_update":"0001-01-01T00:00:00Z","name_a2s":"Uncletopia | Atlanta | 4 | Community","protocol":17,"map":"cp_sunshine","folder":"tf","game":"Team Fortress","app_id":440,"player_count":0,"max_players":24,"Bots":0,"server_type":"Dedicated","server_os":"Linux","password":true,"vac":true,"version":"7961495","steam_id":85568392924515188,"keywords":["cp","nocrits","nodmgspread","uncletopia"],"game_id":440,"stv_port":27046,"stv_name":"Uncletopia | Atlanta | 4 | Community | STV","players":null},{"server_id":2,"name":"Uncletopia | Chicago | 1 | All Maps","name_short":"chi-1","host":"chi-1.us.uncletopia.com","port":27015,"enabled":true,"region":"us-central","cc":"us","latitude":41.881832,"longitude":-87.62318,"reserved":0,"last_update":"0001-01-01T00:00:00Z","name_a2s":"Uncletopia | Chicago | 1 | All Maps","protocol":17,"map":"cp_sunshine","folder":"tf","game":"Team Fortress","app_id":440,"player_count":23,"max_players":24,"Bots":0,"server_type":"Dedicated","server_os":"Linux","password":true,"vac":true,"version":"7961495","steam_id":85568392924469984,"keywords":["cp","nocrits","nodmgspread","uncletopia"],"game_id":440,"stv_port":27016,"stv_name":"Uncletopia | Chicago | 1 | All Maps | STV","players":[{"user_id":395,"name":"Space","steam_id":76561198350489754,"connected_time":947000000000,"state":"active","ping":47},{"user_id":405,"name":"Bucketgun","steam_id":76561199044632433,"connected_time":51000000000,"state":"active","ping":51},{"user_id":407,"name":"king lamagra","steam_id":76561198305201458,"connected_time":29000000000,"state":"active","ping":75},{"user_id":384,"name":"poopybutt420","steam_id":76561199000805315,"connected_time":1409000000000,"state":"active","ping":103},{"user_id":346,"name":"Engideer","steam_id":76561198145733164,"connected_time":3653000000000,"state":"active","ping":73},{"user_id":374,"name":"Jennifer Aniston's Nipples","steam_id":76561198086107548,"connected_time":2118000000000,"state":"active","ping":62},{"user_id":331,"name":"Melody","steam_id":76561198407789232,"connected_time":4671000000000,"state":"active","ping":121},{"user_id":406,"name":"incredirocks","steam_id":76561198061079993,"connected_time":44000000000,"state":"active","ping":47},{"user_id":388,"name":"Oli B\u003eQS/BP/Bulk w/ 1.5k+ keys","steam_id":76561198140316312,"connected_time":1312000000000,"state":"active","ping":52},{"user_id":396,"name":"Luxembird","steam_id":76561198079992107,"connected_time":942000000000,"state":"active","ping":82},{"user_id":390,"name":"linus","steam_id":76561198106196691,"connected_time":1279000000000,"state":"active","ping":60},{"user_id":375,"name":"cepi","steam_id":76561198120385184,"connected_time":2117000000000,"state":"active","ping":90},{"user_id":401,"name":"Milkmur","steam_id":76561198210043821,"connected_time":597000000000,"state":"active","ping":62},{"user_id":376,"name":"The Gentrified Urge","steam_id":76561198073314154,"connected_time":1933000000000,"state":"active","ping":47},{"user_id":404,"name":"DeadlyDora","steam_id":76561198356453866,"connected_time":78000000000,"state":"active","ping":82},{"user_id":280,"name":"eloressa","steam_id":76561198120330867,"connected_time":8024000000000,"state":"active","ping":67},{"user_id":392,"name":"JustADuck","steam_id":76561198311260943,"connected_time":1175000000000,"state":"active","ping":71},{"user_id":402,"name":"banana97286","steam_id":76561199367847817,"connected_time":143000000000,"state":"active","ping":66},{"user_id":403,"name":"Coke Himmy","steam_id":76561198397459211,"connected_time":90000000000,"state":"active","ping":82},{"user_id":394,"name":"CampinCarl","steam_id":76561197997373624,"connected_time":1049000000000,"state":"active","ping":91},{"user_id":400,"name":"Bamboozler","steam_id":76561198010860383,"connected_time":874000000000,"state":"active","ping":81},{"user_id":357,"name":"Bond","steam_id":76561198089262776,"connected_time":2882000000000,"state":"spawning","ping":43},{"user_id":382,"name":"pickup truck with huge honks","steam_id":76561198111447214,"connected_time":1488000000000,"state":"active","ping":76}]},{"server_id":106,"name":"Uncletopia | Chicago | 2 | All Maps","name_short":"chi-2","host":"chi-1.us.uncletopia.com","port":27025,"enabled":true,"region":"us-central","cc":"us","latitude":41.881832,"longitude":-87.62318,"reserved":0,"last_update":"0001-01-01T00:00:00Z","name_a2s":"Uncletopia | Chicago | 2 | All Maps","protocol":17,"map":"pl_snowycoast","folder":"tf","game":"Team Fortress","app_id":440,"player_count":24,"max_players":24,"Bots":0,"server_type":"Dedicated","server_os":"Linux","password":true,"vac":true,"version":"7961495","steam_id":85568392924469985,"keywords":["nocrits","nodmgspread","payload","uncletopia"],"game_id":440,"stv_port":27026,"stv_name":"Uncletopia | Chicago | 2 | All Maps | STV","players":[{"user_id":364,"name":"Lyathan","steam_id":76561198062773218,"connected_time":1138000000000,"state":"active","ping":63},{"user_id":264,"name":"Mr. Tickle","steam_id":76561198126684647,"connected_time":7441000000000,"state":"active","ping":57},{"user_id":365,"name":"8BitWyatt","steam_id":76561198453336518,"connected_time":1130000000000,"state":"active","ping":101},{"user_id":377,"name":"CJspellsfish","steam_id":76561198277342368,"connected_time":778000000000,"state":"active","ping":72},{"user_id":383,"name":"doghouse","steam_id":76561198000319035,"connected_time":318000000000,"state":"active","ping":102},{"user_id":363,"name":"Micah","steam_id":76561198006837982,"connected_time":1169000000000,"state":"active","ping":85},{"user_id":382,"name":"Bucket","steam_id":76561198816448398,"connected_time":387000000000,"state":"active","ping":68},{"user_id":358,"name":"JobsDone2","steam_id":76561198159158870,"connected_time":1913000000000,"state":"active","ping":60},{"user_id":367,"name":"Other Players, My One Weakness","steam_id":76561197989247588,"connected_time":1048000000000,"state":"active","ping":74},{"user_id":368,"name":"Asanez3","steam_id":76561198037381436,"connected_time":1035000000000,"state":"active","ping":78},{"user_id":336,"name":"fat fox tiddies","steam_id":76561198056432756,"connected_time":2967000000000,"state":"active","ping":70},{"user_id":369,"name":"CamPizza2005","steam_id":76561198139174433,"connected_time":1028000000000,"state":"active","ping":93},{"user_id":385,"name":"Dr Oshawott","steam_id":76561198042021629,"connected_time":93000000000,"state":"active","ping":78},{"user_id":370,"name":"fishy","steam_id":76561198018622305,"connected_time":1012000000000,"state":"active","ping":72},{"user_id":371,"name":"ZachChase","steam_id":76561198086057112,"connected_time":996000000000,"state":"active","ping":103},{"user_id":350,"name":"Plazma1234","steam_id":76561198394203523,"connected_time":2300000000000,"state":"active","ping":157},{"user_id":380,"name":"Unholy","steam_id":76561198058312481,"connected_time":494000000000,"state":"active","ping":73},{"user_id":381,"name":"who is gavin?","steam_id":76561198069415057,"connected_time":487000000000,"state":"active","ping":60},{"user_id":375,"name":"Ok then","steam_id":76561198891914787,"connected_time":911000000000,"state":"active","ping":115},{"user_id":341,"name":"mountain goat","steam_id":76561198326628884,"connected_time":2567000000000,"state":"active","ping":65},{"user_id":374,"name":"What's My Age Again?","steam_id":76561198035304483,"connected_time":943000000000,"state":"active","ping":47},{"user_id":357,"name":"Jessicamustdie","steam_id":76561198045230921,"connected_time":1957000000000,"state":"active","ping":60},{"user_id":379,"name":"TankSkeleton","steam_id":76561198374262567,"connected_time":736000000000,"state":"active","ping":52},{"user_id":311,"name":"owlbortch","steam_id":76561198042849350,"connected_time":4670000000000,"state":"active","ping":75}]},{"server_id":402,"name":"Uncletopia | Chicago | 3 | All Maps","name_short":"chi-3","host":"chi-1.us.uncletopia.com","port":27035,"enabled":true,"region":"us-central","cc":"us","latitude":41.881832,"longitude":-87.62318,"reserved":0,"last_update":"0001-01-01T00:00:00Z","name_a2s":"Uncletopia | Chicago | 3 | All Maps","protocol":17,"map":"cp_dustbowl","folder":"tf","game":"Team Fortress","app_id":440,"player_count":24,"max_players":24,"Bots":0,"server_type":"Dedicated","server_os":"Linux","password":true,"vac":true,"version":"7961495","steam_id":85568392924515191,"keywords":["cp","nocrits","nodmgspread","uncletopia"],"game_id":440,"stv_port":27036,"stv_name":"Uncletopia | Chicago | 3 | All Maps | STV","players":[{"user_id":256,"name":"Frito","steam_id":76561199230930921,"connected_time":326000000000,"state":"active","ping":74},{"user_id":232,"name":"Frank.","steam_id":76561198032613800,"connected_time":1522000000000,"state":"active","ping":107},{"user_id":200,"name":"janitor","steam_id":76561198166433332,"connected_time":3611000000000,"state":"active","ping":101},{"user_id":260,"name":"Xocolatl 魔鐘","steam_id":76561198007405067,"connected_time":82000000000,"state":"active","ping":48},{"user_id":190,"name":"Untermensch","steam_id":76561198149634242,"connected_time":4258000000000,"state":"active","ping":97},{"user_id":175,"name":"Young-OG","steam_id":76561198058800479,"connected_time":4918000000000,"state":"active","ping":75},{"user_id":244,"name":"JellyManBelly","steam_id":76561198263221903,"connected_time":1059000000000,"state":"active","ping":82},{"user_id":202,"name":"yourlocalforecast","steam_id":76561198042243083,"connected_time":3594000000000,"state":"active","ping":60},{"user_id":245,"name":"ashe","steam_id":76561199014194167,"connected_time":1054000000000,"state":"active","ping":135},{"user_id":250,"name":"kitchen goblin","steam_id":76561198271710504,"connected_time":847000000000,"state":"active","ping":56},{"user_id":258,"name":"Dave Davidson","steam_id":76561198010802812,"connected_time":246000000000,"state":"active","ping":67},{"user_id":243,"name":"(1)stick","steam_id":76561198049489094,"connected_time":1088000000000,"state":"active","ping":59},{"user_id":198,"name":"autisthicc","steam_id":76561198003918928,"connected_time":3790000000000,"state":"active","ping":141},{"user_id":253,"name":"hej","steam_id":76561197996366940,"connected_time":562000000000,"state":"active","ping":60},{"user_id":217,"name":"Stick","steam_id":76561198127495278,"connected_time":2446000000000,"state":"active","ping":99},{"user_id":254,"name":"Mer","steam_id":76561198192171041,"connected_time":497000000000,"state":"active","ping":135},{"user_id":218,"name":"Pika","steam_id":76561198068063436,"connected_time":2431000000000,"state":"active","ping":51},{"user_id":234,"name":"JustAGrump","steam_id":76561198219852925,"connected_time":1492000000000,"state":"active","ping":65},{"user_id":252,"name":"Chhaam","steam_id":76561198058508132,"connected_time":714000000000,"state":"active","ping":60},{"user_id":255,"name":"MrLeftTurn","steam_id":76561198856743969,"connected_time":392000000000,"state":"active","ping":136},{"user_id":208,"name":"TrashPanda (she/her)","steam_id":76561198447864095,"connected_time":2914000000000,"state":"active","ping":90},{"user_id":257,"name":"friendly salamander","steam_id":76561198888219116,"connected_time":298000000000,"state":"active","ping":75},{"user_id":259,"name":"MedRed™ #IATAH","steam_id":76561198002962970,"connected_time":225000000000,"state":"active","ping":103},{"user_id":220,"name":"Hoet","steam_id":76561198322005258,"connected_time":2405000000000,"state":"active","ping":93}]},{"server_id":403,"name":"Uncletopia | Chicago | 4 | All Maps","name_short":"chi-4","host":"chi-1.us.uncletopia.com","port":27045,"enabled":true,"region":"us-central","cc":"us","latitude":41.881832,"longitude":-87.62318,"reserved":0,"last_update":"0001-01-01T00:00:00Z","name_a2s":"Uncletopia | Chicago | 4 | All Maps","protocol":17,"map":"pl_badwater","folder":"tf","game":"Team Fortress","app_id":440,"player_count":24,"max_players":24,"Bots":0,"server_type":"Dedicated","server_os":"Linux","password":true,"vac":true,"version":"7961495","steam_id":85568392924515193,"keywords":["nocrits","nodmgspread","payload","uncletopia"],"game_id":440,"stv_port":27046,"stv_name":"Uncletopia | Chicago | 4 | All Maps | STV","players":[{"user_id":90,"name":"Crusty","steam_id":76561198843376034,"connected_time":2264000000000,"state":"active","ping":60},{"user_id":84,"name":"fritzthecat","steam_id":76561199180497813,"connected_time":2469000000000,"state":"active","ping":74},{"user_id":85,"name":"Ryxie","steam_id":76561198032404752,"connected_time":2462000000000,"state":"active","ping":58},{"user_id":110,"name":"Decapitation Station","steam_id":76561198201796098,"connected_time":1319000000000,"state":"active","ping":92},{"user_id":16,"name":"TheGreythreat","steam_id":76561198021995538,"connected_time":5514000000000,"state":"active","ping":63},{"user_id":100,"name":"with no fear","steam_id":76561198045725613,"connected_time":1780000000000,"state":"active","ping":52},{"user_id":94,"name":"\u003c=Itachi uchiha=\u003e","steam_id":76561199162355715,"connected_time":1921000000000,"state":"active","ping":82},{"user_id":112,"name":"Mangophysics","steam_id":76561198328905546,"connected_time":977000000000,"state":"active","ping":191},{"user_id":118,"name":"1920","steam_id":76561198111669774,"connected_time":372000000000,"state":"active","ping":49},{"user_id":105,"name":"Takeover","steam_id":76561197996081461,"connected_time":1475000000000,"state":"active","ping":57},{"user_id":113,"name":"Fog_Ballistic","steam_id":76561199074395345,"connected_time":706000000000,"state":"active","ping":78},{"user_id":98,"name":"opamojab","steam_id":76561198284988954,"connected_time":1882000000000,"state":"active","ping":64},{"user_id":117,"name":"General Jackson","steam_id":76561199449924929,"connected_time":409000000000,"state":"active","ping":89},{"user_id":106,"name":"bath","steam_id":76561197969993352,"connected_time":1474000000000,"state":"active","ping":65},{"user_id":114,"name":"TheLonliestThelonius","steam_id":76561198097657243,"connected_time":645000000000,"state":"active","ping":76},{"user_id":115,"name":"down syndrome larry","steam_id":76561198272948471,"connected_time":562000000000,"state":"active","ping":60},{"user_id":39,"name":"she strogan me off till i beef","steam_id":76561198041048289,"connected_time":5012000000000,"state":"active","ping":60},{"user_id":107,"name":"Billyjoe3000","steam_id":76561198306524388,"connected_time":1473000000000,"state":"active","ping":66},{"user_id":108,"name":"lol55434","steam_id":76561198381841894,"connected_time":1467000000000,"state":"active","ping":59},{"user_id":87,"name":"MrKokonut","steam_id":76561198879575825,"connected_time":2420000000000,"state":"active","ping":62},{"user_id":109,"name":"the birdkeeper","steam_id":76561199134895220,"connected_time":1455000000000,"state":"active","ping":77},{"user_id":82,"name":"Laventhey","steam_id":76561198977523626,"connected_time":2985000000000,"state":"active","ping":69},{"user_id":119,"name":"YouR dad","steam_id":76561198044013623,"connected_time":337000000000,"state":"active","ping":69},{"user_id":49,"name":"Jazzy","steam_id":76561199472391166,"connected_time":4829000000000,"state":"active","ping":71}]},{"server_id":36,"name":"Uncletopia | Chicago | 5 | All Maps","name_short":"chi-5","host":"chi-2.us.uncletopia.com","port":27015,"enabled":true,"region":"us-central","cc":"us","latitude":41.881832,"longitude":-87.62318,"reserved":0,"last_update":"0001-01-01T00:00:00Z","name_a2s":"Uncletopia | Chicago | 5 | All Maps","protocol":17,"map":"pl_badwater","folder":"tf","game":"Team Fortress","app_id":440,"player_count":21,"max_players":24,"Bots":0,"server_type":"Dedicated","server_os":"Linux","password":true,"vac":true,"version":"7961495","steam_id":85568392924866362,"keywords":["nocrits","nodmgspread","payload","uncletopia"],"game_id":440,"stv_port":27016,"stv_name":"Uncletopia | Chicago | 5 | All Maps | STV","players":[{"user_id":214,"name":"my pitbull eats women under 5'7","steam_id":76561198142756572,"connected_time":5489000000000,"state":"active","ping":60},{"user_id":270,"name":"yes","steam_id":76561199094011002,"connected_time":1920000000000,"state":"active","ping":54},{"user_id":295,"name":"a garbage can","steam_id":76561198403626105,"connected_time":656000000000,"state":"active","ping":52},{"user_id":276,"name":"Fredrick","steam_id":76561197981419964,"connected_time":1531000000000,"state":"active","ping":69},{"user_id":278,"name":"PoofBallzZzZ","steam_id":76561197992257816,"connected_time":1496000000000,"state":"active","ping":85},{"user_id":282,"name":"Arcelite","steam_id":76561198007089716,"connected_time":1447000000000,"state":"active","ping":72},{"user_id":297,"name":"swan","steam_id":76561198012569200,"connected_time":588000000000,"state":"active","ping":71},{"user_id":274,"name":"scoobert","steam_id":76561199215184828,"connected_time":1625000000000,"state":"active","ping":55},{"user_id":135,"name":"Echolu","steam_id":76561198158613750,"connected_time":11109000000000,"state":"active","ping":108},{"user_id":299,"name":"Tony Hawk Underground 2 for PSP","steam_id":76561197999901620,"connected_time":373000000000,"state":"active","ping":55},{"user_id":287,"name":"Manners","steam_id":76561198890681464,"connected_time":1238000000000,"state":"active","ping":94},{"user_id":123,"name":"Fresh Lychee","steam_id":76561198045399559,"connected_time":12080000000000,"state":"active","ping":53},{"user_id":286,"name":"Sahalanthro","steam_id":76561199073298722,"connected_time":1339000000000,"state":"active","ping":90},{"user_id":262,"name":"for the king","steam_id":76561197973488858,"connected_time":2797000000000,"state":"active","ping":53},{"user_id":298,"name":"Nobody","steam_id":76561198286486517,"connected_time":578000000000,"state":"active","ping":56},{"user_id":248,"name":"Buttons :)","steam_id":76561198139478534,"connected_time":3872000000000,"state":"active","ping":131},{"user_id":120,"name":"The World's Softest Sandwich","steam_id":76561198015577707,"connected_time":12247000000000,"state":"active","ping":81},{"user_id":283,"name":"Papillon","steam_id":76561198049725849,"connected_time":1440000000000,"state":"active","ping":61},{"user_id":206,"name":"fresco","steam_id":76561199101199477,"connected_time":5759000000000,"state":"active","ping":58},{"user_id":266,"name":"Greaseball","steam_id":76561198240220178,"connected_time":2506000000000,"state":"active","ping":66},{"user_id":289,"name":"Five","steam_id":76561198026640473,"connected_time":1081000000000,"state":"active","ping":64}]},{"server_id":37,"name":"Uncletopia | Chicago | 6 | All Maps","name_short":"chi-6","host":"chi-2.us.uncletopia.com","port":27025,"enabled":true,"region":"us-central","cc":"us","latitude":41.881832,"longitude":-87.62318,"reserved":0,"last_update":"0001-01-01T00:00:00Z","name_a2s":"Uncletopia | Chicago | 6 | All Maps","protocol":17,"map":"koth_cascade","folder":"tf","game":"Team Fortress","app_id":440,"player_count":7,"max_players":24,"Bots":0,"server_type":"Dedicated","server_os":"Linux","password":true,"vac":true,"version":"7961495","steam_id":85568392924866363,"keywords":["cp","nocrits","nodmgspread","uncletopia"],"game_id":440,"stv_port":27026,"stv_name":"Uncletopia | Chicago | 6 | All Maps | STV","players":[{"user_id":24,"name":"Tri-Dot","steam_id":76561199075186597,"connected_time":507000000000,"state":"active","ping":62},{"user_id":25,"name":"ShawnLmao","steam_id":76561198350691501,"connected_time":423000000000,"state":"active","ping":77},{"user_id":26,"name":"imng","steam_id":76561198014988031,"connected_time":269000000000,"state":"active","ping":69},{"user_id":27,"name":"Dead Face","steam_id":76561198857643139,"connected_time":257000000000,"state":"active","ping":59},{"user_id":28,"name":"Tlord","steam_id":76561198086967416,"connected_time":164000000000,"state":"active","ping":48},{"user_id":29,"name":"Ginger Jesus","steam_id":76561198052386458,"connected_time":103000000000,"state":"active","ping":60},{"user_id":30,"name":"Mike1225","steam_id":76561198861615835,"connected_time":66000000000,"state":"active","ping":135}]},{"server_id":38,"name":"Uncletopia | Chicago | 7 | Stopwatch","name_short":"chi-7","host":"chi-2.us.uncletopia.com","port":27035,"enabled":true,"region":"us-central","cc":"us","latitude":41.881832,"longitude":-87.62318,"reserved":0,"last_update":"0001-01-01T00:00:00Z","name_a2s":"Uncletopia | Chicago | 7 | Stopwatch","protocol":17,"map":"koth_highpass","folder":"tf","game":"Team Fortress","app_id":440,"player_count":0,"max_players":24,"Bots":0,"server_type":"Dedicated","server_os":"Linux","password":true,"vac":true,"version":"7961495","steam_id":85568392924866364,"keywords":["cp","nocrits","nodmgspread","uncletopia"],"game_id":440,"stv_port":27036,"stv_name":"Uncletopia | Chicago | 7 | Stopwatch | STV","players":null},{"server_id":39,"name":"Uncletopia | Chicago | 8 | Community","name_short":"chi-8","host":"chi-2.us.uncletopia.com","port":27045,"enabled":true,"region":"us-central","cc":"us","latitude":41.881832,"longitude":-87.62318,"reserved":0,"last_update":"0001-01-01T00:00:00Z","name_a2s":"Uncletopia | Chicago | 8 | Community","protocol":17,"map":"pl_pier","folder":"tf","game":"Team Fortress","app_id":440,"player_count":0,"max_players":24,"Bots":0,"server_type":"Dedicated","server_os":"Linux","password":true,"vac":true,"version":"7961495","steam_id":85568392924866365,"keywords":["nocrits","nodmgspread","payload","uncletopia"],"game_id":440,"stv_port":27046,"stv_name":"Uncletopia | Chicago | 8 | Community | STV","players":null},{"server_id":8,"name":"Uncletopia | Dallas | 1 | All Maps","name_short":"dal-1","host":"dal-1.us.uncletopia.com","port":27015,"enabled":true,"region":"us-central","cc":"us","latitude":32.779167,"longitude":-96.80889,"reserved":0,"last_update":"0001-01-01T00:00:00Z","name_a2s":"Uncletopia | Dallas | 1 | All Maps","protocol":17,"map":"pl_pier","folder":"tf","game":"Team Fortress","app_id":440,"player_count":24,"max_players":24,"Bots":0,"server_type":"Dedicated","server_os":"Linux","password":true,"vac":true,"version":"7961495","steam_id":85568392924469986,"keywords":["nocrits","nodmgspread","payload","uncletopia"],"game_id":440,"stv_port":27016,"stv_name":"Uncletopia | Dallas | 1 | All Maps | STV","players":[{"user_id":253,"name":"Cap'n Bill","steam_id":76561197969559549,"connected_time":1914000000000,"state":"active","ping":74},{"user_id":232,"name":"Salty Holly","steam_id":76561198091451483,"connected_time":3102000000000,"state":"active","ping":67},{"user_id":275,"name":"Jo","steam_id":76561198060447015,"connected_time":575000000000,"state":"active","ping":83},{"user_id":270,"name":"creeeeeee","steam_id":76561198392539722,"connected_time":781000000000,"state":"active","ping":83},{"user_id":274,"name":"hunterzar","steam_id":76561198347666725,"connected_time":660000000000,"state":"active","ping":88},{"user_id":209,"name":"Smug","steam_id":76561198448205229,"connected_time":4373000000000,"state":"active","ping":76},{"user_id":257,"name":"Hello World","steam_id":76561199093925982,"connected_time":1478000000000,"state":"active","ping":122},{"user_id":252,"name":"ZILICON","steam_id":76561199044705592,"connected_time":1970000000000,"state":"active","ping":107},{"user_id":208,"name":"Certified Hood Classic","steam_id":76561199086159354,"connected_time":4411000000000,"state":"active","ping":58},{"user_id":279,"name":"radicalPolio","steam_id":76561197961561855,"connected_time":79000000000,"state":"active","ping":48},{"user_id":280,"name":"TechnoBear2099","steam_id":76561198238863596,"connected_time":70000000000,"state":"active","ping":58},{"user_id":170,"name":"dance monkey","steam_id":76561198188722751,"connected_time":8196000000000,"state":"active","ping":91},{"user_id":260,"name":"37 septillion tapeworms","steam_id":76561198186128723,"connected_time":1311000000000,"state":"active","ping":51},{"user_id":256,"name":"laboriouslobster36","steam_id":76561198871003321,"connected_time":1643000000000,"state":"active","ping":45},{"user_id":197,"name":"Walrusto","steam_id":76561198829644616,"connected_time":5877000000000,"state":"active","ping":70},{"user_id":276,"name":"Bomb Squirtle™","steam_id":76561197998931145,"connected_time":299000000000,"state":"active","ping":109},{"user_id":262,"name":"eBay","steam_id":76561198061214569,"connected_time":1250000000000,"state":"active","ping":91},{"user_id":265,"name":"Dinosaur","steam_id":76561199079626189,"connected_time":1196000000000,"state":"active","ping":80},{"user_id":272,"name":"Hale Bop","steam_id":76561198264055709,"connected_time":765000000000,"state":"active","ping":78},{"user_id":217,"name":"shnowshner","steam_id":76561198066450438,"connected_time":4180000000000,"state":"active","ping":95},{"user_id":218,"name":"Rappy \u003c3","steam_id":76561198105613110,"connected_time":4179000000000,"state":"active","ping":77},{"user_id":263,"name":"Sup m8","steam_id":76561198081659121,"connected_time":1223000000000,"state":"active","ping":46},{"user_id":254,"name":"Inkspot","steam_id":76561199003790541,"connected_time":1803000000000,"state":"active","ping":69},{"user_id":278,"name":"FanaticSalt","steam_id":76561199380123059,"connected_time":240000000000,"state":"active","ping":65}]},{"server_id":108,"name":"Uncletopia | Dallas | 2 | All Maps","name_short":"dal-2","host":"dal-1.us.uncletopia.com","port":27025,"enabled":true,"region":"us-central","cc":"us","latitude":32.779167,"longitude":-96.80889,"reserved":0,"last_update":"0001-01-01T00:00:00Z","name_a2s":"Uncletopia | Dallas | 2 | All Maps","protocol":17,"map":"pl_upward","folder":"tf","game":"Team Fortress","app_id":440,"player_count":24,"max_players":24,"Bots":0,"server_type":"Dedicated","server_os":"Linux","password":true,"vac":true,"version":"7961495","steam_id":85568392924469988,"keywords":["nocrits","nodmgspread","payload","uncletopia"],"game_id":440,"stv_port":27026,"stv_name":"Uncletopia | Dallas | 2 | All Maps | STV","players":[{"user_id":228,"name":"AlvWhispery","steam_id":76561198850017423,"connected_time":1026000000000,"state":"active","ping":149},{"user_id":213,"name":"loooooooooooooooooooooooooooooi","steam_id":76561198138934898,"connected_time":2766000000000,"state":"active","ping":59},{"user_id":152,"name":"Saiki K.","steam_id":76561199187226776,"connected_time":4049000000000,"state":"active","ping":50},{"user_id":261,"name":"LaChancla","steam_id":76561198971528917,"connected_time":337000000000,"state":"active","ping":55},{"user_id":247,"name":"SmokeyGalaxy","steam_id":76561198118780516,"connected_time":771000000000,"state":"active","ping":58},{"user_id":232,"name":"5oc","steam_id":76561199196300397,"connected_time":988000000000,"state":"active","ping":80},{"user_id":253,"name":"Redkiller","steam_id":76561199453655288,"connected_time":723000000000,"state":"active","ping":104},{"user_id":260,"name":"Rennsellaer","steam_id":76561198096207580,"connected_time":356000000000,"state":"active","ping":82},{"user_id":233,"name":"Blippy","steam_id":76561198225904600,"connected_time":976000000000,"state":"active","ping":57},{"user_id":234,"name":"get scrongled, idiot","steam_id":76561198115874625,"connected_time":960000000000,"state":"active","ping":90},{"user_id":226,"name":"cupsovietxeno","steam_id":76561198997539399,"connected_time":1321000000000,"state":"active","ping":95},{"user_id":215,"name":"MN","steam_id":76561199231943078,"connected_time":2662000000000,"state":"active","ping":94},{"user_id":221,"name":"MrQuack","steam_id":76561198873049714,"connected_time":1955000000000,"state":"active","ping":76},{"user_id":212,"name":"Epsev","steam_id":76561198094649127,"connected_time":2881000000000,"state":"active","ping":107},{"user_id":222,"name":"eros","steam_id":76561198099282874,"connected_time":1938000000000,"state":"active","ping":71},{"user_id":139,"name":"ACK","steam_id":76561198130390689,"connected_time":5600000000000,"state":"active","ping":100},{"user_id":235,"name":"Oni","steam_id":76561198112066584,"connected_time":948000000000,"state":"active","ping":62},{"user_id":262,"name":"Orange Triangle","steam_id":76561198320498182,"connected_time":325000000000,"state":"active","ping":83},{"user_id":250,"name":"Big Jon","steam_id":76561198402285099,"connected_time":740000000000,"state":"active","ping":102},{"user_id":263,"name":"Word To Your Mothership","steam_id":76561198034329138,"connected_time":306000000000,"state":"active","ping":87},{"user_id":243,"name":"laughs bigman","steam_id":76561198067714032,"connected_time":811000000000,"state":"active","ping":83},{"user_id":217,"name":"JNGthree","steam_id":76561198166002579,"connected_time":2466000000000,"state":"active","ping":65},{"user_id":190,"name":"frank","steam_id":76561198137777483,"connected_time":3005000000000,"state":"active","ping":90},{"user_id":254,"name":"bashdzy","steam_id":76561199006087600,"connected_time":707000000000,"state":"active","ping":65}]},{"server_id":404,"name":"Uncletopia | Dallas | 3 | All Maps","name_short":"dal-3","host":"dal-1.us.uncletopia.com","port":27035,"enabled":true,"region":"us-central","cc":"us","latitude":32.779167,"longitude":-96.80889,"reserved":0,"last_update":"0001-01-01T00:00:00Z","name_a2s":"Uncletopia | Dallas | 3 | All Maps","protocol":17,"map":"ctf_2fort","folder":"tf","game":"Team Fortress","app_id":440,"player_count":0,"max_players":24,"Bots":0,"server_type":"Dedicated","server_os":"Linux","password":true,"vac":true,"version":"7961495","steam_id":85568392924515219,"keywords":["ctf","nocrits","nodmgspread","uncletopia"],"game_id":440,"stv_port":27036,"stv_name":"Uncletopia | Dallas | 3 | All Maps | STV","players":null},{"server_id":405,"name":"Uncletopia | Dallas | 4 | Community","name_short":"dal-4","host":"dal-1.us.uncletopia.com","port":27045,"enabled":true,"region":"us-central","cc":"us","latitude":32.779167,"longitude":-96.80889,"reserved":0,"last_update":"0001-01-01T00:00:00Z","name_a2s":"Uncletopia | Dallas | 4 | Community","protocol":17,"map":"workshop/pl_badwater_pro_v12.ugc2142942074","folder":"tf","game":"Team Fortress","app_id":440,"player_count":0,"max_players":24,"Bots":0,"server_type":"Dedicated","server_os":"Linux","password":true,"vac":true,"version":"7961495","steam_id":85568392924515220,"keywords":["nocrits","nodmgspread","payload","uncletopia"],"game_id":440,"stv_port":27046,"stv_name":"Uncletopia | Dallas | 4 | Community | STV","players":null},{"server_id":5,"name":"Uncletopia | Frankfurt | 1 | All Maps","name_short":"frk-1","host":"frk-1.de.uncletopia.com","port":27015,"enabled":true,"region":"eu","cc":"de","latitude":50.110924,"longitude":8.682127,"reserved":0,"last_update":"0001-01-01T00:00:00Z","name_a2s":"Uncletopia | Frankfurt | 1 | All Maps","protocol":17,"map":"pl_borneo","folder":"tf","game":"Team Fortress","app_id":440,"player_count":24,"max_players":24,"Bots":0,"server_type":"Dedicated","server_os":"Linux","password":true,"vac":true,"version":"7961495","steam_id":85568392924469989,"keywords":["nocrits","nodmgspread","payload","uncletopia"],"game_id":440,"stv_port":27016,"stv_name":"Uncletopia | Frankfurt | 1 | All Maps | STV","players":[{"user_id":587,"name":"roblan11","steam_id":76561198066839258,"connected_time":1719000000000,"state":"active","ping":41},{"user_id":530,"name":"Ducobu 3 for Nintendo Wii NOW","steam_id":76561198056221804,"connected_time":4719000000000,"state":"active","ping":62},{"user_id":568,"name":"1ggy","steam_id":76561199051285912,"connected_time":2798000000000,"state":"active","ping":61},{"user_id":614,"name":"Rops","steam_id":76561198031608011,"connected_time":173000000000,"state":"active","ping":75},{"user_id":605,"name":"M7MD3BD0","steam_id":76561199072750769,"connected_time":518000000000,"state":"active","ping":103},{"user_id":588,"name":"Hexagon","steam_id":76561198151205758,"connected_time":1686000000000,"state":"active","ping":55},{"user_id":534,"name":"ma","steam_id":76561198055745563,"connected_time":4698000000000,"state":"active","ping":64},{"user_id":604,"name":"Kingman","steam_id":76561198123054888,"connected_time":542000000000,"state":"active","ping":96},{"user_id":602,"name":"Silvan","steam_id":76561198061213516,"connected_time":979000000000,"state":"active","ping":45},{"user_id":615,"name":"Rigby","steam_id":76561198021552128,"connected_time":172000000000,"state":"active","ping":101},{"user_id":606,"name":"FoOzTV","steam_id":76561197998636728,"connected_time":376000000000,"state":"active","ping":69},{"user_id":613,"name":"herbal tea","steam_id":76561197980736364,"connected_time":186000000000,"state":"active","ping":76},{"user_id":581,"name":"The Narrator","steam_id":76561198046647912,"connected_time":1936000000000,"state":"active","ping":60},{"user_id":571,"name":"Erenom","steam_id":76561199017383513,"connected_time":2698000000000,"state":"active","ping":91},{"user_id":593,"name":"submackeen","steam_id":76561198799855913,"connected_time":1473000000000,"state":"active","ping":169},{"user_id":617,"name":"Arti_Chokes","steam_id":76561199213835861,"connected_time":77000000000,"state":"spawning","ping":49},{"user_id":616,"name":"broken","steam_id":76561198209118916,"connected_time":107000000000,"state":"active","ping":86},{"user_id":597,"name":"Endi","steam_id":76561198914938199,"connected_time":1207000000000,"state":"active","ping":92},{"user_id":594,"name":"Doecheldorf","steam_id":76561198291628630,"connected_time":1263000000000,"state":"active","ping":69},{"user_id":582,"name":"Jimmy Poppadopolos","steam_id":76561198044825612,"connected_time":1935000000000,"state":"active","ping":58},{"user_id":583,"name":"TidB","steam_id":76561198055342304,"connected_time":1931000000000,"state":"active","ping":47},{"user_id":599,"name":"TJ1212","steam_id":76561199013575313,"connected_time":1206000000000,"state":"active","ping":65},{"user_id":600,"name":"Orangutank","steam_id":76561198827456047,"connected_time":1197000000000,"state":"active","ping":71},{"user_id":611,"name":"bAdmon","steam_id":76561197961785793,"connected_time":288000000000,"state":"active","ping":60}]},{"server_id":110,"name":"Uncletopia | Frankfurt | 2 | All Maps","name_short":"frk-2","host":"frk-1.de.uncletopia.com","port":27025,"enabled":true,"region":"eu","cc":"de","latitude":50.110924,"longitude":8.682127,"reserved":0,"last_update":"0001-01-01T00:00:00Z","name_a2s":"Uncletopia | Frankfurt | 2 | All Maps","protocol":17,"map":"pl_swiftwater_final1","folder":"tf","game":"Team Fortress","app_id":440,"player_count":23,"max_players":24,"Bots":0,"server_type":"Dedicated","server_os":"Linux","password":true,"vac":true,"version":"7961495","steam_id":85568392924469990,"keywords":["nocrits","nodmgspread","payload","uncletopia"],"game_id":440,"stv_port":27026,"stv_name":"Uncletopia | Frankfurt | 2 | All Maps | STV","players":[{"user_id":551,"name":"Anri Okita's Massive Milkers","steam_id":76561199186352720,"connected_time":1360000000000,"state":"active","ping":72},{"user_id":542,"name":"Sandvich","steam_id":76561199079493666,"connected_time":2290000000000,"state":"active","ping":75},{"user_id":561,"name":"Henkat","steam_id":76561199079480352,"connected_time":985000000000,"state":"active","ping":91},{"user_id":491,"name":"myon","steam_id":76561197992528570,"connected_time":5466000000000,"state":"active","ping":86},{"user_id":569,"name":"typicalcrimson","steam_id":76561198295439747,"connected_time":203000000000,"state":"active","ping":72},{"user_id":565,"name":"SocialistBacon","steam_id":76561198055872267,"connected_time":476000000000,"state":"active","ping":104},{"user_id":530,"name":"Nev.","steam_id":76561199081625951,"connected_time":2993000000000,"state":"active","ping":69},{"user_id":552,"name":"Mza28","steam_id":76561198873993324,"connected_time":1265000000000,"state":"active","ping":62},{"user_id":543,"name":"Philiq","steam_id":76561198013695548,"connected_time":2288000000000,"state":"active","ping":51},{"user_id":531,"name":"hyvakii705","steam_id":76561198086630552,"connected_time":2993000000000,"state":"active","ping":90},{"user_id":570,"name":"Retaгdo","steam_id":76561198020565536,"connected_time":203000000000,"state":"active","ping":75},{"user_id":522,"name":"b","steam_id":76561198200529559,"connected_time":3282000000000,"state":"active","ping":70},{"user_id":539,"name":"corro","steam_id":76561197982510441,"connected_time":2556000000000,"state":"active","ping":44},{"user_id":574,"name":"Escobar","steam_id":76561198089785078,"connected_time":37000000000,"state":"active","ping":110},{"user_id":553,"name":"Reiyo the Interloper","steam_id":76561198155092485,"connected_time":1241000000000,"state":"active","ping":46},{"user_id":576,"name":"Relic","steam_id":76561199499093258,"connected_time":33000000000,"state":"active","ping":54},{"user_id":555,"name":"Predrag218","steam_id":76561199242439630,"connected_time":1155000000000,"state":"active","ping":118},{"user_id":548,"name":"обезьяна","steam_id":76561198297812094,"connected_time":1776000000000,"state":"active","ping":95},{"user_id":558,"name":"luma","steam_id":76561198081649669,"connected_time":1097000000000,"state":"active","ping":61},{"user_id":537,"name":"wvwaxhtp","steam_id":76561198237038646,"connected_time":2654000000000,"state":"active","ping":53},{"user_id":573,"name":"yuck","steam_id":76561197987249568,"connected_time":164000000000,"state":"active","ping":105},{"user_id":514,"name":"Unemployed Gaming","steam_id":76561198982674420,"connected_time":4045000000000,"state":"active","ping":60},{"user_id":564,"name":"Mong","steam_id":76561198891218910,"connected_time":716000000000,"state":"active","ping":66}]},{"server_id":308,"name":"Uncletopia | Frankfurt | 3 | All Maps","name_short":"frk-3","host":"frk-1.de.uncletopia.com","port":27035,"enabled":true,"region":"eu","cc":"de","latitude":50.110924,"longitude":8.682127,"reserved":0,"last_update":"0001-01-01T00:00:00Z","name_a2s":"Uncletopia | Frankfurt | 3 | All Maps","protocol":17,"map":"cp_altitude","folder":"tf","game":"Team Fortress","app_id":440,"player_count":24,"max_players":24,"Bots":0,"server_type":"Dedicated","server_os":"Linux","password":true,"vac":true,"version":"7961495","steam_id":85568392924504274,"keywords":["cp","nocrits","nodmgspread","uncletopia"],"game_id":440,"stv_port":27036,"stv_name":"Uncletopia | Frankfurt | 3 | All Maps | STV","players":[{"user_id":639,"name":"Sheerluck Holmes","steam_id":76561198051161936,"connected_time":448000000000,"state":"active","ping":60},{"user_id":626,"name":"cazador","steam_id":76561198123096922,"connected_time":1810000000000,"state":"active","ping":90},{"user_id":618,"name":"Mulch :)","steam_id":76561198154714698,"connected_time":2256000000000,"state":"active","ping":54},{"user_id":595,"name":"Tea Follet","steam_id":76561198852408734,"connected_time":2954000000000,"state":"active","ping":63},{"user_id":634,"name":"Dave The Sloth","steam_id":76561199135831355,"connected_time":625000000000,"state":"active","ping":66},{"user_id":643,"name":"AwaDeMora","steam_id":76561198283945258,"connected_time":155000000000,"state":"active","ping":92},{"user_id":629,"name":"MR BUBBLES","steam_id":76561198019005259,"connected_time":1206000000000,"state":"active","ping":102},{"user_id":610,"name":"Jethro Tull","steam_id":76561199034041634,"connected_time":2435000000000,"state":"active","ping":69},{"user_id":635,"name":"JamesPepega","steam_id":76561198019156154,"connected_time":595000000000,"state":"active","ping":70},{"user_id":632,"name":"HayLeX","steam_id":76561198130997343,"connected_time":676000000000,"state":"active","ping":86},{"user_id":631,"name":"You slumber","steam_id":76561198344639692,"connected_time":908000000000,"state":"active","ping":78},{"user_id":605,"name":"lucy","steam_id":76561198261852808,"connected_time":2455000000000,"state":"active","ping":45},{"user_id":606,"name":"Bobo","steam_id":76561198052308399,"connected_time":2447000000000,"state":"active","ping":59},{"user_id":644,"name":"bombastik062","steam_id":76561199384080480,"connected_time":106000000000,"state":"active","ping":110},{"user_id":607,"name":"Nickbro101","steam_id":76561198044271692,"connected_time":2442000000000,"state":"active","ping":59},{"user_id":608,"name":"Mario3ghj","steam_id":76561198069804561,"connected_time":2442000000000,"state":"active","ping":97},{"user_id":609,"name":"Arturias","steam_id":76561198188720263,"connected_time":2441000000000,"state":"active","ping":45},{"user_id":640,"name":"LOBZIK","steam_id":76561198114830120,"connected_time":363000000000,"state":"active","ping":75},{"user_id":623,"name":"Freddy Fazbear","steam_id":76561198299179114,"connected_time":2239000000000,"state":"active","ping":68},{"user_id":645,"name":"Rockwell Retro Encabulator","steam_id":76561198420349969,"connected_time":103000000000,"state":"active","ping":99},{"user_id":612,"name":"ohm","steam_id":76561198817414001,"connected_time":2418000000000,"state":"active","ping":85},{"user_id":524,"name":"EVL1","steam_id":76561198308280944,"connected_time":8714000000000,"state":"active","ping":94},{"user_id":641,"name":"big bug buttz","steam_id":76561198115106008,"connected_time":322000000000,"state":"active","ping":205},{"user_id":642,"name":"MISTER SUIIII","steam_id":76561198018330092,"connected_time":276000000000,"state":"active","ping":71}]},{"server_id":309,"name":"Uncletopia | Frankfurt | 4 | All Maps","name_short":"frk-4","host":"frk-1.de.uncletopia.com","port":27045,"enabled":true,"region":"eu","cc":"de","latitude":50.110924,"longitude":8.682127,"reserved":0,"last_update":"0001-01-01T00:00:00Z","name_a2s":"Uncletopia | Frankfurt | 4 | All Maps","protocol":17,"map":"pl_pier","folder":"tf","game":"Team Fortress","app_id":440,"player_count":24,"max_players":24,"Bots":0,"server_type":"Dedicated","server_os":"Linux","password":true,"vac":true,"version":"7961495","steam_id":85568392924504275,"keywords":["nocrits","nodmgspread","payload","uncletopia"],"game_id":440,"stv_port":27046,"stv_name":"Uncletopia | Frankfurt | 4 | All Maps | STV","players":[{"user_id":680,"name":"Sham!","steam_id":76561198050434275,"connected_time":2802000000000,"state":"active","ping":46},{"user_id":714,"name":"Ryvx","steam_id":76561199488133216,"connected_time":78000000000,"state":"active","ping":71},{"user_id":703,"name":"Durin sein Vater","steam_id":76561198021246713,"connected_time":448000000000,"state":"active","ping":39},{"user_id":708,"name":"3L","steam_id":76561198007208996,"connected_time":441000000000,"state":"active","ping":45},{"user_id":643,"name":"Flight of the Blonde Giraffes","steam_id":76561198451585571,"connected_time":5615000000000,"state":"active","ping":73},{"user_id":709,"name":"CMRDGI","steam_id":76561198141356233,"connected_time":423000000000,"state":"active","ping":49},{"user_id":715,"name":"brtaba","steam_id":76561198796334790,"connected_time":11000000000,"state":"spawning","ping":109},{"user_id":675,"name":"Haschgott 2.0","steam_id":76561198049820307,"connected_time":3123000000000,"state":"active","ping":59},{"user_id":656,"name":"Luuk","steam_id":76561198088266026,"connected_time":4771000000000,"state":"active","ping":47},{"user_id":699,"name":"Mébh Óg MacTíre","steam_id":76561198346399624,"connected_time":646000000000,"state":"active","ping":76},{"user_id":710,"name":"FistfulOfKittens","steam_id":76561198323611129,"connected_time":398000000000,"state":"active","ping":72},{"user_id":650,"name":"Largo","steam_id":76561198844368927,"connected_time":5237000000000,"state":"active","ping":68},{"user_id":693,"name":"Schogard","steam_id":76561198847318421,"connected_time":937000000000,"state":"active","ping":121},{"user_id":705,"name":"emir","steam_id":76561198113089831,"connected_time":445000000000,"state":"active","ping":91},{"user_id":697,"name":"kozmabaz","steam_id":76561199488373290,"connected_time":815000000000,"state":"active","ping":104},{"user_id":716,"name":"Abyssion","steam_id":76561198040246963,"connected_time":2000000000,"state":"spawning","ping":76},{"user_id":702,"name":"hbivnm a.k.a forsen","steam_id":76561197996468677,"connected_time":459000000000,"state":"active","ping":59},{"user_id":669,"name":"Mr_Pulse_","steam_id":76561198095001602,"connected_time":4253000000000,"state":"active","ping":104},{"user_id":678,"name":"Marukuso","steam_id":76561198154229845,"connected_time":3036000000000,"state":"active","ping":69},{"user_id":695,"name":"combine","steam_id":76561198007909007,"connected_time":850000000000,"state":"active","ping":50},{"user_id":706,"name":"mimi","steam_id":76561198060648946,"connected_time":444000000000,"state":"active","ping":59},{"user_id":696,"name":"you are a BABY","steam_id":76561198079524152,"connected_time":843000000000,"state":"active","ping":55},{"user_id":712,"name":"Pvt. Prinny","steam_id":76561198030278562,"connected_time":286000000000,"state":"active","ping":60},{"user_id":711,"name":"Weegee","steam_id":76561198150308523,"connected_time":341000000000,"state":"active","ping":63}]},{"server_id":310,"name":"Uncletopia | Frankfurt | 5 | All Maps","name_short":"frk-5","host":"frk-1.de.uncletopia.com","port":27055,"enabled":true,"region":"eu","cc":"de","latitude":50.110924,"longitude":8.682127,"reserved":0,"last_update":"0001-01-01T00:00:00Z","name_a2s":"Uncletopia | Frankfurt | 5 | All Maps","protocol":17,"map":"cp_sunshine","folder":"tf","game":"Team Fortress","app_id":440,"player_count":24,"max_players":24,"Bots":0,"server_type":"Dedicated","server_os":"Linux","password":true,"vac":true,"version":"7961495","steam_id":85568392924504277,"keywords":["cp","nocrits","nodmgspread","uncletopia"],"game_id":440,"stv_port":27056,"stv_name":"Uncletopia | Frankfurt | 5 | All Maps | STV","players":[{"user_id":603,"name":"Leituga","steam_id":76561198051127598,"connected_time":1028000000000,"state":"active","ping":95},{"user_id":475,"name":"chair 2.0","steam_id":76561199233470150,"connected_time":7925000000000,"state":"active","ping":47},{"user_id":587,"name":"Vischan but worse","steam_id":76561199371650805,"connected_time":1962000000000,"state":"active","ping":98},{"user_id":606,"name":"Nonok","steam_id":76561199480685498,"connected_time":912000000000,"state":"active","ping":71},{"user_id":513,"name":"Duktigafred","steam_id":76561199211222396,"connected_time":4486000000000,"state":"active","ping":70},{"user_id":574,"name":"forsen tf2","steam_id":76561198125768571,"connected_time":2299000000000,"state":"active","ping":70},{"user_id":512,"name":"WildRode","steam_id":76561199199446240,"connected_time":4496000000000,"state":"active","ping":65},{"user_id":601,"name":"Dragon","steam_id":76561198163255365,"connected_time":1069000000000,"state":"active","ping":100},{"user_id":598,"name":"soup","steam_id":76561198386933065,"connected_time":1113000000000,"state":"active","ping":63},{"user_id":543,"name":"Cosmetic brain","steam_id":76561198055936410,"connected_time":4086000000000,"state":"active","ping":89},{"user_id":591,"name":"Badger","steam_id":76561198022347155,"connected_time":1840000000000,"state":"active","ping":72},{"user_id":272,"name":"MEDiUM","steam_id":76561198112328561,"connected_time":19803000000000,"state":"active","ping":73},{"user_id":551,"name":"Pats (Gifted items Collector)","steam_id":76561198418538887,"connected_time":2739000000000,"state":"active","ping":90},{"user_id":554,"name":"neom1ah","steam_id":76561198831820644,"connected_time":2710000000000,"state":"active","ping":155},{"user_id":548,"name":"Odin","steam_id":76561198087800030,"connected_time":3847000000000,"state":"active","ping":45},{"user_id":594,"name":"pepsimus_maximus (pepsi/max)","steam_id":76561198062425104,"connected_time":1689000000000,"state":"active","ping":85},{"user_id":605,"name":"JeffsJeff","steam_id":76561198966358094,"connected_time":988000000000,"state":"active","ping":60},{"user_id":442,"name":"OldCentury","steam_id":76561198061616092,"connected_time":10261000000000,"state":"active","ping":72},{"user_id":610,"name":"❤ dumbass bitch ❤","steam_id":76561198311044984,"connected_time":245000000000,"state":"active","ping":66},{"user_id":600,"name":"ScampSixteen","steam_id":76561198021771000,"connected_time":1089000000000,"state":"active","ping":65},{"user_id":608,"name":"Bobirulez","steam_id":76561198009125458,"connected_time":574000000000,"state":"active","ping":60},{"user_id":508,"name":"Caliban","steam_id":76561197999696839,"connected_time":4851000000000,"state":"active","ping":111},{"user_id":604,"name":"scoutcasper","steam_id":76561199019266022,"connected_time":1021000000000,"state":"active","ping":51},{"user_id":546,"name":"Holy Bingle","steam_id":76561198349648942,"connected_time":3930000000000,"state":"active","ping":79}]},{"server_id":311,"name":"Uncletopia | Frankfurt | 6 | All Maps","name_short":"frk-6","host":"frk-1.de.uncletopia.com","port":27065,"enabled":true,"region":"eu","cc":"de","latitude":50.110924,"longitude":8.682127,"reserved":0,"last_update":"0001-01-01T00:00:00Z","name_a2s":"Uncletopia | Frankfurt | 6 | All Maps","protocol":17,"map":"pl_snowycoast","folder":"tf","game":"Team Fortress","app_id":440,"player_count":24,"max_players":24,"Bots":0,"server_type":"Dedicated","server_os":"Linux","password":true,"vac":true,"version":"7961495","steam_id":85568392924504278,"keywords":["nocrits","nodmgspread","payload","uncletopia"],"game_id":440,"stv_port":27066,"stv_name":"Uncletopia | Frankfurt | 6 | All Maps | STV","players":[{"user_id":509,"name":"Acanda","steam_id":76561198123246537,"connected_time":2153000000000,"state":"active","ping":55},{"user_id":227,"name":"Finnish Farmer","steam_id":76561198205366043,"connected_time":12802000000000,"state":"active","ping":86},{"user_id":530,"name":"Basinox","steam_id":76561198019628384,"connected_time":435000000000,"state":"active","ping":68},{"user_id":481,"name":"Defultplayer","steam_id":76561198105182562,"connected_time":3751000000000,"state":"active","ping":57},{"user_id":525,"name":"kkt","steam_id":76561198059226261,"connected_time":501000000000,"state":"active","ping":60},{"user_id":521,"name":"zinzyk","steam_id":76561198128011822,"connected_time":672000000000,"state":"active","ping":55},{"user_id":513,"name":"BabyYodaIsMySoda","steam_id":76561198321846861,"connected_time":1363000000000,"state":"active","ping":70},{"user_id":531,"name":"Ben UFO","steam_id":76561198001648348,"connected_time":159000000000,"state":"active","ping":65},{"user_id":532,"name":"K3nza","steam_id":76561198180128410,"connected_time":159000000000,"state":"active","ping":64},{"user_id":472,"name":"notna :)","steam_id":76561198059464571,"connected_time":3862000000000,"state":"active","ping":59},{"user_id":474,"name":"[FP] Scewtch","steam_id":76561198120500488,"connected_time":3807000000000,"state":"active","ping":66},{"user_id":522,"name":"fifrok","steam_id":76561198799267621,"connected_time":657000000000,"state":"active","ping":73},{"user_id":475,"name":"Itsuka","steam_id":76561198124507599,"connected_time":3806000000000,"state":"active","ping":49},{"user_id":511,"name":"Lemon","steam_id":76561198188535947,"connected_time":1947000000000,"state":"active","ping":80},{"user_id":482,"name":"BRICK TOP","steam_id":76561198014366715,"connected_time":3693000000000,"state":"active","ping":54},{"user_id":496,"name":"[FP] Brink","steam_id":76561198156617089,"connected_time":2803000000000,"state":"active","ping":52},{"user_id":477,"name":"[FP] Rune","steam_id":76561198030842879,"connected_time":3800000000000,"state":"active","ping":53},{"user_id":526,"name":"shadye6363","steam_id":76561199232803221,"connected_time":498000000000,"state":"active","ping":71},{"user_id":478,"name":"[FP] Shiken","steam_id":76561198257905663,"connected_time":3798000000000,"state":"active","ping":82},{"user_id":510,"name":"w+m1","steam_id":76561198010428082,"connected_time":1978000000000,"state":"active","ping":61},{"user_id":527,"name":"ඞ","steam_id":76561199500311813,"connected_time":497000000000,"state":"active","ping":172},{"user_id":519,"name":"Real (Real)","steam_id":76561198323425034,"connected_time":897000000000,"state":"active","ping":74},{"user_id":528,"name":"kevinshark123","steam_id":76561198244631550,"connected_time":494000000000,"state":"active","ping":68},{"user_id":529,"name":"Ascendmychild","steam_id":76561198099271952,"connected_time":455000000000,"state":"active","ping":70}]},{"server_id":23,"name":"Uncletopia | Frankfurt | 7 | Stopwatch","name_short":"frk-7","host":"frk-1.de.uncletopia.com","port":27075,"enabled":true,"region":"eu","cc":"de","latitude":50.110924,"longitude":8.682127,"reserved":0,"last_update":"0001-01-01T00:00:00Z","name_a2s":"Uncletopia | Frankfurt | 7 | Stopwatch","protocol":17,"map":"workshop/koth_ramjam_rc1.ugc459778887","folder":"tf","game":"Team Fortress","app_id":440,"player_count":0,"max_players":24,"Bots":0,"server_type":"Dedicated","server_os":"Linux","password":true,"vac":true,"version":"7961495","steam_id":85568392924742827,"keywords":["cp","nocrits","nodmgspread","uncletopia"],"game_id":440,"stv_port":27076,"stv_name":"Uncletopia | Frankfurt | 7 | Stopwatch | STV","players":null},{"server_id":24,"name":"Uncletopia | Frankfurt | 8 | Community","name_short":"frk-8","host":"frk-1.de.uncletopia.com","port":27085,"enabled":true,"region":"eu","cc":"de","latitude":50.110924,"longitude":8.682127,"reserved":0,"last_update":"0001-01-01T00:00:00Z","name_a2s":"Uncletopia | Frankfurt | 8 | Community","protocol":17,"map":"workshop/pl_cashworks_final1.ugc2904065412","folder":"tf","game":"Team Fortress","app_id":440,"player_count":1,"max_players":24,"Bots":0,"server_type":"Dedicated","server_os":"Linux","password":true,"vac":true,"version":"7961495","steam_id":85568392924742828,"keywords":["nocrits","nodmgspread","payload","uncletopia"],"game_id":440,"stv_port":27086,"stv_name":"Uncletopia | Frankfurt | 8 | Community | STV","players":[{"user_id":53,"name":"GH578","steam_id":76561199493262585,"connected_time":198000000000,"state":"active","ping":213}]},{"server_id":202,"name":"Uncletopia | Hong Kong | 1 | All Maps","name_short":"hgk-1","host":"hgk-1.hk.uncletopia.com","port":27015,"enabled":true,"region":"asia","cc":"hk","latitude":22.302711,"longitude":114.177216,"reserved":0,"last_update":"0001-01-01T00:00:00Z","name_a2s":"Uncletopia | Hong Kong | 1 | All Maps","protocol":17,"map":"koth_viaduct","folder":"tf","game":"Team Fortress","app_id":440,"player_count":0,"max_players":24,"Bots":0,"server_type":"Dedicated","server_os":"Linux","password":true,"vac":true,"version":"7961495","steam_id":85568392924494504,"keywords":["cp","nocrits","nodmgspread","uncletopia"],"game_id":440,"stv_port":27016,"stv_name":"Uncletopia | Hong Kong | 1 | All Maps | STV","players":null},{"server_id":1,"name":"Uncletopia | Los Angeles | 1 | All Maps","name_short":"lax-1","host":"lax-1.us.uncletopia.com","port":27015,"enabled":true,"region":"us-west","cc":"us","latitude":33.94279,"longitude":-118.41004,"reserved":0,"last_update":"0001-01-01T00:00:00Z","name_a2s":"Uncletopia | Los Angeles | 1 | All Maps","protocol":17,"map":"cp_snakewater_final1","folder":"tf","game":"Team Fortress","app_id":440,"player_count":24,"max_players":24,"Bots":0,"server_type":"Dedicated","server_os":"Linux","password":true,"vac":true,"version":"7961495","steam_id":85568392924469991,"keywords":["cp","nocrits","nodmgspread","uncletopia"],"game_id":440,"stv_port":27016,"stv_name":"Uncletopia | Los Angeles | 1 | All Maps | STV","players":[{"user_id":168,"name":"Brando","steam_id":76561198078306678,"connected_time":2115000000000,"state":"active","ping":70},{"user_id":145,"name":"heycaesar","steam_id":76561198273714368,"connected_time":3960000000000,"state":"active","ping":59},{"user_id":141,"name":"flo rida","steam_id":76561198226169704,"connected_time":4122000000000,"state":"active","ping":51},{"user_id":155,"name":"noceof","steam_id":76561198043656816,"connected_time":2772000000000,"state":"active","ping":172},{"user_id":181,"name":"roach :3","steam_id":76561198354811369,"connected_time":430000000000,"state":"active","ping":47},{"user_id":140,"name":"johnny","steam_id":76561198050225055,"connected_time":4137000000000,"state":"active","ping":44},{"user_id":182,"name":"Pablosantiago09","steam_id":76561199482142793,"connected_time":245000000000,"state":"active","ping":51},{"user_id":171,"name":"ChebJeb","steam_id":76561198981377081,"connected_time":1639000000000,"state":"active","ping":127},{"user_id":158,"name":"cielael","steam_id":76561198043971956,"connected_time":2432000000000,"state":"active","ping":50},{"user_id":89,"name":"Perfume Department","steam_id":76561198128299594,"connected_time":6985000000000,"state":"active","ping":58},{"user_id":160,"name":"sniffy","steam_id":76561198184933255,"connected_time":2385000000000,"state":"active","ping":55},{"user_id":176,"name":"HumbDoe","steam_id":76561198065556553,"connected_time":1200000000000,"state":"active","ping":56},{"user_id":165,"name":"Irks","steam_id":76561198048243510,"connected_time":2186000000000,"state":"active","ping":60},{"user_id":177,"name":"yay","steam_id":76561198338739253,"connected_time":1031000000000,"state":"active","ping":55},{"user_id":172,"name":"no vc no c","steam_id":76561197989503095,"connected_time":1639000000000,"state":"active","ping":166},{"user_id":178,"name":"Risky","steam_id":76561198231029328,"connected_time":798000000000,"state":"active","ping":65},{"user_id":131,"name":"eggplantgirl♥","steam_id":76561198811515692,"connected_time":5412000000000,"state":"active","ping":51},{"user_id":173,"name":"NOBODY","steam_id":76561198094578887,"connected_time":1582000000000,"state":"active","ping":93},{"user_id":36,"name":"hyaz, +rep.","steam_id":76561199100342013,"connected_time":11508000000000,"state":"active","ping":46},{"user_id":135,"name":"thatfoolralph","steam_id":76561199210333385,"connected_time":4800000000000,"state":"active","ping":59},{"user_id":136,"name":"Nyges","steam_id":76561198139236154,"connected_time":4708000000000,"state":"active","ping":58},{"user_id":150,"name":"Hydryx","steam_id":76561198307376770,"connected_time":2838000000000,"state":"active","ping":53},{"user_id":151,"name":"Boxcars","steam_id":76561198120978767,"connected_time":2838000000000,"state":"active","ping":61},{"user_id":152,"name":"KnockOutClock","steam_id":76561199436877307,"connected_time":2837000000000,"state":"active","ping":54}]},{"server_id":112,"name":"Uncletopia | Los Angeles | 2 | All Maps","name_short":"lax-2","host":"lax-1.us.uncletopia.com","port":27025,"enabled":true,"region":"us-west","cc":"us","latitude":33.94279,"longitude":-118.41004,"reserved":0,"last_update":"0001-01-01T00:00:00Z","name_a2s":"Uncletopia | Los Angeles | 2 | All Maps","protocol":17,"map":"koth_cascade","folder":"tf","game":"Team Fortress","app_id":440,"player_count":0,"max_players":24,"Bots":0,"server_type":"Dedicated","server_os":"Linux","password":true,"vac":true,"version":"7961495","steam_id":85568392924469992,"keywords":["cp","nocrits","nodmgspread","uncletopia"],"game_id":440,"stv_port":27026,"stv_name":"Uncletopia | Los Angeles | 2 | All Maps | STV","players":null},{"server_id":324,"name":"Uncletopia | Los Angeles | 3 | All Maps","name_short":"lax-3","host":"lax-1.us.uncletopia.com","port":27035,"enabled":true,"region":"us-west","cc":"us","latitude":33.94279,"longitude":-118.41004,"reserved":0,"last_update":"0001-01-01T00:00:00Z","name_a2s":"Uncletopia | Los Angeles | 3 | All Maps","protocol":17,"map":"koth_viaduct","folder":"tf","game":"Team Fortress","app_id":440,"player_count":0,"max_players":24,"Bots":0,"server_type":"Dedicated","server_os":"Linux","password":true,"vac":true,"version":"7961495","steam_id":85568392924510198,"keywords":["cp","nocrits","nodmgspread","uncletopia"],"game_id":440,"stv_port":27036,"stv_name":"Uncletopia | Los Angeles | 3 | All Maps | STV","players":null},{"server_id":25,"name":"Uncletopia | Los Angeles | 4 | Stopwatch","name_short":"lax-4","host":"lax-1.us.uncletopia.com","port":27045,"enabled":true,"region":"us-west","cc":"us","latitude":33.94279,"longitude":-118.41004,"reserved":0,"last_update":"0001-01-01T00:00:00Z","name_a2s":"Uncletopia | Los Angeles | 4 | Stopwatch","protocol":17,"map":"workshop/cp_process_f12.ugc2302948105","folder":"tf","game":"Team Fortress","app_id":440,"player_count":0,"max_players":24,"Bots":0,"server_type":"Dedicated","server_os":"Linux","password":true,"vac":true,"version":"7961495","steam_id":85568392924510199,"keywords":["cp","nocrits","nodmgspread","uncletopia"],"game_id":440,"stv_port":27046,"stv_name":"Uncletopia | Los Angeles | 4 | Stopwatch | STV","players":null},{"server_id":11,"name":"Uncletopia | London | 1 | All Maps","name_short":"lon-1","host":"lon-1.uk.uncletopia.com","port":27015,"enabled":true,"region":"eu","cc":"gb","latitude":51.509865,"longitude":-0.118092,"reserved":0,"last_update":"0001-01-01T00:00:00Z","name_a2s":"Uncletopia | London | 1 | All Maps","protocol":17,"map":"cp_process_final","folder":"tf","game":"Team Fortress","app_id":440,"player_count":24,"max_players":24,"Bots":0,"server_type":"Dedicated","server_os":"Linux","password":true,"vac":true,"version":"7961495","steam_id":85568392924367362,"keywords":["cp","nocrits","nodmgspread","uncletopia"],"game_id":440,"stv_port":27016,"stv_name":"Uncletopia | London | 1 | All Maps | STV","players":[{"user_id":581,"name":"dec","steam_id":76561198009660168,"connected_time":1388000000000,"state":"active","ping":59},{"user_id":348,"name":"neJ","steam_id":76561198003397488,"connected_time":25893000000000,"state":"active","ping":76},{"user_id":583,"name":"Nutty Dark^^","steam_id":76561198036241064,"connected_time":890000000000,"state":"active","ping":70},{"user_id":578,"name":"Aaron","steam_id":76561197990046953,"connected_time":1858000000000,"state":"active","ping":59},{"user_id":584,"name":"✪ Danny","steam_id":76561198104483241,"connected_time":883000000000,"state":"active","ping":59},{"user_id":553,"name":"steff","steam_id":76561198013306538,"connected_time":5696000000000,"state":"active","ping":43},{"user_id":590,"name":"milof","steam_id":76561198809199604,"connected_time":201000000000,"state":"active","ping":87},{"user_id":532,"name":"Finkaksu Devourer of Sour Candy","steam_id":76561198201389163,"connected_time":7832000000000,"state":"active","ping":74},{"user_id":585,"name":"SnareBreaker","steam_id":76561198854045058,"connected_time":883000000000,"state":"active","ping":76},{"user_id":591,"name":"transgender e-girl","steam_id":76561198168589809,"connected_time":11000000000,"state":"spawning","ping":45},{"user_id":570,"name":"shooer!","steam_id":76561198110531281,"connected_time":2726000000000,"state":"active","ping":66},{"user_id":505,"name":"xx_tw1st3d_tw1l1ght_xx","steam_id":76561198043601838,"connected_time":10961000000000,"state":"active","ping":60},{"user_id":563,"name":"MSM","steam_id":76561198310095220,"connected_time":3906000000000,"state":"active","ping":43},{"user_id":526,"name":"❤aura❤","steam_id":76561198066258544,"connected_time":8923000000000,"state":"active","ping":62},{"user_id":572,"name":"KnugenIV","steam_id":76561198127091993,"connected_time":2600000000000,"state":"active","ping":57},{"user_id":554,"name":"Kahvi","steam_id":76561198723244199,"connected_time":5687000000000,"state":"active","ping":89},{"user_id":588,"name":"AftiksPL","steam_id":76561198875182686,"connected_time":776000000000,"state":"active","ping":104},{"user_id":589,"name":"Floris","steam_id":76561198001717422,"connected_time":550000000000,"state":"active","ping":55},{"user_id":557,"name":"Purps","steam_id":76561198053886680,"connected_time":5653000000000,"state":"active","ping":44},{"user_id":562,"name":"Lartsa","steam_id":76561198275690230,"connected_time":4427000000000,"state":"active","ping":109},{"user_id":542,"name":"Plep","steam_id":76561198840259819,"connected_time":6622000000000,"state":"active","ping":60},{"user_id":574,"name":"Daruun","steam_id":76561198019068781,"connected_time":2490000000000,"state":"active","ping":81},{"user_id":543,"name":"so valid queen slay","steam_id":76561198190583242,"connected_time":6620000000000,"state":"active","ping":89},{"user_id":571,"name":"ein","steam_id":76561198152162834,"connected_time":2724000000000,"state":"active","ping":100}]},{"server_id":114,"name":"Uncletopia | London | 2 | All Maps","name_short":"lon-2","host":"lon-1.uk.uncletopia.com","port":27025,"enabled":true,"region":"eu","cc":"gb","latitude":51.509865,"longitude":-0.118092,"reserved":0,"last_update":"0001-01-01T00:00:00Z","name_a2s":"Uncletopia | London | 2 | All Maps","protocol":17,"map":"pl_borneo","folder":"tf","game":"Team Fortress","app_id":440,"player_count":24,"max_players":24,"Bots":0,"server_type":"Dedicated","server_os":"Linux","password":true,"vac":true,"version":"7961495","steam_id":85568392924470941,"keywords":["nocrits","nodmgspread","payload","uncletopia"],"game_id":440,"stv_port":27026,"stv_name":"Uncletopia | London | 2 | All Maps | STV","players":[{"user_id":483,"name":"Asfedia","steam_id":76561199386836351,"connected_time":1276000000000,"state":"active","ping":60},{"user_id":501,"name":"Blurry","steam_id":76561198884908952,"connected_time":151000000000,"state":"active","ping":49},{"user_id":495,"name":"mamamoo","steam_id":76561198152681460,"connected_time":640000000000,"state":"active","ping":77},{"user_id":500,"name":"After8","steam_id":76561198090750865,"connected_time":194000000000,"state":"active","ping":71},{"user_id":459,"name":"LogainAblar","steam_id":76561198353261190,"connected_time":2525000000000,"state":"active","ping":67},{"user_id":489,"name":"ender45","steam_id":76561198840955715,"connected_time":874000000000,"state":"active","ping":37},{"user_id":474,"name":"THY DARK L0RD","steam_id":76561198029005085,"connected_time":1450000000000,"state":"active","ping":82},{"user_id":475,"name":"Enigmatic Gale","steam_id":76561198039416982,"connected_time":1447000000000,"state":"active","ping":54},{"user_id":488,"name":"foo","steam_id":76561198084451074,"connected_time":911000000000,"state":"active","ping":79},{"user_id":463,"name":"CarBombEnthusiast","steam_id":76561199448185434,"connected_time":2431000000000,"state":"active","ping":70},{"user_id":450,"name":"ABSOLUTE UNIT","steam_id":76561197972287320,"connected_time":2832000000000,"state":"active","ping":85},{"user_id":498,"name":"Darth Falcon","steam_id":76561199033727636,"connected_time":379000000000,"state":"active","ping":181},{"user_id":504,"name":"e","steam_id":76561198204685028,"connected_time":20000000000,"state":"spawning","ping":60},{"user_id":503,"name":"summer","steam_id":76561198170056395,"connected_time":78000000000,"state":"active","ping":54},{"user_id":493,"name":"ow","steam_id":76561198121589024,"connected_time":769000000000,"state":"active","ping":74},{"user_id":439,"name":"I am dating your grandmother","steam_id":76561198268159433,"connected_time":3367000000000,"state":"active","ping":92},{"user_id":405,"name":"Rez","steam_id":76561198410598772,"connected_time":6067000000000,"state":"active","ping":45},{"user_id":490,"name":"Cool Beans","steam_id":76561197995130085,"connected_time":871000000000,"state":"active","ping":45},{"user_id":496,"name":"Kamelåså","steam_id":76561198149072785,"connected_time":580000000000,"state":"active","ping":66},{"user_id":457,"name":"Wuffington","steam_id":76561198033762881,"connected_time":2592000000000,"state":"active","ping":51},{"user_id":481,"name":"Hayds Gaming [TER] [TTN]","steam_id":76561199461851882,"connected_time":1315000000000,"state":"active","ping":61},{"user_id":467,"name":"autotopilot","steam_id":76561198261922138,"connected_time":2374000000000,"state":"active","ping":82},{"user_id":502,"name":"Brian","steam_id":76561198077756206,"connected_time":112000000000,"state":"active","ping":44},{"user_id":485,"name":"john fortress","steam_id":76561198013237629,"connected_time":1108000000000,"state":"active","ping":106}]},{"server_id":320,"name":"Uncletopia | London | 3 | All Maps","name_short":"lon-3","host":"lon-1.uk.uncletopia.com","port":27035,"enabled":true,"region":"eu","cc":"gb","latitude":51.509865,"longitude":-0.118092,"reserved":0,"last_update":"0001-01-01T00:00:00Z","name_a2s":"Uncletopia | London | 3 | All Maps","protocol":17,"map":"cp_process_final","folder":"tf","game":"Team Fortress","app_id":440,"player_count":21,"max_players":24,"Bots":0,"server_type":"Dedicated","server_os":"Linux","password":true,"vac":true,"version":"7961495","steam_id":85568392924510192,"keywords":["cp","nocrits","nodmgspread","uncletopia"],"game_id":440,"stv_port":27036,"stv_name":"Uncletopia | London | 3 | All Maps | STV","players":[{"user_id":714,"name":"The worst TF2 player(real)","steam_id":76561199184873889,"connected_time":56000000000,"state":"active","ping":67},{"user_id":685,"name":"Spinya","steam_id":76561198086653667,"connected_time":1814000000000,"state":"active","ping":53},{"user_id":715,"name":"Cillian","steam_id":76561199471571148,"connected_time":38000000000,"state":"spawning","ping":342},{"user_id":687,"name":"Peat","steam_id":76561197992168067,"connected_time":1806000000000,"state":"active","ping":66},{"user_id":657,"name":"powerviolentjunglist","steam_id":76561198193802523,"connected_time":3716000000000,"state":"active","ping":46},{"user_id":672,"name":"TruckOperator47","steam_id":76561198192924663,"connected_time":2500000000000,"state":"active","ping":67},{"user_id":689,"name":"DudeoftheRock","steam_id":76561198059401865,"connected_time":1794000000000,"state":"active","ping":50},{"user_id":716,"name":"Silver","steam_id":76561198175238807,"connected_time":32000000000,"state":"active","ping":62},{"user_id":712,"name":"armadillo","steam_id":76561198324656652,"connected_time":264000000000,"state":"active","ping":45},{"user_id":676,"name":"the Average french guy","steam_id":76561199143050500,"connected_time":2458000000000,"state":"active","ping":65},{"user_id":690,"name":"418 131","steam_id":76561198097789669,"connected_time":1785000000000,"state":"active","ping":70},{"user_id":701,"name":"Sivik","steam_id":76561198370329466,"connected_time":1151000000000,"state":"active","ping":45},{"user_id":698,"name":"MK-Ultra Violence","steam_id":76561198081328238,"connected_time":1361000000000,"state":"active","ping":75},{"user_id":681,"name":"Fissure","steam_id":76561198272595481,"connected_time":2171000000000,"state":"active","ping":94},{"user_id":654,"name":"Fallen","steam_id":76561199445283186,"connected_time":4186000000000,"state":"active","ping":138},{"user_id":710,"name":"BonnieDrag","steam_id":76561199149216429,"connected_time":331000000000,"state":"active","ping":91},{"user_id":692,"name":"Darim","steam_id":76561198097062529,"connected_time":1770000000000,"state":"active","ping":133},{"user_id":679,"name":"Acucutl","steam_id":76561198133867096,"connected_time":2325000000000,"state":"active","ping":45},{"user_id":677,"name":"I will violate you","steam_id":76561198349830813,"connected_time":2436000000000,"state":"active","ping":48},{"user_id":703,"name":"Saint","steam_id":76561198003296382,"connected_time":713000000000,"state":"active","ping":77},{"user_id":684,"name":"Skarp","steam_id":76561198034398376,"connected_time":1933000000000,"state":"active","ping":60}]},{"server_id":321,"name":"Uncletopia | London | 4 | All Maps","name_short":"lon-4","host":"lon-1.uk.uncletopia.com","port":27045,"enabled":true,"region":"eu","cc":"gb","latitude":51.509865,"longitude":-0.118092,"reserved":0,"last_update":"0001-01-01T00:00:00Z","name_a2s":"Uncletopia | London | 4 | All Maps","protocol":17,"map":"cp_altitude","folder":"tf","game":"Team Fortress","app_id":440,"player_count":21,"max_players":24,"Bots":0,"server_type":"Dedicated","server_os":"Linux","password":true,"vac":true,"version":"7961495","steam_id":85568392924510193,"keywords":["cp","nocrits","nodmgspread","uncletopia"],"game_id":440,"stv_port":27046,"stv_name":"Uncletopia | London | 4 | All Maps | STV","players":[{"user_id":463,"name":"EuropaWaifu enjoyer","steam_id":76561198173218318,"connected_time":115000000000,"state":"active","ping":69},{"user_id":444,"name":"Qwerty","steam_id":76561198023525894,"connected_time":1480000000000,"state":"active","ping":84},{"user_id":461,"name":"Kardiol","steam_id":76561198122344852,"connected_time":134000000000,"state":"active","ping":54},{"user_id":441,"name":"gosi","steam_id":76561198084111532,"connected_time":1757000000000,"state":"active","ping":72},{"user_id":448,"name":"lillunya ♡","steam_id":76561198330418866,"connected_time":374000000000,"state":"active","ping":68},{"user_id":452,"name":"windowlicker","steam_id":76561198314853430,"connected_time":281000000000,"state":"active","ping":62},{"user_id":434,"name":"Clownputer? what the fuck?","steam_id":76561198033032672,"connected_time":2697000000000,"state":"active","ping":56},{"user_id":399,"name":"Mini","steam_id":76561197968634073,"connected_time":4936000000000,"state":"active","ping":84},{"user_id":412,"name":"edward cullen from twilight","steam_id":76561198038827937,"connected_time":3722000000000,"state":"active","ping":57},{"user_id":462,"name":"Hundehunde (137)","steam_id":76561198028683991,"connected_time":130000000000,"state":"active","ping":46},{"user_id":454,"name":"Deez nuts","steam_id":76561199429562693,"connected_time":269000000000,"state":"active","ping":69},{"user_id":455,"name":"froggy with Cheese","steam_id":76561198163244605,"connected_time":249000000000,"state":"active","ping":85},{"user_id":465,"name":"slogar","steam_id":76561198046191991,"connected_time":74000000000,"state":"active","ping":34},{"user_id":456,"name":"105,5","steam_id":76561198256619964,"connected_time":244000000000,"state":"active","ping":75},{"user_id":391,"name":"Jussukka","steam_id":76561198122894683,"connected_time":5272000000000,"state":"active","ping":86},{"user_id":439,"name":"randompixel","steam_id":76561198003941207,"connected_time":2048000000000,"state":"active","ping":56},{"user_id":457,"name":"noot","steam_id":76561198148074472,"connected_time":244000000000,"state":"active","ping":45},{"user_id":426,"name":"Lusitana","steam_id":76561198186320802,"connected_time":3003000000000,"state":"active","ping":85},{"user_id":458,"name":"Vershal Smershal","steam_id":76561198116223995,"connected_time":236000000000,"state":"active","ping":56},{"user_id":427,"name":"Tuosan","steam_id":76561198062611429,"connected_time":2975000000000,"state":"active","ping":86},{"user_id":433,"name":"sponsored by nord vpn","steam_id":76561198044704458,"connected_time":2793000000000,"state":"active","ping":54}]},{"server_id":21,"name":"Uncletopia | London | 5 | All Maps","name_short":"lon-5","host":"lon-1.uk.uncletopia.com","port":27055,"enabled":true,"region":"eu","cc":"gb","latitude":51.509865,"longitude":-0.118092,"reserved":0,"last_update":"0001-01-01T00:00:00Z","name_a2s":"Uncletopia | London | 5 | All Maps","protocol":17,"map":"pl_snowycoast","folder":"tf","game":"Team Fortress","app_id":440,"player_count":23,"max_players":24,"Bots":0,"server_type":"Dedicated","server_os":"Linux","password":true,"vac":true,"version":"7961495","steam_id":85568392924742829,"keywords":["nocrits","nodmgspread","payload","uncletopia"],"game_id":440,"stv_port":27056,"stv_name":"Uncletopia | London | 5 | All Maps | STV","players":[{"user_id":536,"name":"Creep","steam_id":76561198067157049,"connected_time":54000000000,"state":"active","ping":57},{"user_id":531,"name":"guru{Hari}","steam_id":76561197997001681,"connected_time":502000000000,"state":"active","ping":305},{"user_id":534,"name":"fazaness","steam_id":76561198851525394,"connected_time":223000000000,"state":"active","ping":136},{"user_id":487,"name":"Will","steam_id":76561198173329977,"connected_time":2810000000000,"state":"active","ping":49},{"user_id":525,"name":"YARrICk.«+»","steam_id":76561197990126485,"connected_time":1108000000000,"state":"active","ping":58},{"user_id":488,"name":"LiterallyRyanGosling","steam_id":76561199017856691,"connected_time":2804000000000,"state":"active","ping":57},{"user_id":333,"name":"Zerosiini","steam_id":76561198113771976,"connected_time":10207000000000,"state":"active","ping":62},{"user_id":464,"name":"magnos62564","steam_id":76561198356968225,"connected_time":4030000000000,"state":"active","ping":74},{"user_id":509,"name":"Ablativus","steam_id":76561198025698470,"connected_time":2058000000000,"state":"active","ping":74},{"user_id":498,"name":"Luau","steam_id":76561197994492154,"connected_time":2244000000000,"state":"active","ping":68},{"user_id":533,"name":"Emerald","steam_id":76561199141384216,"connected_time":446000000000,"state":"active","ping":86},{"user_id":515,"name":"Zonddey","steam_id":76561198134885222,"connected_time":1384000000000,"state":"active","ping":57},{"user_id":480,"name":"DiracDeltaFunction","steam_id":76561199201624841,"connected_time":3694000000000,"state":"active","ping":90},{"user_id":510,"name":"Lennox","steam_id":76561198069063554,"connected_time":2046000000000,"state":"active","ping":47},{"user_id":528,"name":"icymelon","steam_id":76561198072239175,"connected_time":696000000000,"state":"active","ping":40},{"user_id":508,"name":"oh my goz","steam_id":76561198155229347,"connected_time":2137000000000,"state":"active","ping":31},{"user_id":529,"name":"rory","steam_id":76561198062400295,"connected_time":669000000000,"state":"active","ping":68},{"user_id":532,"name":"Axter","steam_id":76561198118747192,"connected_time":479000000000,"state":"active","ping":85},{"user_id":524,"name":"YunikkoN","steam_id":76561198211962412,"connected_time":1132000000000,"state":"active","ping":106},{"user_id":519,"name":"jerkwaterberg","steam_id":76561198134165667,"connected_time":1312000000000,"state":"active","ping":47},{"user_id":506,"name":"Penis Contortionist","steam_id":76561198073663784,"connected_time":2164000000000,"state":"active","ping":39},{"user_id":507,"name":"Burrito","steam_id":76561198023919089,"connected_time":2161000000000,"state":"active","ping":84},{"user_id":535,"name":"Egor Pomidor","steam_id":76561199175688390,"connected_time":211000000000,"state":"active","ping":83}]},{"server_id":22,"name":"Uncletopia | London | 6 | All Maps","name_short":"lon-6","host":"lon-1.uk.uncletopia.com","port":27065,"enabled":true,"region":"eu","cc":"gb","latitude":51.509865,"longitude":-0.118092,"reserved":0,"last_update":"0001-01-01T00:00:00Z","name_a2s":"Uncletopia | London | 6 | All Maps","protocol":17,"map":"pl_snowycoast","folder":"tf","game":"Team Fortress","app_id":440,"player_count":24,"max_players":24,"Bots":0,"server_type":"Dedicated","server_os":"Linux","password":true,"vac":true,"version":"7961495","steam_id":85568392924742830,"keywords":["nocrits","nodmgspread","payload","uncletopia"],"game_id":440,"stv_port":27066,"stv_name":"Uncletopia | London | 6 | All Maps | STV","players":[{"user_id":180,"name":"Testy","steam_id":76561198169996602,"connected_time":2001000000000,"state":"active","ping":55},{"user_id":174,"name":"Peskyplumber64","steam_id":76561198044458330,"connected_time":2764000000000,"state":"active","ping":53},{"user_id":171,"name":"BELADIT","steam_id":76561198011911501,"connected_time":2905000000000,"state":"active","ping":76},{"user_id":186,"name":"Arc","steam_id":76561198805049375,"connected_time":1679000000000,"state":"active","ping":56},{"user_id":192,"name":"♂Kipu♂","steam_id":76561198046239061,"connected_time":667000000000,"state":"active","ping":90},{"user_id":158,"name":"GazerBazer","steam_id":76561198879107565,"connected_time":3408000000000,"state":"active","ping":58},{"user_id":198,"name":"Jaydyn","steam_id":76561198140326797,"connected_time":26000000000,"state":"active","ping":133},{"user_id":195,"name":"CookedBird","steam_id":76561198107521676,"connected_time":154000000000,"state":"active","ping":67},{"user_id":193,"name":"SpiritStar","steam_id":76561198063920313,"connected_time":189000000000,"state":"active","ping":125},{"user_id":173,"name":"XxBenShapiro420xX","steam_id":76561199229373972,"connected_time":2881000000000,"state":"active","ping":61},{"user_id":176,"name":"naavki","steam_id":76561198255260602,"connected_time":2640000000000,"state":"active","ping":72},{"user_id":94,"name":"Beanie","steam_id":76561198173882658,"connected_time":6849000000000,"state":"active","ping":46},{"user_id":95,"name":"skittish maiden","steam_id":76561198096856475,"connected_time":6830000000000,"state":"active","ping":48},{"user_id":116,"name":"IanThatMiner","steam_id":76561198079785511,"connected_time":6166000000000,"state":"active","ping":145},{"user_id":187,"name":"ANGHENFILOD","steam_id":76561199492622823,"connected_time":1618000000000,"state":"active","ping":38},{"user_id":162,"name":"yush","steam_id":76561198121688934,"connected_time":3160000000000,"state":"active","ping":81},{"user_id":188,"name":"Margarito_snake","steam_id":76561198132001394,"connected_time":1470000000000,"state":"active","ping":115},{"user_id":189,"name":"CzechMate #SaveTF2","steam_id":76561198012687703,"connected_time":1456000000000,"state":"active","ping":60},{"user_id":114,"name":"Frozen Ocelot","steam_id":76561198023761571,"connected_time":6170000000000,"state":"active","ping":55},{"user_id":194,"name":"MrSoy","steam_id":76561198082960634,"connected_time":167000000000,"state":"active","ping":68},{"user_id":190,"name":"desmo_","steam_id":76561198023528339,"connected_time":1132000000000,"state":"active","ping":79},{"user_id":196,"name":"learning how 2 golf","steam_id":76561198040690770,"connected_time":146000000000,"state":"active","ping":54},{"user_id":185,"name":"lithiumsniffer","steam_id":76561198857126944,"connected_time":1716000000000,"state":"active","ping":67},{"user_id":197,"name":"Axio","steam_id":76561198046826031,"connected_time":145000000000,"state":"active","ping":74}]},{"server_id":40,"name":"Uncletopia | London | 7 | Stopwatch","name_short":"lon-7","host":"lon-1.uk.uncletopia.com","port":27075,"enabled":true,"region":"eu","cc":"gb","latitude":51.509865,"longitude":-0.118092,"reserved":0,"last_update":"0001-01-01T00:00:00Z","name_a2s":"Uncletopia | London | 7 | Stopwatch","protocol":17,"map":"workshop/koth_product_final.ugc454272353","folder":"tf","game":"Team Fortress","app_id":440,"player_count":0,"max_players":24,"Bots":0,"server_type":"Dedicated","server_os":"Linux","password":true,"vac":true,"version":"7961495","steam_id":85568392924964314,"keywords":["cp","nocrits","nodmgspread","uncletopia"],"game_id":440,"stv_port":27076,"stv_name":"Uncletopia | London | 7 | Stopwatch | STV","players":null},{"server_id":41,"name":"Uncletopia | London | 8 | Community","name_short":"lon-8","host":"lon-1.uk.uncletopia.com","port":27085,"enabled":true,"region":"eu","cc":"gb","latitude":51.509865,"longitude":-0.118092,"reserved":0,"last_update":"0001-01-01T00:00:00Z","name_a2s":"Uncletopia | London | 8 | Community","protocol":17,"map":"workshop/cp_sulfur_rc2.ugc619869471","folder":"tf","game":"Team Fortress","app_id":440,"player_count":0,"max_players":24,"Bots":0,"server_type":"Dedicated","server_os":"Linux","password":true,"vac":true,"version":"7961495","steam_id":85568392924964315,"keywords":["cp","nocrits","nodmgspread","uncletopia"],"game_id":440,"stv_port":27086,"stv_name":"Uncletopia | London | 8 | Community | STV","players":null},{"server_id":300,"name":"Uncletopia | Montréal | 1 | One Thousand Uncles","name_short":"mtl-1","host":"mtl-1.ca.uncletopia.com","port":27015,"enabled":true,"region":"us-east","cc":"ca","latitude":45.50889,"longitude":-73.56167,"reserved":0,"last_update":"0001-01-01T00:00:00Z","name_a2s":"","protocol":0,"map":"","folder":"","game":"","app_id":0,"player_count":2,"max_players":0,"Bots":0,"server_type":"","server_os":"","password":false,"vac":false,"version":"","steam_id":0,"keywords":null,"game_id":0,"stv_port":0,"stv_name":"","players":[{"user_id":153,"name":"d4efeb","steam_id":76561198148098761,"connected_time":2512000000000,"state":"active","ping":60},{"user_id":170,"name":"gravid baby","steam_id":76561198318646867,"connected_time":1851000000000,"state":"active","ping":43}]},{"server_id":301,"name":"Uncletopia | Montréal | 2 | One Thousand Uncles","name_short":"mtl-2","host":"mtl-1.ca.uncletopia.com","port":27025,"enabled":true,"region":"us-east","cc":"ca","latitude":45.50889,"longitude":-73.56167,"reserved":0,"last_update":"0001-01-01T00:00:00Z","name_a2s":"","protocol":0,"map":"","folder":"","game":"","app_id":0,"player_count":4,"max_players":0,"Bots":0,"server_type":"","server_os":"","password":false,"vac":false,"version":"","steam_id":0,"keywords":null,"game_id":0,"stv_port":0,"stv_name":"","players":[{"user_id":53,"name":"Willi the Gifter of Chaos","steam_id":76561198066508251,"connected_time":6058000000000,"state":"active","ping":51},{"user_id":127,"name":"ConnorWRM","steam_id":76561199350333302,"connected_time":206000000000,"state":"active","ping":123},{"user_id":126,"name":"i eat glue","steam_id":76561198827026673,"connected_time":570000000000,"state":"active","ping":45},{"user_id":100,"name":"judesro","steam_id":76561198352244888,"connected_time":2251000000000,"state":"active","ping":35}]},{"server_id":302,"name":"Uncletopia | Montréal | 3 | One Thousand Uncles","name_short":"mtl-3","host":"mtl-1.ca.uncletopia.com","port":27035,"enabled":true,"region":"us-east","cc":"ca","latitude":45.50889,"longitude":-73.56167,"reserved":0,"last_update":"0001-01-01T00:00:00Z","name_a2s":"","protocol":0,"map":"","folder":"","game":"","app_id":0,"player_count":0,"max_players":0,"Bots":0,"server_type":"","server_os":"","password":false,"vac":false,"version":"","steam_id":0,"keywords":null,"game_id":0,"stv_port":0,"stv_name":"","players":null},{"server_id":13,"name":"Uncletopia | New York City | 1 | All Maps","name_short":"nyc-1","host":"nyc-1.us.uncletopia.com","port":27015,"enabled":true,"region":"us-east","cc":"us","latitude":40.73061,"longitude":-73.93524,"reserved":0,"last_update":"0001-01-01T00:00:00Z","name_a2s":"Uncletopia | New York City | 1 | All Maps","protocol":17,"map":"pl_upward","folder":"tf","game":"Team Fortress","app_id":440,"player_count":24,"max_players":24,"Bots":0,"server_type":"Dedicated","server_os":"Linux","password":true,"vac":true,"version":"7961495","steam_id":85568392924469993,"keywords":["nocrits","nodmgspread","payload","uncletopia"],"game_id":440,"stv_port":27016,"stv_name":"Uncletopia | New York City | 1 | All Maps | STV","players":[{"user_id":495,"name":"Gabeyboy321","steam_id":76561199379213615,"connected_time":5102000000000,"state":"active","ping":93},{"user_id":534,"name":"SpongedSocks","steam_id":76561198374009086,"connected_time":2289000000000,"state":"active","ping":52},{"user_id":537,"name":"hayes","steam_id":76561198057101042,"connected_time":1992000000000,"state":"active","ping":85},{"user_id":497,"name":"The Creepy9","steam_id":76561198039104966,"connected_time":4979000000000,"state":"active","ping":56},{"user_id":554,"name":"beast from the east","steam_id":76561198267624034,"connected_time":201000000000,"state":"active","ping":63},{"user_id":551,"name":"Hellmonger","steam_id":76561198016058155,"connected_time":596000000000,"state":"active","ping":61},{"user_id":527,"name":"Nixon Me, Dixon Me","steam_id":76561198126519537,"connected_time":2970000000000,"state":"active","ping":61},{"user_id":546,"name":"you forgot the sauce","steam_id":76561198387016713,"connected_time":1348000000000,"state":"active","ping":56},{"user_id":540,"name":"OKAY","steam_id":76561198091980659,"connected_time":1950000000000,"state":"active","ping":58},{"user_id":530,"name":"-W3E- grim10465","steam_id":76561198045698581,"connected_time":2870000000000,"state":"active","ping":30},{"user_id":519,"name":"msay","steam_id":76561198170888029,"connected_time":4131000000000,"state":"active","ping":71},{"user_id":547,"name":"JustAnotherHuman","steam_id":76561199018122924,"connected_time":1345000000000,"state":"active","ping":108},{"user_id":541,"name":"The","steam_id":76561198359311605,"connected_time":1934000000000,"state":"active","ping":142},{"user_id":522,"name":"jenna ortega smallest fan 1","steam_id":76561198073269122,"connected_time":4067000000000,"state":"active","ping":55},{"user_id":550,"name":"ROGUE-PLANET","steam_id":76561198116023052,"connected_time":985000000000,"state":"active","ping":90},{"user_id":531,"name":"Bald Vegeta","steam_id":76561198844143746,"connected_time":2672000000000,"state":"active","ping":75},{"user_id":559,"name":"C0RV3L","steam_id":76561199205094837,"connected_time":67000000000,"state":"active","ping":74},{"user_id":552,"name":"H0wlr","steam_id":76561198012332824,"connected_time":304000000000,"state":"active","ping":45},{"user_id":485,"name":"ุ","steam_id":76561198118480346,"connected_time":5791000000000,"state":"active","ping":70},{"user_id":555,"name":"[BBC] U Sux","steam_id":76561198016095410,"connected_time":197000000000,"state":"active","ping":45},{"user_id":557,"name":"MrBurgerItHere","steam_id":76561198902777035,"connected_time":147000000000,"state":"active","ping":114},{"user_id":523,"name":"Cat_Gaben","steam_id":76561198308094558,"connected_time":4064000000000,"state":"active","ping":64},{"user_id":556,"name":"Very Small Giant","steam_id":76561199187337967,"connected_time":188000000000,"state":"active","ping":77},{"user_id":560,"name":"Santamen","steam_id":76561198119478199,"connected_time":67000000000,"state":"active","ping":43}]},{"server_id":14,"name":"Uncletopia | New York City | 2 | All Maps","name_short":"nyc-2","host":"nyc-1.us.uncletopia.com","port":27025,"enabled":true,"region":"us-east","cc":"us","latitude":40.73061,"longitude":-73.93524,"reserved":0,"last_update":"0001-01-01T00:00:00Z","name_a2s":"Uncletopia | New York City | 2 | All Maps","protocol":17,"map":"pl_swiftwater_final1","folder":"tf","game":"Team Fortress","app_id":440,"player_count":19,"max_players":24,"Bots":0,"server_type":"Dedicated","server_os":"Linux","password":true,"vac":true,"version":"7961495","steam_id":85568392924469994,"keywords":["cp","nocrits","nodmgspread","uncletopia"],"game_id":440,"stv_port":27026,"stv_name":"Uncletopia | New York City | 2 | All Maps | STV","players":[{"user_id":393,"name":"puffy","steam_id":76561198411347037,"connected_time":1218000000000,"state":"connecting","ping":63},{"user_id":396,"name":"Dihsar","steam_id":76561198065169821,"connected_time":949000000000,"state":"connecting","ping":52},{"user_id":398,"name":"Pox4Dinner","steam_id":76561198036958101,"connected_time":144000000000,"state":"connecting","ping":58},{"user_id":385,"name":"Dad","steam_id":76561198009425458,"connected_time":2282000000000,"state":"connecting","ping":93},{"user_id":399,"name":"The Nikocado Enjoyer","steam_id":76561198263154374,"connected_time":24000000000,"state":"connecting","ping":68},{"user_id":400,"name":"mothwizard","steam_id":76561198847493072,"connected_time":18000000000,"state":"connecting","ping":77},{"user_id":375,"name":"[GUT] RiDiK®","steam_id":76561197969756446,"connected_time":2740000000000,"state":"connecting","ping":80},{"user_id":401,"name":"Average JoJo Fan","steam_id":76561198863432523,"connected_time":8000000000,"state":"connecting","ping":416},{"user_id":371,"name":"No Credit","steam_id":76561198110245806,"connected_time":2994000000000,"state":"connecting","ping":62},{"user_id":377,"name":"mr poop","steam_id":76561199195196632,"connected_time":2656000000000,"state":"connecting","ping":113},{"user_id":372,"name":"chippy","steam_id":76561198079655664,"connected_time":2952000000000,"state":"connecting","ping":75},{"user_id":362,"name":"mollusk_obliteration","steam_id":76561198085388962,"connected_time":3332000000000,"state":"connecting","ping":107},{"user_id":386,"name":"Blinker city history","steam_id":76561198073455521,"connected_time":2043000000000,"state":"connecting","ping":56},{"user_id":364,"name":"barefoot fruitscato","steam_id":76561198094225038,"connected_time":3294000000000,"state":"connecting","ping":87},{"user_id":395,"name":"EL Matador","steam_id":76561197971206879,"connected_time":1051000000000,"state":"connecting","ping":75},{"user_id":381,"name":"Fewny","steam_id":76561198225977000,"connected_time":2539000000000,"state":"connecting","ping":95},{"user_id":392,"name":"fried rice","steam_id":76561198928939100,"connected_time":1342000000000,"state":"connecting","ping":119},{"user_id":390,"name":"javanderford","steam_id":76561198300798685,"connected_time":1705000000000,"state":"connecting","ping":90}]},{"server_id":15,"name":"Uncletopia | New York City | 3 | Stopwatch","name_short":"nyc-3","host":"nyc-1.us.uncletopia.com","port":27035,"enabled":true,"region":"us-east","cc":"us","latitude":40.73061,"longitude":-73.93524,"reserved":0,"last_update":"0001-01-01T00:00:00Z","name_a2s":"Uncletopia | New York City | 3 | Stopwatch","protocol":17,"map":"workshop/koth_product_final.ugc454272353","folder":"tf","game":"Team Fortress","app_id":440,"player_count":0,"max_players":24,"Bots":0,"server_type":"Dedicated","server_os":"Linux","password":true,"vac":true,"version":"7961495","steam_id":85568392924742820,"keywords":["cp","nocrits","nodmgspread","uncletopia"],"game_id":440,"stv_port":27036,"stv_name":"Uncletopia | New York City | 3 | Stopwatch | STV","players":null},{"server_id":16,"name":"Uncletopia | New York City | 4 | Community","name_short":"nyc-4","host":"nyc-1.us.uncletopia.com","port":27045,"enabled":true,"region":"us-east","cc":"us","latitude":40.73061,"longitude":-73.93524,"reserved":0,"last_update":"0001-01-01T00:00:00Z","name_a2s":"Uncletopia | New York City | 4 | Community","protocol":17,"map":"workshop/pl_emerge_rc2.ugc888027758","folder":"tf","game":"Team Fortress","app_id":440,"player_count":0,"max_players":24,"Bots":0,"server_type":"Dedicated","server_os":"Linux","password":true,"vac":true,"version":"7961495","steam_id":85568392924742821,"keywords":["nocrits","nodmgspread","payload","uncletopia"],"game_id":440,"stv_port":27046,"stv_name":"Uncletopia | New York City | 4 | Community | STV","players":null},{"server_id":142,"name":"Uncletopia | São Paulo | 1 | All Maps","name_short":"sao-1","host":"sao-1.br.uncletopia.com","port":27015,"enabled":true,"region":"sa","cc":"br","latitude":-23.533773,"longitude":-46.62529,"reserved":0,"last_update":"0001-01-01T00:00:00Z","name_a2s":"Uncletopia | São Paulo | 1 | All Maps","protocol":17,"map":"pl_pier","folder":"tf","game":"Team Fortress","app_id":440,"player_count":0,"max_players":24,"Bots":0,"server_type":"Dedicated","server_os":"Linux","password":true,"vac":true,"version":"7961495","steam_id":85568392924469996,"keywords":["nocrits","nodmgspread","payload","uncletopia"],"game_id":440,"stv_port":27016,"stv_name":"Uncletopia | São Paulo | 1 | All Maps | STV","players":null},{"server_id":143,"name":"Uncletopia | São Paulo | 2 | Community","name_short":"sao-2","host":"sao-2.br.uncletopia.com","port":27015,"enabled":true,"region":"sa","cc":"br","latitude":-23.533773,"longitude":-46.62529,"reserved":0,"last_update":"0001-01-01T00:00:00Z","name_a2s":"Uncletopia | São Paulo | 2 | Community","protocol":17,"map":"workshop/pl_badwater_pro_v12.ugc2142942074","folder":"tf","game":"Team Fortress","app_id":440,"player_count":0,"max_players":24,"Bots":0,"server_type":"Dedicated","server_os":"Linux","password":true,"vac":true,"version":"7961495","steam_id":85568392924485349,"keywords":["nocrits","nodmgspread","payload","uncletopia"],"game_id":440,"stv_port":27016,"stv_name":"Uncletopia | São Paulo | 2 | Community | STV","players":null},{"server_id":7,"name":"Uncletopia | Seattle | 1 | All Maps","name_short":"sea-1","host":"sea-1.us.uncletopia.com","port":27015,"enabled":true,"region":"us-west","cc":"us","latitude":47.608013,"longitude":-122.33517,"reserved":0,"last_update":"0001-01-01T00:00:00Z","name_a2s":"Uncletopia | Seattle | 1 | All Maps","protocol":17,"map":"pl_pier","folder":"tf","game":"Team Fortress","app_id":440,"player_count":24,"max_players":24,"Bots":0,"server_type":"Dedicated","server_os":"Linux","password":true,"vac":true,"version":"7961495","steam_id":85568392924469997,"keywords":["nocrits","nodmgspread","payload","uncletopia"],"game_id":440,"stv_port":27016,"stv_name":"Uncletopia | Seattle | 1 | All Maps | STV","players":[{"user_id":294,"name":"devamar","steam_id":76561198069115467,"connected_time":3636000000000,"state":"active","ping":73},{"user_id":337,"name":"Little Linguine","steam_id":76561198816986370,"connected_time":249000000000,"state":"active","ping":45},{"user_id":343,"name":"Meso","steam_id":76561199088153190,"connected_time":130000000000,"state":"active","ping":67},{"user_id":323,"name":"Gamekiller839","steam_id":76561199475400469,"connected_time":1566000000000,"state":"active","ping":29},{"user_id":322,"name":"Jeramosa","steam_id":76561198811000094,"connected_time":2108000000000,"state":"active","ping":86},{"user_id":38,"name":"Zee✞","steam_id":76561198274550638,"connected_time":17358000000000,"state":"active","ping":109},{"user_id":336,"name":"Gm_Sweet","steam_id":76561199445091548,"connected_time":471000000000,"state":"active","ping":57},{"user_id":231,"name":"Spectre","steam_id":76561198037535169,"connected_time":7680000000000,"state":"active","ping":72},{"user_id":331,"name":"Kipper","steam_id":76561198008515450,"connected_time":1114000000000,"state":"active","ping":63},{"user_id":333,"name":"Y2K (^_^) ! ! !","steam_id":76561199191855486,"connected_time":503000000000,"state":"active","ping":48},{"user_id":345,"name":"slushy :))","steam_id":76561198135281802,"connected_time":19000000000,"state":"active","ping":45},{"user_id":283,"name":"dodecadron","steam_id":76561198027397222,"connected_time":4997000000000,"state":"active","ping":67},{"user_id":339,"name":"DaddyGalaxy","steam_id":76561198139697796,"connected_time":246000000000,"state":"active","ping":60},{"user_id":326,"name":"MeowthWins","steam_id":76561198124085329,"connected_time":1553000000000,"state":"active","ping":68},{"user_id":296,"name":"SWISS!","steam_id":76561198271971252,"connected_time":3612000000000,"state":"active","ping":80},{"user_id":293,"name":"H.A.Z.E.Y  \u003c3","steam_id":76561199247095754,"connected_time":3686000000000,"state":"active","ping":56},{"user_id":307,"name":"Phoysh","steam_id":76561198137111021,"connected_time":3114000000000,"state":"active","ping":77},{"user_id":332,"name":"Keamy","steam_id":76561199471434875,"connected_time":853000000000,"state":"active","ping":45},{"user_id":321,"name":"DiscoTraveler","steam_id":76561199240168088,"connected_time":2156000000000,"state":"active","ping":109},{"user_id":306,"name":"Deff","steam_id":76561198050815620,"connected_time":3289000000000,"state":"active","ping":46},{"user_id":320,"name":"Natsuki the Scunt","steam_id":76561199175922684,"connected_time":2208000000000,"state":"active","ping":86},{"user_id":327,"name":"An Alternate","steam_id":76561198041773387,"connected_time":1533000000000,"state":"active","ping":102},{"user_id":335,"name":"[TKC]NZNinja99","steam_id":76561198079315815,"connected_time":478000000000,"state":"active","ping":69},{"user_id":313,"name":"Mr.Bones","steam_id":76561198205170595,"connected_time":2399000000000,"state":"active","ping":52}]},{"server_id":119,"name":"Uncletopia | Seattle | 2 | All Maps","name_short":"sea-2","host":"sea-1.us.uncletopia.com","port":27025,"enabled":true,"region":"us-west","cc":"us","latitude":47.608013,"longitude":-122.33517,"reserved":0,"last_update":"0001-01-01T00:00:00Z","name_a2s":"Uncletopia | Seattle | 2 | All Maps","protocol":17,"map":"koth_cascade","folder":"tf","game":"Team Fortress","app_id":440,"player_count":0,"max_players":24,"Bots":0,"server_type":"Dedicated","server_os":"Linux","password":true,"vac":true,"version":"7961495","steam_id":85568392924469998,"keywords":["cp","nocrits","nodmgspread","uncletopia"],"game_id":440,"stv_port":27026,"stv_name":"Uncletopia | Seattle | 2 | All Maps | STV","players":null},{"server_id":406,"name":"Uncletopia | Seattle | 3 | Stopwatch","name_short":"sea-3","host":"sea-1.us.uncletopia.com","port":27035,"enabled":true,"region":"us-west","cc":"us","latitude":47.608013,"longitude":-122.33517,"reserved":0,"last_update":"0001-01-01T00:00:00Z","name_a2s":"Uncletopia | Seattle | 3 | Stopwatch","protocol":17,"map":"pl_pier","folder":"tf","game":"Team Fortress","app_id":440,"player_count":0,"max_players":24,"Bots":0,"server_type":"Dedicated","server_os":"Linux","password":true,"vac":true,"version":"7961495","steam_id":85568392924515217,"keywords":["nocrits","nodmgspread","payload","uncletopia"],"game_id":440,"stv_port":27036,"stv_name":"Uncletopia | Seattle | 3 | Stopwatch | STV","players":null},{"server_id":17,"name":"Uncletopia | San Francisco | 1 | All Maps","name_short":"sfo-1","host":"sfo-1.us.uncletopia.com","port":27015,"enabled":true,"region":"us-west","cc":"us","latitude":37.77397,"longitude":-122.4313,"reserved":0,"last_update":"0001-01-01T00:00:00Z","name_a2s":"Uncletopia | San Francisco | 1 | All Maps","protocol":17,"map":"koth_cascade","folder":"tf","game":"Team Fortress","app_id":440,"player_count":0,"max_players":24,"Bots":0,"server_type":"Dedicated","server_os":"Linux","password":true,"vac":true,"version":"7961495","steam_id":85568392924469999,"keywords":["cp","nocrits","nodmgspread","uncletopia"],"game_id":440,"stv_port":27016,"stv_name":"Uncletopia | San Francisco | 1 | All Maps | STV","players":null},{"server_id":18,"name":"Uncletopia | San Francisco | 2 | All Maps","name_short":"sfo-2","host":"sfo-1.us.uncletopia.com","port":27025,"enabled":true,"region":"us-west","cc":"us","latitude":37.77397,"longitude":-122.4313,"reserved":0,"last_update":"0001-01-01T00:00:00Z","name_a2s":"Uncletopia | San Francisco | 2 | All Maps","protocol":17,"map":"cp_sunshine","folder":"tf","game":"Team Fortress","app_id":440,"player_count":0,"max_players":24,"Bots":0,"server_type":"Dedicated","server_os":"Linux","password":true,"vac":true,"version":"7961495","steam_id":85568392924470000,"keywords":["cp","nocrits","nodmgspread","uncletopia"],"game_id":440,"stv_port":27026,"stv_name":"Uncletopia | San Francisco | 2 | All Maps | STV","players":null},{"server_id":19,"name":"Uncletopia | San Francisco | 3 | Stopwatch","name_short":"sfo-3","host":"sfo-1.us.uncletopia.com","port":27035,"enabled":true,"region":"us-west","cc":"us","latitude":37.77397,"longitude":-122.4313,"reserved":0,"last_update":"0001-01-01T00:00:00Z","name_a2s":"Uncletopia | San Francisco | 3 | Stopwatch","protocol":17,"map":"pl_pier","folder":"tf","game":"Team Fortress","app_id":440,"player_count":0,"max_players":24,"Bots":0,"server_type":"Dedicated","server_os":"Linux","password":true,"vac":true,"version":"7961495","steam_id":85568392924742824,"keywords":["nocrits","nodmgspread","payload","uncletopia"],"game_id":440,"stv_port":27036,"stv_name":"Uncletopia | San Francisco | 3 | Stopwatch | STV","players":null},{"server_id":20,"name":"Uncletopia | San Francisco | 4 | Community","name_short":"sfo-4","host":"sfo-1.us.uncletopia.com","port":27045,"enabled":true,"region":"us-west","cc":"us","latitude":37.77397,"longitude":-122.4313,"reserved":0,"last_update":"0001-01-01T00:00:00Z","name_a2s":"Uncletopia | San Francisco | 4 | Community","protocol":17,"map":"pl_pier","folder":"tf","game":"Team Fortress","app_id":440,"player_count":0,"max_players":24,"Bots":0,"server_type":"Dedicated","server_os":"Linux","password":true,"vac":true,"version":"7961495","steam_id":85568392924742826,"keywords":["nocrits","nodmgspread","payload","uncletopia"],"game_id":440,"stv_port":27046,"stv_name":"Uncletopia | San Francisco | 4 | Community | STV","players":null},{"server_id":141,"name":"Uncletopia | Sydney | 1 | All Maps","name_short":"syd-1","host":"syd-1.au.uncletopia.com","port":27015,"enabled":true,"region":"au","cc":"au","latitude":-33.865143,"longitude":151.2099,"reserved":0,"last_update":"0001-01-01T00:00:00Z","name_a2s":"Uncletopia | Sydney | 1 | All Maps","protocol":17,"map":"koth_viaduct","folder":"tf","game":"Team Fortress","app_id":440,"player_count":0,"max_players":24,"Bots":0,"server_type":"Dedicated","server_os":"Linux","password":true,"vac":true,"version":"7961495","steam_id":85568392924470001,"keywords":["cp","nocrits","nodmgspread","uncletopia"],"game_id":440,"stv_port":27016,"stv_name":"Uncletopia | Sydney | 1 | All Maps | STV","players":null},{"server_id":123,"name":"Uncletopia | Sydney | 2 | All Maps","name_short":"syd-2","host":"syd-1.au.uncletopia.com","port":27025,"enabled":true,"region":"au","cc":"au","latitude":-33.865143,"longitude":151.2099,"reserved":0,"last_update":"0001-01-01T00:00:00Z","name_a2s":"Uncletopia | Sydney | 2 | All Maps","protocol":17,"map":"koth_lakeside_final","folder":"tf","game":"Team Fortress","app_id":440,"player_count":0,"max_players":24,"Bots":0,"server_type":"Dedicated","server_os":"Linux","password":true,"vac":true,"version":"7961495","steam_id":85568392924470002,"keywords":["cp","nocrits","nodmgspread","uncletopia"],"game_id":440,"stv_port":27026,"stv_name":"Uncletopia | Sydney | 2 | All Maps | STV","players":null},{"server_id":395,"name":"Uncletopia | Sydney | 3 | All Maps","name_short":"syd-3","host":"syd-1.au.uncletopia.com","port":27035,"enabled":true,"region":"au","cc":"au","latitude":-33.865143,"longitude":151.2099,"reserved":0,"last_update":"0001-01-01T00:00:00Z","name_a2s":"Uncletopia | Sydney | 3 | All Maps","protocol":17,"map":"pl_frontier_final","folder":"tf","game":"Team Fortress","app_id":440,"player_count":0,"max_players":24,"Bots":0,"server_type":"Dedicated","server_os":"Linux","password":true,"vac":true,"version":"7961495","steam_id":85568392925194467,"keywords":["nocrits","nodmgspread","payload","uncletopia"],"game_id":440,"stv_port":27036,"stv_name":"Uncletopia | Sydney | 3 | All Maps | STV","players":null},{"server_id":396,"name":"Uncletopia | Sydney | 4 | All Maps","name_short":"syd-4","host":"syd-1.au.uncletopia.com","port":27045,"enabled":true,"region":"au","cc":"au","latitude":-33.865143,"longitude":151.2099,"reserved":0,"last_update":"0001-01-01T00:00:00Z","name_a2s":"Uncletopia | Sydney | 4 | All Maps","protocol":17,"map":"cp_process_final","folder":"tf","game":"Team Fortress","app_id":440,"player_count":0,"max_players":24,"Bots":0,"server_type":"Dedicated","server_os":"Linux","password":true,"vac":true,"version":"7961495","steam_id":85568392925397958,"keywords":["cp","nocrits","nodmgspread","uncletopia"],"game_id":440,"stv_port":27046,"stv_name":"Uncletopia | Sydney | 4 | All Maps | STV","players":null},{"server_id":58,"name":"Uncletopia | Sydney | 5 | Stopwatch","name_short":"syd-5","host":"syd-1.au.uncletopia.com","port":27055,"enabled":true,"region":"au","cc":"au","latitude":-33.865143,"longitude":151.2099,"reserved":0,"last_update":"0001-01-01T00:00:00Z","name_a2s":"Uncletopia | Sydney | 5 | Stopwatch","protocol":17,"map":"pl_frontier_final","folder":"tf","game":"Team Fortress","app_id":440,"player_count":0,"max_players":24,"Bots":0,"server_type":"Dedicated","server_os":"Linux","password":true,"vac":true,"version":"7961495","steam_id":85568392925397959,"keywords":["nocrits","nodmgspread","payload","uncletopia"],"game_id":440,"stv_port":27056,"stv_name":"Uncletopia | Sydney | 5 | Stopwatch | STV","players":null},{"server_id":59,"name":"Uncletopia | Sydney | 6 | Community","name_short":"syd-6","host":"syd-1.au.uncletopia.com","port":27065,"enabled":true,"region":"au","cc":"au","latitude":-33.865143,"longitude":151.2099,"reserved":0,"last_update":"0001-01-01T00:00:00Z","name_a2s":"Uncletopia | Sydney | 6 | Community","protocol":17,"map":"cp_sunshine","folder":"tf","game":"Team Fortress","app_id":440,"player_count":0,"max_players":24,"Bots":0,"server_type":"Dedicated","server_os":"Linux","password":true,"vac":true,"version":"7961495","steam_id":85568392925397960,"keywords":["cp","nocrits","nodmgspread","uncletopia"],"game_id":440,"stv_port":27066,"stv_name":"Uncletopia | Sydney | 6 | Community | STV","players":null},{"server_id":49,"name":"Uncletopia | Warsaw | 1 | One Thousand Uncles","name_short":"waw-1","host":"waw-1.pl.uncletopia.com","port":27015,"enabled":true,"region":"eu","cc":"pl","latitude":52.2297,"longitude":21.017532,"reserved":0,"last_update":"0001-01-01T00:00:00Z","name_a2s":"Uncletopia | Warsaw | 1 | One Thousand Uncles","protocol":17,"map":"pl_swiftwater_final1","folder":"tf","game":"Team Fortress","app_id":440,"player_count":27,"max_players":32,"Bots":16,"server_type":"Dedicated","server_os":"Linux","password":true,"vac":true,"version":"7961495","steam_id":85568392925397850,"keywords":["alltalk","bots","danepve","increased_maxplayers","nocrits","norespawntime","payload","uncletopia"],"game_id":440,"stv_port":0,"stv_name":"","players":[{"user_id":725,"name":"Mati Trollik","steam_id":76561198371134886,"connected_time":1854000000000,"state":"active","ping":43},{"user_id":756,"name":"kakash","steam_id":76561199420637314,"connected_time":188000000000,"state":"active","ping":75},{"user_id":750,"name":"HTML","steam_id":76561199435629385,"connected_time":676000000000,"state":"active","ping":99},{"user_id":713,"name":"Mateusz Ƿαρŕστηιҝ","steam_id":76561198420162435,"connected_time":3108000000000,"state":"active","ping":63},{"user_id":748,"name":"the baddest boy in btd5","steam_id":76561199487914508,"connected_time":875000000000,"state":"active","ping":39},{"user_id":719,"name":"Riky95","steam_id":76561198095289436,"connected_time":2447000000000,"state":"active","ping":64},{"user_id":739,"name":"♠wojsob♠","steam_id":76561199064973373,"connected_time":1461000000000,"state":"active","ping":75},{"user_id":745,"name":"?TheEnd","steam_id":76561198055280327,"connected_time":1178000000000,"state":"active","ping":55},{"user_id":753,"name":"Darkgege22","steam_id":76561198176636583,"connected_time":376000000000,"state":"active","ping":78},{"user_id":754,"name":"Busta","steam_id":76561199093760567,"connected_time":351000000000,"state":"active","ping":218},{"user_id":744,"name":"DAMJANT2010","steam_id":76561199493932486,"connected_time":1282000000000,"state":"active","ping":95}]},{"server_id":50,"name":"Uncletopia | Warsaw | 2 | One Thousand Uncles","name_short":"waw-2","host":"waw-1.pl.uncletopia.com","port":27025,"enabled":true,"region":"eu","cc":"pl","latitude":52.2297,"longitude":21.017532,"reserved":0,"last_update":"0001-01-01T00:00:00Z","name_a2s":"Uncletopia | Warsaw | 2 | One Thousand Uncles","protocol":17,"map":"pl_chilly","folder":"tf","game":"Team Fortress","app_id":440,"player_count":26,"max_players":32,"Bots":16,"server_type":"Dedicated","server_os":"Linux","password":true,"vac":true,"version":"7961495","steam_id":85568392925397851,"keywords":["alltalk","bots","danepve","increased_maxplayers","nocrits","norespawntime","payload","uncletopia"],"game_id":440,"stv_port":0,"stv_name":"","players":[{"user_id":530,"name":"naidrokyt","steam_id":76561198961373507,"connected_time":1458000000000,"state":"active","ping":44},{"user_id":492,"name":"I.C. Wiener","steam_id":76561197999912254,"connected_time":3925000000000,"state":"active","ping":60},{"user_id":494,"name":"best player","steam_id":76561198078363186,"connected_time":3800000000000,"state":"active","ping":76},{"user_id":531,"name":"CH1NASKEE","steam_id":76561198021531683,"connected_time":931000000000,"state":"active","ping":104},{"user_id":551,"name":"Max Power","steam_id":76561198019269089,"connected_time":520000000000,"state":"active","ping":60},{"user_id":533,"name":"farfarspace","steam_id":76561198161253565,"connected_time":745000000000,"state":"active","ping":105},{"user_id":553,"name":"BigBoyBroccoli","steam_id":76561198029337108,"connected_time":307000000000,"state":"active","ping":65},{"user_id":475,"name":"Mr.CatAstrophe","steam_id":76561198007941826,"connected_time":5109000000000,"state":"active","ping":180},{"user_id":483,"name":"The Baphomet","steam_id":76561198051424707,"connected_time":4619000000000,"state":"active","ping":188},{"user_id":510,"name":"catboy extraordinaire","steam_id":76561197983889333,"connected_time":2177000000000,"state":"active","ping":69}]},{"server_id":51,"name":"Uncletopia | Warsaw | 3 | All Maps","name_short":"waw-3","host":"waw-1.pl.uncletopia.com","port":27035,"enabled":true,"region":"eu","cc":"pl","latitude":52.2297,"longitude":21.017532,"reserved":0,"last_update":"0001-01-01T00:00:00Z","name_a2s":"Uncletopia | Warsaw | 3 | All Maps","protocol":17,"map":"pl_badwater","folder":"tf","game":"Team Fortress","app_id":440,"player_count":0,"max_players":24,"Bots":0,"server_type":"Dedicated","server_os":"Linux","password":true,"vac":true,"version":"7961495","steam_id":85568392925397852,"keywords":["nocrits","nodmgspread","payload","uncletopia"],"game_id":440,"stv_port":27036,"stv_name":"Uncletopia | Warsaw | 3 | All Maps | STV","players":null},{"server_id":52,"name":"Uncletopia | Warsaw | 4 | All Maps","name_short":"waw-4","host":"waw-1.pl.uncletopia.com","port":27045,"enabled":true,"region":"eu","cc":"pl","latitude":52.2297,"longitude":21.017532,"reserved":0,"last_update":"0001-01-01T00:00:00Z","name_a2s":"Uncletopia | Warsaw | 4 | All Maps","protocol":17,"map":"cp_snakewater_final1","folder":"tf","game":"Team Fortress","app_id":440,"player_count":0,"max_players":24,"Bots":0,"server_type":"Dedicated","server_os":"Linux","password":true,"vac":true,"version":"7961495","steam_id":85568392925397853,"keywords":["cp","nocrits","nodmgspread","uncletopia"],"game_id":440,"stv_port":27046,"stv_name":"Uncletopia | Warsaw | 4 | All Maps | STV","players":null},{"server_id":53,"name":"Uncletopia | Warsaw | 5 | Stopwatch","name_short":"waw-5","host":"waw-1.pl.uncletopia.com","port":27055,"enabled":true,"region":"eu","cc":"pl","latitude":52.2297,"longitude":21.017532,"reserved":0,"last_update":"0001-01-01T00:00:00Z","name_a2s":"Uncletopia | Warsaw | 5 | Stopwatch","protocol":17,"map":"workshop/pl_barnblitz_pro7.ugc582280235","folder":"tf","game":"Team Fortress","app_id":440,"player_count":0,"max_players":24,"Bots":0,"server_type":"Dedicated","server_os":"Linux","password":true,"vac":true,"version":"7961495","steam_id":85568392925397854,"keywords":["nocrits","nodmgspread","payload","uncletopia"],"game_id":440,"stv_port":27056,"stv_name":"Uncletopia | Warsaw | 5 | Stopwatch | STV","players":null},{"server_id":54,"name":"Uncletopia | Warsaw | 6 | Community","name_short":"waw-6","host":"waw-1.pl.uncletopia.com","port":27065,"enabled":true,"region":"eu","cc":"pl","latitude":52.2297,"longitude":21.017532,"reserved":0,"last_update":"0001-01-01T00:00:00Z","name_a2s":"Uncletopia | Warsaw | 6 | Community","protocol":17,"map":"workshop/rd_asteroid_redux_b1.ugc2154902912","folder":"tf","game":"Team Fortress","app_id":440,"player_count":0,"max_players":24,"Bots":0,"server_type":"Dedicated","server_os":"Linux","password":true,"vac":true,"version":"7961495","steam_id":85568392925397856,"keywords":["beta","nocrits","nodmgspread","rd","uncletopia"],"game_id":440,"stv_port":27066,"stv_name":"Uncletopia | Warsaw | 6 | Community | STV","players":null}]}