{"status":true,"message":"","result":[{"server_id":9,"name":"Uncletopia | Atlanta | 1 | All Maps","name_short":"atl-1","host":"atl-1.us.uncletopia.com","port":27015,"enabled":true,"region":"us-east","cc":"us","latitude":33.753746,"longitude":-84.38633,"reserved":0,"last_update":"0001-01-01T00:00:00Z","name_a2s":"Uncletopia | Atlanta | 1 | All Maps","protocol":17,"map":"koth_viaduct","folder":"tf","game":"Team Fortress","app_id":440,"player_count":2,"max_players":24,"Bots":0,"server_type":"Dedicated","server_os":"Linux","password":true,"vac":true,"version":"7932396","steam_id":85568392924469982,"keywords":["cp","nocrits","nodmgspread","uncletopia"],"game_id":440,"stv_port":27016,"stv_name":"Uncletopia | Atlanta | 1 | All Maps | STV","players":[{"user_id":585,"name":"shooty","steam_id":76561198128485603,"connected_time":2036000000000,"state":"active","ping":57},{"user_id":586,"name":"Jose","steam_id":76561198101051538,"connected_time":2011000000000,"state":"active","ping":45}]},{"server_id":104,"name":"Uncletopia | Atlanta | 2 | All Maps","name_short":"atl-2","host":"atl-1.us.uncletopia.com","port":27025,"enabled":true,"region":"us-east","cc":"us","latitude":33.753746,"longitude":-84.38633,"reserved":0,"last_update":"0001-01-01T00:00:00Z","name_a2s":"Uncletopia | Atlanta | 2 | All Maps","protocol":17,"map":"pl_borneo","folder":"tf","game":"Team Fortress","app_id":440,"player_count":0,"max_players":24,"Bots":0,"server_type":"Dedicated","server_os":"Linux","password":true,"vac":true,"version":"7932396","steam_id":85568392924469983,"keywords":["nocrits","nodmgspread","payload","uncletopia"],"game_id":440,"stv_port":27026,"stv_name":"Uncletopia | Atlanta | 2 | All Maps | STV","players":null},{"server_id":400,"name":"Uncletopia | Atlanta | 3 | Community","name_short":"atl-3","host":"atl-1.us.uncletopia.com","port":27035,"enabled":true,"region":"us-east","cc":"us","latitude":33.753746,"longitude":-84.38633,"reserved":0,"last_update":"0001-01-01T00:00:00Z","name_a2s":"Uncletopia | Atlanta | 3 | Community","protocol":17,"map":"workshop/koth_trenchfoot_b1a.ugc731436616","folder":"tf","game":"Team Fortress","app_id":440,"player_count":0,"max_players":24,"Bots":0,"server_type":"Dedicated","server_os":"Linux","password":true,"vac":true,"version":"7932396","steam_id":85568392924515187,"keywords":["cp","nocrits","nodmgspread","uncletopia"],"game_id":440,"stv_port":27036,"stv_name":"Uncletopia | Atlanta | 3 | Community | STV","players":null},{"server_id":401,"name":"Uncletopia | Atlanta | 4 | No Payload","name_short":"atl-4","host":"atl-1.us.uncletopia.com","port":27045,"enabled":true,"region":"us-east","cc":"us","latitude":33.753746,"longitude":-84.38633,"reserved":0,"last_update":"0001-01-01T00:00:00Z","name_a2s":"","protocol":0,"map":"","folder":"","game":"","app_id":0,"player_count":0,"max_players":0,"Bots":0,"server_type":"","server_os":"","password":false,"vac":false,"version":"","steam_id":0,"keywords":null,"game_id":0,"stv_port":0,"stv_name":"","players":null},{"server_id":2,"name":"Uncletopia | Chicago | 1 | All Maps","name_short":"chi-1","host":"chi-1.us.uncletopia.com","port":27015,"enabled":true,"region":"us-central","cc":"us","latitude":41.881832,"longitude":-87.62318,"reserved":0,"last_update":"0001-01-01T00:00:00Z","name_a2s":"Uncletopia | Chicago | 1 | All Maps","protocol":17,"map":"plr_nightfall_final","folder":"tf","game":"Team Fortress","app_id":440,"player_count":15,"max_players":24,"Bots":0,"server_type":"Dedicated","server_os":"Linux","password":true,"vac":true,"version":"7932396","steam_id":85568392924469984,"keywords":["nocrits","nodmgspread","payload","uncletopia"],"game_id":440,"stv_port":27016,"stv_name":"Uncletopia | Chicago | 1 | All Maps | STV","players":[{"user_id":902,"name":"Dr. Blair Chao","steam_id":76561198146027518,"connected_time":4882000000000,"state":"active","ping":67},{"user_id":968,"name":"jimmycricket","steam_id":76561199232877274,"connected_time":577000000000,"state":"active","ping":75},{"user_id":921,"name":"Yoshimelon","steam_id":76561198253054325,"connected_time":3692000000000,"state":"active","ping":59},{"user_id":958,"name":"Foxawykirbo","steam_id":76561199385941909,"connected_time":1343000000000,"state":"active","ping":71},{"user_id":971,"name":"daemon","steam_id":76561198001541433,"connected_time":264000000000,"state":"active","ping":46},{"user_id":972,"name":"afatlazyturtle","steam_id":76561198044860535,"connected_time":154000000000,"state":"active","ping":66},{"user_id":970,"name":"mans got the mouse katool","steam_id":76561198073103529,"connected_time":403000000000,"state":"active","ping":75},{"user_id":974,"name":"Clubs","steam_id":76561198271133942,"connected_time":118000000000,"state":"active","ping":69},{"user_id":896,"name":"Danmar33","steam_id":76561198056453091,"connected_time":5063000000000,"state":"active","ping":58},{"user_id":975,"name":"Gglilboy","steam_id":76561198097556319,"connected_time":91000000000,"state":"active","ping":82},{"user_id":918,"name":"rhys","steam_id":76561198273316381,"connected_time":3919000000000,"state":"active","ping":109},{"user_id":976,"name":"RapidWizzard","steam_id":76561199248097034,"connected_time":84000000000,"state":"active","ping":82},{"user_id":977,"name":"Rilshrink","steam_id":76561198202586792,"connected_time":83000000000,"state":"active","ping":78},{"user_id":922,"name":"Ryan Lewis truther","steam_id":76561198050505826,"connected_time":3667000000000,"state":"active","ping":78},{"user_id":919,"name":"Zen","steam_id":76561198025194921,"connected_time":3898000000000,"state":"active","ping":56}]},{"server_id":106,"name":"Uncletopia | Chicago | 2 | All Maps","name_short":"chi-2","host":"chi-1.us.uncletopia.com","port":27025,"enabled":true,"region":"us-central","cc":"us","latitude":41.881832,"longitude":-87.62318,"reserved":0,"last_update":"0001-01-01T00:00:00Z","name_a2s":"Uncletopia | Chicago | 2 | All Maps","protocol":17,"map":"koth_viaduct","folder":"tf","game":"Team Fortress","app_id":440,"player_count":23,"max_players":24,"Bots":0,"server_type":"Dedicated","server_os":"Linux","password":true,"vac":true,"version":"7932396","steam_id":85568392924469985,"keywords":["cp","nocrits","nodmgspread","uncletopia"],"game_id":440,"stv_port":27026,"stv_name":"Uncletopia | Chicago | 2 | All Maps | STV","players":[{"user_id":936,"name":"Leeloo9","steam_id":76561198864126773,"connected_time":2529000000000,"state":"active","ping":74},{"user_id":943,"name":"MALWARE9000","steam_id":76561198065238093,"connected_time":1267000000000,"state":"active","ping":85},{"user_id":937,"name":"Tresthebest360","steam_id":76561198965347175,"connected_time":2504000000000,"state":"active","ping":69},{"user_id":958,"name":"¬•","steam_id":76561198037518646,"connected_time":81000000000,"state":"active","ping":63},{"user_id":945,"name":"Mengle","steam_id":76561198001953684,"connected_time":812000000000,"state":"active","ping":59},{"user_id":918,"name":"Thomas Goblin-man Yorke","steam_id":76561197999658755,"connected_time":4337000000000,"state":"active","ping":53},{"user_id":946,"name":"TG_16","steam_id":76561199109196768,"connected_time":628000000000,"state":"active","ping":53},{"user_id":922,"name":"Bern","steam_id":76561198294032289,"connected_time":3669000000000,"state":"active","ping":41},{"user_id":942,"name":"ShamShack","steam_id":76561198356291966,"connected_time":1934000000000,"state":"active","ping":57},{"user_id":947,"name":"viedoamges","steam_id":76561198025295263,"connected_time":621000000000,"state":"active","ping":68},{"user_id":948,"name":"Missing Minus","steam_id":76561198120822928,"connected_time":612000000000,"state":"active","ping":56},{"user_id":949,"name":"Joonboon","steam_id":76561198992430142,"connected_time":602000000000,"state":"active","ping":64},{"user_id":889,"name":"Fig Newton","steam_id":76561198064255155,"connected_time":6506000000000,"state":"active","ping":70},{"user_id":930,"name":"Fostrel","steam_id":76561198152160601,"connected_time":3356000000000,"state":"active","ping":100},{"user_id":950,"name":"Tenshioki","steam_id":76561198034285458,"connected_time":479000000000,"state":"active","ping":71},{"user_id":951,"name":"Sychke","steam_id":76561198067144055,"connected_time":454000000000,"state":"active","ping":44},{"user_id":851,"name":"Lucide","steam_id":76561197998530400,"connected_time":9223000000000,"state":"active","ping":101},{"user_id":952,"name":"Bobby Ray","steam_id":76561198044131188,"connected_time":422000000000,"state":"active","ping":71},{"user_id":953,"name":"sophrosyne","steam_id":76561198067497459,"connected_time":403000000000,"state":"active","ping":59},{"user_id":954,"name":":Closed.","steam_id":76561198212598967,"connected_time":362000000000,"state":"active","ping":115},{"user_id":939,"name":"The A-Train","steam_id":76561199020601178,"connected_time":2485000000000,"state":"active","ping":92},{"user_id":935,"name":"Dagoth Ur","steam_id":76561199007079402,"connected_time":2737000000000,"state":"active","ping":51},{"user_id":957,"name":"ABZ Gamer","steam_id":76561199027227636,"connected_time":275000000000,"state":"active","ping":72}]},{"server_id":402,"name":"Uncletopia | Chicago | 3 | All Maps","name_short":"chi-3","host":"chi-1.us.uncletopia.com","port":27035,"enabled":true,"region":"us-central","cc":"us","latitude":41.881832,"longitude":-87.62318,"reserved":0,"last_update":"0001-01-01T00:00:00Z","name_a2s":"Uncletopia | Chicago | 3 | All Maps","protocol":17,"map":"pl_snowycoast","folder":"tf","game":"Team Fortress","app_id":440,"player_count":11,"max_players":24,"Bots":0,"server_type":"Dedicated","server_os":"Linux","password":true,"vac":true,"version":"7932396","steam_id":85568392924515191,"keywords":["nocrits","nodmgspread","payload","uncletopia"],"game_id":440,"stv_port":27036,"stv_name":"Uncletopia | Chicago | 3 | All Maps | STV","players":[{"user_id":562,"name":"assassincrazy18","steam_id":76561199465661561,"connected_time":545000000000,"state":"active","ping":87},{"user_id":567,"name":"LordOfTheNoobs","steam_id":76561197962697523,"connected_time":159000000000,"state":"active","ping":57},{"user_id":561,"name":"he munch","steam_id":76561198339644583,"connected_time":619000000000,"state":"active","ping":52},{"user_id":553,"name":"ntjohn","steam_id":76561198043367011,"connected_time":926000000000,"state":"active","ping":56},{"user_id":555,"name":"Smoby","steam_id":76561198823256099,"connected_time":898000000000,"state":"active","ping":144},{"user_id":564,"name":"EvoSigma","steam_id":76561198043656891,"connected_time":477000000000,"state":"active","ping":59},{"user_id":501,"name":"unc","steam_id":76561198136642793,"connected_time":4078000000000,"state":"active","ping":76},{"user_id":558,"name":"honk","steam_id":76561198050398028,"connected_time":833000000000,"state":"active","ping":46},{"user_id":543,"name":"Ta5K","steam_id":76561198939558155,"connected_time":1633000000000,"state":"active","ping":45},{"user_id":505,"name":"IDC. UR MOM = LOOSE BOOTY THOT","steam_id":76561198144766439,"connected_time":4059000000000,"state":"active","ping":41},{"user_id":506,"name":"aleksei","steam_id":76561199061380038,"connected_time":3995000000000,"state":"active","ping":66}]},{"server_id":403,"name":"Uncletopia | Chicago | 4 | All Maps","name_short":"chi-4","host":"chi-1.us.uncletopia.com","port":27045,"enabled":true,"region":"us-central","cc":"us","latitude":41.881832,"longitude":-87.62318,"reserved":0,"last_update":"0001-01-01T00:00:00Z","name_a2s":"Uncletopia | Chicago | 4 | All Maps","protocol":17,"map":"cp_sunshine","folder":"tf","game":"Team Fortress","app_id":440,"player_count":20,"max_players":24,"Bots":0,"server_type":"Dedicated","server_os":"Linux","password":true,"vac":true,"version":"7932396","steam_id":85568392924515193,"keywords":["cp","nocrits","nodmgspread","uncletopia"],"game_id":440,"stv_port":27046,"stv_name":"Uncletopia | Chicago | 4 | All Maps | STV","players":[{"user_id":527,"name":"twink floyd","steam_id":76561199487086586,"connected_time":1337000000000,"state":"active","ping":75},{"user_id":532,"name":"exotic fishes","steam_id":76561199046490785,"connected_time":245000000000,"state":"active","ping":55},{"user_id":497,"name":"Janix","steam_id":76561198192700879,"connected_time":3735000000000,"state":"active","ping":104},{"user_id":520,"name":"Phoenix","steam_id":76561199465534945,"connected_time":1931000000000,"state":"active","ping":121},{"user_id":521,"name":"PapaYeager","steam_id":76561198072314524,"connected_time":1931000000000,"state":"active","ping":64},{"user_id":504,"name":"1-800-GHOST-DANCE","steam_id":76561198835430429,"connected_time":3347000000000,"state":"active","ping":77},{"user_id":508,"name":"Groovy!","steam_id":76561198211858204,"connected_time":2976000000000,"state":"active","ping":117},{"user_id":530,"name":"Guy LeDouche","steam_id":76561198023850562,"connected_time":334000000000,"state":"active","ping":70},{"user_id":438,"name":"Truffles","steam_id":76561198095868800,"connected_time":11036000000000,"state":"active","ping":83},{"user_id":462,"name":"Grand","steam_id":76561198290143399,"connected_time":9294000000000,"state":"active","ping":62},{"user_id":509,"name":"ùíÜùíóùíäùíçArnoldGamingÔæ†","steam_id":76561198040140247,"connected_time":2854000000000,"state":"active","ping":87},{"user_id":502,"name":"kaputon","steam_id":76561198146299782,"connected_time":3534000000000,"state":"active","ping":59},{"user_id":464,"name":"captainspatklz","steam_id":76561198432167270,"connected_time":9165000000000,"state":"active","ping":75},{"user_id":526,"name":"Justice‚ô•","steam_id":76561198089642884,"connected_time":1533000000000,"state":"active","ping":90},{"user_id":511,"name":"YoursTruely","steam_id":76561198072129131,"connected_time":2761000000000,"state":"active","ping":76},{"user_id":512,"name":"Zeke l","steam_id":76561198811359709,"connected_time":2418000000000,"state":"active","ping":86},{"user_id":483,"name":"Fred Durst","steam_id":76561198415850476,"connected_time":7305000000000,"state":"active","ping":56},{"user_id":519,"name":"A Person","steam_id":76561198833818753,"connected_time":2156000000000,"state":"active","ping":70},{"user_id":517,"name":"MajorGeneral","steam_id":76561198096725670,"connected_time":2174000000000,"state":"active","ping":59},{"user_id":525,"name":"ChubbySolution","steam_id":76561198160468964,"connected_time":1807000000000,"state":"active","ping":82}]},{"server_id":36,"name":"Uncletopia | Chicago | 5 | All Maps","name_short":"chi-5","host":"chi-2.us.uncletopia.com","port":27015,"enabled":true,"region":"us-central","cc":"us","latitude":41.881832,"longitude":-87.62318,"reserved":0,"last_update":"0001-01-01T00:00:00Z","name_a2s":"Uncletopia | Chicago | 5 | All Maps","protocol":17,"map":"pl_frontier_final","folder":"tf","game":"Team Fortress","app_id":440,"player_count":21,"max_players":24,"Bots":0,"server_type":"Dedicated","server_os":"Linux","password":true,"vac":true,"version":"7932396","steam_id":85568392924866362,"keywords":["nocrits","nodmgspread","payload","uncletopia"],"game_id":440,"stv_port":27016,"stv_name":"Uncletopia | Chicago | 5 | All Maps | STV","players":[{"user_id":566,"name":"HikerDave's lil' budi","steam_id":76561198311156819,"connected_time":2071000000000,"state":"active","ping":78},{"user_id":483,"name":"Anne Boonchuy","steam_id":76561198914114704,"connected_time":8018000000000,"state":"active","ping":103},{"user_id":503,"name":"silverspark","steam_id":76561198277421732,"connected_time":6484000000000,"state":"active","ping":112},{"user_id":572,"name":"it's_xenos","steam_id":76561198336526266,"connected_time":1557000000000,"state":"active","ping":99},{"user_id":587,"name":"winter","steam_id":76561198126358045,"connected_time":16000000000,"state":"active","ping":75},{"user_id":585,"name":"Ludcmorais","steam_id":76561198359217809,"connected_time":65000000000,"state":"active","ping":190},{"user_id":504,"name":"Dodo","steam_id":76561198136880364,"connected_time":6479000000000,"state":"active","ping":86},{"user_id":586,"name":"exa*‚ú©‚Äß‚ÇäÀö","steam_id":76561198044511912,"connected_time":47000000000,"state":"active","ping":92},{"user_id":584,"name":"Jelqing Table","steam_id":76561198051373750,"connected_time":166000000000,"state":"active","ping":66},{"user_id":505,"name":"Jose.Gonzalez.2007","steam_id":76561198125709363,"connected_time":6476000000000,"state":"active","ping":64},{"user_id":570,"name":"Malevolo Cucaracho","steam_id":76561198055822497,"connected_time":1689000000000,"state":"active","ping":133},{"user_id":506,"name":"theredspycoo","steam_id":76561199417718007,"connected_time":6468000000000,"state":"active","ping":97},{"user_id":571,"name":"party rock","steam_id":76561198257019042,"connected_time":1624000000000,"state":"active","ping":73},{"user_id":534,"name":"moonshine‚òÜ","steam_id":76561198148312296,"connected_time":5256000000000,"state":"active","ping":83},{"user_id":576,"name":"Kagerou123","steam_id":76561198044277460,"connected_time":1298000000000,"state":"active","ping":79},{"user_id":556,"name":"carne asada","steam_id":76561198108398751,"connected_time":4023000000000,"state":"active","ping":58},{"user_id":583,"name":"HOTA","steam_id":76561199002778841,"connected_time":404000000000,"state":"active","ping":77},{"user_id":579,"name":"creepycrawler","steam_id":76561198352016831,"connected_time":1138000000000,"state":"active","ping":58},{"user_id":580,"name":"Mushroom","steam_id":76561198045751043,"connected_time":1086000000000,"state":"active","ping":107},{"user_id":581,"name":"ThatKidLincolnLog","steam_id":76561198044104245,"connected_time":1042000000000,"state":"active","ping":55},{"user_id":524,"name":"Bone Daddy","steam_id":76561198037836736,"connected_time":5738000000000,"state":"active","ping":85}]},{"server_id":37,"name":"Uncletopia | Chicago | 6 | All Maps","name_short":"chi-6","host":"chi-2.us.uncletopia.com","port":27025,"enabled":true,"region":"us-central","cc":"us","latitude":41.881832,"longitude":-87.62318,"reserved":0,"last_update":"0001-01-01T00:00:00Z","name_a2s":"Uncletopia | Chicago | 6 | All Maps","protocol":17,"map":"pl_badwater","folder":"tf","game":"Team Fortress","app_id":440,"player_count":0,"max_players":24,"Bots":0,"server_type":"Dedicated","server_os":"Linux","password":true,"vac":true,"version":"7932396","steam_id":85568392924866363,"keywords":["nocrits","nodmgspread","payload","uncletopia"],"game_id":440,"stv_port":27026,"stv_name":"Uncletopia | Chicago | 6 | All Maps | STV","players":null},{"server_id":38,"name":"Uncletopia | Chicago | 7 | Stopwatch Beta","name_short":"chi-7","host":"chi-2.us.uncletopia.com","port":27035,"enabled":true,"region":"us-central","cc":"us","latitude":41.881832,"longitude":-87.62318,"reserved":0,"last_update":"0001-01-01T00:00:00Z","name_a2s":"Uncletopia | Chicago | 7 | Stopwatch Beta","protocol":17,"map":"pl_borneo","folder":"tf","game":"Team Fortress","app_id":440,"player_count":0,"max_players":24,"Bots":0,"server_type":"Dedicated","server_os":"Linux","password":true,"vac":true,"version":"7932396","steam_id":85568392924866364,"keywords":["nocrits","nodmgspread","payload","uncletopia"],"game_id":440,"stv_port":27036,"stv_name":"Uncletopia | Chicago | 7 | Stopwatch Beta | STV","players":null},{"server_id":39,"name":"Uncletopia | Chicago | 8 | Community","name_short":"chi-8","host":"chi-2.us.uncletopia.com","port":27045,"enabled":true,"region":"us-central","cc":"us","latitude":41.881832,"longitude":-87.62318,"reserved":0,"last_update":"0001-01-01T00:00:00Z","name_a2s":"Uncletopia | Chicago | 8 | Community","protocol":17,"map":"workshop/pl_vigil_rc9.ugc1266210012","folder":"tf","game":"Team Fortress","app_id":440,"player_count":0,"max_players":24,"Bots":0,"server_type":"Dedicated","server_os":"Linux","password":true,"vac":true,"version":"7932396","steam_id":85568392924866365,"keywords":["nocrits","nodmgspread","payload","uncletopia"],"game_id":440,"stv_port":27046,"stv_name":"Uncletopia | Chicago | 8 | Community | STV","players":null},{"server_id":8,"name":"Uncletopia | Dallas | 1 | All Maps","name_short":"dal-1","host":"dal-1.us.uncletopia.com","port":27015,"enabled":true,"region":"us-central","cc":"us","latitude":32.779167,"longitude":-96.80889,"reserved":0,"last_update":"0001-01-01T00:00:00Z","name_a2s":"Uncletopia | Dallas | 1 | All Maps","protocol":17,"map":"cp_mountainlab","folder":"tf","game":"Team Fortress","app_id":440,"player_count":13,"max_players":24,"Bots":0,"server_type":"Dedicated","server_os":"Linux","password":true,"vac":true,"version":"7932396","steam_id":85568392924469986,"keywords":["cp","nocrits","nodmgspread","uncletopia"],"game_id":440,"stv_port":27016,"stv_name":"Uncletopia | Dallas | 1 | All Maps | STV","players":[{"user_id":554,"name":"iaPK","steam_id":76561198056618642,"connected_time":4610000000000,"state":"active","ping":42},{"user_id":542,"name":"cringeass nae-nae girl","steam_id":76561198108753857,"connected_time":5405000000000,"state":"active","ping":58},{"user_id":606,"name":"AidenAces","steam_id":76561197999610332,"connected_time":378000000000,"state":"active","ping":59},{"user_id":589,"name":"scrub","steam_id":76561197968817208,"connected_time":1824000000000,"state":"active","ping":44},{"user_id":590,"name":"PirateJet","steam_id":76561198050858744,"connected_time":1783000000000,"state":"active","ping":77},{"user_id":593,"name":"Daquan Daquevius Daqueef Jr.","steam_id":76561198138221795,"connected_time":1668000000000,"state":"active","ping":87},{"user_id":581,"name":"Rusted Cake","steam_id":76561198209755931,"connected_time":2273000000000,"state":"active","ping":85},{"user_id":600,"name":"dweamy","steam_id":76561198119181880,"connected_time":1319000000000,"state":"active","ping":62},{"user_id":601,"name":"Lex","steam_id":76561198069948353,"connected_time":1283000000000,"state":"active","ping":60},{"user_id":560,"name":"BADWOLF42","steam_id":76561198055447523,"connected_time":3351000000000,"state":"active","ping":53},{"user_id":584,"name":"Jebby","steam_id":76561198300150276,"connected_time":2177000000000,"state":"active","ping":112},{"user_id":608,"name":"A Gmod Virgin","steam_id":76561198420637458,"connected_time":322000000000,"state":"active","ping":71},{"user_id":597,"name":"Idiotden","steam_id":76561199340950135,"connected_time":1589000000000,"state":"active","ping":72}]},{"server_id":108,"name":"Uncletopia | Dallas | 2 | All Maps","name_short":"dal-2","host":"dal-1.us.uncletopia.com","port":27025,"enabled":true,"region":"us-central","cc":"us","latitude":32.779167,"longitude":-96.80889,"reserved":0,"last_update":"0001-01-01T00:00:00Z","name_a2s":"Uncletopia | Dallas | 2 | All Maps","protocol":17,"map":"pl_thundermountain","folder":"tf","game":"Team Fortress","app_id":440,"player_count":22,"max_players":24,"Bots":0,"server_type":"Dedicated","server_os":"Linux","password":true,"vac":true,"version":"7932396","steam_id":85568392924469988,"keywords":["nocrits","nodmgspread","payload","uncletopia"],"game_id":440,"stv_port":27026,"stv_name":"Uncletopia | Dallas | 2 | All Maps | STV","players":[{"user_id":322,"name":"cat9","steam_id":76561198353456379,"connected_time":4016000000000,"state":"active","ping":66},{"user_id":346,"name":"Khaiden","steam_id":76561198104454754,"connected_time":2110000000000,"state":"active","ping":182},{"user_id":199,"name":"aisu","steam_id":76561198043768507,"connected_time":16909000000000,"state":"active","ping":90},{"user_id":325,"name":"A Shiny Meat Bicycle","steam_id":76561198358757709,"connected_time":3935000000000,"state":"active","ping":90},{"user_id":348,"name":"Driskulls","steam_id":76561198055213549,"connected_time":1875000000000,"state":"active","ping":77},{"user_id":296,"name":"JimPlatinum","steam_id":76561198950714198,"connected_time":6807000000000,"state":"active","ping":75},{"user_id":300,"name":"lucasgamer4life","steam_id":76561198129816242,"connected_time":5687000000000,"state":"active","ping":90},{"user_id":349,"name":"fernando","steam_id":76561198142586591,"connected_time":1827000000000,"state":"active","ping":62},{"user_id":365,"name":"LazySushi","steam_id":76561198043802202,"connected_time":397000000000,"state":"active","ping":75},{"user_id":257,"name":"HAT-WEARING‚Ñ¢ Maggot Gamer Cat","steam_id":76561197973992705,"connected_time":12648000000000,"state":"active","ping":95},{"user_id":359,"name":"soulless cop (thug shaker)","steam_id":76561198150535873,"connected_time":685000000000,"state":"active","ping":70},{"user_id":315,"name":"Pancho","steam_id":76561198155847264,"connected_time":4818000000000,"state":"active","ping":62},{"user_id":343,"name":"peebs","steam_id":76561198261319753,"connected_time":2688000000000,"state":"active","ping":48},{"user_id":351,"name":"Female Gamer","steam_id":76561199366482682,"connected_time":1677000000000,"state":"active","ping":111},{"user_id":323,"name":"GreekGoat_Coffee","steam_id":76561198129331088,"connected_time":3971000000000,"state":"active","ping":60},{"user_id":361,"name":"0x01FE","steam_id":76561198838881917,"connected_time":503000000000,"state":"active","ping":69},{"user_id":357,"name":".mp3","steam_id":76561198070710025,"connected_time":1398000000000,"state":"active","ping":53},{"user_id":293,"name":"SleeplessCollin","steam_id":76561198968140914,"connected_time":7411000000000,"state":"active","ping":62},{"user_id":329,"name":"Swiifty","steam_id":76561198148262643,"connected_time":3761000000000,"state":"active","ping":75},{"user_id":363,"name":"t2h","steam_id":76561198057944303,"connected_time":455000000000,"state":"active","ping":102},{"user_id":332,"name":"‚òÇBliffenstimmers‚òÇ","steam_id":76561198059984896,"connected_time":3708000000000,"state":"active","ping":66},{"user_id":364,"name":"Brisket","steam_id":76561199371070576,"connected_time":451000000000,"state":"active","ping":73}]},{"server_id":5,"name":"Uncletopia | Frankfurt | 1 | All Maps","name_short":"frk-1","host":"frk-1.de.uncletopia.com","port":27015,"enabled":true,"region":"eu","cc":"de","latitude":50.110924,"longitude":8.682127,"reserved":0,"last_update":"0001-01-01T00:00:00Z","name_a2s":"Uncletopia | Frankfurt | 1 | All Maps","protocol":17,"map":"pl_badwater","folder":"tf","game":"Team Fortress","app_id":440,"player_count":0,"max_players":24,"Bots":0,"server_type":"Dedicated","server_os":"Linux","password":true,"vac":true,"version":"7932396","steam_id":85568392924469989,"keywords":["nocrits","nodmgspread","payload","uncletopia"],"game_id":440,"stv_port":27016,"stv_name":"Uncletopia | Frankfurt | 1 | All Maps | STV","players":null},{"server_id":110,"name":"Uncletopia | Frankfurt | 2 | All Maps","name_short":"frk-2","host":"frk-1.de.uncletopia.com","port":27025,"enabled":true,"region":"eu","cc":"de","latitude":50.110924,"longitude":8.682127,"reserved":0,"last_update":"0001-01-01T00:00:00Z","name_a2s":"Uncletopia | Frankfurt | 2 | All Maps","protocol":17,"map":"pl_swiftwater_final1","folder":"tf","game":"Team Fortress","app_id":440,"player_count":0,"max_players":24,"Bots":0,"server_type":"Dedicated","server_os":"Linux","password":true,"vac":true,"version":"7932396","steam_id":85568392924469990,"keywords":["nocrits","nodmgspread","payload","uncletopia"],"game_id":440,"stv_port":27026,"stv_name":"Uncletopia | Frankfurt | 2 | All Maps | STV","players":null},{"server_id":308,"name":"Uncletopia | Frankfurt | 3 | All Maps","name_short":"frk-3","host":"frk-1.de.uncletopia.com","port":27035,"enabled":true,"region":"eu","cc":"de","latitude":50.110924,"longitude":8.682127,"reserved":0,"last_update":"0001-01-01T00:00:00Z","name_a2s":"Uncletopia | Frankfurt | 3 | All Maps","protocol":17,"map":"pl_badwater","folder":"tf","game":"Team Fortress","app_id":440,"player_count":0,"max_players":24,"Bots":0,"server_type":"Dedicated","server_os":"Linux","password":true,"vac":true,"version":"7932396","steam_id":85568392924504274,"keywords":["nocrits","nodmgspread","payload","uncletopia"],"game_id":440,"stv_port":27036,"stv_name":"Uncletopia | Frankfurt | 3 | All Maps | STV","players":null},{"server_id":309,"name":"Uncletopia | Frankfurt | 4 | All Maps","name_short":"frk-4","host":"frk-1.de.uncletopia.com","port":27045,"enabled":true,"region":"eu","cc":"de","latitude":50.110924,"longitude":8.682127,"reserved":0,"last_update":"0001-01-01T00:00:00Z","name_a2s":"Uncletopia | Frankfurt | 4 | All Maps","protocol":17,"map":"pl_upward","folder":"tf","game":"Team Fortress","app_id":440,"player_count":0,"max_players":24,"Bots":0,"server_type":"Dedicated","server_os":"Linux","password":true,"vac":true,"version":"7932396","steam_id":85568392924504275,"keywords":["nocrits","nodmgspread","payload","uncletopia"],"game_id":440,"stv_port":27046,"stv_name":"Uncletopia | Frankfurt | 4 | All Maps | STV","players":null},{"server_id":310,"name":"Uncletopia | Frankfurt | 5 | All Maps","name_short":"frk-5","host":"frk-1.de.uncletopia.com","port":27055,"enabled":true,"region":"eu","cc":"de","latitude":50.110924,"longitude":8.682127,"reserved":0,"last_update":"0001-01-01T00:00:00Z","name_a2s":"Uncletopia | Frankfurt | 5 | All Maps","protocol":17,"map":"pl_badwater","folder":"tf","game":"Team Fortress","app_id":440,"player_count":0,"max_players":24,"Bots":0,"server_type":"Dedicated","server_os":"Linux","password":true,"vac":true,"version":"7932396","steam_id":85568392924504277,"keywords":["nocrits","nodmgspread","payload","uncletopia"],"game_id":440,"stv_port":27056,"stv_name":"Uncletopia | Frankfurt | 5 | All Maps | STV","players":null},{"server_id":311,"name":"Uncletopia | Frankfurt | 6 | All Maps","name_short":"frk-6","host":"frk-1.de.uncletopia.com","port":27065,"enabled":true,"region":"eu","cc":"de","latitude":50.110924,"longitude":8.682127,"reserved":0,"last_update":"0001-01-01T00:00:00Z","name_a2s":"Uncletopia | Frankfurt | 6 | All Maps","protocol":17,"map":"koth_viaduct","folder":"tf","game":"Team Fortress","app_id":440,"player_count":0,"max_players":24,"Bots":0,"server_type":"Dedicated","server_os":"Linux","password":true,"vac":true,"version":"7932396","steam_id":85568392924504278,"keywords":["cp","nocrits","nodmgspread","uncletopia"],"game_id":440,"stv_port":27066,"stv_name":"Uncletopia | Frankfurt | 6 | All Maps | STV","players":null},{"server_id":23,"name":"Uncletopia | Frankfurt | 7 | Stopwatch Beta","name_short":"frk-7","host":"frk-1.de.uncletopia.com","port":27075,"enabled":true,"region":"eu","cc":"de","latitude":50.110924,"longitude":8.682127,"reserved":0,"last_update":"0001-01-01T00:00:00Z","name_a2s":"Uncletopia | Frankfurt | 7 | Stopwatch Beta","protocol":17,"map":"pl_snowycoast","folder":"tf","game":"Team Fortress","app_id":440,"player_count":0,"max_players":24,"Bots":0,"server_type":"Dedicated","server_os":"Linux","password":true,"vac":true,"version":"7932396","steam_id":85568392924742827,"keywords":["nocrits","nodmgspread","payload","uncletopia"],"game_id":440,"stv_port":27076,"stv_name":"Uncletopia | Frankfurt | 7 | Stopwatch Beta | STV","players":null},{"server_id":24,"name":"Uncletopia | Frankfurt | 8 | Community","name_short":"frk-8","host":"frk-1.de.uncletopia.com","port":27085,"enabled":true,"region":"eu","cc":"de","latitude":50.110924,"longitude":8.682127,"reserved":0,"last_update":"0001-01-01T00:00:00Z","name_a2s":"Uncletopia | Frankfurt | 8 | Community","protocol":17,"map":"pl_barnblitz","folder":"tf","game":"Team Fortress","app_id":440,"player_count":0,"max_players":24,"Bots":0,"server_type":"Dedicated","server_os":"Linux","password":true,"vac":true,"version":"7932396","steam_id":85568392924742828,"keywords":["nocrits","nodmgspread","payload","uncletopia"],"game_id":440,"stv_port":27086,"stv_name":"Uncletopia | Frankfurt | 8 | Community | STV","players":null},{"server_id":202,"name":"Uncletopia | Hong Kong | 1 | All Maps","name_short":"hgk-1","host":"hgk-1.hk.uncletopia.com","port":27015,"enabled":true,"region":"asia","cc":"hk","latitude":22.302711,"longitude":114.177216,"reserved":0,"last_update":"0001-01-01T00:00:00Z","name_a2s":"Uncletopia | Hong Kong | 1 | All Maps","protocol":17,"map":"pl_barnblitz","folder":"tf","game":"Team Fortress","app_id":440,"player_count":24,"max_players":24,"Bots":0,"server_type":"Dedicated","server_os":"Linux","password":true,"vac":true,"version":"7932396","steam_id":85568392924494504,"keywords":["nocrits","nodmgspread","payload","uncletopia"],"game_id":440,"stv_port":27016,"stv_name":"Uncletopia | Hong Kong | 1 | All Maps | STV","players":[{"user_id":105,"name":"Shibe009 (F2P)","steam_id":76561199118649916,"connected_time":2484000000000,"state":"active","ping":161},{"user_id":111,"name":"something malicious is brewing ","steam_id":76561198074339034,"connected_time":1847000000000,"state":"active","ping":74},{"user_id":86,"name":"STAR 15(MOD3)","steam_id":76561198859316385,"connected_time":4792000000000,"state":"active","ping":124},{"user_id":24,"name":"MS PowerPoint","steam_id":76561198369523192,"connected_time":9436000000000,"state":"active","ping":63},{"user_id":100,"name":"Samoyed","steam_id":76561198299150410,"connected_time":2966000000000,"state":"active","ping":69},{"user_id":26,"name":"KUZCO","steam_id":76561198115298835,"connected_time":9061000000000,"state":"active","ping":72},{"user_id":93,"name":"brizzard","steam_id":76561198048438653,"connected_time":3438000000000,"state":"active","ping":52},{"user_id":73,"name":"Lu","steam_id":76561198320532821,"connected_time":5927000000000,"state":"active","ping":60},{"user_id":54,"name":"17","steam_id":76561198241530712,"connected_time":7599000000000,"state":"active","ping":60},{"user_id":207,"name":"clori","steam_id":76561199146847474,"connected_time":174000000000,"state":"active","ping":38},{"user_id":109,"name":"Milf (The fan O'Milk)","steam_id":76561198213031155,"connected_time":2181000000000,"state":"active","ping":102},{"user_id":84,"name":"Not_An_Otaku","steam_id":76561198305884432,"connected_time":4806000000000,"state":"active","ping":92},{"user_id":37,"name":"hotgamerth","steam_id":76561199026418153,"connected_time":8670000000000,"state":"active","ping":96},{"user_id":98,"name":"screaming sniper","steam_id":76561199085568674,"connected_time":2971000000000,"state":"active","ping":87},{"user_id":38,"name":"Dokutah, Husband of W","steam_id":76561199273390091,"connected_time":8661000000000,"state":"active","ping":57},{"user_id":206,"name":"Green","steam_id":76561198391718463,"connected_time":186000000000,"state":"active","ping":60},{"user_id":87,"name":"spinach (old mouse)","steam_id":76561198042539541,"connected_time":4778000000000,"state":"active","ping":80},{"user_id":67,"name":"SICSIN","steam_id":76561198083923462,"connected_time":6510000000000,"state":"active","ping":87},{"user_id":205,"name":"Pillboi","steam_id":76561198011172886,"connected_time":546000000000,"state":"active","ping":44},{"user_id":99,"name":"Beef Wellington","steam_id":76561197995635241,"connected_time":2971000000000,"state":"active","ping":124},{"user_id":77,"name":"Med","steam_id":76561199087727164,"connected_time":5727000000000,"state":"active","ping":81},{"user_id":85,"name":"H·∫±ng Ra ƒë∆°","steam_id":76561199373637717,"connected_time":4802000000000,"state":"active","ping":67},{"user_id":50,"name":"Kaguya-Sama","steam_id":76561199020222424,"connected_time":7976000000000,"state":"active","ping":120},{"user_id":82,"name":"stupendous sycophant","steam_id":76561198055553140,"connected_time":5263000000000,"state":"active","ping":80}]},{"server_id":1,"name":"Uncletopia | Los Angeles | 1 | All Maps","name_short":"lax-1","host":"lax-1.us.uncletopia.com","port":27015,"enabled":true,"region":"us-west","cc":"us","latitude":33.94279,"longitude":-118.41004,"reserved":0,"last_update":"0001-01-01T00:00:00Z","name_a2s":"Uncletopia | Los Angeles | 1 | All Maps","protocol":17,"map":"ctf_2fort","folder":"tf","game":"Team Fortress","app_id":440,"player_count":16,"max_players":24,"Bots":0,"server_type":"Dedicated","server_os":"Linux","password":true,"vac":true,"version":"7932396","steam_id":85568392924469991,"keywords":["ctf","nocrits","nodmgspread","uncletopia"],"game_id":440,"stv_port":27016,"stv_name":"Uncletopia | Los Angeles | 1 | All Maps | STV","players":[{"user_id":386,"name":"TwinkGaming(Jerma)","steam_id":76561197972835907,"connected_time":3554000000000,"state":"active","ping":68},{"user_id":397,"name":"Madeline (She/Her)","steam_id":76561198336551859,"connected_time":1089000000000,"state":"active","ping":41},{"user_id":398,"name":"Enderlord99","steam_id":76561198158152954,"connected_time":886000000000,"state":"active","ping":75},{"user_id":399,"name":"framp down","steam_id":76561198006316527,"connected_time":694000000000,"state":"active","ping":58},{"user_id":401,"name":"me","steam_id":76561198035767825,"connected_time":484000000000,"state":"active","ping":54},{"user_id":402,"name":"Brutelitops","steam_id":76561198071420878,"connected_time":418000000000,"state":"active","ping":114},{"user_id":347,"name":"Feel the bern","steam_id":76561198078824519,"connected_time":7376000000000,"state":"active","ping":43},{"user_id":330,"name":"Hindmost","steam_id":76561199081837220,"connected_time":8588000000000,"state":"active","ping":85},{"user_id":390,"name":"Based Jvnko Fan","steam_id":76561198355290984,"connected_time":2654000000000,"state":"active","ping":75},{"user_id":403,"name":"CAR BATTERY","steam_id":76561199122915452,"connected_time":350000000000,"state":"active","ping":76},{"user_id":404,"name":"anti.doeshotter","steam_id":76561199488679266,"connected_time":265000000000,"state":"active","ping":190},{"user_id":391,"name":"werolat","steam_id":76561197960544784,"connected_time":2499000000000,"state":"active","ping":62},{"user_id":349,"name":"ejschild745","steam_id":76561199013388867,"connected_time":7347000000000,"state":"active","ping":100},{"user_id":405,"name":"TheBanditScout","steam_id":76561198380435383,"connected_time":231000000000,"state":"active","ping":45},{"user_id":406,"name":"Intruder-TNL","steam_id":76561199467017102,"connected_time":214000000000,"state":"active","ping":72},{"user_id":409,"name":"Egg","steam_id":76561198071169997,"connected_time":9000000000,"state":"active","ping":77}]},{"server_id":112,"name":"Uncletopia | Los Angeles | 2 | All Maps","name_short":"lax-2","host":"lax-1.us.uncletopia.com","port":27025,"enabled":true,"region":"us-west","cc":"us","latitude":33.94279,"longitude":-118.41004,"reserved":0,"last_update":"0001-01-01T00:00:00Z","name_a2s":"Uncletopia | Los Angeles | 2 | All Maps","protocol":17,"map":"pl_frontier_final","folder":"tf","game":"Team Fortress","app_id":440,"player_count":24,"max_players":24,"Bots":0,"server_type":"Dedicated","server_os":"Linux","password":true,"vac":true,"version":"7932396","steam_id":85568392924469992,"keywords":["nocrits","nodmgspread","payload","uncletopia"],"game_id":440,"stv_port":27026,"stv_name":"Uncletopia | Los Angeles | 2 | All Maps | STV","players":[{"user_id":532,"name":"usedhalfcart","steam_id":76561198072621852,"connected_time":1534000000000,"state":"active","ping":78},{"user_id":539,"name":"CAMPERZz_","steam_id":76561198297784458,"connected_time":735000000000,"state":"active","ping":46},{"user_id":506,"name":"cream team","steam_id":76561198139043953,"connected_time":3466000000000,"state":"active","ping":82},{"user_id":481,"name":"Tacobell","steam_id":76561197963619134,"connected_time":5350000000000,"state":"active","ping":66},{"user_id":423,"name":"dairy delinquent","steam_id":76561198971552734,"connected_time":10084000000000,"state":"active","ping":37},{"user_id":493,"name":"Plateinator","steam_id":76561198831547217,"connected_time":4733000000000,"state":"active","ping":49},{"user_id":535,"name":"loader","steam_id":76561199196442823,"connected_time":1106000000000,"state":"active","ping":126},{"user_id":531,"name":"Space Magic","steam_id":76561199006292310,"connected_time":1596000000000,"state":"active","ping":41},{"user_id":513,"name":"Mustachacre","steam_id":76561198056309992,"connected_time":3024000000000,"state":"active","ping":69},{"user_id":421,"name":"perc 10","steam_id":76561198116471653,"connected_time":10106000000000,"state":"active","ping":58},{"user_id":507,"name":"ColtenTehShpee troutsupply.net","steam_id":76561198170939290,"connected_time":3453000000000,"state":"active","ping":106},{"user_id":480,"name":"shitass | troutsupply.net","steam_id":76561198210572481,"connected_time":5365000000000,"state":"active","ping":54},{"user_id":538,"name":"SAVECASEY","steam_id":76561198857896847,"connected_time":955000000000,"state":"active","ping":45},{"user_id":533,"name":"SCUD missile up your ass","steam_id":76561198066452726,"connected_time":1231000000000,"state":"active","ping":51},{"user_id":514,"name":"thumb","steam_id":76561198353762582,"connected_time":3015000000000,"state":"active","ping":71},{"user_id":424,"name":"beeble!","steam_id":76561198219538525,"connected_time":10079000000000,"state":"active","ping":90},{"user_id":482,"name":"doro","steam_id":76561198099041747,"connected_time":5338000000000,"state":"active","ping":50},{"user_id":523,"name":"nat","steam_id":76561198179923093,"connected_time":2699000000000,"state":"active","ping":45},{"user_id":541,"name":"One Horned Bitch Destroyer","steam_id":76561198045810191,"connected_time":516000000000,"state":"active","ping":70},{"user_id":516,"name":"Bot Maxwell","steam_id":76561198040781615,"connected_time":2994000000000,"state":"active","ping":68},{"user_id":542,"name":"nella","steam_id":76561198079349621,"connected_time":342000000000,"state":"active","ping":56},{"user_id":528,"name":"Fernando","steam_id":76561198443038047,"connected_time":2028000000000,"state":"active","ping":49},{"user_id":537,"name":"Azteck","steam_id":76561198073841466,"connected_time":1051000000000,"state":"active","ping":86},{"user_id":529,"name":"moopmop","steam_id":76561198065224965,"connected_time":1988000000000,"state":"active","ping":70}]},{"server_id":324,"name":"Uncletopia | Los Angeles | 3 | All Maps","name_short":"lax-3","host":"lax-1.us.uncletopia.com","port":27035,"enabled":true,"region":"us-west","cc":"us","latitude":33.94279,"longitude":-118.41004,"reserved":0,"last_update":"0001-01-01T00:00:00Z","name_a2s":"Uncletopia | Los Angeles | 3 | All Maps","protocol":17,"map":"cp_process_final","folder":"tf","game":"Team Fortress","app_id":440,"player_count":22,"max_players":24,"Bots":0,"server_type":"Dedicated","server_os":"Linux","password":true,"vac":true,"version":"7932396","steam_id":85568392924510198,"keywords":["cp","nocrits","nodmgspread","uncletopia"],"game_id":440,"stv_port":27036,"stv_name":"Uncletopia | Los Angeles | 3 | All Maps | STV","players":[{"user_id":532,"name":"lol","steam_id":76561198026491738,"connected_time":413000000000,"state":"active","ping":56},{"user_id":522,"name":"selvhat","steam_id":76561198114225509,"connected_time":1066000000000,"state":"active","ping":46},{"user_id":533,"name":"GAMEGAMING","steam_id":76561199222119901,"connected_time":410000000000,"state":"active","ping":73},{"user_id":534,"name":"xD","steam_id":76561198149683030,"connected_time":400000000000,"state":"active","ping":63},{"user_id":540,"name":"duck tale","steam_id":76561198042662104,"connected_time":247000000000,"state":"active","ping":46},{"user_id":487,"name":"Yoozer","steam_id":76561198420257694,"connected_time":5058000000000,"state":"active","ping":49},{"user_id":535,"name":"kwetzal","steam_id":76561198845749671,"connected_time":375000000000,"state":"active","ping":67},{"user_id":506,"name":"feel the bean","steam_id":76561198858328080,"connected_time":2566000000000,"state":"active","ping":41},{"user_id":509,"name":"Ink","steam_id":76561198328781175,"connected_time":2409000000000,"state":"active","ping":60},{"user_id":520,"name":"Schnitz","steam_id":76561198265484253,"connected_time":1278000000000,"state":"active","ping":59},{"user_id":518,"name":"CaiGaming","steam_id":76561198313023508,"connected_time":1322000000000,"state":"active","ping":66},{"user_id":505,"name":"Bonkers","steam_id":76561198161835788,"connected_time":2568000000000,"state":"active","ping":77},{"user_id":537,"name":"naturia","steam_id":76561198092317849,"connected_time":315000000000,"state":"active","ping":45},{"user_id":538,"name":"Punished Jeff (Drain Messiah)","steam_id":76561198304252584,"connected_time":312000000000,"state":"active","ping":59},{"user_id":542,"name":"HanakoToast","steam_id":76561198045233131,"connected_time":167000000000,"state":"active","ping":67},{"user_id":483,"name":"lasagnalarry12","steam_id":76561198162688146,"connected_time":5271000000000,"state":"active","ping":59},{"user_id":543,"name":"Jokezonyu","steam_id":76561198213167893,"connected_time":148000000000,"state":"active","ping":56},{"user_id":511,"name":"zoiboi","steam_id":76561198069598590,"connected_time":2400000000000,"state":"active","ping":46},{"user_id":486,"name":"SODA!!!!!!!!","steam_id":76561198837570484,"connected_time":5219000000000,"state":"active","ping":50},{"user_id":544,"name":"Dragonsalt","steam_id":76561198141927559,"connected_time":111000000000,"state":"active","ping":63},{"user_id":499,"name":"Clornk (Destroyer of Happiness)","steam_id":76561198360396485,"connected_time":3919000000000,"state":"active","ping":63},{"user_id":513,"name":"Snooter","steam_id":76561198042435225,"connected_time":2349000000000,"state":"active","ping":65}]},{"server_id":25,"name":"Uncletopia | Los Angeles | 4 | Stopwatch Beta","name_short":"lax-4","host":"lax-1.us.uncletopia.com","port":27045,"enabled":true,"region":"us-west","cc":"us","latitude":33.94279,"longitude":-118.41004,"reserved":0,"last_update":"0001-01-01T00:00:00Z","name_a2s":"Uncletopia | Los Angeles | 4 | Stopwatch Beta","protocol":17,"map":"workshop/cp_process_f12.ugc2302948105","folder":"tf","game":"Team Fortress","app_id":440,"player_count":18,"max_players":24,"Bots":0,"server_type":"Dedicated","server_os":"Linux","password":true,"vac":true,"version":"7932396","steam_id":85568392924510199,"keywords":["cp","nocrits","nodmgspread","uncletopia"],"game_id":440,"stv_port":27046,"stv_name":"Uncletopia | Los Angeles | 4 | Stopwatch Beta | STV","players":[{"user_id":179,"name":"Mr. Comrade","steam_id":76561198155667562,"connected_time":4009000000000,"state":"active","ping":49},{"user_id":180,"name":"Scorpion","steam_id":76561198325651066,"connected_time":3911000000000,"state":"active","ping":71},{"user_id":222,"name":"Special Gorilla","steam_id":76561198120705900,"connected_time":71000000000,"state":"active","ping":45},{"user_id":219,"name":"swagggGGGGGGG","steam_id":76561198094512992,"connected_time":100000000000,"state":"active","ping":105},{"user_id":140,"name":"Taco+Taco=Burrito","steam_id":76561198063128663,"connected_time":7157000000000,"state":"active","ping":44},{"user_id":220,"name":"samantha","steam_id":76561198049258493,"connected_time":96000000000,"state":"active","ping":75},{"user_id":213,"name":"Kylek1133","steam_id":76561198277595899,"connected_time":659000000000,"state":"active","ping":57},{"user_id":185,"name":"Benjamin","steam_id":76561197982822947,"connected_time":3396000000000,"state":"active","ping":78},{"user_id":198,"name":"Weiner Cleaner","steam_id":76561198147514577,"connected_time":2295000000000,"state":"active","ping":64},{"user_id":187,"name":"Jomdac","steam_id":76561198150447896,"connected_time":3269000000000,"state":"active","ping":56},{"user_id":207,"name":"Gidostink","steam_id":76561198828727975,"connected_time":1443000000000,"state":"active","ping":94},{"user_id":223,"name":"Antreuse","steam_id":76561198219721132,"connected_time":13000000000,"state":"active","ping":72},{"user_id":218,"name":"VELOURIA","steam_id":76561198116550170,"connected_time":367000000000,"state":"active","ping":59},{"user_id":193,"name":"thesaucedynasty","steam_id":76561198350041365,"connected_time":2537000000000,"state":"active","ping":130},{"user_id":200,"name":"RaixaR","steam_id":76561198025289430,"connected_time":2108000000000,"state":"active","ping":70},{"user_id":203,"name":"mn","steam_id":76561198042357436,"connected_time":1989000000000,"state":"active","ping":66},{"user_id":205,"name":"Susie Deltarune","steam_id":76561198374497962,"connected_time":1833000000000,"state":"active","ping":70},{"user_id":211,"name":"NotSharky","steam_id":76561198078910436,"connected_time":1258000000000,"state":"active","ping":46}]},{"server_id":11,"name":"Uncletopia | London | 1 | All Maps","name_short":"lon-1","host":"lon-1.uk.uncletopia.com","port":27015,"enabled":true,"region":"eu","cc":"gb","latitude":51.509865,"longitude":-0.118092,"reserved":0,"last_update":"0001-01-01T00:00:00Z","name_a2s":"Uncletopia | London | 1 | All Maps","protocol":17,"map":"koth_harvest_final","folder":"tf","game":"Team Fortress","app_id":440,"player_count":24,"max_players":24,"Bots":0,"server_type":"Dedicated","server_os":"Linux","password":true,"vac":true,"version":"7932396","steam_id":85568392924367362,"keywords":["cp","nocrits","nodmgspread","uncletopia"],"game_id":440,"stv_port":27016,"stv_name":"Uncletopia | London | 1 | All Maps | STV","players":[{"user_id":67,"name":"Fish","steam_id":76561198152128484,"connected_time":644000000000,"state":"active","ping":47},{"user_id":63,"name":"in the house like carpet","steam_id":76561199480942903,"connected_time":1152000000000,"state":"active","ping":74},{"user_id":70,"name":"maksym.purski","steam_id":76561199381038035,"connected_time":579000000000,"state":"active","ping":79},{"user_id":72,"name":"Snaky","steam_id":76561199000954430,"connected_time":238000000000,"state":"active","ping":115},{"user_id":53,"name":"Sex Man TF2","steam_id":76561198798657045,"connected_time":2370000000000,"state":"active","ping":57},{"user_id":48,"name":"puskamies","steam_id":76561198972627411,"connected_time":2776000000000,"state":"active","ping":76},{"user_id":45,"name":"Armok","steam_id":76561198972559096,"connected_time":2881000000000,"state":"active","ping":72},{"user_id":22,"name":"Speltok","steam_id":76561198084028223,"connected_time":4048000000000,"state":"active","ping":95},{"user_id":12,"name":"Mr. Cobbweb","steam_id":76561198215079953,"connected_time":4460000000000,"state":"active","ping":60},{"user_id":13,"name":"Mallkiri","steam_id":76561198055914926,"connected_time":4455000000000,"state":"active","ping":138},{"user_id":42,"name":"Asmodeus","steam_id":76561198283156425,"connected_time":3163000000000,"state":"active","ping":85},{"user_id":46,"name":"lim√£o","steam_id":76561198033695429,"connected_time":2848000000000,"state":"active","ping":44},{"user_id":18,"name":"heinz mustard","steam_id":76561198818037965,"connected_time":4205000000000,"state":"active","ping":97},{"user_id":73,"name":"Shark","steam_id":76561198205226501,"connected_time":218000000000,"state":"active","ping":160},{"user_id":20,"name":"bleh","steam_id":76561198257158275,"connected_time":4081000000000,"state":"active","ping":150},{"user_id":56,"name":"Gener√°l Kiwi","steam_id":76561198255946537,"connected_time":1766000000000,"state":"active","ping":52},{"user_id":23,"name":"MeBandae","steam_id":76561198910770432,"connected_time":4029000000000,"state":"active","ping":87},{"user_id":68,"name":"Scrooge Mc Clunk","steam_id":76561198885945084,"connected_time":606000000000,"state":"active","ping":43},{"user_id":65,"name":"Bonduelle#Savetf2","steam_id":76561199041992422,"connected_time":1139000000000,"state":"active","ping":139},{"user_id":66,"name":"Lyncurion","steam_id":76561199260022725,"connected_time":1139000000000,"state":"active","ping":85},{"user_id":74,"name":"Barak93","steam_id":76561198044585705,"connected_time":139000000000,"state":"active","ping":59},{"user_id":39,"name":"bugCheck.exe","steam_id":76561198050973207,"connected_time":3284000000000,"state":"active","ping":74},{"user_id":57,"name":"Dr. Lambda","steam_id":76561198952939545,"connected_time":1754000000000,"state":"active","ping":122},{"user_id":41,"name":"GoblinGaming","steam_id":76561198360395476,"connected_time":3266000000000,"state":"active","ping":30}]},{"server_id":114,"name":"Uncletopia | London | 2 | All Maps","name_short":"lon-2","host":"lon-1.uk.uncletopia.com","port":27025,"enabled":true,"region":"eu","cc":"gb","latitude":51.509865,"longitude":-0.118092,"reserved":0,"last_update":"0001-01-01T00:00:00Z","name_a2s":"Uncletopia | London | 2 | All Maps","protocol":17,"map":"koth_highpass","folder":"tf","game":"Team Fortress","app_id":440,"player_count":0,"max_players":24,"Bots":0,"server_type":"Dedicated","server_os":"Linux","password":true,"vac":true,"version":"7932396","steam_id":85568392924470941,"keywords":["cp","nocrits","nodmgspread","uncletopia"],"game_id":440,"stv_port":27026,"stv_name":"Uncletopia | London | 2 | All Maps | STV","players":null},{"server_id":320,"name":"Uncletopia | London | 3 | All Maps","name_short":"lon-3","host":"lon-1.uk.uncletopia.com","port":27035,"enabled":true,"region":"eu","cc":"gb","latitude":51.509865,"longitude":-0.118092,"reserved":0,"last_update":"0001-01-01T00:00:00Z","name_a2s":"Uncletopia | London | 3 | All Maps","protocol":17,"map":"cp_altitude","folder":"tf","game":"Team Fortress","app_id":440,"player_count":0,"max_players":24,"Bots":0,"server_type":"Dedicated","server_os":"Linux","password":true,"vac":true,"version":"7932396","steam_id":85568392924510192,"keywords":["cp","nocrits","nodmgspread","uncletopia"],"game_id":440,"stv_port":27036,"stv_name":"Uncletopia | London | 3 | All Maps | STV","players":null},{"server_id":321,"name":"Uncletopia | London | 4 | All Maps","name_short":"lon-4","host":"lon-1.uk.uncletopia.com","port":27045,"enabled":true,"region":"eu","cc":"gb","latitude":51.509865,"longitude":-0.118092,"reserved":0,"last_update":"0001-01-01T00:00:00Z","name_a2s":"Uncletopia | London | 4 | All Maps","protocol":17,"map":"cp_snakewater_final1","folder":"tf","game":"Team Fortress","app_id":440,"player_count":0,"max_players":24,"Bots":0,"server_type":"Dedicated","server_os":"Linux","password":true,"vac":true,"version":"7932396","steam_id":85568392924510193,"keywords":["cp","nocrits","nodmgspread","uncletopia"],"game_id":440,"stv_port":27046,"stv_name":"Uncletopia | London | 4 | All Maps | STV","players":null},{"server_id":21,"name":"Uncletopia | London | 5 | All Maps","name_short":"lon-5","host":"lon-1.uk.uncletopia.com","port":27055,"enabled":true,"region":"eu","cc":"gb","latitude":51.509865,"longitude":-0.118092,"reserved":0,"last_update":"0001-01-01T00:00:00Z","name_a2s":"Uncletopia | London | 5 | All Maps","protocol":17,"map":"pl_borneo","folder":"tf","game":"Team Fortress","app_id":440,"player_count":0,"max_players":24,"Bots":0,"server_type":"Dedicated","server_os":"Linux","password":true,"vac":true,"version":"7932396","steam_id":85568392924742829,"keywords":["nocrits","nodmgspread","payload","uncletopia"],"game_id":440,"stv_port":27056,"stv_name":"Uncletopia | London | 5 | All Maps | STV","players":null},{"server_id":22,"name":"Uncletopia | London | 6 | All Maps","name_short":"lon-6","host":"lon-1.uk.uncletopia.com","port":27065,"enabled":true,"region":"eu","cc":"gb","latitude":51.509865,"longitude":-0.118092,"reserved":0,"last_update":"0001-01-01T00:00:00Z","name_a2s":"Uncletopia | London | 6 | All Maps","protocol":17,"map":"cp_mountainlab","folder":"tf","game":"Team Fortress","app_id":440,"player_count":0,"max_players":24,"Bots":0,"server_type":"Dedicated","server_os":"Linux","password":true,"vac":true,"version":"7932396","steam_id":85568392924742830,"keywords":["cp","nocrits","nodmgspread","uncletopia"],"game_id":440,"stv_port":27066,"stv_name":"Uncletopia | London | 6 | All Maps | STV","players":null},{"server_id":40,"name":"Uncletopia | London | 7 | No Payload","name_short":"lon-7","host":"lon-1.uk.uncletopia.com","port":27075,"enabled":true,"region":"eu","cc":"gb","latitude":51.509865,"longitude":-0.118092,"reserved":0,"last_update":"0001-01-01T00:00:00Z","name_a2s":"Uncletopia | London | 7 | No Payload","protocol":17,"map":"pl_snowycoast","folder":"tf","game":"Team Fortress","app_id":440,"player_count":0,"max_players":24,"Bots":0,"server_type":"Dedicated","server_os":"Linux","password":true,"vac":true,"version":"7932396","steam_id":85568392924964314,"keywords":["nocrits","nodmgspread","payload","uncletopia"],"game_id":440,"stv_port":27076,"stv_name":"Uncletopia | London | 7 | No Payload | STV","players":null},{"server_id":41,"name":"Uncletopia | London | 8 | Community","name_short":"lon-8","host":"lon-1.uk.uncletopia.com","port":27085,"enabled":true,"region":"eu","cc":"gb","latitude":51.509865,"longitude":-0.118092,"reserved":0,"last_update":"0001-01-01T00:00:00Z","name_a2s":"Uncletopia | London | 8 | Community","protocol":17,"map":"pl_barnblitz","folder":"tf","game":"Team Fortress","app_id":440,"player_count":0,"max_players":24,"Bots":0,"server_type":"Dedicated","server_os":"Linux","password":true,"vac":true,"version":"7932396","steam_id":85568392924964315,"keywords":["nocrits","nodmgspread","payload","uncletopia"],"game_id":440,"stv_port":27086,"stv_name":"Uncletopia | London | 8 | Community | STV","players":null},{"server_id":300,"name":"Uncletopia | Montr√©al | 1 | All Maps","name_short":"mtl-1","host":"mtl-1.ca.uncletopia.com","port":27015,"enabled":true,"region":"us-east","cc":"ca","latitude":45.50889,"longitude":-73.56167,"reserved":0,"last_update":"0001-01-01T00:00:00Z","name_a2s":"Uncletopia | Montr√©al | 1 | All Maps","protocol":17,"map":"koth_cascade","folder":"tf","game":"Team Fortress","app_id":440,"player_count":0,"max_players":24,"Bots":0,"server_type":"Dedicated","server_os":"Linux","password":true,"vac":true,"version":"7932396","steam_id":85568392924500087,"keywords":["cp","nocrits","nodmgspread","uncletopia"],"game_id":440,"stv_port":27016,"stv_name":"Uncletopia | Montr√©al | 1 | All Maps | STV","players":null},{"server_id":301,"name":"Uncletopia | Montr√©al | 2 | All Maps","name_short":"mtl-2","host":"mtl-1.ca.uncletopia.com","port":27025,"enabled":true,"region":"us-east","cc":"ca","latitude":45.50889,"longitude":-73.56167,"reserved":0,"last_update":"0001-01-01T00:00:00Z","name_a2s":"Uncletopia | Montr√©al | 2 | All Maps","protocol":17,"map":"koth_lakeside_final","folder":"tf","game":"Team Fortress","app_id":440,"player_count":0,"max_players":24,"Bots":0,"server_type":"Dedicated","server_os":"Linux","password":true,"vac":true,"version":"7932396","steam_id":85568392924500088,"keywords":["cp","nocrits","nodmgspread","uncletopia"],"game_id":440,"stv_port":27026,"stv_name":"Uncletopia | Montr√©al | 2 | All Maps | STV","players":null},{"server_id":302,"name":"Uncletopia | Montr√©al | 3 | All Maps","name_short":"mtl-3","host":"mtl-1.ca.uncletopia.com","port":27035,"enabled":true,"region":"us-east","cc":"ca","latitude":45.50889,"longitude":-73.56167,"reserved":0,"last_update":"0001-01-01T00:00:00Z","name_a2s":"Uncletopia | Montr√©al | 3 | All Maps","protocol":17,"map":"koth_cascade","folder":"tf","game":"Team Fortress","app_id":440,"player_count":0,"max_players":24,"Bots":0,"server_type":"Dedicated","server_os":"Linux","password":true,"vac":true,"version":"7932396","steam_id":85568392924500089,"keywords":["cp","nocrits","nodmgspread","uncletopia"],"game_id":440,"stv_port":27036,"stv_name":"Uncletopia | Montr√©al | 3 | All Maps | STV","players":null},{"server_id":303,"name":"Uncletopia | Montr√©al | 4 | No Payload","name_short":"mtl-4","host":"mtl-1.ca.uncletopia.com","port":27045,"enabled":true,"region":"us-east","cc":"ca","latitude":45.50889,"longitude":-73.56167,"reserved":0,"last_update":"0001-01-01T00:00:00Z","name_a2s":"Uncletopia | Montr√©al | 4 | No Payload","protocol":17,"map":"cp_dustbowl","folder":"tf","game":"Team Fortress","app_id":440,"player_count":0,"max_players":24,"Bots":0,"server_type":"Dedicated","server_os":"Linux","password":true,"vac":true,"version":"7932396","steam_id":85568392924500090,"keywords":["cp","nocrits","nodmgspread","uncletopia"],"game_id":440,"stv_port":27046,"stv_name":"Uncletopia | Montr√©al | 4 | No Payload | STV","players":null},{"server_id":13,"name":"Uncletopia | New York City | 1 | All Maps","name_short":"nyc-1","host":"nyc-1.us.uncletopia.com","port":27015,"enabled":true,"region":"us-east","cc":"us","latitude":40.73061,"longitude":-73.93524,"reserved":0,"last_update":"0001-01-01T00:00:00Z","name_a2s":"Uncletopia | New York City | 1 | All Maps","protocol":17,"map":"koth_viaduct","folder":"tf","game":"Team Fortress","app_id":440,"player_count":13,"max_players":24,"Bots":0,"server_type":"Dedicated","server_os":"Linux","password":true,"vac":true,"version":"7932396","steam_id":85568392924469993,"keywords":["cp","nocrits","nodmgspread","uncletopia"],"game_id":440,"stv_port":27016,"stv_name":"Uncletopia | New York City | 1 | All Maps | STV","players":[{"user_id":624,"name":"kursed","steam_id":76561198992371495,"connected_time":380000000000,"state":"active","ping":39},{"user_id":622,"name":"Rabid-Gentleman","steam_id":76561199071967379,"connected_time":773000000000,"state":"active","ping":74},{"user_id":627,"name":"Zack","steam_id":76561198308083836,"connected_time":128000000000,"state":"active","ping":53},{"user_id":611,"name":"YakRuski","steam_id":76561198286058297,"connected_time":1783000000000,"state":"active","ping":45},{"user_id":592,"name":"Hi","steam_id":76561198038247668,"connected_time":4276000000000,"state":"active","ping":78},{"user_id":628,"name":"CORVIDAE","steam_id":76561198140171242,"connected_time":21000000000,"state":"spawning","ping":130},{"user_id":626,"name":"ShartMaster420WeedLover69","steam_id":76561199219844308,"connected_time":336000000000,"state":"active","ping":123},{"user_id":623,"name":"Juvice","steam_id":76561198843371502,"connected_time":757000000000,"state":"active","ping":42},{"user_id":617,"name":"Oddjob","steam_id":76561198976160793,"connected_time":1339000000000,"state":"active","ping":60},{"user_id":619,"name":"RipHunter77","steam_id":76561198272973014,"connected_time":1148000000000,"state":"active","ping":99},{"user_id":587,"name":"slaanesh worshiper","steam_id":76561198017283523,"connected_time":5135000000000,"state":"active","ping":106},{"user_id":620,"name":"Vengeful_Unlawful_Spoon","steam_id":76561197971810183,"connected_time":978000000000,"state":"active","ping":144},{"user_id":584,"name":"DO THE DEVIL CHALLENGE","steam_id":76561198045437723,"connected_time":5188000000000,"state":"active","ping":84}]},{"server_id":14,"name":"Uncletopia | New York City | 2 | All Maps","name_short":"nyc-2","host":"nyc-1.us.uncletopia.com","port":27025,"enabled":true,"region":"us-east","cc":"us","latitude":40.73061,"longitude":-73.93524,"reserved":0,"last_update":"0001-01-01T00:00:00Z","name_a2s":"Uncletopia | New York City | 2 | All Maps","protocol":17,"map":"cp_mountainlab","folder":"tf","game":"Team Fortress","app_id":440,"player_count":0,"max_players":24,"Bots":0,"server_type":"Dedicated","server_os":"Linux","password":true,"vac":true,"version":"7932396","steam_id":85568392924469994,"keywords":["cp","nocrits","nodmgspread","uncletopia"],"game_id":440,"stv_port":27026,"stv_name":"Uncletopia | New York City | 2 | All Maps | STV","players":null},{"server_id":15,"name":"Uncletopia | New York City | 3 | Stopwatch Beta","name_short":"nyc-3","host":"nyc-1.us.uncletopia.com","port":27035,"enabled":true,"region":"us-east","cc":"us","latitude":40.73061,"longitude":-73.93524,"reserved":0,"last_update":"0001-01-01T00:00:00Z","name_a2s":"Uncletopia | New York City | 3 | Stopwatch Beta","protocol":17,"map":"workshop/koth_clearcut_b15.ugc2107050255","folder":"tf","game":"Team Fortress","app_id":440,"player_count":0,"max_players":24,"Bots":0,"server_type":"Dedicated","server_os":"Linux","password":true,"vac":true,"version":"7932396","steam_id":85568392924742820,"keywords":["cp","nocrits","nodmgspread","uncletopia"],"game_id":440,"stv_port":27036,"stv_name":"Uncletopia | New York City | 3 | Stopwatch Beta | STV","players":null},{"server_id":16,"name":"Uncletopia | New York City | 4 | Community","name_short":"nyc-4","host":"nyc-1.us.uncletopia.com","port":27045,"enabled":true,"region":"us-east","cc":"us","latitude":40.73061,"longitude":-73.93524,"reserved":0,"last_update":"0001-01-01T00:00:00Z","name_a2s":"Uncletopia | New York City | 4 | Community","protocol":17,"map":"workshop/koth_ramjam_rc1.ugc459778887","folder":"tf","game":"Team Fortress","app_id":440,"player_count":0,"max_players":24,"Bots":0,"server_type":"Dedicated","server_os":"Linux","password":true,"vac":true,"version":"7932396","steam_id":85568392924742821,"keywords":["cp","nocrits","nodmgspread","uncletopia"],"game_id":440,"stv_port":27046,"stv_name":"Uncletopia | New York City | 4 | Community | STV","players":null},{"server_id":142,"name":"Uncletopia | S√£o Paulo | 1 | All Maps","name_short":"sao-1","host":"sao-1.br.uncletopia.com","port":27015,"enabled":true,"region":"sa","cc":"br","latitude":-23.533773,"longitude":-46.62529,"reserved":0,"last_update":"0001-01-01T00:00:00Z","name_a2s":"Uncletopia | S√£o Paulo | 1 | All Maps","protocol":17,"map":"koth_cascade","folder":"tf","game":"Team Fortress","app_id":440,"player_count":0,"max_players":24,"Bots":0,"server_type":"Dedicated","server_os":"Linux","password":true,"vac":true,"version":"7932396","steam_id":85568392924469996,"keywords":["cp","nocrits","nodmgspread","uncletopia"],"game_id":440,"stv_port":27016,"stv_name":"Uncletopia | S√£o Paulo | 1 | All Maps | STV","players":null},{"server_id":143,"name":"Uncletopia | S√£o Paulo | 2 | All Maps","name_short":"sao-2","host":"sao-2.br.uncletopia.com","port":27015,"enabled":true,"region":"sa","cc":"br","latitude":-23.533773,"longitude":-46.62529,"reserved":0,"last_update":"0001-01-01T00:00:00Z","name_a2s":"Uncletopia | S√£o Paulo | 2 | All Maps","protocol":17,"map":"cp_sunshine","folder":"tf","game":"Team Fortress","app_id":440,"player_count":0,"max_players":24,"Bots":0,"server_type":"Dedicated","server_os":"Linux","password":true,"vac":true,"version":"7932396","steam_id":85568392924485349,"keywords":["cp","nocrits","nodmgspread","uncletopia"],"game_id":440,"stv_port":27016,"stv_name":"Uncletopia | S√£o Paulo | 2 | All Maps | STV","players":null},{"server_id":7,"name":"Uncletopia | Seattle | 1 | All Maps","name_short":"sea-1","host":"sea-1.us.uncletopia.com","port":27015,"enabled":true,"region":"us-west","cc":"us","latitude":47.608013,"longitude":-122.33517,"reserved":0,"last_update":"0001-01-01T00:00:00Z","name_a2s":"Uncletopia | Seattle | 1 | All Maps","protocol":17,"map":"koth_suijin","folder":"tf","game":"Team Fortress","app_id":440,"player_count":23,"max_players":24,"Bots":0,"server_type":"Dedicated","server_os":"Linux","password":true,"vac":true,"version":"7932396","steam_id":85568392924469997,"keywords":["cp","nocrits","nodmgspread","uncletopia"],"game_id":440,"stv_port":27016,"stv_name":"Uncletopia | Seattle | 1 | All Maps | STV","players":[{"user_id":566,"name":"Luna","steam_id":76561198082944789,"connected_time":313000000000,"state":"active","ping":73},{"user_id":553,"name":"DGamer50","steam_id":76561198873200099,"connected_time":964000000000,"state":"active","ping":55},{"user_id":560,"name":"qwfg","steam_id":76561198316382030,"connected_time":621000000000,"state":"active","ping":79},{"user_id":532,"name":"Peppy","steam_id":76561198866629645,"connected_time":1598000000000,"state":"active","ping":48},{"user_id":501,"name":"mike, man spreads on ttc","steam_id":76561198225411004,"connected_time":5525000000000,"state":"active","ping":60},{"user_id":567,"name":"sapphoroth","steam_id":76561198062263639,"connected_time":310000000000,"state":"active","ping":104},{"user_id":568,"name":"shittystripper","steam_id":76561198101012071,"connected_time":249000000000,"state":"active","ping":45},{"user_id":528,"name":"Facepalm","steam_id":76561198001935226,"connected_time":2633000000000,"state":"active","ping":72},{"user_id":533,"name":"Ja","steam_id":76561198396340174,"connected_time":1585000000000,"state":"active","ping":127},{"user_id":531,"name":"Pockets","steam_id":76561198290683306,"connected_time":2117000000000,"state":"active","ping":54},{"user_id":508,"name":"[TrC] Nosy","steam_id":76561197978859310,"connected_time":4779000000000,"state":"active","ping":59},{"user_id":569,"name":"Feasent","steam_id":76561198987316504,"connected_time":211000000000,"state":"active","ping":60},{"user_id":571,"name":"Seanvich","steam_id":76561198065805500,"connected_time":86000000000,"state":"active","ping":120},{"user_id":573,"name":"Lemonade Juice","steam_id":76561198402892608,"connected_time":48000000000,"state":"active","ping":69},{"user_id":530,"name":"Nakasmacka","steam_id":76561198049787270,"connected_time":2140000000000,"state":"active","ping":36},{"user_id":559,"name":"space cat","steam_id":76561198131652100,"connected_time":713000000000,"state":"active","ping":105},{"user_id":543,"name":"phantom","steam_id":76561197963860777,"connected_time":1221000000000,"state":"active","ping":104},{"user_id":555,"name":"Grognak","steam_id":76561198044710527,"connected_time":910000000000,"state":"active","ping":52},{"user_id":518,"name":"Grill Skills","steam_id":76561198053575147,"connected_time":3652000000000,"state":"active","ping":64},{"user_id":505,"name":"[TrC] Dackstrus","steam_id":76561197973518509,"connected_time":4813000000000,"state":"active","ping":58},{"user_id":527,"name":"Cr0wD3r","steam_id":76561198153612764,"connected_time":2648000000000,"state":"active","ping":95},{"user_id":522,"name":"LittleFieryOne","steam_id":76561198107463724,"connected_time":3572000000000,"state":"active","ping":112},{"user_id":562,"name":"eminixx","steam_id":76561198962857708,"connected_time":608000000000,"state":"active","ping":116}]},{"server_id":119,"name":"Uncletopia | Seattle | 2 | All Maps","name_short":"sea-2","host":"sea-1.us.uncletopia.com","port":27025,"enabled":true,"region":"us-west","cc":"us","latitude":47.608013,"longitude":-122.33517,"reserved":0,"last_update":"0001-01-01T00:00:00Z","name_a2s":"Uncletopia | Seattle | 2 | All Maps","protocol":17,"map":"pl_pier","folder":"tf","game":"Team Fortress","app_id":440,"player_count":24,"max_players":24,"Bots":0,"server_type":"Dedicated","server_os":"Linux","password":true,"vac":true,"version":"7932396","steam_id":85568392924469998,"keywords":["nocrits","nodmgspread","payload","uncletopia"],"game_id":440,"stv_port":27026,"stv_name":"Uncletopia | Seattle | 2 | All Maps | STV","players":[{"user_id":908,"name":"Tea","steam_id":76561198004133638,"connected_time":173000000000,"state":"spawning","ping":76},{"user_id":907,"name":"oil","steam_id":76561198099980149,"connected_time":176000000000,"state":"active","ping":81},{"user_id":874,"name":"rat gets the cheese","steam_id":76561198031234032,"connected_time":3196000000000,"state":"active","ping":104},{"user_id":891,"name":"ice","steam_id":76561197994528974,"connected_time":2149000000000,"state":"active","ping":75},{"user_id":897,"name":"resh","steam_id":76561198239598834,"connected_time":1451000000000,"state":"active","ping":129},{"user_id":905,"name":"twink in pastry flops","steam_id":76561198340646012,"connected_time":197000000000,"state":"active","ping":32},{"user_id":906,"name":"Drapph","steam_id":76561199384213314,"connected_time":195000000000,"state":"active","ping":104},{"user_id":898,"name":"gorlab","steam_id":76561198025089694,"connected_time":1420000000000,"state":"active","ping":60},{"user_id":900,"name":"Retesaurus","steam_id":76561198045189319,"connected_time":974000000000,"state":"active","ping":51},{"user_id":909,"name":"Quietsharp","steam_id":76561198277968438,"connected_time":101000000000,"state":"active","ping":85},{"user_id":859,"name":"lasky","steam_id":76561198017030029,"connected_time":6592000000000,"state":"active","ping":68},{"user_id":899,"name":"elyina","steam_id":76561198035310295,"connected_time":1400000000000,"state":"active","ping":86},{"user_id":861,"name":"Ayayayayayahuasca","steam_id":76561199002906056,"connected_time":6223000000000,"state":"active","ping":63},{"user_id":882,"name":"Jeffery","steam_id":76561199226711716,"connected_time":3101000000000,"state":"active","ping":113},{"user_id":857,"name":"delight","steam_id":76561197980280272,"connected_time":6703000000000,"state":"active","ping":46},{"user_id":862,"name":"Sniff","steam_id":76561198010270922,"connected_time":5689000000000,"state":"active","ping":60},{"user_id":903,"name":"Raian","steam_id":76561199138048671,"connected_time":672000000000,"state":"active","ping":75},{"user_id":902,"name":"Doctor‚Ñ¢","steam_id":76561198134309750,"connected_time":725000000000,"state":"active","ping":111},{"user_id":836,"name":"Florist","steam_id":76561198009121060,"connected_time":9392000000000,"state":"active","ping":46},{"user_id":895,"name":"Sploonbabagoosecooties","steam_id":76561198139972201,"connected_time":1960000000000,"state":"active","ping":57},{"user_id":896,"name":"jorts","steam_id":76561199041179985,"connected_time":1791000000000,"state":"active","ping":58},{"user_id":885,"name":"squash","steam_id":76561198150281353,"connected_time":2685000000000,"state":"active","ping":58},{"user_id":904,"name":"rorywashere /·ê† - Àï -„Éû ‚≥ä","steam_id":76561198065825165,"connected_time":665000000000,"state":"active","ping":110},{"user_id":889,"name":"Reaptiles","steam_id":76561198414817784,"connected_time":2397000000000,"state":"active","ping":40}]},{"server_id":406,"name":"Uncletopia | Seattle | 3 | Stopwatch Beta","name_short":"sea-3","host":"sea-1.us.uncletopia.com","port":27035,"enabled":true,"region":"us-west","cc":"us","latitude":47.608013,"longitude":-122.33517,"reserved":0,"last_update":"0001-01-01T00:00:00Z","name_a2s":"Uncletopia | Seattle | 3 | Stopwatch Beta","protocol":17,"map":"workshop/koth_bagel_rc6.ugc2514036946","folder":"tf","game":"Team Fortress","app_id":440,"player_count":0,"max_players":24,"Bots":0,"server_type":"Dedicated","server_os":"Linux","password":true,"vac":true,"version":"7932396","steam_id":85568392924515217,"keywords":["cp","nocrits","nodmgspread","uncletopia"],"game_id":440,"stv_port":27036,"stv_name":"Uncletopia | Seattle | 3 | Stopwatch Beta | STV","players":null},{"server_id":17,"name":"Uncletopia | San Francisco | 1 | All Maps","name_short":"sfo-1","host":"sfo-1.us.uncletopia.com","port":27015,"enabled":true,"region":"us-west","cc":"us","latitude":37.77397,"longitude":-122.4313,"reserved":0,"last_update":"0001-01-01T00:00:00Z","name_a2s":"Uncletopia | San Francisco | 1 | All Maps","protocol":17,"map":"pl_upward","folder":"tf","game":"Team Fortress","app_id":440,"player_count":24,"max_players":24,"Bots":0,"server_type":"Dedicated","server_os":"Linux","password":true,"vac":true,"version":"7932396","steam_id":85568392924469999,"keywords":["nocrits","nodmgspread","payload","uncletopia"],"game_id":440,"stv_port":27016,"stv_name":"Uncletopia | San Francisco | 1 | All Maps | STV","players":[{"user_id":344,"name":"porksoda","steam_id":76561198021451377,"connected_time":1400000000000,"state":"active","ping":60},{"user_id":361,"name":"Zippy","steam_id":76561198279229422,"connected_time":300000000000,"state":"active","ping":119},{"user_id":359,"name":"KOOLAID","steam_id":76561198062775462,"connected_time":663000000000,"state":"active","ping":57},{"user_id":336,"name":"Paul Gaming","steam_id":76561198065538229,"connected_time":2152000000000,"state":"active","ping":59},{"user_id":357,"name":"JPMÂ≤©","steam_id":76561198043967997,"connected_time":814000000000,"state":"active","ping":47},{"user_id":331,"name":"Frank Forearms.","steam_id":76561198225910596,"connected_time":2444000000000,"state":"active","ping":69},{"user_id":345,"name":"Sleuth","steam_id":76561198418288939,"connected_time":1357000000000,"state":"active","ping":55},{"user_id":346,"name":"..flop","steam_id":76561197989058876,"connected_time":1348000000000,"state":"active","ping":120},{"user_id":341,"name":"Sterling Nano","steam_id":76561198048580088,"connected_time":1829000000000,"state":"active","ping":58},{"user_id":335,"name":"Anthid","steam_id":76561198074493797,"connected_time":2279000000000,"state":"active","ping":64},{"user_id":347,"name":"McDonald","steam_id":76561199028533497,"connected_time":1273000000000,"state":"active","ping":60},{"user_id":333,"name":"b0urbaki7","steam_id":76561198141342345,"connected_time":2416000000000,"state":"active","ping":96},{"user_id":356,"name":"PBxJAY","steam_id":76561198402471788,"connected_time":843000000000,"state":"active","ping":84},{"user_id":348,"name":"The Benefactor","steam_id":76561198307247913,"connected_time":1250000000000,"state":"active","ping":56},{"user_id":360,"name":"Scorpianswag","steam_id":76561198260651036,"connected_time":570000000000,"state":"active","ping":44},{"user_id":281,"name":"Stoofy","steam_id":76561198280750328,"connected_time":6416000000000,"state":"active","ping":75},{"user_id":354,"name":"Mr. Chi City","steam_id":76561198131467867,"connected_time":886000000000,"state":"active","ping":35},{"user_id":296,"name":"‚ò≠Borris‚ò≠","steam_id":76561198011136886,"connected_time":5556000000000,"state":"active","ping":63},{"user_id":350,"name":"That wasn't milk","steam_id":76561198155294045,"connected_time":1106000000000,"state":"active","ping":84},{"user_id":355,"name":"sussycheese","steam_id":76561198384139570,"connected_time":885000000000,"state":"active","ping":63},{"user_id":337,"name":"Perry the Platypus #savetf2","steam_id":76561198273045773,"connected_time":2145000000000,"state":"active","ping":66},{"user_id":342,"name":"Honey-Fox","steam_id":76561198133244742,"connected_time":1777000000000,"state":"active","ping":101},{"user_id":362,"name":"DieroBarbarian","steam_id":76561199005805933,"connected_time":171000000000,"state":"active","ping":99},{"user_id":328,"name":"big car","steam_id":76561198067082350,"connected_time":2878000000000,"state":"active","ping":52}]},{"server_id":18,"name":"Uncletopia | San Francisco | 2 | All Maps","name_short":"sfo-2","host":"sfo-1.us.uncletopia.com","port":27025,"enabled":true,"region":"us-west","cc":"us","latitude":37.77397,"longitude":-122.4313,"reserved":0,"last_update":"0001-01-01T00:00:00Z","name_a2s":"Uncletopia | San Francisco | 2 | All Maps","protocol":17,"map":"pl_snowycoast","folder":"tf","game":"Team Fortress","app_id":440,"player_count":1,"max_players":24,"Bots":0,"server_type":"Dedicated","server_os":"Linux","password":true,"vac":true,"version":"7932396","steam_id":85568392924470000,"keywords":["nocrits","nodmgspread","payload","uncletopia"],"game_id":440,"stv_port":27026,"stv_name":"Uncletopia | San Francisco | 2 | All Maps | STV","players":[{"user_id":363,"name":"Wham Mistress","steam_id":76561198115422032,"connected_time":1376000000000,"state":"active","ping":41}]},{"server_id":19,"name":"Uncletopia | San Francisco | 3 | Stopwatch Beta","name_short":"sfo-3","host":"sfo-1.us.uncletopia.com","port":27035,"enabled":true,"region":"us-west","cc":"us","latitude":37.77397,"longitude":-122.4313,"reserved":0,"last_update":"0001-01-01T00:00:00Z","name_a2s":"Uncletopia | San Francisco | 3 | Stopwatch Beta","protocol":17,"map":"workshop/pl_vigil_rc9.ugc1266210012","folder":"tf","game":"Team Fortress","app_id":440,"player_count":0,"max_players":24,"Bots":0,"server_type":"Dedicated","server_os":"Linux","password":true,"vac":true,"version":"7932396","steam_id":85568392924742824,"keywords":["nocrits","nodmgspread","payload","uncletopia"],"game_id":440,"stv_port":27036,"stv_name":"Uncletopia | San Francisco | 3 | Stopwatch Beta | STV","players":null},{"server_id":20,"name":"Uncletopia | San Francisco | 4 | Community","name_short":"sfo-4","host":"sfo-1.us.uncletopia.com","port":27045,"enabled":true,"region":"us-west","cc":"us","latitude":37.77397,"longitude":-122.4313,"reserved":0,"last_update":"0001-01-01T00:00:00Z","name_a2s":"Uncletopia | San Francisco | 4 | Community","protocol":17,"map":"workshop/koth_kemptown_rc1.ugc767410655","folder":"tf","game":"Team Fortress","app_id":440,"player_count":0,"max_players":24,"Bots":0,"server_type":"Dedicated","server_os":"Linux","password":true,"vac":true,"version":"7932396","steam_id":85568392924742826,"keywords":["cp","nocrits","nodmgspread","uncletopia"],"game_id":440,"stv_port":27046,"stv_name":"Uncletopia | San Francisco | 4 | Community | STV","players":null},{"server_id":141,"name":"Uncletopia | Sydney | 1 | All Maps","name_short":"syd-1","host":"syd-1.au.uncletopia.com","port":27015,"enabled":true,"region":"au","cc":"au","latitude":-33.865143,"longitude":151.2099,"reserved":0,"last_update":"0001-01-01T00:00:00Z","name_a2s":"Uncletopia | Sydney | 1 | All Maps","protocol":17,"map":"pl_upward","folder":"tf","game":"Team Fortress","app_id":440,"player_count":0,"max_players":24,"Bots":0,"server_type":"Dedicated","server_os":"Linux","password":true,"vac":true,"version":"7932396","steam_id":85568392924470001,"keywords":["nocrits","nodmgspread","payload","uncletopia"],"game_id":440,"stv_port":27016,"stv_name":"Uncletopia | Sydney | 1 | All Maps | STV","players":null},{"server_id":123,"name":"Uncletopia | Sydney | 2 | All Maps","name_short":"syd-2","host":"syd-1.au.uncletopia.com","port":27025,"enabled":true,"region":"au","cc":"au","latitude":-33.865143,"longitude":151.2099,"reserved":0,"last_update":"0001-01-01T00:00:00Z","name_a2s":"Uncletopia | Sydney | 2 | All Maps","protocol":17,"map":"pl_badwater","folder":"tf","game":"Team Fortress","app_id":440,"player_count":15,"max_players":24,"Bots":0,"server_type":"Dedicated","server_os":"Linux","password":true,"vac":true,"version":"7932396","steam_id":85568392924470002,"keywords":["nocrits","nodmgspread","payload","uncletopia"],"game_id":440,"stv_port":27026,"stv_name":"Uncletopia | Sydney | 2 | All Maps | STV","players":[{"user_id":456,"name":"DannyDufus","steam_id":76561199055656732,"connected_time":1000000000,"state":"spawning","ping":59},{"user_id":452,"name":"Tees","steam_id":76561199174602317,"connected_time":313000000000,"state":"active","ping":45},{"user_id":453,"name":"Bin","steam_id":76561199117653318,"connected_time":271000000000,"state":"active","ping":60},{"user_id":450,"name":"Zclipse_","steam_id":76561198406959622,"connected_time":645000000000,"state":"active","ping":55},{"user_id":448,"name":"Zort","steam_id":76561198056414289,"connected_time":701000000000,"state":"active","ping":59},{"user_id":454,"name":"TZEI","steam_id":76561198045566851,"connected_time":179000000000,"state":"active","ping":99},{"user_id":410,"name":"MoistNipple","steam_id":76561198180956833,"connected_time":3332000000000,"state":"active","ping":71},{"user_id":436,"name":"BigLadBoyga","steam_id":76561198985263763,"connected_time":1419000000000,"state":"active","ping":70},{"user_id":443,"name":"Bobby Wilkinson","steam_id":76561198054985347,"connected_time":1071000000000,"state":"active","ping":54},{"user_id":438,"name":"Œ£œÑœÅŒøœÄŒµŒ¥ŒµœÇ","steam_id":76561199373667471,"connected_time":1396000000000,"state":"active","ping":57},{"user_id":441,"name":"kamO","steam_id":76561198000303139,"connected_time":1161000000000,"state":"active","ping":68},{"user_id":442,"name":"4-Star Yelp Review","steam_id":76561197995258180,"connected_time":1139000000000,"state":"active","ping":50},{"user_id":451,"name":"Eislicht","steam_id":76561198077119864,"connected_time":591000000000,"state":"active","ping":45},{"user_id":447,"name":"hxfm","steam_id":76561198392607727,"connected_time":817000000000,"state":"active","ping":63},{"user_id":427,"name":"Killing","steam_id":76561198107392931,"connected_time":2160000000000,"state":"active","ping":64}]},{"server_id":395,"name":"Uncletopia | Sydney | 3 | All Maps","name_short":"syd-3","host":"syd-1.au.uncletopia.com","port":27035,"enabled":true,"region":"au","cc":"au","latitude":-33.865143,"longitude":151.2099,"reserved":0,"last_update":"0001-01-01T00:00:00Z","name_a2s":"Uncletopia | Sydney | 3 | All Maps","protocol":17,"map":"ctf_2fort","folder":"tf","game":"Team Fortress","app_id":440,"player_count":1,"max_players":24,"Bots":0,"server_type":"Dedicated","server_os":"Linux","password":true,"vac":true,"version":"7932396","steam_id":85568392925194467,"keywords":["ctf","nocrits","nodmgspread","uncletopia"],"game_id":440,"stv_port":27036,"stv_name":"Uncletopia | Sydney | 3 | All Maps | STV","players":[{"user_id":6,"name":"tim88435","steam_id":76561198089653987,"connected_time":14000000000,"state":"active","ping":55}]},{"server_id":396,"name":"Uncletopia | Sydney | 4 | All Maps","name_short":"syd-4","host":"syd-1.au.uncletopia.com","port":27045,"enabled":true,"region":"au","cc":"au","latitude":-33.865143,"longitude":151.2099,"reserved":0,"last_update":"0001-01-01T00:00:00Z","name_a2s":"Uncletopia | Sydney | 4 | All Maps","protocol":17,"map":"pl_badwater","folder":"tf","game":"Team Fortress","app_id":440,"player_count":5,"max_players":24,"Bots":0,"server_type":"Dedicated","server_os":"Linux","password":true,"vac":true,"version":"7932396","steam_id":85568392925397958,"keywords":["nocrits","nodmgspread","payload","uncletopia"],"game_id":440,"stv_port":27046,"stv_name":"Uncletopia | Sydney | 4 | All Maps | STV","players":[{"user_id":27,"name":"Pot Plant Mentality","steam_id":76561198385737243,"connected_time":1303000000000,"state":"active","ping":57},{"user_id":28,"name":"Okie Dokie","steam_id":76561198125237921,"connected_time":699000000000,"state":"active","ping":42},{"user_id":25,"name":"chimney","steam_id":76561198808724546,"connected_time":1551000000000,"state":"active","ping":60},{"user_id":29,"name":"Office","steam_id":76561198059380714,"connected_time":640000000000,"state":"active","ping":80},{"user_id":30,"name":"Penser","steam_id":76561198798194358,"connected_time":570000000000,"state":"active","ping":253}]},{"server_id":58,"name":"Uncletopia | Sydney | 5 | Stopwatch Beta","name_short":"syd-5","host":"syd-1.au.uncletopia.com","port":27055,"enabled":true,"region":"au","cc":"au","latitude":-33.865143,"longitude":151.2099,"reserved":0,"last_update":"0001-01-01T00:00:00Z","name_a2s":"Uncletopia | Sydney | 5 | Stopwatch Beta","protocol":17,"map":"pl_borneo","folder":"tf","game":"Team Fortress","app_id":440,"player_count":0,"max_players":24,"Bots":0,"server_type":"Dedicated","server_os":"Linux","password":true,"vac":true,"version":"7932396","steam_id":85568392925397959,"keywords":["nocrits","nodmgspread","payload","uncletopia"],"game_id":440,"stv_port":27056,"stv_name":"Uncletopia | Sydney | 5 | Stopwatch Beta | STV","players":null},{"server_id":59,"name":"Uncletopia | Sydney | 6 | Community","name_short":"syd-6","host":"syd-1.au.uncletopia.com","port":27065,"enabled":true,"region":"au","cc":"au","latitude":-33.865143,"longitude":151.2099,"reserved":0,"last_update":"0001-01-01T00:00:00Z","name_a2s":"Uncletopia | Sydney | 6 | Community","protocol":17,"map":"workshop/koth_product_final.ugc454272353","folder":"tf","game":"Team Fortress","app_id":440,"player_count":0,"max_players":24,"Bots":0,"server_type":"Dedicated","server_os":"Linux","password":true,"vac":true,"version":"7932396","steam_id":85568392925397960,"keywords":["cp","nocrits","nodmgspread","uncletopia"],"game_id":440,"stv_port":27066,"stv_name":"Uncletopia | Sydney | 6 | Community | STV","players":null},{"server_id":49,"name":"Uncletopia | Warsaw | 1 | All Maps","name_short":"waw-1","host":"waw-1.pl.uncletopia.com","port":27015,"enabled":true,"region":"eu","cc":"pl","latitude":52.2297,"longitude":21.017532,"reserved":0,"last_update":"0001-01-01T00:00:00Z","name_a2s":"","protocol":0,"map":"","folder":"","game":"","app_id":0,"player_count":0,"max_players":0,"Bots":0,"server_type":"","server_os":"","password":false,"vac":false,"version":"","steam_id":0,"keywords":null,"game_id":0,"stv_port":0,"stv_name":"","players":null},{"server_id":50,"name":"Uncletopia | Warsaw | 2 | All Maps","name_short":"waw-2","host":"waw-1.pl.uncletopia.com","port":27025,"enabled":true,"region":"eu","cc":"pl","latitude":52.2297,"longitude":21.017532,"reserved":0,"last_update":"0001-01-01T00:00:00Z","name_a2s":"Uncletopia | Warsaw | 2 | All Maps","protocol":17,"map":"cp_snakewater_final1","folder":"tf","game":"Team Fortress","app_id":440,"player_count":0,"max_players":24,"Bots":0,"server_type":"Dedicated","server_os":"Linux","password":true,"vac":true,"version":"7932396","steam_id":85568392925397851,"keywords":["cp","nocrits","nodmgspread","uncletopia"],"game_id":440,"stv_port":27026,"stv_name":"Uncletopia | Warsaw | 2 | All Maps | STV","players":null},{"server_id":51,"name":"Uncletopia | Warsaw | 3 | All Maps","name_short":"waw-3","host":"waw-1.pl.uncletopia.com","port":27035,"enabled":true,"region":"eu","cc":"pl","latitude":52.2297,"longitude":21.017532,"reserved":0,"last_update":"0001-01-01T00:00:00Z","name_a2s":"Uncletopia | Warsaw | 3 | All Maps","protocol":17,"map":"koth_lakeside_final","folder":"tf","game":"Team Fortress","app_id":440,"player_count":0,"max_players":24,"Bots":0,"server_type":"Dedicated","server_os":"Linux","password":true,"vac":true,"version":"7932396","steam_id":85568392925397852,"keywords":["cp","nocrits","nodmgspread","uncletopia"],"game_id":440,"stv_port":27036,"stv_name":"Uncletopia | Warsaw | 3 | All Maps | STV","players":null},{"server_id":52,"name":"Uncletopia | Warsaw | 4 | All Maps","name_short":"waw-4","host":"waw-1.pl.uncletopia.com","port":27045,"enabled":true,"region":"eu","cc":"pl","latitude":52.2297,"longitude":21.017532,"reserved":0,"last_update":"0001-01-01T00:00:00Z","name_a2s":"Uncletopia | Warsaw | 4 | All Maps","protocol":17,"map":"pl_swiftwater_final1","folder":"tf","game":"Team Fortress","app_id":440,"player_count":0,"max_players":24,"Bots":0,"server_type":"Dedicated","server_os":"Linux","password":true,"vac":true,"version":"7932396","steam_id":85568392925397853,"keywords":["nocrits","nodmgspread","payload","uncletopia"],"game_id":440,"stv_port":27046,"stv_name":"Uncletopia | Warsaw | 4 | All Maps | STV","players":null},{"server_id":53,"name":"Uncletopia | Warsaw | 5 | Stopwatch Beta","name_short":"waw-5","host":"waw-1.pl.uncletopia.com","port":27055,"enabled":true,"region":"eu","cc":"pl","latitude":52.2297,"longitude":21.017532,"reserved":0,"last_update":"0001-01-01T00:00:00Z","name_a2s":"Uncletopia | Warsaw | 5 | Stopwatch Beta","protocol":17,"map":"koth_highpass","folder":"tf","game":"Team Fortress","app_id":440,"player_count":0,"max_players":24,"Bots":0,"server_type":"Dedicated","server_os":"Linux","password":true,"vac":true,"version":"7932396","steam_id":85568392925397854,"keywords":["cp","nocrits","nodmgspread","uncletopia"],"game_id":440,"stv_port":27056,"stv_name":"Uncletopia | Warsaw | 5 | Stopwatch Beta | STV","players":null},{"server_id":54,"name":"Uncletopia | Warsaw | 6 | Community","name_short":"waw-6","host":"waw-1.pl.uncletopia.com","port":27065,"enabled":true,"region":"eu","cc":"pl","latitude":52.2297,"longitude":21.017532,"reserved":0,"last_update":"0001-01-01T00:00:00Z","name_a2s":"Uncletopia | Warsaw | 6 | Community","protocol":17,"map":"pl_upward","folder":"tf","game":"Team Fortress","app_id":440,"player_count":0,"max_players":24,"Bots":0,"server_type":"Dedicated","server_os":"Linux","password":true,"vac":true,"version":"7932396","steam_id":85568392925397856,"keywords":["nocrits","nodmgspread","payload","uncletopia"],"game_id":440,"stv_port":27066,"stv_name":"Uncletopia | Warsaw | 6 | Community | STV","players":null}]}