{"status":true,"message":"","result":[{"server_id":9,"name":"Uncletopia | Atlanta | 1 | All Maps","name_short":"atl-1","host":"atl-1.us.uncletopia.com","port":27015,"enabled":true,"region":"us-east","cc":"us","latitude":33.753746,"longitude":-84.38633,"reserved":0,"last_update":"0001-01-01T00:00:00Z","name_a2s":"Uncletopia | Atlanta | 1 | All Maps","protocol":17,"map":"cp_powerhouse","folder":"tf","game":"Team Fortress","app_id":440,"player_count":24,"max_players":24,"Bots":0,"server_type":"Dedicated","server_os":"Linux","password":true,"vac":true,"version":"7882260","steam_id":85568392924469982,"keywords":["cp","nocrits","nodmgspread","uncletopia"],"game_id":440,"stv_port":27016,"stv_name":"Uncletopia | Atlanta | 1 | All Maps | STV","players":[{"user_id":161,"name":"Ashes!","steam_id":76561197998475441,"connected_time":1222000000000,"state":"active","ping":76},{"user_id":162,"name":"chubbbo","steam_id":76561198943598378,"connected_time":1206000000000,"state":"active","ping":37},{"user_id":166,"name":"--_Cook_--","steam_id":76561198080855748,"connected_time":763000000000,"state":"active","ping":55},{"user_id":154,"name":"JOVA{no audio / HUD :) }","steam_id":76561198090333536,"connected_time":1797000000000,"state":"active","ping":70},{"user_id":156,"name":"metalfan666|bday in 4|","steam_id":76561198386344068,"connected_time":1749000000000,"state":"active","ping":73},{"user_id":142,"name":"JelloMotion","steam_id":76561198045892038,"connected_time":2078000000000,"state":"active","ping":59},{"user_id":137,"name":"BIG HOG","steam_id":76561198079923652,"connected_time":2313000000000,"state":"active","ping":60},{"user_id":113,"name":"lil hog","steam_id":76561199230929836,"connected_time":5260000000000,"state":"active","ping":74},{"user_id":170,"name":"sand","steam_id":76561198086193212,"connected_time":344000000000,"state":"active","ping":60},{"user_id":164,"name":"go play rimworld","steam_id":76561199397932924,"connected_time":1052000000000,"state":"active","ping":162},{"user_id":163,"name":"Trinima","steam_id":76561198359215935,"connected_time":1115000000000,"state":"active","ping":84},{"user_id":173,"name":"gretchling","steam_id":76561198046111695,"connected_time":124000000000,"state":"active","ping":62},{"user_id":119,"name":"Just PYE","steam_id":76561199439622967,"connected_time":4447000000000,"state":"active","ping":71},{"user_id":144,"name":"Obelisk","steam_id":76561198049416866,"connected_time":2055000000000,"state":"active","ping":46},{"user_id":145,"name":"JollyVG","steam_id":76561198044919633,"connected_time":2050000000000,"state":"active","ping":59},{"user_id":146,"name":"Your Local Queer Librarian","steam_id":76561198013077080,"connected_time":2017000000000,"state":"active","ping":73},{"user_id":158,"name":"perfectly legit","steam_id":76561198111838828,"connected_time":1696000000000,"state":"active","ping":54},{"user_id":172,"name":"reallyfriendly","steam_id":76561197996819313,"connected_time":161000000000,"state":"active","ping":56},{"user_id":117,"name":"keffers","steam_id":76561198202338796,"connected_time":4982000000000,"state":"active","ping":95},{"user_id":169,"name":"joe","steam_id":76561198045781320,"connected_time":355000000000,"state":"active","ping":65},{"user_id":160,"name":"A BIG YUMMY PIZZA","steam_id":76561198169315998,"connected_time":1544000000000,"state":"active","ping":60},{"user_id":153,"name":"stoopid a$$ tree DickHead","steam_id":76561198396572923,"connected_time":1823000000000,"state":"active","ping":92},{"user_id":157,"name":"Gr8M8","steam_id":76561198452729377,"connected_time":1748000000000,"state":"active","ping":83},{"user_id":165,"name":"Covfefur","steam_id":76561198055441285,"connected_time":794000000000,"state":"active","ping":62}]},{"server_id":104,"name":"Uncletopia | Atlanta | 2 | All Maps","name_short":"atl-2","host":"atl-1.us.uncletopia.com","port":27025,"enabled":true,"region":"us-east","cc":"us","latitude":33.753746,"longitude":-84.38633,"reserved":0,"last_update":"0001-01-01T00:00:00Z","name_a2s":"Uncletopia | Atlanta | 2 | All Maps","protocol":17,"map":"pl_badwater","folder":"tf","game":"Team Fortress","app_id":440,"player_count":24,"max_players":24,"Bots":0,"server_type":"Dedicated","server_os":"Linux","password":true,"vac":true,"version":"7882260","steam_id":85568392924469983,"keywords":["nocrits","nodmgspread","payload","uncletopia"],"game_id":440,"stv_port":27026,"stv_name":"Uncletopia | Atlanta | 2 | All Maps | STV","players":[{"user_id":22,"name":"maggot !","steam_id":76561199075532033,"connected_time":3006000000000,"state":"active","ping":164},{"user_id":53,"name":"Pheonix","steam_id":76561199470538309,"connected_time":1409000000000,"state":"active","ping":78},{"user_id":29,"name":"Purple Colored Clown","steam_id":76561198164010002,"connected_time":2363000000000,"state":"active","ping":48},{"user_id":39,"name":"Cosmic Torgue","steam_id":76561198828724945,"connected_time":1843000000000,"state":"active","ping":98},{"user_id":65,"name":"Loggybears","steam_id":76561198366828434,"connected_time":61000000000,"state":"active","ping":117},{"user_id":25,"name":"Skeletonman0","steam_id":76561198079291152,"connected_time":2674000000000,"state":"active","ping":85},{"user_id":58,"name":"DOMO_MR_ROBOTO","steam_id":76561198077108345,"connected_time":831000000000,"state":"active","ping":106},{"user_id":15,"name":"FullmetalQT","steam_id":76561198180433086,"connected_time":4244000000000,"state":"active","ping":90},{"user_id":63,"name":"Lost CS player","steam_id":76561198892387723,"connected_time":213000000000,"state":"active","ping":77},{"user_id":19,"name":"So Hygienic! Washed gamer","steam_id":76561198321627268,"connected_time":3754000000000,"state":"active","ping":102},{"user_id":45,"name":"u r an EIMB","steam_id":76561198046870291,"connected_time":1630000000000,"state":"active","ping":60},{"user_id":40,"name":"Cwiishe","steam_id":76561199482943969,"connected_time":1776000000000,"state":"active","ping":51},{"user_id":30,"name":"Gamer Posse","steam_id":76561198954890911,"connected_time":2333000000000,"state":"active","ping":75},{"user_id":64,"name":"Lee?","steam_id":76561199060892634,"connected_time":157000000000,"state":"active","ping":73},{"user_id":62,"name":"TI-83 Plus","steam_id":76561198316134443,"connected_time":556000000000,"state":"active","ping":59},{"user_id":35,"name":"Sergeant Joker #savetf2","steam_id":76561198854616604,"connected_time":2094000000000,"state":"active","ping":89},{"user_id":36,"name":"Gay Mushroom","steam_id":76561198151549658,"connected_time":2000000000000,"state":"active","ping":117},{"user_id":37,"name":"Gilgamesh","steam_id":76561198317113179,"connected_time":1993000000000,"state":"active","ping":88},{"user_id":42,"name":"M16A1Sauce","steam_id":76561199058049384,"connected_time":1673000000000,"state":"active","ping":101},{"user_id":46,"name":"Recursive Gamer","steam_id":76561198042102952,"connected_time":1622000000000,"state":"active","ping":88},{"user_id":47,"name":"Philosopher's Stone","steam_id":76561198077574657,"connected_time":1597000000000,"state":"active","ping":122},{"user_id":48,"name":"A Trigger Happy Chipmunk","steam_id":76561198013608736,"connected_time":1578000000000,"state":"active","ping":64},{"user_id":52,"name":"screwdriver subscription","steam_id":76561198057076267,"connected_time":1449000000000,"state":"active","ping":75},{"user_id":50,"name":"wizorb","steam_id":76561198002172674,"connected_time":1557000000000,"state":"active","ping":83}]},{"server_id":400,"name":"Uncletopia | Atlanta | 3 | Community","name_short":"atl-3","host":"atl-1.us.uncletopia.com","port":27035,"enabled":true,"region":"us-east","cc":"us","latitude":33.753746,"longitude":-84.38633,"reserved":0,"last_update":"0001-01-01T00:00:00Z","name_a2s":"Uncletopia | Atlanta | 3 | Community","protocol":17,"map":"workshop/cp_propaganda_b18.ugc1603743849","folder":"tf","game":"Team Fortress","app_id":440,"player_count":0,"max_players":24,"Bots":0,"server_type":"Dedicated","server_os":"Linux","password":true,"vac":true,"version":"7882260","steam_id":85568392924515187,"keywords":["cp","nocrits","nodmgspread","uncletopia"],"game_id":440,"stv_port":27036,"stv_name":"Uncletopia | Atlanta | 3 | Community | STV","players":null},{"server_id":401,"name":"Uncletopia | Atlanta | 4 | No Payload","name_short":"atl-4","host":"atl-1.us.uncletopia.com","port":27045,"enabled":true,"region":"us-east","cc":"us","latitude":33.753746,"longitude":-84.38633,"reserved":0,"last_update":"0001-01-01T00:00:00Z","name_a2s":"","protocol":0,"map":"","folder":"","game":"","app_id":0,"player_count":0,"max_players":0,"Bots":0,"server_type":"","server_os":"","password":false,"vac":false,"version":"","steam_id":0,"keywords":null,"game_id":0,"stv_port":0,"stv_name":"","players":null},{"server_id":2,"name":"Uncletopia | Chicago | 1 | All Maps","name_short":"chi-1","host":"chi-1.us.uncletopia.com","port":27015,"enabled":true,"region":"us-central","cc":"us","latitude":41.881832,"longitude":-87.62318,"reserved":0,"last_update":"0001-01-01T00:00:00Z","name_a2s":"Uncletopia | Chicago | 1 | All Maps","protocol":17,"map":"cp_dustbowl","folder":"tf","game":"Team Fortress","app_id":440,"player_count":24,"max_players":24,"Bots":0,"server_type":"Dedicated","server_os":"Linux","password":true,"vac":true,"version":"7882260","steam_id":85568392924469984,"keywords":["cp","nocrits","nodmgspread","uncletopia"],"game_id":440,"stv_port":27016,"stv_name":"Uncletopia | Chicago | 1 | All Maps | STV","players":[{"user_id":237,"name":"Random Dog Guy","steam_id":76561198033132263,"connected_time":3825000000000,"state":"active","ping":62},{"user_id":267,"name":"twizted","steam_id":76561197960407274,"connected_time":1031000000000,"state":"active","ping":69},{"user_id":265,"name":"Michaelpc1","steam_id":76561198088365519,"connected_time":1088000000000,"state":"active","ping":87},{"user_id":274,"name":"Keirb","steam_id":76561198027031567,"connected_time":435000000000,"state":"active","ping":98},{"user_id":250,"name":"SeaBass","steam_id":76561197982949108,"connected_time":2783000000000,"state":"active","ping":46},{"user_id":275,"name":"Zixzs","steam_id":76561198055504126,"connected_time":433000000000,"state":"active","ping":66},{"user_id":279,"name":"Gnarly Shark Bite","steam_id":76561198004058342,"connected_time":382000000000,"state":"active","ping":69},{"user_id":271,"name":"Genius Meme","steam_id":76561198162911254,"connected_time":574000000000,"state":"active","ping":102},{"user_id":276,"name":"DVD Copy of Men in Black II","steam_id":76561198080067715,"connected_time":402000000000,"state":"active","ping":50},{"user_id":258,"name":"goddess","steam_id":76561198079178866,"connected_time":1587000000000,"state":"active","ping":73},{"user_id":280,"name":"dahperson","steam_id":76561198067207467,"connected_time":242000000000,"state":"active","ping":54},{"user_id":263,"name":"Hell's Reindeer","steam_id":76561198065310364,"connected_time":1153000000000,"state":"active","ping":58},{"user_id":235,"name":"Lincs","steam_id":76561198049851872,"connected_time":4001000000000,"state":"active","ping":81},{"user_id":260,"name":"Octomal800","steam_id":76561199453595616,"connected_time":1377000000000,"state":"active","ping":74},{"user_id":281,"name":"Big Bean Burrito","steam_id":76561199121920624,"connected_time":157000000000,"state":"active","ping":44},{"user_id":248,"name":"Acro Banwagon","steam_id":76561198092451804,"connected_time":3179000000000,"state":"active","ping":68},{"user_id":282,"name":"Craig Isonychia","steam_id":76561198272013678,"connected_time":45000000000,"state":"spawning","ping":59},{"user_id":270,"name":"Hihi3000","steam_id":76561198873454667,"connected_time":873000000000,"state":"active","ping":101},{"user_id":269,"name":"YOUNG UPGRADE","steam_id":76561198035474725,"connected_time":922000000000,"state":"active","ping":76},{"user_id":179,"name":"hi","steam_id":76561198809577048,"connected_time":7833000000000,"state":"active","ping":103},{"user_id":268,"name":"mkl","steam_id":76561197986401685,"connected_time":988000000000,"state":"active","ping":77},{"user_id":278,"name":"你是同性恋","steam_id":76561199073296535,"connected_time":388000000000,"state":"active","ping":54},{"user_id":262,"name":"Hazhelm","steam_id":76561199082342708,"connected_time":1332000000000,"state":"active","ping":52}]},{"server_id":106,"name":"Uncletopia | Chicago | 2 | All Maps","name_short":"chi-2","host":"chi-1.us.uncletopia.com","port":27025,"enabled":true,"region":"us-central","cc":"us","latitude":41.881832,"longitude":-87.62318,"reserved":0,"last_update":"0001-01-01T00:00:00Z","name_a2s":"Uncletopia | Chicago | 2 | All Maps","protocol":17,"map":"koth_harvest_final","folder":"tf","game":"Team Fortress","app_id":440,"player_count":24,"max_players":24,"Bots":0,"server_type":"Dedicated","server_os":"Linux","password":true,"vac":true,"version":"7882260","steam_id":85568392924469985,"keywords":["cp","nocrits","nodmgspread","uncletopia"],"game_id":440,"stv_port":27026,"stv_name":"Uncletopia | Chicago | 2 | All Maps | STV","players":[{"user_id":204,"name":"wickit","steam_id":76561199241555613,"connected_time":7904000000000,"state":"active","ping":56},{"user_id":273,"name":"chipchip","steam_id":76561199483183459,"connected_time":3081000000000,"state":"active","ping":88},{"user_id":281,"name":"hin mos","steam_id":76561199081837220,"connected_time":2461000000000,"state":"active","ping":87},{"user_id":309,"name":"KBoneski ♡","steam_id":76561198307409065,"connected_time":511000000000,"state":"active","ping":81},{"user_id":291,"name":"quint","steam_id":76561198046797995,"connected_time":1497000000000,"state":"active","ping":74},{"user_id":197,"name":"Periculosum PhD in Funny","steam_id":76561198123370914,"connected_time":8362000000000,"state":"active","ping":71},{"user_id":300,"name":"Drew P. Sack","steam_id":76561198036201738,"connected_time":905000000000,"state":"active","ping":52},{"user_id":274,"name":"Ki","steam_id":76561199008362890,"connected_time":2899000000000,"state":"active","ping":69},{"user_id":315,"name":"Guwop","steam_id":76561197970425737,"connected_time":287000000000,"state":"active","ping":69},{"user_id":303,"name":"AdmiralSharpie","steam_id":76561198066394239,"connected_time":877000000000,"state":"active","ping":69},{"user_id":304,"name":"Scatter (She/Her)","steam_id":76561198405168492,"connected_time":874000000000,"state":"active","ping":83},{"user_id":292,"name":"Gamnic","steam_id":76561198264963731,"connected_time":1408000000000,"state":"active","ping":78},{"user_id":312,"name":"lost in spaaaaace","steam_id":76561199085974120,"connected_time":497000000000,"state":"active","ping":85},{"user_id":305,"name":"PaD_Ding","steam_id":76561198831202965,"connected_time":841000000000,"state":"active","ping":160},{"user_id":299,"name":"DR.D0DGE","steam_id":76561198834664616,"connected_time":949000000000,"state":"active","ping":52},{"user_id":307,"name":"WatchWill","steam_id":76561198157237945,"connected_time":804000000000,"state":"active","ping":70},{"user_id":316,"name":"Cooki","steam_id":76561198051705314,"connected_time":234000000000,"state":"active","ping":73},{"user_id":285,"name":"Acoostick","steam_id":76561197977038351,"connected_time":2283000000000,"state":"active","ping":60},{"user_id":310,"name":"bought this cart for 15 dollars","steam_id":76561198253731826,"connected_time":507000000000,"state":"active","ping":58},{"user_id":318,"name":"Also Known As Assteeth","steam_id":76561198049837377,"connected_time":83000000000,"state":"active","ping":47},{"user_id":314,"name":"Spazz","steam_id":76561198036167494,"connected_time":477000000000,"state":"active","ping":36},{"user_id":317,"name":"Teesitin","steam_id":76561198116147302,"connected_time":186000000000,"state":"active","ping":99},{"user_id":302,"name":"Brother Pudge","steam_id":76561198247815090,"connected_time":889000000000,"state":"active","ping":50},{"user_id":311,"name":"M9 Shyamalan","steam_id":76561198149425560,"connected_time":507000000000,"state":"active","ping":88}]},{"server_id":402,"name":"Uncletopia | Chicago | 3 | All Maps","name_short":"chi-3","host":"chi-1.us.uncletopia.com","port":27035,"enabled":true,"region":"us-central","cc":"us","latitude":41.881832,"longitude":-87.62318,"reserved":0,"last_update":"0001-01-01T00:00:00Z","name_a2s":"Uncletopia | Chicago | 3 | All Maps","protocol":17,"map":"koth_lakeside_final","folder":"tf","game":"Team Fortress","app_id":440,"player_count":18,"max_players":24,"Bots":0,"server_type":"Dedicated","server_os":"Linux","password":true,"vac":true,"version":"7882260","steam_id":85568392924515191,"keywords":["cp","nocrits","nodmgspread","uncletopia"],"game_id":440,"stv_port":27036,"stv_name":"Uncletopia | Chicago | 3 | All Maps | STV","players":[{"user_id":168,"name":"Ripheart","steam_id":76561198089661561,"connected_time":118000000000,"state":"active","ping":34},{"user_id":169,"name":"4th era standards","steam_id":76561198083345384,"connected_time":102000000000,"state":"active","ping":85},{"user_id":170,"name":"WhippedHook","steam_id":76561198069581138,"connected_time":89000000000,"state":"active","ping":66},{"user_id":164,"name":"page","steam_id":76561198990468269,"connected_time":955000000000,"state":"active","ping":82},{"user_id":171,"name":"hammond the blithering idiot","steam_id":76561199263384620,"connected_time":53000000000,"state":"active","ping":60},{"user_id":151,"name":"Smittywerbenjager-manjenson","steam_id":76561198067060742,"connected_time":2733000000000,"state":"active","ping":62},{"user_id":172,"name":"Poop_toast","steam_id":76561199251933053,"connected_time":50000000000,"state":"active","ping":84},{"user_id":156,"name":"inin de benninging","steam_id":76561199234026881,"connected_time":1839000000000,"state":"active","ping":59},{"user_id":165,"name":"sun","steam_id":76561198011329825,"connected_time":944000000000,"state":"active","ping":62},{"user_id":162,"name":"Jim Eagle","steam_id":76561197964961639,"connected_time":1244000000000,"state":"active","ping":84},{"user_id":163,"name":"Alpharious","steam_id":76561197970289529,"connected_time":981000000000,"state":"active","ping":68},{"user_id":139,"name":"A Puppy","steam_id":76561198828184456,"connected_time":3673000000000,"state":"active","ping":55},{"user_id":173,"name":"Andy the Hoff","steam_id":76561198043115724,"connected_time":26000000000,"state":"active","ping":85},{"user_id":40,"name":"B o o g","steam_id":76561199267535506,"connected_time":11622000000000,"state":"active","ping":64},{"user_id":174,"name":"Rats!","steam_id":76561198170598021,"connected_time":11000000000,"state":"active","ping":80},{"user_id":121,"name":"i ate a bee","steam_id":76561198138983695,"connected_time":5603000000000,"state":"active","ping":69},{"user_id":160,"name":"Liebesträume","steam_id":76561198038862034,"connected_time":1676000000000,"state":"active","ping":88},{"user_id":167,"name":"Atlas (Skylar)","steam_id":76561198041531774,"connected_time":163000000000,"state":"active","ping":51}]},{"server_id":403,"name":"Uncletopia | Chicago | 4 | All Maps","name_short":"chi-4","host":"chi-1.us.uncletopia.com","port":27045,"enabled":true,"region":"us-central","cc":"us","latitude":41.881832,"longitude":-87.62318,"reserved":0,"last_update":"0001-01-01T00:00:00Z","name_a2s":"Uncletopia | Chicago | 4 | All Maps","protocol":17,"map":"koth_cascade","folder":"tf","game":"Team Fortress","app_id":440,"player_count":0,"max_players":24,"Bots":0,"server_type":"Dedicated","server_os":"Linux","password":true,"vac":true,"version":"7882260","steam_id":85568392924515193,"keywords":["cp","nocrits","nodmgspread","uncletopia"],"game_id":440,"stv_port":27046,"stv_name":"Uncletopia | Chicago | 4 | All Maps | STV","players":null},{"server_id":36,"name":"Uncletopia | Chicago | 5 | All Maps","name_short":"chi-5","host":"chi-2.us.uncletopia.com","port":27015,"enabled":true,"region":"us-central","cc":"us","latitude":41.881832,"longitude":-87.62318,"reserved":0,"last_update":"0001-01-01T00:00:00Z","name_a2s":"Uncletopia | Chicago | 5 | All Maps","protocol":17,"map":"pl_borneo","folder":"tf","game":"Team Fortress","app_id":440,"player_count":0,"max_players":24,"Bots":0,"server_type":"Dedicated","server_os":"Linux","password":true,"vac":true,"version":"7882260","steam_id":85568392924866362,"keywords":["nocrits","nodmgspread","payload","uncletopia"],"game_id":440,"stv_port":27016,"stv_name":"Uncletopia | Chicago | 5 | All Maps | STV","players":null},{"server_id":37,"name":"Uncletopia | Chicago | 6 | All Maps","name_short":"chi-6","host":"chi-2.us.uncletopia.com","port":27025,"enabled":true,"region":"us-central","cc":"us","latitude":41.881832,"longitude":-87.62318,"reserved":0,"last_update":"0001-01-01T00:00:00Z","name_a2s":"Uncletopia | Chicago | 6 | All Maps","protocol":17,"map":"koth_cascade","folder":"tf","game":"Team Fortress","app_id":440,"player_count":0,"max_players":24,"Bots":0,"server_type":"Dedicated","server_os":"Linux","password":true,"vac":true,"version":"7882260","steam_id":85568392924866363,"keywords":["cp","nocrits","nodmgspread","uncletopia"],"game_id":440,"stv_port":27026,"stv_name":"Uncletopia | Chicago | 6 | All Maps | STV","players":null},{"server_id":38,"name":"Uncletopia | Chicago | 7 | Stopwatch Beta","name_short":"chi-7","host":"chi-2.us.uncletopia.com","port":27035,"enabled":true,"region":"us-central","cc":"us","latitude":41.881832,"longitude":-87.62318,"reserved":0,"last_update":"0001-01-01T00:00:00Z","name_a2s":"Uncletopia | Chicago | 7 | Stopwatch Beta","protocol":17,"map":"pl_borneo","folder":"tf","game":"Team Fortress","app_id":440,"player_count":0,"max_players":24,"Bots":0,"server_type":"Dedicated","server_os":"Linux","password":true,"vac":true,"version":"7882260","steam_id":85568392924866364,"keywords":["nocrits","nodmgspread","payload","uncletopia"],"game_id":440,"stv_port":27036,"stv_name":"Uncletopia | Chicago | 7 | Stopwatch Beta | STV","players":null},{"server_id":39,"name":"Uncletopia | Chicago | 8 | Community","name_short":"chi-8","host":"chi-2.us.uncletopia.com","port":27045,"enabled":true,"region":"us-central","cc":"us","latitude":41.881832,"longitude":-87.62318,"reserved":0,"last_update":"0001-01-01T00:00:00Z","name_a2s":"Uncletopia | Chicago | 8 | Community","protocol":17,"map":"workshop/cp_glassworks_rc6a.ugc454118349","folder":"tf","game":"Team Fortress","app_id":440,"player_count":1,"max_players":24,"Bots":0,"server_type":"Dedicated","server_os":"Linux","password":true,"vac":true,"version":"7882260","steam_id":85568392924866365,"keywords":["cp","nocrits","nodmgspread","uncletopia"],"game_id":440,"stv_port":27046,"stv_name":"Uncletopia | Chicago | 8 | Community | STV","players":[{"user_id":6,"name":"misterspud","steam_id":76561198195306218,"connected_time":1998000000000,"state":"active","ping":38}]},{"server_id":8,"name":"Uncletopia | Dallas | 1 | All Maps","name_short":"dal-1","host":"dal-1.us.uncletopia.com","port":27015,"enabled":true,"region":"us-central","cc":"us","latitude":32.779167,"longitude":-96.80889,"reserved":0,"last_update":"0001-01-01T00:00:00Z","name_a2s":"Uncletopia | Dallas | 1 | All Maps","protocol":17,"map":"pl_upward","folder":"tf","game":"Team Fortress","app_id":440,"player_count":24,"max_players":24,"Bots":0,"server_type":"Dedicated","server_os":"Linux","password":true,"vac":true,"version":"7882260","steam_id":85568392924469986,"keywords":["nocrits","nodmgspread","payload","uncletopia"],"game_id":440,"stv_port":27016,"stv_name":"Uncletopia | Dallas | 1 | All Maps | STV","players":[{"user_id":216,"name":"look a meme","steam_id":76561198841304902,"connected_time":493000000000,"state":"active","ping":85},{"user_id":208,"name":"AwesomeAEA","steam_id":76561198303978260,"connected_time":801000000000,"state":"active","ping":98},{"user_id":210,"name":"orlando","steam_id":76561198128347876,"connected_time":754000000000,"state":"active","ping":102},{"user_id":186,"name":"VividDragon","steam_id":76561198050659285,"connected_time":2586000000000,"state":"active","ping":66},{"user_id":196,"name":"Pennis the Menace","steam_id":76561198254878037,"connected_time":1767000000000,"state":"active","ping":97},{"user_id":164,"name":"PEPSI POWERED MAN","steam_id":76561198362668431,"connected_time":4308000000000,"state":"active","ping":96},{"user_id":215,"name":"Reverie","steam_id":76561198987005784,"connected_time":517000000000,"state":"active","ping":84},{"user_id":177,"name":"Minlit","steam_id":76561198205832799,"connected_time":3003000000000,"state":"active","ping":55},{"user_id":217,"name":"yitz","steam_id":76561198375575841,"connected_time":478000000000,"state":"active","ping":76},{"user_id":171,"name":"Proximity Defective","steam_id":76561198113320567,"connected_time":3618000000000,"state":"active","ping":89},{"user_id":218,"name":"Thingy","steam_id":76561198140161202,"connected_time":466000000000,"state":"active","ping":76},{"user_id":219,"name":"wakeupbdot","steam_id":76561198160786631,"connected_time":463000000000,"state":"active","ping":64},{"user_id":198,"name":"Lil_Ginngy","steam_id":76561198390624676,"connected_time":1744000000000,"state":"active","ping":116},{"user_id":207,"name":"❥TheMainAce","steam_id":76561198363848979,"connected_time":904000000000,"state":"active","ping":47},{"user_id":220,"name":"creeeeeee","steam_id":76561198392539722,"connected_time":454000000000,"state":"active","ping":84},{"user_id":222,"name":"jamwam","steam_id":76561198135410959,"connected_time":236000000000,"state":"active","ping":88},{"user_id":211,"name":"Hyden da kobobl","steam_id":76561198837931725,"connected_time":746000000000,"state":"active","ping":107},{"user_id":212,"name":"Spacey blue pikmin","steam_id":76561198084289129,"connected_time":697000000000,"state":"active","ping":81},{"user_id":190,"name":"RoastedGoldfish","steam_id":76561198065110989,"connected_time":2400000000000,"state":"active","ping":61},{"user_id":221,"name":"BattleWriter","steam_id":76561198059618706,"connected_time":292000000000,"state":"active","ping":59},{"user_id":201,"name":"Moonman327","steam_id":76561197992616059,"connected_time":1088000000000,"state":"active","ping":75},{"user_id":202,"name":"OverPowered64","steam_id":76561198291027287,"connected_time":1088000000000,"state":"active","ping":57},{"user_id":214,"name":"dedededinside73","steam_id":76561198442156880,"connected_time":667000000000,"state":"active","ping":101}]},{"server_id":108,"name":"Uncletopia | Dallas | 2 | All Maps","name_short":"dal-2","host":"dal-1.us.uncletopia.com","port":27025,"enabled":true,"region":"us-central","cc":"us","latitude":32.779167,"longitude":-96.80889,"reserved":0,"last_update":"0001-01-01T00:00:00Z","name_a2s":"Uncletopia | Dallas | 2 | All Maps","protocol":17,"map":"pl_barnblitz","folder":"tf","game":"Team Fortress","app_id":440,"player_count":24,"max_players":24,"Bots":0,"server_type":"Dedicated","server_os":"Linux","password":true,"vac":true,"version":"7882260","steam_id":85568392924469988,"keywords":["nocrits","nodmgspread","payload","uncletopia"],"game_id":440,"stv_port":27026,"stv_name":"Uncletopia | Dallas | 2 | All Maps | STV","players":[{"user_id":216,"name":"Iceman10a","steam_id":76561198171922098,"connected_time":2930000000000,"state":"active","ping":121},{"user_id":226,"name":"trks","steam_id":76561198233984300,"connected_time":2242000000000,"state":"active","ping":74},{"user_id":213,"name":"Takyon","steam_id":76561198172075186,"connected_time":3385000000000,"state":"active","ping":181},{"user_id":227,"name":"trainmarine -bt","steam_id":76561198341784551,"connected_time":2212000000000,"state":"active","ping":46},{"user_id":240,"name":"Trash","steam_id":76561198358471281,"connected_time":1002000000000,"state":"active","ping":78},{"user_id":190,"name":"chief s.","steam_id":76561198011460632,"connected_time":5323000000000,"state":"active","ping":77},{"user_id":247,"name":"Electric 5$ GiftCard","steam_id":76561199252528662,"connected_time":260000000000,"state":"active","ping":123},{"user_id":245,"name":"Boomer Gaming","steam_id":76561198037803087,"connected_time":550000000000,"state":"active","ping":60},{"user_id":209,"name":"Flesh Eating Turtle","steam_id":76561198116742139,"connected_time":3771000000000,"state":"active","ping":114},{"user_id":123,"name":"DiscoTraveler","steam_id":76561199240168088,"connected_time":12757000000000,"state":"active","ping":81},{"user_id":234,"name":"CaptainPhobs","steam_id":76561198176697958,"connected_time":1511000000000,"state":"active","ping":100},{"user_id":222,"name":"booty jiggae","steam_id":76561198089026129,"connected_time":2492000000000,"state":"active","ping":79},{"user_id":242,"name":"Cowboy","steam_id":76561199164671512,"connected_time":930000000000,"state":"active","ping":74},{"user_id":236,"name":"DonutFilledJelly","steam_id":76561198135268403,"connected_time":1360000000000,"state":"active","ping":82},{"user_id":229,"name":"Ash_Follow3","steam_id":76561199150479264,"connected_time":2106000000000,"state":"active","ping":86},{"user_id":203,"name":"WAAGGHH Enjoyer","steam_id":76561198974205333,"connected_time":3947000000000,"state":"active","ping":171},{"user_id":246,"name":"Jo So Ma","steam_id":76561198132334476,"connected_time":373000000000,"state":"active","ping":113},{"user_id":201,"name":"Morpho76","steam_id":76561199013371837,"connected_time":4143000000000,"state":"active","ping":189},{"user_id":208,"name":"Tyler\u0026Fingers","steam_id":76561198085154485,"connected_time":3842000000000,"state":"active","ping":92},{"user_id":233,"name":"Plague Doctor Moose","steam_id":76561199027129554,"connected_time":1683000000000,"state":"active","ping":88},{"user_id":244,"name":"cakewalk","steam_id":76561198084080386,"connected_time":810000000000,"state":"active","ping":93},{"user_id":210,"name":"MontellWilliams","steam_id":76561198172143015,"connected_time":3768000000000,"state":"active","ping":85},{"user_id":196,"name":"Yunky","steam_id":76561197966495749,"connected_time":5021000000000,"state":"active","ping":64},{"user_id":181,"name":"Gaiduk","steam_id":76561198112323877,"connected_time":6517000000000,"state":"active","ping":103}]},{"server_id":5,"name":"Uncletopia | Frankfurt | 1 | All Maps","name_short":"frk-1","host":"frk-1.de.uncletopia.com","port":27015,"enabled":true,"region":"eu","cc":"de","latitude":50.110924,"longitude":8.682127,"reserved":0,"last_update":"0001-01-01T00:00:00Z","name_a2s":"Uncletopia | Frankfurt | 1 | All Maps","protocol":17,"map":"pl_badwater","folder":"tf","game":"Team Fortress","app_id":440,"player_count":24,"max_players":24,"Bots":0,"server_type":"Dedicated","server_os":"Linux","password":true,"vac":true,"version":"7882260","steam_id":85568392924469989,"keywords":["nocrits","nodmgspread","payload","uncletopia"],"game_id":440,"stv_port":27016,"stv_name":"Uncletopia | Frankfurt | 1 | All Maps | STV","players":[{"user_id":81,"name":"ÃNVS DRÃNVS","steam_id":76561198138733015,"connected_time":1861000000000,"state":"active","ping":115},{"user_id":93,"name":"Adolf gayming","steam_id":76561198830058797,"connected_time":785000000000,"state":"active","ping":75},{"user_id":75,"name":"Controller Gaming","steam_id":76561198134805479,"connected_time":2325000000000,"state":"active","ping":55},{"user_id":67,"name":"Vectillion","steam_id":76561198074292454,"connected_time":3016000000000,"state":"active","ping":71},{"user_id":80,"name":"Znoz","steam_id":76561198012093928,"connected_time":1885000000000,"state":"active","ping":91},{"user_id":105,"name":"Very Original Name","steam_id":76561199159833013,"connected_time":262000000000,"state":"active","ping":105},{"user_id":113,"name":"firemn an","steam_id":76561198820463450,"connected_time":168000000000,"state":"active","ping":82},{"user_id":115,"name":"Lil StinGa","steam_id":76561198069444222,"connected_time":72000000000,"state":"active","ping":64},{"user_id":88,"name":"[P-roc] Cmm Bert","steam_id":76561198016658674,"connected_time":862000000000,"state":"active","ping":72},{"user_id":66,"name":"twitch.tv/red_naxela","steam_id":76561197998803950,"connected_time":3049000000000,"state":"active","ping":59},{"user_id":91,"name":"no idea","steam_id":76561198242482338,"connected_time":848000000000,"state":"active","ping":61},{"user_id":110,"name":"Someone","steam_id":76561199030195879,"connected_time":194000000000,"state":"active","ping":58},{"user_id":97,"name":"MR.CRAB","steam_id":76561198329833659,"connected_time":691000000000,"state":"active","ping":87},{"user_id":104,"name":"James- Manc owner","steam_id":76561198138558005,"connected_time":295000000000,"state":"active","ping":67},{"user_id":86,"name":"MoistMomMauler","steam_id":76561198069359049,"connected_time":1329000000000,"state":"active","ping":83},{"user_id":95,"name":"Setade","steam_id":76561198161957305,"connected_time":747000000000,"state":"active","ping":57},{"user_id":100,"name":"eva.","steam_id":76561198054474684,"connected_time":564000000000,"state":"active","ping":74},{"user_id":48,"name":"Chromega","steam_id":76561199075307750,"connected_time":4671000000000,"state":"active","ping":56},{"user_id":106,"name":"Rex Z'Beq","steam_id":76561199300590000,"connected_time":240000000000,"state":"active","ping":83},{"user_id":107,"name":"lulu","steam_id":76561199147764133,"connected_time":237000000000,"state":"active","ping":77},{"user_id":74,"name":"Dvalarr","steam_id":76561198171861038,"connected_time":2328000000000,"state":"active","ping":44},{"user_id":103,"name":"Queen Dashie","steam_id":76561198097584870,"connected_time":351000000000,"state":"active","ping":98},{"user_id":111,"name":"Kaek","steam_id":76561197960283484,"connected_time":194000000000,"state":"active","ping":74},{"user_id":112,"name":"G/3","steam_id":76561198234844188,"connected_time":193000000000,"state":"active","ping":61}]},{"server_id":110,"name":"Uncletopia | Frankfurt | 2 | All Maps","name_short":"frk-2","host":"frk-1.de.uncletopia.com","port":27025,"enabled":true,"region":"eu","cc":"de","latitude":50.110924,"longitude":8.682127,"reserved":0,"last_update":"0001-01-01T00:00:00Z","name_a2s":"Uncletopia | Frankfurt | 2 | All Maps","protocol":17,"map":"cp_dustbowl","folder":"tf","game":"Team Fortress","app_id":440,"player_count":24,"max_players":24,"Bots":0,"server_type":"Dedicated","server_os":"Linux","password":true,"vac":true,"version":"7882260","steam_id":85568392924469990,"keywords":["cp","nocrits","nodmgspread","uncletopia"],"game_id":440,"stv_port":27026,"stv_name":"Uncletopia | Frankfurt | 2 | All Maps | STV","players":[{"user_id":169,"name":"Luppi van Puppi","steam_id":76561198055986745,"connected_time":2181000000000,"state":"active","ping":57},{"user_id":156,"name":"Oceanic | tuesday maybe","steam_id":76561197979741827,"connected_time":2780000000000,"state":"active","ping":75},{"user_id":177,"name":"Adam","steam_id":76561198062388802,"connected_time":1415000000000,"state":"active","ping":46},{"user_id":172,"name":"Adrenaline","steam_id":76561197970852048,"connected_time":1915000000000,"state":"active","ping":60},{"user_id":143,"name":"DarkTheWolf","steam_id":76561198864462136,"connected_time":3578000000000,"state":"active","ping":90},{"user_id":179,"name":"Burpasaur","steam_id":76561198142324594,"connected_time":1171000000000,"state":"active","ping":74},{"user_id":188,"name":"Zero (Orbital Gear Mastermind)","steam_id":76561198017416816,"connected_time":612000000000,"state":"active","ping":60},{"user_id":185,"name":"Nobaddy","steam_id":76561198037871007,"connected_time":681000000000,"state":"active","ping":73},{"user_id":190,"name":"WolfmanCZ","steam_id":76561199157141414,"connected_time":457000000000,"state":"active","ping":64},{"user_id":187,"name":"pavlik rohlik","steam_id":76561198110544279,"connected_time":677000000000,"state":"active","ping":45},{"user_id":178,"name":"Perämiehenä","steam_id":76561197968945306,"connected_time":1224000000000,"state":"active","ping":75},{"user_id":129,"name":"Poleeyan","steam_id":76561198885522435,"connected_time":3939000000000,"state":"active","ping":68},{"user_id":163,"name":"christoph","steam_id":76561198862617811,"connected_time":2440000000000,"state":"active","ping":64},{"user_id":144,"name":"the gamer","steam_id":76561198445810164,"connected_time":3545000000000,"state":"active","ping":69},{"user_id":120,"name":"Sketchman64","steam_id":76561198043818277,"connected_time":4480000000000,"state":"active","ping":171},{"user_id":145,"name":"Sex Man TF2","steam_id":76561198798657045,"connected_time":3534000000000,"state":"active","ping":75},{"user_id":180,"name":"Lua","steam_id":76561198107052571,"connected_time":1146000000000,"state":"active","ping":59},{"user_id":167,"name":"Elkabat","steam_id":76561198150017277,"connected_time":2391000000000,"state":"active","ping":57},{"user_id":191,"name":"LilAlo","steam_id":76561198983803033,"connected_time":219000000000,"state":"active","ping":58},{"user_id":103,"name":"band-aid copyright infringement","steam_id":76561199027095451,"connected_time":5734000000000,"state":"active","ping":77},{"user_id":141,"name":"Mustekala1","steam_id":76561198044468928,"connected_time":3639000000000,"state":"active","ping":53},{"user_id":173,"name":"Favi","steam_id":76561198013236935,"connected_time":1839000000000,"state":"active","ping":65},{"user_id":171,"name":"Angry Andrew","steam_id":76561197989996830,"connected_time":2146000000000,"state":"active","ping":127},{"user_id":184,"name":"Superwolf111","steam_id":76561198179890299,"connected_time":1011000000000,"state":"active","ping":60}]},{"server_id":308,"name":"Uncletopia | Frankfurt | 3 | All Maps","name_short":"frk-3","host":"frk-1.de.uncletopia.com","port":27035,"enabled":true,"region":"eu","cc":"de","latitude":50.110924,"longitude":8.682127,"reserved":0,"last_update":"0001-01-01T00:00:00Z","name_a2s":"Uncletopia | Frankfurt | 3 | All Maps","protocol":17,"map":"koth_suijin","folder":"tf","game":"Team Fortress","app_id":440,"player_count":5,"max_players":24,"Bots":0,"server_type":"Dedicated","server_os":"Linux","password":true,"vac":true,"version":"7882260","steam_id":85568392924504274,"keywords":["cp","nocrits","nodmgspread","uncletopia"],"game_id":440,"stv_port":27036,"stv_name":"Uncletopia | Frankfurt | 3 | All Maps | STV","players":[{"user_id":12,"name":"Korsi","steam_id":76561198216495143,"connected_time":832000000000,"state":"active","ping":78},{"user_id":13,"name":"Floander","steam_id":76561198862655416,"connected_time":808000000000,"state":"active","ping":68},{"user_id":14,"name":"Frank","steam_id":76561198086672774,"connected_time":777000000000,"state":"active","ping":62},{"user_id":15,"name":"толя","steam_id":76561199098518615,"connected_time":365000000000,"state":"active","ping":61},{"user_id":16,"name":"FoguDashy","steam_id":76561199155682408,"connected_time":4000000000,"state":"spawning","ping":61}]},{"server_id":309,"name":"Uncletopia | Frankfurt | 4 | All Maps","name_short":"frk-4","host":"frk-1.de.uncletopia.com","port":27045,"enabled":true,"region":"eu","cc":"de","latitude":50.110924,"longitude":8.682127,"reserved":0,"last_update":"0001-01-01T00:00:00Z","name_a2s":"Uncletopia | Frankfurt | 4 | All Maps","protocol":17,"map":"pl_badwater","folder":"tf","game":"Team Fortress","app_id":440,"player_count":25,"max_players":24,"Bots":0,"server_type":"Dedicated","server_os":"Linux","password":true,"vac":true,"version":"7882260","steam_id":85568392924504275,"keywords":["nocrits","nodmgspread","payload","uncletopia"],"game_id":440,"stv_port":27046,"stv_name":"Uncletopia | Frankfurt | 4 | All Maps | STV","players":[{"user_id":447,"name":"cazador","steam_id":76561198123096922,"connected_time":46000000000,"state":"active","ping":106},{"user_id":437,"name":"Menty","steam_id":76561198036748212,"connected_time":1370000000000,"state":"active","ping":30},{"user_id":420,"name":"BeauSiFut","steam_id":76561198209566851,"connected_time":2506000000000,"state":"active","ping":59},{"user_id":441,"name":"cat","steam_id":76561198832231975,"connected_time":1065000000000,"state":"active","ping":85},{"user_id":254,"name":"The Mysterious Shadow Man","steam_id":76561198349648942,"connected_time":12991000000000,"state":"active","ping":88},{"user_id":422,"name":"Makaron","steam_id":76561199087204537,"connected_time":2390000000000,"state":"active","ping":76},{"user_id":359,"name":"thussu","steam_id":76561198890409949,"connected_time":5614000000000,"state":"active","ping":88},{"user_id":444,"name":"Spoofr","steam_id":76561199267825043,"connected_time":301000000000,"state":"active","ping":64},{"user_id":448,"name":"AfroCookie","steam_id":76561198138362851,"connected_time":3000000000,"state":"spawning","ping":60},{"user_id":433,"name":"Sandvich","steam_id":76561199079493666,"connected_time":1820000000000,"state":"active","ping":92},{"user_id":366,"name":"HelwiiHill","steam_id":76561198066730552,"connected_time":4657000000000,"state":"active","ping":85},{"user_id":428,"name":"Vitamin Weee","steam_id":76561199183937747,"connected_time":1884000000000,"state":"active","ping":75},{"user_id":445,"name":"Faris174","steam_id":76561198090538315,"connected_time":234000000000,"state":"active","ping":139},{"user_id":426,"name":"Cactus","steam_id":76561198048639239,"connected_time":2020000000000,"state":"active","ping":63},{"user_id":423,"name":"Moe Jama","steam_id":76561198021676997,"connected_time":2285000000000,"state":"active","ping":72},{"user_id":430,"name":"padillacampos","steam_id":76561198161923970,"connected_time":1865000000000,"state":"active","ping":75},{"user_id":442,"name":"pain","steam_id":76561198235814492,"connected_time":887000000000,"state":"active","ping":78},{"user_id":409,"name":"Aleknat","steam_id":76561198055379857,"connected_time":3100000000000,"state":"active","ping":64},{"user_id":414,"name":"MM Murda OFFICIAL","steam_id":76561198076871529,"connected_time":2693000000000,"state":"active","ping":54},{"user_id":438,"name":"Carter","steam_id":76561198005243938,"connected_time":1321000000000,"state":"active","ping":62},{"user_id":443,"name":"Malai","steam_id":76561198062537014,"connected_time":450000000000,"state":"active","ping":54},{"user_id":446,"name":"cursedbygod♡","steam_id":76561198318291047,"connected_time":203000000000,"state":"active","ping":117},{"user_id":431,"name":"I Don't Know","steam_id":76561198841011430,"connected_time":1861000000000,"state":"active","ping":66},{"user_id":417,"name":"Rerken","steam_id":76561199201353504,"connected_time":2586000000000,"state":"active","ping":98},{"user_id":449,"name":"TKN_Paps997","steam_id":76561198419868465,"connected_time":2000000000,"state":"spawning","ping":71}]},{"server_id":310,"name":"Uncletopia | Frankfurt | 5 | All Maps","name_short":"frk-5","host":"frk-1.de.uncletopia.com","port":27055,"enabled":true,"region":"eu","cc":"de","latitude":50.110924,"longitude":8.682127,"reserved":0,"last_update":"0001-01-01T00:00:00Z","name_a2s":"Uncletopia | Frankfurt | 5 | All Maps","protocol":17,"map":"koth_cascade","folder":"tf","game":"Team Fortress","app_id":440,"player_count":0,"max_players":24,"Bots":0,"server_type":"Dedicated","server_os":"Linux","password":true,"vac":true,"version":"7882260","steam_id":85568392924504277,"keywords":["cp","nocrits","nodmgspread","uncletopia"],"game_id":440,"stv_port":27056,"stv_name":"Uncletopia | Frankfurt | 5 | All Maps | STV","players":null},{"server_id":311,"name":"Uncletopia | Frankfurt | 6 | All Maps","name_short":"frk-6","host":"frk-1.de.uncletopia.com","port":27065,"enabled":true,"region":"eu","cc":"de","latitude":50.110924,"longitude":8.682127,"reserved":0,"last_update":"0001-01-01T00:00:00Z","name_a2s":"Uncletopia | Frankfurt | 6 | All Maps","protocol":17,"map":"pl_pier","folder":"tf","game":"Team Fortress","app_id":440,"player_count":24,"max_players":24,"Bots":0,"server_type":"Dedicated","server_os":"Linux","password":true,"vac":true,"version":"7882260","steam_id":85568392924504278,"keywords":["nocrits","nodmgspread","payload","uncletopia"],"game_id":440,"stv_port":27066,"stv_name":"Uncletopia | Frankfurt | 6 | All Maps | STV","players":[{"user_id":463,"name":"LivEssense","steam_id":76561198052476979,"connected_time":1618000000000,"state":"active","ping":75},{"user_id":388,"name":"bibib17","steam_id":76561198143319217,"connected_time":6259000000000,"state":"active","ping":78},{"user_id":470,"name":"Edmost","steam_id":76561198090748165,"connected_time":700000000000,"state":"active","ping":62},{"user_id":472,"name":"The tiniest boy","steam_id":76561198044165189,"connected_time":654000000000,"state":"active","ping":60},{"user_id":448,"name":"Neco-arc Astolfo","steam_id":76561198989682540,"connected_time":2698000000000,"state":"active","ping":45},{"user_id":469,"name":"Na'vi Misato (by popular demand","steam_id":76561198130860698,"connected_time":762000000000,"state":"active","ping":65},{"user_id":478,"name":"CheapMeds","steam_id":76561197990309210,"connected_time":564000000000,"state":"active","ping":93},{"user_id":467,"name":"Mr. Mundy","steam_id":76561198132008918,"connected_time":1105000000000,"state":"active","ping":77},{"user_id":482,"name":"Dictatorial Karelian","steam_id":76561198196736457,"connected_time":338000000000,"state":"active","ping":74},{"user_id":457,"name":"Rat King","steam_id":76561198256783599,"connected_time":1982000000000,"state":"active","ping":60},{"user_id":465,"name":"RIFT","steam_id":76561198991622379,"connected_time":1588000000000,"state":"active","ping":55},{"user_id":455,"name":"AverageName","steam_id":76561199114333959,"connected_time":2170000000000,"state":"active","ping":52},{"user_id":441,"name":"FoOzTV","steam_id":76561197998636728,"connected_time":2964000000000,"state":"active","ping":71},{"user_id":466,"name":"Kermit the frog","steam_id":76561198073354238,"connected_time":1140000000000,"state":"active","ping":69},{"user_id":460,"name":"JaneDoe","steam_id":76561198067081506,"connected_time":1753000000000,"state":"active","ping":86},{"user_id":379,"name":"neJ","steam_id":76561198003397488,"connected_time":7071000000000,"state":"active","ping":76},{"user_id":474,"name":"PEEPEEPOOPOOGOOBER JR","steam_id":76561198049687408,"connected_time":596000000000,"state":"active","ping":51},{"user_id":475,"name":"Ramzus","steam_id":76561198012385070,"connected_time":584000000000,"state":"active","ping":91},{"user_id":446,"name":"Combat Wombat","steam_id":76561197994720068,"connected_time":2820000000000,"state":"active","ping":73},{"user_id":476,"name":"Lyell","steam_id":76561198350329389,"connected_time":582000000000,"state":"active","ping":85},{"user_id":452,"name":"Prole","steam_id":76561198049837199,"connected_time":2295000000000,"state":"active","ping":137},{"user_id":464,"name":"YuraGreek","steam_id":76561198050182252,"connected_time":1610000000000,"state":"active","ping":78},{"user_id":483,"name":"Rarky","steam_id":76561198054398642,"connected_time":324000000000,"state":"active","ping":51},{"user_id":456,"name":"TrippleMoral","steam_id":76561199202556292,"connected_time":2068000000000,"state":"active","ping":65}]},{"server_id":23,"name":"Uncletopia | Frankfurt | 7 | Stopwatch Beta","name_short":"frk-7","host":"frk-1.de.uncletopia.com","port":27075,"enabled":true,"region":"eu","cc":"de","latitude":50.110924,"longitude":8.682127,"reserved":0,"last_update":"0001-01-01T00:00:00Z","name_a2s":"Uncletopia | Frankfurt | 7 | Stopwatch Beta","protocol":17,"map":"workshop/pl_badwater_pro_v12.ugc2142942074","folder":"tf","game":"Team Fortress","app_id":440,"player_count":0,"max_players":24,"Bots":0,"server_type":"Dedicated","server_os":"Linux","password":true,"vac":true,"version":"7882260","steam_id":85568392924742827,"keywords":["nocrits","nodmgspread","payload","uncletopia"],"game_id":440,"stv_port":27076,"stv_name":"Uncletopia | Frankfurt | 7 | Stopwatch Beta | STV","players":null},{"server_id":24,"name":"Uncletopia | Frankfurt | 8 | Community","name_short":"frk-8","host":"frk-1.de.uncletopia.com","port":27085,"enabled":true,"region":"eu","cc":"de","latitude":50.110924,"longitude":8.682127,"reserved":0,"last_update":"0001-01-01T00:00:00Z","name_a2s":"Uncletopia | Frankfurt | 8 | Community","protocol":17,"map":"workshop/cp_propaganda_b18.ugc1603743849","folder":"tf","game":"Team Fortress","app_id":440,"player_count":25,"max_players":24,"Bots":0,"server_type":"Dedicated","server_os":"Linux","password":true,"vac":true,"version":"7882260","steam_id":85568392924742828,"keywords":["cp","nocrits","nodmgspread","uncletopia"],"game_id":440,"stv_port":27086,"stv_name":"Uncletopia | Frankfurt | 8 | Community | STV","players":[{"user_id":253,"name":"wouris","steam_id":76561198876188003,"connected_time":2067000000000,"state":"active","ping":60},{"user_id":254,"name":"Clark","steam_id":76561198120498831,"connected_time":2022000000000,"state":"active","ping":68},{"user_id":276,"name":"∩-__-∩","steam_id":76561198176830351,"connected_time":379000000000,"state":"active","ping":81},{"user_id":241,"name":"X-tis","steam_id":76561198043837480,"connected_time":2355000000000,"state":"active","ping":72},{"user_id":268,"name":"spooky buisness","steam_id":76561199065599888,"connected_time":1591000000000,"state":"active","ping":71},{"user_id":142,"name":"elsuedi","steam_id":76561198074722832,"connected_time":9054000000000,"state":"active","ping":48},{"user_id":239,"name":"Dr. Uberschwein","steam_id":76561198111367431,"connected_time":2407000000000,"state":"active","ping":72},{"user_id":263,"name":"benifis163","steam_id":76561198420973492,"connected_time":1776000000000,"state":"active","ping":100},{"user_id":238,"name":"F","steam_id":76561199149462792,"connected_time":2744000000000,"state":"active","ping":68},{"user_id":243,"name":"Eldritch abomination","steam_id":76561198244108784,"connected_time":2281000000000,"state":"active","ping":71},{"user_id":279,"name":"ZerCroix","steam_id":76561198199523226,"connected_time":78000000000,"state":"active","ping":50},{"user_id":199,"name":"Fat Pigeon","steam_id":76561198817940142,"connected_time":5448000000000,"state":"active","ping":56},{"user_id":255,"name":"Falling Apples","steam_id":76561198122762346,"connected_time":2012000000000,"state":"active","ping":70},{"user_id":233,"name":"Tegnerud","steam_id":76561198214185612,"connected_time":3619000000000,"state":"active","ping":74},{"user_id":283,"name":"minespweper","steam_id":76561199096919345,"connected_time":6000000000,"state":"spawning","ping":193},{"user_id":264,"name":"Uber","steam_id":76561198036528206,"connected_time":1715000000000,"state":"active","ping":69},{"user_id":269,"name":"Ted Kaczynski","steam_id":76561198064795519,"connected_time":1478000000000,"state":"active","ping":80},{"user_id":277,"name":"static","steam_id":76561198836825741,"connected_time":213000000000,"state":"active","ping":53},{"user_id":278,"name":"ErJu","steam_id":76561198106273165,"connected_time":92000000000,"state":"active","ping":69},{"user_id":273,"name":"Jonathan","steam_id":76561198087988880,"connected_time":1237000000000,"state":"active","ping":46},{"user_id":257,"name":"Egor Pomidor","steam_id":76561199175688390,"connected_time":1936000000000,"state":"active","ping":76},{"user_id":281,"name":"average brass beast enjoyer","steam_id":76561198354363124,"connected_time":65000000000,"state":"active","ping":73},{"user_id":250,"name":"R","steam_id":76561199379233899,"connected_time":2219000000000,"state":"active","ping":89},{"user_id":262,"name":"Charmedelf","steam_id":76561197993611881,"connected_time":1840000000000,"state":"active","ping":61},{"user_id":282,"name":"Captain Scrumpe","steam_id":76561198032206577,"connected_time":61000000000,"state":"active","ping":82}]},{"server_id":202,"name":"Uncletopia | Hong Kong | 1 | All Maps","name_short":"hgk-1","host":"hgk-1.hk.uncletopia.com","port":27015,"enabled":true,"region":"asia","cc":"hk","latitude":22.302711,"longitude":114.177216,"reserved":0,"last_update":"0001-01-01T00:00:00Z","name_a2s":"Uncletopia | Hong Kong | 1 | All Maps","protocol":17,"map":"cp_dustbowl","folder":"tf","game":"Team Fortress","app_id":440,"player_count":0,"max_players":24,"Bots":0,"server_type":"Dedicated","server_os":"Linux","password":true,"vac":true,"version":"7882260","steam_id":85568392924494504,"keywords":["cp","nocrits","nodmgspread","uncletopia"],"game_id":440,"stv_port":27016,"stv_name":"Uncletopia | Hong Kong | 1 | All Maps | STV","players":null},{"server_id":1,"name":"Uncletopia | Los Angeles | 1 | All Maps","name_short":"lax-1","host":"lax-1.us.uncletopia.com","port":27015,"enabled":true,"region":"us-west","cc":"us","latitude":33.94279,"longitude":-118.41004,"reserved":0,"last_update":"0001-01-01T00:00:00Z","name_a2s":"Uncletopia | Los Angeles | 1 | All Maps","protocol":17,"map":"pl_frontier_final","folder":"tf","game":"Team Fortress","app_id":440,"player_count":23,"max_players":24,"Bots":0,"server_type":"Dedicated","server_os":"Linux","password":true,"vac":true,"version":"7882260","steam_id":85568392924469991,"keywords":["nocrits","nodmgspread","payload","uncletopia"],"game_id":440,"stv_port":27016,"stv_name":"Uncletopia | Los Angeles | 1 | All Maps | STV","players":[{"user_id":221,"name":"GooseSounds","steam_id":76561198307387310,"connected_time":2625000000000,"state":"active","ping":112},{"user_id":176,"name":"summerlis","steam_id":76561198165324438,"connected_time":4822000000000,"state":"active","ping":38},{"user_id":249,"name":"uzr","steam_id":76561198799343084,"connected_time":164000000000,"state":"active","ping":53},{"user_id":239,"name":"john01k","steam_id":76561198059731548,"connected_time":1315000000000,"state":"active","ping":130},{"user_id":246,"name":"Monsta","steam_id":76561197971626425,"connected_time":516000000000,"state":"active","ping":123},{"user_id":203,"name":"Fribbo","steam_id":76561198373295660,"connected_time":3436000000000,"state":"active","ping":76},{"user_id":168,"name":"echelon","steam_id":76561198139172979,"connected_time":6263000000000,"state":"active","ping":53},{"user_id":227,"name":"Павло Паченко","steam_id":76561198314446564,"connected_time":2036000000000,"state":"active","ping":53},{"user_id":247,"name":"Smiles","steam_id":76561198107197973,"connected_time":320000000000,"state":"active","ping":109},{"user_id":242,"name":"ZodiacThundaga","steam_id":76561199025117814,"connected_time":919000000000,"state":"active","ping":117},{"user_id":205,"name":"Chad the Sex Haver","steam_id":76561198058236528,"connected_time":3396000000000,"state":"active","ping":94},{"user_id":180,"name":"RagingBagon","steam_id":76561198255453127,"connected_time":4286000000000,"state":"active","ping":41},{"user_id":248,"name":"Doc_Eevee","steam_id":76561199289204820,"connected_time":305000000000,"state":"active","ping":85},{"user_id":208,"name":"Menma","steam_id":76561198391557181,"connected_time":3244000000000,"state":"active","ping":111},{"user_id":234,"name":"Yoinkinator","steam_id":76561198011366624,"connected_time":1548000000000,"state":"active","ping":53},{"user_id":230,"name":"DanceBunny","steam_id":76561198243610560,"connected_time":1754000000000,"state":"active","ping":100},{"user_id":235,"name":"corbenis","steam_id":76561199012442511,"connected_time":1531000000000,"state":"active","ping":56},{"user_id":232,"name":"Drakon","steam_id":76561198078210822,"connected_time":1700000000000,"state":"active","ping":65},{"user_id":250,"name":"ice dweller","steam_id":76561198329367716,"connected_time":153000000000,"state":"active","ping":62},{"user_id":214,"name":"xbox record that","steam_id":76561198150117455,"connected_time":3036000000000,"state":"active","ping":127},{"user_id":233,"name":"Cook","steam_id":76561198072090972,"connected_time":1698000000000,"state":"active","ping":114},{"user_id":240,"name":"Corn Dog","steam_id":76561198014276989,"connected_time":1311000000000,"state":"active","ping":95},{"user_id":217,"name":"HighInPotassium","steam_id":76561198199057561,"connected_time":3004000000000,"state":"active","ping":177}]},{"server_id":112,"name":"Uncletopia | Los Angeles | 2 | All Maps","name_short":"lax-2","host":"lax-1.us.uncletopia.com","port":27025,"enabled":true,"region":"us-west","cc":"us","latitude":33.94279,"longitude":-118.41004,"reserved":0,"last_update":"0001-01-01T00:00:00Z","name_a2s":"Uncletopia | Los Angeles | 2 | All Maps","protocol":17,"map":"koth_lakeside_final","folder":"tf","game":"Team Fortress","app_id":440,"player_count":0,"max_players":24,"Bots":0,"server_type":"Dedicated","server_os":"Linux","password":true,"vac":true,"version":"7882260","steam_id":85568392924469992,"keywords":["cp","nocrits","nodmgspread","uncletopia"],"game_id":440,"stv_port":27026,"stv_name":"Uncletopia | Los Angeles | 2 | All Maps | STV","players":null},{"server_id":324,"name":"Uncletopia | Los Angeles | 3 | All Maps","name_short":"lax-3","host":"lax-1.us.uncletopia.com","port":27035,"enabled":true,"region":"us-west","cc":"us","latitude":33.94279,"longitude":-118.41004,"reserved":0,"last_update":"0001-01-01T00:00:00Z","name_a2s":"Uncletopia | Los Angeles | 3 | All Maps","protocol":17,"map":"cp_sunshine","folder":"tf","game":"Team Fortress","app_id":440,"player_count":0,"max_players":24,"Bots":0,"server_type":"Dedicated","server_os":"Linux","password":true,"vac":true,"version":"7882260","steam_id":85568392924510198,"keywords":["cp","nocrits","nodmgspread","uncletopia"],"game_id":440,"stv_port":27036,"stv_name":"Uncletopia | Los Angeles | 3 | All Maps | STV","players":null},{"server_id":25,"name":"Uncletopia | Los Angeles | 4 | Stopwatch Beta","name_short":"lax-4","host":"lax-1.us.uncletopia.com","port":27045,"enabled":true,"region":"us-west","cc":"us","latitude":33.94279,"longitude":-118.41004,"reserved":0,"last_update":"0001-01-01T00:00:00Z","name_a2s":"Uncletopia | Los Angeles | 4 | Stopwatch Beta","protocol":17,"map":"cp_snakewater_final1","folder":"tf","game":"Team Fortress","app_id":440,"player_count":0,"max_players":24,"Bots":0,"server_type":"Dedicated","server_os":"Linux","password":true,"vac":true,"version":"7882260","steam_id":85568392924510199,"keywords":["cp","nocrits","nodmgspread","uncletopia"],"game_id":440,"stv_port":27046,"stv_name":"Uncletopia | Los Angeles | 4 | Stopwatch Beta | STV","players":null},{"server_id":11,"name":"Uncletopia | London | 1 | All Maps","name_short":"lon-1","host":"lon-1.uk.uncletopia.com","port":27015,"enabled":true,"region":"eu","cc":"gb","latitude":51.509865,"longitude":-0.118092,"reserved":0,"last_update":"0001-01-01T00:00:00Z","name_a2s":"Uncletopia | London | 1 | All Maps","protocol":17,"map":"cp_dustbowl","folder":"tf","game":"Team Fortress","app_id":440,"player_count":24,"max_players":24,"Bots":0,"server_type":"Dedicated","server_os":"Linux","password":true,"vac":true,"version":"7882260","steam_id":85568392924367362,"keywords":["cp","nocrits","nodmgspread","uncletopia"],"game_id":440,"stv_port":27016,"stv_name":"Uncletopia | London | 1 | All Maps | STV","players":[{"user_id":373,"name":"Jesus Enjoyer","steam_id":76561198840259819,"connected_time":1972000000000,"state":"active","ping":51},{"user_id":385,"name":"Mannequin","steam_id":76561198128833974,"connected_time":28000000000,"state":"spawning","ping":59},{"user_id":367,"name":"Lilac","steam_id":76561199483835107,"connected_time":2329000000000,"state":"active","ping":87},{"user_id":386,"name":"scarfweather","steam_id":76561198121331836,"connected_time":7000000000,"state":"spawning","ping":59},{"user_id":340,"name":"astra","steam_id":76561198042980579,"connected_time":4265000000000,"state":"active","ping":74},{"user_id":232,"name":"Sandshee","steam_id":76561198088574666,"connected_time":13433000000000,"state":"active","ping":44},{"user_id":295,"name":"Nomad994","steam_id":76561198051908201,"connected_time":8631000000000,"state":"active","ping":85},{"user_id":377,"name":"rex110","steam_id":76561198159631448,"connected_time":842000000000,"state":"active","ping":78},{"user_id":252,"name":"Borat","steam_id":76561198122226417,"connected_time":11112000000000,"state":"active","ping":38},{"user_id":376,"name":"binge eater scout","steam_id":76561198180361759,"connected_time":1432000000000,"state":"active","ping":43},{"user_id":378,"name":"if you're armed shoot me","steam_id":76561199475596186,"connected_time":819000000000,"state":"active","ping":118},{"user_id":381,"name":"Son Goku","steam_id":76561199383437138,"connected_time":330000000000,"state":"active","ping":112},{"user_id":329,"name":"Fish","steam_id":76561198152128484,"connected_time":5561000000000,"state":"active","ping":44},{"user_id":384,"name":"Friendly Neighbourhood Femboy","steam_id":76561198058531305,"connected_time":118000000000,"state":"active","ping":59},{"user_id":352,"name":"Show me your gun","steam_id":76561198368339225,"connected_time":3355000000000,"state":"active","ping":126},{"user_id":341,"name":"Jinx my beloved","steam_id":76561198819986745,"connected_time":4264000000000,"state":"active","ping":99},{"user_id":350,"name":"yobelle","steam_id":76561198109598697,"connected_time":3565000000000,"state":"active","ping":58},{"user_id":360,"name":"cov","steam_id":76561198328047855,"connected_time":2804000000000,"state":"active","ping":91},{"user_id":374,"name":"Nils","steam_id":76561198254882979,"connected_time":1651000000000,"state":"active","ping":60},{"user_id":382,"name":"Medic Girlfriend","steam_id":76561198243554156,"connected_time":230000000000,"state":"active","ping":59},{"user_id":345,"name":"shooer! :D \u003e\u003c(((º\u003e","steam_id":76561198110531281,"connected_time":4207000000000,"state":"active","ping":84},{"user_id":380,"name":"Greg","steam_id":76561198014131702,"connected_time":683000000000,"state":"active","ping":117},{"user_id":362,"name":"S.Scary","steam_id":76561198248602386,"connected_time":2696000000000,"state":"active","ping":74},{"user_id":372,"name":"♥ aura ♥","steam_id":76561198066258544,"connected_time":2104000000000,"state":"active","ping":72}]},{"server_id":114,"name":"Uncletopia | London | 2 | All Maps","name_short":"lon-2","host":"lon-1.uk.uncletopia.com","port":27025,"enabled":true,"region":"eu","cc":"gb","latitude":51.509865,"longitude":-0.118092,"reserved":0,"last_update":"0001-01-01T00:00:00Z","name_a2s":"Uncletopia | London | 2 | All Maps","protocol":17,"map":"cp_snakewater_final1","folder":"tf","game":"Team Fortress","app_id":440,"player_count":24,"max_players":24,"Bots":0,"server_type":"Dedicated","server_os":"Linux","password":true,"vac":true,"version":"7882260","steam_id":85568392924470941,"keywords":["cp","nocrits","nodmgspread","uncletopia"],"game_id":440,"stv_port":27026,"stv_name":"Uncletopia | London | 2 | All Maps | STV","players":[{"user_id":144,"name":"Carol Olston","steam_id":76561198080257273,"connected_time":1579000000000,"state":"active","ping":43},{"user_id":129,"name":"Farao Ramses II","steam_id":76561198078722712,"connected_time":2511000000000,"state":"active","ping":47},{"user_id":177,"name":"Acey","steam_id":76561198114457284,"connected_time":31000000000,"state":"spawning","ping":125},{"user_id":153,"name":"M/S Jeeztonia","steam_id":76561198123592400,"connected_time":1385000000000,"state":"active","ping":101},{"user_id":130,"name":"Jack","steam_id":76561199466891669,"connected_time":2486000000000,"state":"active","ping":56},{"user_id":93,"name":"Texas Red","steam_id":76561199069782779,"connected_time":3774000000000,"state":"active","ping":80},{"user_id":159,"name":"*-*","steam_id":76561198119230058,"connected_time":771000000000,"state":"active","ping":44},{"user_id":149,"name":"Mirage","steam_id":76561199013190566,"connected_time":1487000000000,"state":"active","ping":48},{"user_id":132,"name":"Coconuttii","steam_id":76561198006974800,"connected_time":2434000000000,"state":"active","ping":53},{"user_id":137,"name":"Snake-chan","steam_id":76561199044755854,"connected_time":2306000000000,"state":"active","ping":74},{"user_id":176,"name":"Rednbloo","steam_id":76561199001504941,"connected_time":90000000000,"state":"active","ping":80},{"user_id":172,"name":"CNTRL","steam_id":76561199125803827,"connected_time":161000000000,"state":"active","ping":67},{"user_id":162,"name":"nut master","steam_id":76561198277662053,"connected_time":444000000000,"state":"active","ping":118},{"user_id":173,"name":"CEO of Pen Island","steam_id":76561198037212191,"connected_time":159000000000,"state":"active","ping":61},{"user_id":158,"name":"TrinTy[Eric]","steam_id":76561198233457496,"connected_time":852000000000,"state":"active","ping":58},{"user_id":164,"name":"box","steam_id":76561198049531483,"connected_time":391000000000,"state":"active","ping":138},{"user_id":174,"name":"how thick is wall?","steam_id":76561198083615367,"connected_time":131000000000,"state":"active","ping":41},{"user_id":165,"name":"Kioto","steam_id":76561198990962542,"connected_time":373000000000,"state":"active","ping":74},{"user_id":157,"name":"Beeman999","steam_id":76561198138266242,"connected_time":1009000000000,"state":"active","ping":60},{"user_id":152,"name":"strohkopf9","steam_id":76561198059349860,"connected_time":1426000000000,"state":"active","ping":76},{"user_id":175,"name":"Warrez the Emu","steam_id":76561198080840887,"connected_time":114000000000,"state":"active","ping":53},{"user_id":168,"name":"Wilderhammer","steam_id":76561198132133702,"connected_time":312000000000,"state":"active","ping":57},{"user_id":169,"name":"An Agent of Chaos","steam_id":76561198972766717,"connected_time":292000000000,"state":"active","ping":56},{"user_id":118,"name":"Open Salami","steam_id":76561198351223374,"connected_time":3217000000000,"state":"active","ping":79}]},{"server_id":320,"name":"Uncletopia | London | 3 | All Maps","name_short":"lon-3","host":"lon-1.uk.uncletopia.com","port":27035,"enabled":true,"region":"eu","cc":"gb","latitude":51.509865,"longitude":-0.118092,"reserved":0,"last_update":"0001-01-01T00:00:00Z","name_a2s":"Uncletopia | London | 3 | All Maps","protocol":17,"map":"cp_dustbowl","folder":"tf","game":"Team Fortress","app_id":440,"player_count":24,"max_players":24,"Bots":0,"server_type":"Dedicated","server_os":"Linux","password":true,"vac":true,"version":"7882260","steam_id":85568392924510192,"keywords":["cp","nocrits","nodmgspread","uncletopia"],"game_id":440,"stv_port":27036,"stv_name":"Uncletopia | London | 3 | All Maps | STV","players":[{"user_id":105,"name":"Gnarville","steam_id":76561198006373329,"connected_time":4048000000000,"state":"active","ping":49},{"user_id":126,"name":"Weegee","steam_id":76561198032950154,"connected_time":2502000000000,"state":"active","ping":55},{"user_id":146,"name":"nux","steam_id":76561199241115962,"connected_time":1454000000000,"state":"active","ping":120},{"user_id":155,"name":"Doohickey mechanic","steam_id":76561198146180114,"connected_time":704000000000,"state":"active","ping":94},{"user_id":138,"name":"Swimpz","steam_id":76561198137479945,"connected_time":1908000000000,"state":"active","ping":91},{"user_id":160,"name":"NukePigg","steam_id":76561198131324143,"connected_time":580000000000,"state":"active","ping":38},{"user_id":136,"name":"Sylvanas","steam_id":76561198154904165,"connected_time":1971000000000,"state":"active","ping":114},{"user_id":137,"name":"K.V. #RemoveRandomCrits","steam_id":76561197994832993,"connected_time":1929000000000,"state":"active","ping":86},{"user_id":92,"name":"W","steam_id":76561198273623211,"connected_time":4877000000000,"state":"active","ping":87},{"user_id":165,"name":"Jackie Chan","steam_id":76561199378865926,"connected_time":238000000000,"state":"active","ping":84},{"user_id":164,"name":"Krabs","steam_id":76561198161679477,"connected_time":281000000000,"state":"active","ping":52},{"user_id":100,"name":"Loupombear","steam_id":76561198115905860,"connected_time":4132000000000,"state":"active","ping":52},{"user_id":166,"name":"MEDiUM","steam_id":76561198112328561,"connected_time":196000000000,"state":"active","ping":85},{"user_id":132,"name":"Kamikrazy","steam_id":76561198044254918,"connected_time":2103000000000,"state":"active","ping":56},{"user_id":162,"name":"prof","steam_id":76561199259054621,"connected_time":471000000000,"state":"active","ping":58},{"user_id":150,"name":"Slifer the Sky Dragon","steam_id":76561198062255803,"connected_time":1286000000000,"state":"active","ping":103},{"user_id":143,"name":"DOWN_SYNDROMEee","steam_id":76561198365539166,"connected_time":1664000000000,"state":"active","ping":94},{"user_id":141,"name":"Matrix108","steam_id":76561198180382327,"connected_time":1834000000000,"state":"active","ping":75},{"user_id":114,"name":"Soapy Bubbles","steam_id":76561198111652667,"connected_time":3731000000000,"state":"active","ping":45},{"user_id":142,"name":"waitrose gaming","steam_id":76561198011450253,"connected_time":1755000000000,"state":"active","ping":48},{"user_id":152,"name":"SonicCam04","steam_id":76561198119596059,"connected_time":1209000000000,"state":"active","ping":68},{"user_id":151,"name":"Jan.","steam_id":76561197974066329,"connected_time":1264000000000,"state":"active","ping":60},{"user_id":111,"name":"🗻🎴Hadrian Malone🎴🗻","steam_id":76561198036151103,"connected_time":3850000000000,"state":"active","ping":56},{"user_id":168,"name":"S.V.I.L.A.R","steam_id":76561198828348612,"connected_time":57000000000,"state":"active","ping":132}]},{"server_id":321,"name":"Uncletopia | London | 4 | All Maps","name_short":"lon-4","host":"lon-1.uk.uncletopia.com","port":27045,"enabled":true,"region":"eu","cc":"gb","latitude":51.509865,"longitude":-0.118092,"reserved":0,"last_update":"0001-01-01T00:00:00Z","name_a2s":"Uncletopia | London | 4 | All Maps","protocol":17,"map":"pl_pier","folder":"tf","game":"Team Fortress","app_id":440,"player_count":24,"max_players":24,"Bots":0,"server_type":"Dedicated","server_os":"Linux","password":true,"vac":true,"version":"7882260","steam_id":85568392924510193,"keywords":["nocrits","nodmgspread","payload","uncletopia"],"game_id":440,"stv_port":27046,"stv_name":"Uncletopia | London | 4 | All Maps | STV","players":[{"user_id":629,"name":"Kahvi","steam_id":76561198723244199,"connected_time":2226000000000,"state":"active","ping":75},{"user_id":658,"name":"Udinese Dion","steam_id":76561198067931573,"connected_time":583000000000,"state":"active","ping":67},{"user_id":590,"name":"Providence","steam_id":76561198003920270,"connected_time":5077000000000,"state":"active","ping":67},{"user_id":632,"name":"FatalRyhme","steam_id":76561198018713483,"connected_time":2088000000000,"state":"active","ping":95},{"user_id":605,"name":"Koli","steam_id":76561197992428783,"connected_time":4223000000000,"state":"active","ping":59},{"user_id":649,"name":"Fungus Bogs janitor","steam_id":76561199042470246,"connected_time":879000000000,"state":"active","ping":59},{"user_id":656,"name":"Stümpy","steam_id":76561198255904077,"connected_time":671000000000,"state":"active","ping":79},{"user_id":662,"name":"Routine Maintenance","steam_id":76561199353735649,"connected_time":153000000000,"state":"active","ping":74},{"user_id":661,"name":"clunk","steam_id":76561198836460767,"connected_time":291000000000,"state":"active","ping":70},{"user_id":643,"name":"KillerQueen (he/they/she)","steam_id":76561199019399725,"connected_time":1356000000000,"state":"active","ping":48},{"user_id":637,"name":"99cone99","steam_id":76561198100303439,"connected_time":1838000000000,"state":"active","ping":46},{"user_id":638,"name":"Patch","steam_id":76561198217360709,"connected_time":1783000000000,"state":"active","ping":58},{"user_id":645,"name":"Uncle Terry","steam_id":76561198396415736,"connected_time":1344000000000,"state":"active","ping":56},{"user_id":648,"name":"PASTAMAN!!!","steam_id":76561198995641765,"connected_time":1020000000000,"state":"active","ping":61},{"user_id":646,"name":"Boxtrot","steam_id":76561198026321441,"connected_time":1199000000000,"state":"active","ping":61},{"user_id":655,"name":"Carrot","steam_id":76561198119340863,"connected_time":720000000000,"state":"active","ping":36},{"user_id":657,"name":"Sugarwizard","steam_id":76561199040038105,"connected_time":662000000000,"state":"active","ping":45},{"user_id":640,"name":"CHSe2-","steam_id":76561198196096054,"connected_time":1447000000000,"state":"active","ping":61},{"user_id":660,"name":"Camo Leaf","steam_id":76561197999456575,"connected_time":387000000000,"state":"active","ping":53},{"user_id":651,"name":"aminoxsos1230987","steam_id":76561198839741609,"connected_time":844000000000,"state":"active","ping":84},{"user_id":608,"name":"B O R F","steam_id":76561197962461333,"connected_time":4170000000000,"state":"active","ping":48},{"user_id":653,"name":"Noob_with_source","steam_id":76561198870362103,"connected_time":804000000000,"state":"active","ping":57},{"user_id":631,"name":"Relph","steam_id":76561198176521109,"connected_time":2167000000000,"state":"active","ping":55},{"user_id":654,"name":"John Goodman","steam_id":76561199112147192,"connected_time":788000000000,"state":"active","ping":38}]},{"server_id":21,"name":"Uncletopia | London | 5 | All Maps","name_short":"lon-5","host":"lon-1.uk.uncletopia.com","port":27055,"enabled":true,"region":"eu","cc":"gb","latitude":51.509865,"longitude":-0.118092,"reserved":0,"last_update":"0001-01-01T00:00:00Z","name_a2s":"Uncletopia | London | 5 | All Maps","protocol":17,"map":"koth_lakeside_final","folder":"tf","game":"Team Fortress","app_id":440,"player_count":0,"max_players":24,"Bots":0,"server_type":"Dedicated","server_os":"Linux","password":true,"vac":true,"version":"7882260","steam_id":85568392924742829,"keywords":["cp","nocrits","nodmgspread","uncletopia"],"game_id":440,"stv_port":27056,"stv_name":"Uncletopia | London | 5 | All Maps | STV","players":null},{"server_id":22,"name":"Uncletopia | London | 6 | All Maps","name_short":"lon-6","host":"lon-1.uk.uncletopia.com","port":27065,"enabled":true,"region":"eu","cc":"gb","latitude":51.509865,"longitude":-0.118092,"reserved":0,"last_update":"0001-01-01T00:00:00Z","name_a2s":"Uncletopia | London | 6 | All Maps","protocol":17,"map":"pl_swiftwater_final1","folder":"tf","game":"Team Fortress","app_id":440,"player_count":0,"max_players":24,"Bots":0,"server_type":"Dedicated","server_os":"Linux","password":true,"vac":true,"version":"7882260","steam_id":85568392924742830,"keywords":["nocrits","nodmgspread","payload","uncletopia"],"game_id":440,"stv_port":27066,"stv_name":"Uncletopia | London | 6 | All Maps | STV","players":null},{"server_id":40,"name":"Uncletopia | London | 7 | No Payload","name_short":"lon-7","host":"lon-1.uk.uncletopia.com","port":27075,"enabled":true,"region":"eu","cc":"gb","latitude":51.509865,"longitude":-0.118092,"reserved":0,"last_update":"0001-01-01T00:00:00Z","name_a2s":"Uncletopia | London | 7 | No Payload","protocol":17,"map":"koth_harvest_final","folder":"tf","game":"Team Fortress","app_id":440,"player_count":0,"max_players":24,"Bots":0,"server_type":"Dedicated","server_os":"Linux","password":true,"vac":true,"version":"7882260","steam_id":85568392924964314,"keywords":["cp","nocrits","nodmgspread","uncletopia"],"game_id":440,"stv_port":27076,"stv_name":"Uncletopia | London | 7 | No Payload | STV","players":null},{"server_id":41,"name":"Uncletopia | London | 8 | Community","name_short":"lon-8","host":"lon-1.uk.uncletopia.com","port":27085,"enabled":true,"region":"eu","cc":"gb","latitude":51.509865,"longitude":-0.118092,"reserved":0,"last_update":"0001-01-01T00:00:00Z","name_a2s":"Uncletopia | London | 8 | Community","protocol":17,"map":"workshop/koth_ramjam_rc1.ugc459778887","folder":"tf","game":"Team Fortress","app_id":440,"player_count":0,"max_players":24,"Bots":0,"server_type":"Dedicated","server_os":"Linux","password":true,"vac":true,"version":"7882260","steam_id":85568392924964315,"keywords":["cp","nocrits","nodmgspread","uncletopia"],"game_id":440,"stv_port":27086,"stv_name":"Uncletopia | London | 8 | Community | STV","players":null},{"server_id":300,"name":"Uncletopia | Montréal | 1 | All Maps","name_short":"mtl-1","host":"mtl-1.ca.uncletopia.com","port":27015,"enabled":true,"region":"us-east","cc":"ca","latitude":45.50889,"longitude":-73.56167,"reserved":0,"last_update":"0001-01-01T00:00:00Z","name_a2s":"Uncletopia | Montréal | 1 | All Maps","protocol":17,"map":"pl_snowycoast","folder":"tf","game":"Team Fortress","app_id":440,"player_count":0,"max_players":24,"Bots":0,"server_type":"Dedicated","server_os":"Linux","password":true,"vac":true,"version":"7882260","steam_id":85568392924500087,"keywords":["nocrits","nodmgspread","payload","uncletopia"],"game_id":440,"stv_port":27016,"stv_name":"Uncletopia | Montréal | 1 | All Maps | STV","players":null},{"server_id":301,"name":"Uncletopia | Montréal | 2 | All Maps","name_short":"mtl-2","host":"mtl-1.ca.uncletopia.com","port":27025,"enabled":true,"region":"us-east","cc":"ca","latitude":45.50889,"longitude":-73.56167,"reserved":0,"last_update":"0001-01-01T00:00:00Z","name_a2s":"Uncletopia | Montréal | 2 | All Maps","protocol":17,"map":"cp_sunshine","folder":"tf","game":"Team Fortress","app_id":440,"player_count":0,"max_players":24,"Bots":0,"server_type":"Dedicated","server_os":"Linux","password":true,"vac":true,"version":"7882260","steam_id":85568392924500088,"keywords":["cp","nocrits","nodmgspread","uncletopia"],"game_id":440,"stv_port":27026,"stv_name":"Uncletopia | Montréal | 2 | All Maps | STV","players":null},{"server_id":302,"name":"Uncletopia | Montréal | 3 | All Maps","name_short":"mtl-3","host":"mtl-1.ca.uncletopia.com","port":27035,"enabled":true,"region":"us-east","cc":"ca","latitude":45.50889,"longitude":-73.56167,"reserved":0,"last_update":"0001-01-01T00:00:00Z","name_a2s":"Uncletopia | Montréal | 3 | All Maps","protocol":17,"map":"cp_altitude","folder":"tf","game":"Team Fortress","app_id":440,"player_count":0,"max_players":24,"Bots":0,"server_type":"Dedicated","server_os":"Linux","password":true,"vac":true,"version":"7882260","steam_id":85568392924500089,"keywords":["cp","nocrits","nodmgspread","uncletopia"],"game_id":440,"stv_port":27036,"stv_name":"Uncletopia | Montréal | 3 | All Maps | STV","players":null},{"server_id":303,"name":"Uncletopia | Montréal | 4 | No Payload","name_short":"mtl-4","host":"mtl-1.ca.uncletopia.com","port":27045,"enabled":true,"region":"us-east","cc":"ca","latitude":45.50889,"longitude":-73.56167,"reserved":0,"last_update":"0001-01-01T00:00:00Z","name_a2s":"Uncletopia | Montréal | 4 | No Payload","protocol":17,"map":"cp_altitude","folder":"tf","game":"Team Fortress","app_id":440,"player_count":0,"max_players":24,"Bots":0,"server_type":"Dedicated","server_os":"Linux","password":true,"vac":true,"version":"7882260","steam_id":85568392924500090,"keywords":["cp","nocrits","nodmgspread","uncletopia"],"game_id":440,"stv_port":27046,"stv_name":"Uncletopia | Montréal | 4 | No Payload | STV","players":null},{"server_id":13,"name":"Uncletopia | New York City | 1 | All Maps","name_short":"nyc-1","host":"nyc-1.us.uncletopia.com","port":27015,"enabled":true,"region":"us-east","cc":"us","latitude":40.73061,"longitude":-73.93524,"reserved":0,"last_update":"0001-01-01T00:00:00Z","name_a2s":"Uncletopia | New York City | 1 | All Maps","protocol":17,"map":"koth_viaduct","folder":"tf","game":"Team Fortress","app_id":440,"player_count":23,"max_players":24,"Bots":0,"server_type":"Dedicated","server_os":"Linux","password":true,"vac":true,"version":"7882260","steam_id":85568392924469993,"keywords":["cp","nocrits","nodmgspread","uncletopia"],"game_id":440,"stv_port":27016,"stv_name":"Uncletopia | New York City | 1 | All Maps | STV","players":[{"user_id":110,"name":"Jattiti","steam_id":76561199214217870,"connected_time":110000000000,"state":"active","ping":84},{"user_id":17,"name":"Ypuoi","steam_id":76561198170203261,"connected_time":6498000000000,"state":"active","ping":123},{"user_id":104,"name":"Dutch Van der Linde","steam_id":76561198183449473,"connected_time":376000000000,"state":"active","ping":81},{"user_id":94,"name":"Cake","steam_id":76561198155804193,"connected_time":724000000000,"state":"active","ping":110},{"user_id":101,"name":"Cam","steam_id":76561198308230555,"connected_time":509000000000,"state":"active","ping":45},{"user_id":63,"name":"WibbyOne","steam_id":76561198052843846,"connected_time":3780000000000,"state":"active","ping":37},{"user_id":59,"name":"Zeek","steam_id":76561197987204351,"connected_time":4188000000000,"state":"active","ping":45},{"user_id":69,"name":"turd ferguson","steam_id":76561198071620782,"connected_time":3171000000000,"state":"active","ping":61},{"user_id":88,"name":"Orca?","steam_id":76561198164341099,"connected_time":1453000000000,"state":"active","ping":93},{"user_id":106,"name":"BoopBerry","steam_id":76561198871571711,"connected_time":202000000000,"state":"active","ping":73},{"user_id":111,"name":"Wigl","steam_id":76561198019324464,"connected_time":75000000000,"state":"active","ping":56},{"user_id":90,"name":"Noid","steam_id":76561198227804500,"connected_time":1257000000000,"state":"active","ping":73},{"user_id":95,"name":"catrinaisahuman","steam_id":76561198281355729,"connected_time":691000000000,"state":"active","ping":89},{"user_id":107,"name":"Lord Razor","steam_id":76561198373286283,"connected_time":199000000000,"state":"active","ping":71},{"user_id":91,"name":"GanZ","steam_id":76561199378883538,"connected_time":1211000000000,"state":"active","ping":63},{"user_id":93,"name":"Mr. Sun","steam_id":76561198081338822,"connected_time":761000000000,"state":"active","ping":61},{"user_id":87,"name":"medium p bands","steam_id":76561198202843510,"connected_time":1464000000000,"state":"active","ping":47},{"user_id":108,"name":"Charlie","steam_id":76561198798127908,"connected_time":192000000000,"state":"active","ping":78},{"user_id":74,"name":"Arcane Duck","steam_id":76561199002480373,"connected_time":2931000000000,"state":"active","ping":132},{"user_id":82,"name":"xen","steam_id":76561198048568188,"connected_time":2208000000000,"state":"active","ping":46},{"user_id":79,"name":"Jeffenthropus","steam_id":76561198134204248,"connected_time":2561000000000,"state":"active","ping":46},{"user_id":50,"name":"Si1entSn1pa","steam_id":76561198170095479,"connected_time":4962000000000,"state":"active","ping":85},{"user_id":103,"name":"emperor belos gaming","steam_id":76561198173086317,"connected_time":444000000000,"state":"active","ping":56}]},{"server_id":14,"name":"Uncletopia | New York City | 2 | All Maps","name_short":"nyc-2","host":"nyc-1.us.uncletopia.com","port":27025,"enabled":true,"region":"us-east","cc":"us","latitude":40.73061,"longitude":-73.93524,"reserved":0,"last_update":"0001-01-01T00:00:00Z","name_a2s":"Uncletopia | New York City | 2 | All Maps","protocol":17,"map":"koth_lakeside_final","folder":"tf","game":"Team Fortress","app_id":440,"player_count":0,"max_players":24,"Bots":0,"server_type":"Dedicated","server_os":"Linux","password":true,"vac":true,"version":"7882260","steam_id":85568392924469994,"keywords":["cp","nocrits","nodmgspread","uncletopia"],"game_id":440,"stv_port":27026,"stv_name":"Uncletopia | New York City | 2 | All Maps | STV","players":null},{"server_id":15,"name":"Uncletopia | New York City | 3 | Stopwatch Beta","name_short":"nyc-3","host":"nyc-1.us.uncletopia.com","port":27035,"enabled":true,"region":"us-east","cc":"us","latitude":40.73061,"longitude":-73.93524,"reserved":0,"last_update":"0001-01-01T00:00:00Z","name_a2s":"Uncletopia | New York City | 3 | Stopwatch Beta","protocol":17,"map":"koth_lakeside_final","folder":"tf","game":"Team Fortress","app_id":440,"player_count":0,"max_players":24,"Bots":0,"server_type":"Dedicated","server_os":"Linux","password":true,"vac":true,"version":"7882260","steam_id":85568392924742820,"keywords":["cp","nocrits","nodmgspread","uncletopia"],"game_id":440,"stv_port":27036,"stv_name":"Uncletopia | New York City | 3 | Stopwatch Beta | STV","players":null},{"server_id":16,"name":"Uncletopia | New York City | 4 | Community","name_short":"nyc-4","host":"nyc-1.us.uncletopia.com","port":27045,"enabled":true,"region":"us-east","cc":"us","latitude":40.73061,"longitude":-73.93524,"reserved":0,"last_update":"0001-01-01T00:00:00Z","name_a2s":"Uncletopia | New York City | 4 | Community","protocol":17,"map":"pl_badwater","folder":"tf","game":"Team Fortress","app_id":440,"player_count":0,"max_players":24,"Bots":0,"server_type":"Dedicated","server_os":"Linux","password":true,"vac":true,"version":"7882260","steam_id":85568392924742821,"keywords":["nocrits","nodmgspread","payload","uncletopia"],"game_id":440,"stv_port":27046,"stv_name":"Uncletopia | New York City | 4 | Community | STV","players":null},{"server_id":142,"name":"Uncletopia | São Paulo | 1 | All Maps","name_short":"sao-1","host":"sao-1.br.uncletopia.com","port":27015,"enabled":true,"region":"sa","cc":"br","latitude":-23.533773,"longitude":-46.62529,"reserved":0,"last_update":"0001-01-01T00:00:00Z","name_a2s":"Uncletopia | São Paulo | 1 | All Maps","protocol":17,"map":"koth_lakeside_final","folder":"tf","game":"Team Fortress","app_id":440,"player_count":0,"max_players":24,"Bots":0,"server_type":"Dedicated","server_os":"Linux","password":true,"vac":true,"version":"7882260","steam_id":85568392924469996,"keywords":["cp","nocrits","nodmgspread","uncletopia"],"game_id":440,"stv_port":27016,"stv_name":"Uncletopia | São Paulo | 1 | All Maps | STV","players":null},{"server_id":143,"name":"Uncletopia | São Paulo | 2 | All Maps","name_short":"sao-2","host":"sao-2.br.uncletopia.com","port":27015,"enabled":true,"region":"sa","cc":"br","latitude":-23.533773,"longitude":-46.62529,"reserved":0,"last_update":"0001-01-01T00:00:00Z","name_a2s":"Uncletopia | São Paulo | 2 | All Maps","protocol":17,"map":"koth_viaduct","folder":"tf","game":"Team Fortress","app_id":440,"player_count":0,"max_players":24,"Bots":0,"server_type":"Dedicated","server_os":"Linux","password":true,"vac":true,"version":"7882260","steam_id":85568392924485349,"keywords":["cp","nocrits","nodmgspread","uncletopia"],"game_id":440,"stv_port":27016,"stv_name":"Uncletopia | São Paulo | 2 | All Maps | STV","players":null},{"server_id":7,"name":"Uncletopia | Seattle | 1 | All Maps","name_short":"sea-1","host":"sea-1.us.uncletopia.com","port":27015,"enabled":true,"region":"us-west","cc":"us","latitude":47.608013,"longitude":-122.33517,"reserved":0,"last_update":"0001-01-01T00:00:00Z","name_a2s":"Uncletopia | Seattle | 1 | All Maps","protocol":17,"map":"pl_borneo","folder":"tf","game":"Team Fortress","app_id":440,"player_count":24,"max_players":24,"Bots":0,"server_type":"Dedicated","server_os":"Linux","password":true,"vac":true,"version":"7882260","steam_id":85568392924469997,"keywords":["nocrits","nodmgspread","payload","uncletopia"],"game_id":440,"stv_port":27016,"stv_name":"Uncletopia | Seattle | 1 | All Maps | STV","players":[{"user_id":8,"name":"SibilantSerpent","steam_id":76561198154488754,"connected_time":6845000000000,"state":"active","ping":55},{"user_id":43,"name":"dark_giant","steam_id":76561199476863735,"connected_time":913000000000,"state":"active","ping":116},{"user_id":18,"name":"PvZ Enthusiast","steam_id":76561199089562026,"connected_time":4033000000000,"state":"active","ping":49},{"user_id":23,"name":"sassy loli","steam_id":76561198402316065,"connected_time":3116000000000,"state":"active","ping":120},{"user_id":38,"name":"_normal","steam_id":76561198338505734,"connected_time":1031000000000,"state":"active","ping":151},{"user_id":56,"name":"Dr. Cgad","steam_id":76561198203411640,"connected_time":238000000000,"state":"active","ping":106},{"user_id":27,"name":"OminousNoises","steam_id":76561198263320321,"connected_time":1827000000000,"state":"active","ping":85},{"user_id":25,"name":"Impressley Snipes","steam_id":76561197988329891,"connected_time":2329000000000,"state":"active","ping":59},{"user_id":59,"name":"Kronos_Titan","steam_id":76561199091925123,"connected_time":188000000000,"state":"active","ping":91},{"user_id":31,"name":"bobbybasketball62","steam_id":76561198067232540,"connected_time":1507000000000,"state":"active","ping":119},{"user_id":32,"name":"Half-Alpha","steam_id":76561199274000697,"connected_time":1455000000000,"state":"active","ping":134},{"user_id":61,"name":"TheMagicMrWaffle","steam_id":76561198104357256,"connected_time":171000000000,"state":"active","ping":76},{"user_id":39,"name":"FlipFlops","steam_id":76561198271700906,"connected_time":1015000000000,"state":"active","ping":98},{"user_id":35,"name":"Gibus Man","steam_id":76561198257241062,"connected_time":1223000000000,"state":"active","ping":43},{"user_id":46,"name":"AnotherEnby","steam_id":76561198837804866,"connected_time":804000000000,"state":"active","ping":134},{"user_id":62,"name":"Tea","steam_id":76561198004133638,"connected_time":141000000000,"state":"spawning","ping":71},{"user_id":40,"name":"ether","steam_id":76561198210322871,"connected_time":947000000000,"state":"active","ping":67},{"user_id":60,"name":"robotman5","steam_id":76561197996783330,"connected_time":185000000000,"state":"active","ping":133},{"user_id":53,"name":"doomshroom","steam_id":76561198092827250,"connected_time":463000000000,"state":"active","ping":69},{"user_id":58,"name":"Don't Fuckle with Shuckle","steam_id":76561199020102367,"connected_time":223000000000,"state":"active","ping":137},{"user_id":49,"name":"eee","steam_id":76561197996082967,"connected_time":774000000000,"state":"active","ping":78},{"user_id":50,"name":"Horse","steam_id":76561199112075552,"connected_time":766000000000,"state":"active","ping":128},{"user_id":51,"name":"Frogzilla","steam_id":76561198077657538,"connected_time":757000000000,"state":"active","ping":71},{"user_id":52,"name":"Maid 'n' China","steam_id":76561198423392976,"connected_time":704000000000,"state":"active","ping":64}]},{"server_id":119,"name":"Uncletopia | Seattle | 2 | All Maps","name_short":"sea-2","host":"sea-1.us.uncletopia.com","port":27025,"enabled":true,"region":"us-west","cc":"us","latitude":47.608013,"longitude":-122.33517,"reserved":0,"last_update":"0001-01-01T00:00:00Z","name_a2s":"Uncletopia | Seattle | 2 | All Maps","protocol":17,"map":"koth_highpass","folder":"tf","game":"Team Fortress","app_id":440,"player_count":6,"max_players":24,"Bots":0,"server_type":"Dedicated","server_os":"Linux","password":true,"vac":true,"version":"7882260","steam_id":85568392924469998,"keywords":["cp","nocrits","nodmgspread","uncletopia"],"game_id":440,"stv_port":27026,"stv_name":"Uncletopia | Seattle | 2 | All Maps | STV","players":[{"user_id":4,"name":"mycoolcucumber","steam_id":76561198177586211,"connected_time":1490000000000,"state":"active","ping":91},{"user_id":10,"name":"UBER Redlux","steam_id":76561199467334502,"connected_time":381000000000,"state":"active","ping":61},{"user_id":6,"name":"FeverishJackal","steam_id":76561198150622689,"connected_time":1345000000000,"state":"active","ping":107},{"user_id":11,"name":"Kipper","steam_id":76561198008515450,"connected_time":338000000000,"state":"active","ping":75},{"user_id":13,"name":"KittyToy","steam_id":76561198043990701,"connected_time":84000000000,"state":"active","ping":48},{"user_id":14,"name":"TommoSFMO","steam_id":76561198855070608,"connected_time":72000000000,"state":"active","ping":126}]},{"server_id":406,"name":"Uncletopia | Seattle | 3 | Stopwatch Beta","name_short":"sea-3","host":"sea-1.us.uncletopia.com","port":27035,"enabled":true,"region":"us-west","cc":"us","latitude":47.608013,"longitude":-122.33517,"reserved":0,"last_update":"0001-01-01T00:00:00Z","name_a2s":"Uncletopia | Seattle | 3 | Stopwatch Beta","protocol":17,"map":"cp_mountainlab","folder":"tf","game":"Team Fortress","app_id":440,"player_count":0,"max_players":24,"Bots":0,"server_type":"Dedicated","server_os":"Linux","password":true,"vac":true,"version":"7882260","steam_id":85568392924515217,"keywords":["cp","nocrits","nodmgspread","uncletopia"],"game_id":440,"stv_port":27036,"stv_name":"Uncletopia | Seattle | 3 | Stopwatch Beta | STV","players":null},{"server_id":17,"name":"Uncletopia | San Francisco | 1 | All Maps","name_short":"sfo-1","host":"sfo-1.us.uncletopia.com","port":27015,"enabled":true,"region":"us-west","cc":"us","latitude":37.77397,"longitude":-122.4313,"reserved":0,"last_update":"0001-01-01T00:00:00Z","name_a2s":"Uncletopia | San Francisco | 1 | All Maps","protocol":17,"map":"cp_process_final","folder":"tf","game":"Team Fortress","app_id":440,"player_count":0,"max_players":24,"Bots":0,"server_type":"Dedicated","server_os":"Linux","password":true,"vac":true,"version":"7757534","steam_id":85568392924469999,"keywords":["cp","nocrits","nodmgspread","uncletopia"],"game_id":440,"stv_port":27016,"stv_name":"Uncletopia | San Francisco | 1 | All Maps | STV","players":null},{"server_id":18,"name":"Uncletopia | San Francisco | 2 | All Maps","name_short":"sfo-2","host":"sfo-1.us.uncletopia.com","port":27025,"enabled":true,"region":"us-west","cc":"us","latitude":37.77397,"longitude":-122.4313,"reserved":0,"last_update":"0001-01-01T00:00:00Z","name_a2s":"Uncletopia | San Francisco | 2 | All Maps","protocol":17,"map":"koth_highpass","folder":"tf","game":"Team Fortress","app_id":440,"player_count":0,"max_players":24,"Bots":0,"server_type":"Dedicated","server_os":"Linux","password":true,"vac":true,"version":"7757534","steam_id":85568392924470000,"keywords":["cp","nocrits","nodmgspread","uncletopia"],"game_id":440,"stv_port":27026,"stv_name":"Uncletopia | San Francisco | 2 | All Maps | STV","players":null},{"server_id":19,"name":"Uncletopia | San Francisco | 3 | Stopwatch Beta","name_short":"sfo-3","host":"sfo-1.us.uncletopia.com","port":27035,"enabled":true,"region":"us-west","cc":"us","latitude":37.77397,"longitude":-122.4313,"reserved":0,"last_update":"0001-01-01T00:00:00Z","name_a2s":"Uncletopia | San Francisco | 3 | Stopwatch Beta","protocol":17,"map":"koth_lakeside_final","folder":"tf","game":"Team Fortress","app_id":440,"player_count":0,"max_players":24,"Bots":0,"server_type":"Dedicated","server_os":"Linux","password":true,"vac":true,"version":"7757534","steam_id":85568392924742824,"keywords":["cp","nocrits","nodmgspread","uncletopia"],"game_id":440,"stv_port":27036,"stv_name":"Uncletopia | San Francisco | 3 | Stopwatch Beta | STV","players":null},{"server_id":20,"name":"Uncletopia | San Francisco | 4 | Community","name_short":"sfo-4","host":"sfo-1.us.uncletopia.com","port":27045,"enabled":true,"region":"us-west","cc":"us","latitude":37.77397,"longitude":-122.4313,"reserved":0,"last_update":"0001-01-01T00:00:00Z","name_a2s":"Uncletopia | San Francisco | 4 | Community","protocol":17,"map":"cp_altitude","folder":"tf","game":"Team Fortress","app_id":440,"player_count":0,"max_players":24,"Bots":0,"server_type":"Dedicated","server_os":"Linux","password":true,"vac":true,"version":"7757534","steam_id":85568392924742826,"keywords":["cp","nocrits","nodmgspread","uncletopia"],"game_id":440,"stv_port":27046,"stv_name":"Uncletopia | San Francisco | 4 | Community | STV","players":null},{"server_id":141,"name":"Uncletopia | Sydney | 1 | All Maps","name_short":"syd-1","host":"syd-1.au.uncletopia.com","port":27015,"enabled":true,"region":"au","cc":"au","latitude":-33.865143,"longitude":151.2099,"reserved":0,"last_update":"0001-01-01T00:00:00Z","name_a2s":"Uncletopia | Sydney | 1 | All Maps","protocol":17,"map":"koth_lakeside_final","folder":"tf","game":"Team Fortress","app_id":440,"player_count":0,"max_players":24,"Bots":0,"server_type":"Dedicated","server_os":"Linux","password":true,"vac":true,"version":"7882260","steam_id":85568392924470001,"keywords":["cp","nocrits","nodmgspread","uncletopia"],"game_id":440,"stv_port":27016,"stv_name":"Uncletopia | Sydney | 1 | All Maps | STV","players":null},{"server_id":123,"name":"Uncletopia | Sydney | 2 | All Maps","name_short":"syd-2","host":"syd-1.au.uncletopia.com","port":27025,"enabled":true,"region":"au","cc":"au","latitude":-33.865143,"longitude":151.2099,"reserved":0,"last_update":"0001-01-01T00:00:00Z","name_a2s":"Uncletopia | Sydney | 2 | All Maps","protocol":17,"map":"pl_badwater","folder":"tf","game":"Team Fortress","app_id":440,"player_count":0,"max_players":24,"Bots":0,"server_type":"Dedicated","server_os":"Linux","password":true,"vac":true,"version":"7882260","steam_id":85568392924470002,"keywords":["nocrits","nodmgspread","payload","uncletopia"],"game_id":440,"stv_port":27026,"stv_name":"Uncletopia | Sydney | 2 | All Maps | STV","players":null},{"server_id":395,"name":"Uncletopia | Sydney | 3 | All Maps","name_short":"syd-3","host":"syd-1.au.uncletopia.com","port":27035,"enabled":true,"region":"au","cc":"au","latitude":-33.865143,"longitude":151.2099,"reserved":0,"last_update":"0001-01-01T00:00:00Z","name_a2s":"Uncletopia | Sydney | 3 | All Maps","protocol":17,"map":"koth_viaduct","folder":"tf","game":"Team Fortress","app_id":440,"player_count":0,"max_players":24,"Bots":0,"server_type":"Dedicated","server_os":"Linux","password":true,"vac":true,"version":"7882260","steam_id":85568392925194467,"keywords":["cp","nocrits","nodmgspread","uncletopia"],"game_id":440,"stv_port":27036,"stv_name":"Uncletopia | Sydney | 3 | All Maps | STV","players":null},{"server_id":396,"name":"Uncletopia | Sydney | 4 | All Maps","name_short":"syd-4","host":"syd-1.au.uncletopia.com","port":27045,"enabled":true,"region":"au","cc":"au","latitude":-33.865143,"longitude":151.2099,"reserved":0,"last_update":"0001-01-01T00:00:00Z","name_a2s":"Uncletopia | Sydney | 4 | All Maps","protocol":17,"map":"koth_lakeside_final","folder":"tf","game":"Team Fortress","app_id":440,"player_count":0,"max_players":24,"Bots":0,"server_type":"Dedicated","server_os":"Linux","password":true,"vac":true,"version":"7882260","steam_id":85568392925397958,"keywords":["cp","nocrits","nodmgspread","uncletopia"],"game_id":440,"stv_port":27046,"stv_name":"Uncletopia | Sydney | 4 | All Maps | STV","players":null},{"server_id":58,"name":"Uncletopia | Sydney | 5 | Stopwatch Beta","name_short":"syd-5","host":"syd-1.au.uncletopia.com","port":27055,"enabled":true,"region":"au","cc":"au","latitude":-33.865143,"longitude":151.2099,"reserved":0,"last_update":"0001-01-01T00:00:00Z","name_a2s":"Uncletopia | Sydney | 5 | Stopwatch Beta","protocol":17,"map":"workshop/pl_vigil_rc9.ugc1266210012","folder":"tf","game":"Team Fortress","app_id":440,"player_count":0,"max_players":24,"Bots":0,"server_type":"Dedicated","server_os":"Linux","password":true,"vac":true,"version":"7882260","steam_id":85568392925397959,"keywords":["nocrits","nodmgspread","payload","uncletopia"],"game_id":440,"stv_port":27056,"stv_name":"Uncletopia | Sydney | 5 | Stopwatch Beta | STV","players":null},{"server_id":59,"name":"Uncletopia | Sydney | 6 | Community","name_short":"syd-6","host":"syd-1.au.uncletopia.com","port":27065,"enabled":true,"region":"au","cc":"au","latitude":-33.865143,"longitude":151.2099,"reserved":0,"last_update":"0001-01-01T00:00:00Z","name_a2s":"Uncletopia | Sydney | 6 | Community","protocol":17,"map":"workshop/pl_divulgence_b4b.ugc2884808746","folder":"tf","game":"Team Fortress","app_id":440,"player_count":0,"max_players":24,"Bots":0,"server_type":"Dedicated","server_os":"Linux","password":true,"vac":true,"version":"7882260","steam_id":85568392925397960,"keywords":["nocrits","nodmgspread","payload","uncletopia"],"game_id":440,"stv_port":27066,"stv_name":"Uncletopia | Sydney | 6 | Community | STV","players":null},{"server_id":49,"name":"Uncletopia | Warsaw | 1 | All Maps","name_short":"waw-1","host":"waw-1.pl.uncletopia.com","port":27015,"enabled":true,"region":"eu","cc":"pl","latitude":52.2297,"longitude":21.017532,"reserved":0,"last_update":"0001-01-01T00:00:00Z","name_a2s":"","protocol":0,"map":"","folder":"","game":"","app_id":0,"player_count":0,"max_players":0,"Bots":0,"server_type":"","server_os":"","password":false,"vac":false,"version":"","steam_id":0,"keywords":null,"game_id":0,"stv_port":0,"stv_name":"","players":null},{"server_id":50,"name":"Uncletopia | Warsaw | 2 | All Maps","name_short":"waw-2","host":"waw-1.pl.uncletopia.com","port":27025,"enabled":true,"region":"eu","cc":"pl","latitude":52.2297,"longitude":21.017532,"reserved":0,"last_update":"0001-01-01T00:00:00Z","name_a2s":"Uncletopia | Warsaw | 2 | All Maps","protocol":17,"map":"pl_pier","folder":"tf","game":"Team Fortress","app_id":440,"player_count":22,"max_players":24,"Bots":0,"server_type":"Dedicated","server_os":"Linux","password":true,"vac":true,"version":"7882260","steam_id":85568392925397851,"keywords":["nocrits","nodmgspread","payload","uncletopia"],"game_id":440,"stv_port":27026,"stv_name":"Uncletopia | Warsaw | 2 | All Maps | STV","players":[{"user_id":5,"name":"Bobino","steam_id":76561198385595285,"connected_time":2001000000000,"state":"active","ping":71},{"user_id":6,"name":"ديدليشوت","steam_id":76561199129427225,"connected_time":1998000000000,"state":"active","ping":338},{"user_id":7,"name":"Lord","steam_id":76561198241305816,"connected_time":1969000000000,"state":"active","ping":95},{"user_id":8,"name":"LudiBasket","steam_id":76561198982320605,"connected_time":1965000000000,"state":"active","ping":127},{"user_id":9,"name":"Filleman","steam_id":76561198159386946,"connected_time":1737000000000,"state":"active","ping":78},{"user_id":10,"name":"Tokazukashi","steam_id":76561198331686206,"connected_time":1398000000000,"state":"active","ping":50},{"user_id":31,"name":"Soya Suki","steam_id":76561197998106435,"connected_time":44000000000,"state":"active","ping":62},{"user_id":12,"name":"forltrik","steam_id":76561198123010316,"connected_time":1193000000000,"state":"active","ping":64},{"user_id":13,"name":"Fpaoullis","steam_id":76561198897866131,"connected_time":993000000000,"state":"active","ping":106},{"user_id":14,"name":"Garry_G","steam_id":76561198362834902,"connected_time":926000000000,"state":"active","ping":92},{"user_id":18,"name":"Error","steam_id":76561199196557511,"connected_time":654000000000,"state":"active","ping":99},{"user_id":16,"name":"Mr. Shadow | Folfie","steam_id":76561198037028507,"connected_time":880000000000,"state":"active","ping":59},{"user_id":24,"name":"Josh","steam_id":76561198274546904,"connected_time":309000000000,"state":"active","ping":148},{"user_id":19,"name":"Kubsj","steam_id":76561198446916275,"connected_time":591000000000,"state":"active","ping":61},{"user_id":20,"name":"Darkf065","steam_id":76561199029257202,"connected_time":589000000000,"state":"active","ping":71},{"user_id":25,"name":"Dark Wizart","steam_id":76561198377689439,"connected_time":251000000000,"state":"active","ping":59},{"user_id":26,"name":"kilikia","steam_id":76561198350261670,"connected_time":129000000000,"state":"active","ping":101},{"user_id":27,"name":"robsan","steam_id":76561198137375391,"connected_time":110000000000,"state":"active","ping":97},{"user_id":28,"name":"matthew2011d","steam_id":76561199233317511,"connected_time":78000000000,"state":"active","ping":1173},{"user_id":29,"name":"VORE MACHINE","steam_id":76561198032952954,"connected_time":66000000000,"state":"active","ping":114},{"user_id":30,"name":"VintageBM","steam_id":76561198232371348,"connected_time":59000000000,"state":"active","ping":93},{"user_id":32,"name":"denzell05","steam_id":76561198086987061,"connected_time":28000000000,"state":"active","ping":240}]},{"server_id":51,"name":"Uncletopia | Warsaw | 3 | All Maps","name_short":"waw-3","host":"waw-1.pl.uncletopia.com","port":27035,"enabled":true,"region":"eu","cc":"pl","latitude":52.2297,"longitude":21.017532,"reserved":0,"last_update":"0001-01-01T00:00:00Z","name_a2s":"Uncletopia | Warsaw | 3 | All Maps","protocol":17,"map":"koth_viaduct","folder":"tf","game":"Team Fortress","app_id":440,"player_count":0,"max_players":24,"Bots":0,"server_type":"Dedicated","server_os":"Linux","password":true,"vac":true,"version":"7882260","steam_id":85568392925397852,"keywords":["cp","nocrits","nodmgspread","uncletopia"],"game_id":440,"stv_port":27036,"stv_name":"Uncletopia | Warsaw | 3 | All Maps | STV","players":null},{"server_id":52,"name":"Uncletopia | Warsaw | 4 | All Maps","name_short":"waw-4","host":"waw-1.pl.uncletopia.com","port":27045,"enabled":true,"region":"eu","cc":"pl","latitude":52.2297,"longitude":21.017532,"reserved":0,"last_update":"0001-01-01T00:00:00Z","name_a2s":"Uncletopia | Warsaw | 4 | All Maps","protocol":17,"map":"koth_highpass","folder":"tf","game":"Team Fortress","app_id":440,"player_count":2,"max_players":24,"Bots":0,"server_type":"Dedicated","server_os":"Linux","password":true,"vac":true,"version":"7882260","steam_id":85568392925397853,"keywords":["cp","nocrits","nodmgspread","uncletopia"],"game_id":440,"stv_port":27046,"stv_name":"Uncletopia | Warsaw | 4 | All Maps | STV","players":[{"user_id":5,"name":"MajorMartin","steam_id":76561198367989381,"connected_time":563000000000,"state":"active","ping":59},{"user_id":7,"name":"Clint Moss","steam_id":76561199027981643,"connected_time":112000000000,"state":"active","ping":172}]},{"server_id":53,"name":"Uncletopia | Warsaw | 5 | Stopwatch Beta","name_short":"waw-5","host":"waw-1.pl.uncletopia.com","port":27055,"enabled":true,"region":"eu","cc":"pl","latitude":52.2297,"longitude":21.017532,"reserved":0,"last_update":"0001-01-01T00:00:00Z","name_a2s":"Uncletopia | Warsaw | 5 | Stopwatch Beta","protocol":17,"map":"pl_upward","folder":"tf","game":"Team Fortress","app_id":440,"player_count":0,"max_players":24,"Bots":0,"server_type":"Dedicated","server_os":"Linux","password":true,"vac":true,"version":"7882260","steam_id":85568392925397854,"keywords":["nocrits","nodmgspread","payload","uncletopia"],"game_id":440,"stv_port":27056,"stv_name":"Uncletopia | Warsaw | 5 | Stopwatch Beta | STV","players":null},{"server_id":54,"name":"Uncletopia | Warsaw | 6 | Community","name_short":"waw-6","host":"waw-1.pl.uncletopia.com","port":27065,"enabled":true,"region":"eu","cc":"pl","latitude":52.2297,"longitude":21.017532,"reserved":0,"last_update":"0001-01-01T00:00:00Z","name_a2s":"Uncletopia | Warsaw | 6 | Community","protocol":17,"map":"workshop/pl_eruption_b9a.ugc2807898013","folder":"tf","game":"Team Fortress","app_id":440,"player_count":0,"max_players":24,"Bots":0,"server_type":"Dedicated","server_os":"Linux","password":true,"vac":true,"version":"7882260","steam_id":85568392925397856,"keywords":["nocrits","nodmgspread","payload","uncletopia"],"game_id":440,"stv_port":27066,"stv_name":"Uncletopia | Warsaw | 6 | Community | STV","players":null}]}