{"status":true,"message":"","result":[{"server_id":9,"name":"Uncletopia | Atlanta | 1 | All Maps","name_short":"atl-1","host":"atl-1.us.uncletopia.com","port":27015,"enabled":true,"region":"us-east","cc":"us","latitude":33.753746,"longitude":-84.38633,"reserved":0,"last_update":"0001-01-01T00:00:00Z","name_a2s":"Uncletopia | Atlanta | 1 | All Maps","protocol":17,"map":"cp_dustbowl","folder":"tf","game":"Team Fortress","app_id":440,"player_count":24,"max_players":24,"Bots":0,"server_type":"Dedicated","server_os":"Linux","password":true,"vac":true,"version":"7757534","steam_id":85568392924469982,"keywords":["cp","nocrits","nodmgspread","uncletopia"],"game_id":440,"stv_port":27016,"stv_name":"Uncletopia | Atlanta | 1 | All Maps | STV","players":[{"user_id":449,"name":"Cherry Coke Zero","steam_id":76561198178233006,"connected_time":2848000000000,"state":"active","ping":60},{"user_id":457,"name":"hoboways","steam_id":76561198168035195,"connected_time":2031000000000,"state":"active","ping":78},{"user_id":403,"name":"nomad","steam_id":76561197998740399,"connected_time":7030000000000,"state":"active","ping":71},{"user_id":425,"name":"ATL1 | cola","steam_id":76561198374390458,"connected_time":4673000000000,"state":"active","ping":59},{"user_id":492,"name":"bogginwater","steam_id":76561198155547142,"connected_time":181000000000,"state":"active","ping":63},{"user_id":458,"name":"Cobrayen","steam_id":76561198066505280,"connected_time":2029000000000,"state":"active","ping":75},{"user_id":489,"name":"Oddball","steam_id":76561198040440984,"connected_time":238000000000,"state":"active","ping":81},{"user_id":475,"name":"Sm0ky","steam_id":76561198418262145,"connected_time":704000000000,"state":"active","ping":117},{"user_id":484,"name":"troll","steam_id":76561198040890252,"connected_time":474000000000,"state":"active","ping":57},{"user_id":490,"name":"Darkdrake","steam_id":76561198107200600,"connected_time":217000000000,"state":"active","ping":61},{"user_id":375,"name":"eish","steam_id":76561198089463603,"connected_time":8886000000000,"state":"active","ping":120},{"user_id":431,"name":"ash","steam_id":76561198127890645,"connected_time":4218000000000,"state":"active","ping":72},{"user_id":466,"name":"Jabawakai","steam_id":76561198088881254,"connected_time":1081000000000,"state":"active","ping":72},{"user_id":477,"name":"SparkStorm","steam_id":76561198095817025,"connected_time":689000000000,"state":"active","ping":37},{"user_id":488,"name":"Bert","steam_id":76561198073902241,"connected_time":271000000000,"state":"active","ping":70},{"user_id":494,"name":"wire-guided","steam_id":76561198055407168,"connected_time":1000000000,"state":"spawning","ping":100},{"user_id":491,"name":"that's showbiz, baybee","steam_id":76561197998258233,"connected_time":216000000000,"state":"active","ping":56},{"user_id":486,"name":"cold","steam_id":76561199017901552,"connected_time":416000000000,"state":"active","ping":63},{"user_id":455,"name":"ATL1 | Pango","steam_id":76561198069811545,"connected_time":2295000000000,"state":"active","ping":32},{"user_id":427,"name":"ATL1 | Kramer","steam_id":76561198083595936,"connected_time":4280000000000,"state":"active","ping":76},{"user_id":412,"name":"messy_","steam_id":76561199095580664,"connected_time":6018000000000,"state":"active","ping":121},{"user_id":476,"name":"scrambledeggs3","steam_id":76561198066112579,"connected_time":703000000000,"state":"active","ping":78},{"user_id":493,"name":"Ynohtna","steam_id":76561198069028540,"connected_time":115000000000,"state":"active","ping":77},{"user_id":462,"name":"daffodil","steam_id":76561198049480053,"connected_time":1627000000000,"state":"active","ping":69}]},{"server_id":104,"name":"Uncletopia | Atlanta | 2 | All Maps","name_short":"atl-2","host":"atl-1.us.uncletopia.com","port":27025,"enabled":true,"region":"us-east","cc":"us","latitude":33.753746,"longitude":-84.38633,"reserved":0,"last_update":"0001-01-01T00:00:00Z","name_a2s":"Uncletopia | Atlanta | 2 | All Maps","protocol":17,"map":"cp_steel","folder":"tf","game":"Team Fortress","app_id":440,"player_count":24,"max_players":24,"Bots":0,"server_type":"Dedicated","server_os":"Linux","password":true,"vac":true,"version":"7757534","steam_id":85568392924469983,"keywords":["cp","nocrits","nodmgspread","uncletopia"],"game_id":440,"stv_port":27026,"stv_name":"Uncletopia | Atlanta | 2 | All Maps | STV","players":[{"user_id":361,"name":"Pulp Free Fiction","steam_id":76561198095396514,"connected_time":274000000000,"state":"active","ping":68},{"user_id":345,"name":"BUNGACOWA","steam_id":76561198979176018,"connected_time":1297000000000,"state":"active","ping":70},{"user_id":274,"name":"Missing Minus","steam_id":76561198120822928,"connected_time":6496000000000,"state":"active","ping":45},{"user_id":360,"name":"your abusive uncle","steam_id":76561198381136912,"connected_time":483000000000,"state":"active","ping":93},{"user_id":343,"name":"Maverick","steam_id":76561198322829814,"connected_time":1336000000000,"state":"active","ping":76},{"user_id":364,"name":"Autism Cat","steam_id":76561198048476555,"connected_time":86000000000,"state":"active","ping":96},{"user_id":332,"name":"Chronulobulobombagogongus","steam_id":76561198881097534,"connected_time":1548000000000,"state":"active","ping":72},{"user_id":350,"name":"carp","steam_id":76561198042865147,"connected_time":791000000000,"state":"active","ping":66},{"user_id":229,"name":"DiscoTraveler","steam_id":76561199240168088,"connected_time":10041000000000,"state":"active","ping":61},{"user_id":356,"name":"Obama_Gaming","steam_id":76561199154194422,"connected_time":724000000000,"state":"active","ping":98},{"user_id":352,"name":"Notsocreative","steam_id":76561198236372202,"connected_time":761000000000,"state":"active","ping":72},{"user_id":333,"name":"Local","steam_id":76561198069537437,"connected_time":1525000000000,"state":"active","ping":110},{"user_id":353,"name":"FluffyNinjaRobatech","steam_id":76561197981072423,"connected_time":756000000000,"state":"active","ping":77},{"user_id":362,"name":"Peter McKay","steam_id":76561198842221188,"connected_time":206000000000,"state":"active","ping":74},{"user_id":327,"name":"Emberdened","steam_id":76561199163688421,"connected_time":1652000000000,"state":"active","ping":103},{"user_id":355,"name":"KirboXD","steam_id":76561199101228448,"connected_time":746000000000,"state":"active","ping":98},{"user_id":306,"name":"\u003ccolor=#BB33DD\u003egamerH_0ST","steam_id":76561198051191857,"connected_time":3483000000000,"state":"active","ping":71},{"user_id":324,"name":"Zelumie","steam_id":76561198147335801,"connected_time":1681000000000,"state":"active","ping":76},{"user_id":307,"name":"ROO!","steam_id":76561198950978067,"connected_time":3475000000000,"state":"active","ping":126},{"user_id":308,"name":"gavi","steam_id":76561198174452635,"connected_time":3473000000000,"state":"active","ping":71},{"user_id":358,"name":"Shrek I Guess","steam_id":76561198152587680,"connected_time":568000000000,"state":"active","ping":81},{"user_id":363,"name":"fire_01.bin","steam_id":76561198076598729,"connected_time":172000000000,"state":"active","ping":71},{"user_id":317,"name":"Monkey Mode","steam_id":76561197961267543,"connected_time":2846000000000,"state":"active","ping":53},{"user_id":339,"name":"M A N S F O R M (He/Him)","steam_id":76561198068148982,"connected_time":1461000000000,"state":"active","ping":109}]},{"server_id":400,"name":"Uncletopia | Atlanta | 3 | Community","name_short":"atl-3","host":"atl-1.us.uncletopia.com","port":27035,"enabled":true,"region":"us-east","cc":"us","latitude":33.753746,"longitude":-84.38633,"reserved":0,"last_update":"0001-01-01T00:00:00Z","name_a2s":"Uncletopia | Atlanta | 3 | Community","protocol":17,"map":"workshop/cp_glacier_rc6.ugc2905735376","folder":"tf","game":"Team Fortress","app_id":440,"player_count":0,"max_players":24,"Bots":0,"server_type":"Dedicated","server_os":"Linux","password":true,"vac":true,"version":"7757534","steam_id":85568392924515187,"keywords":["cp","nocrits","nodmgspread","uncletopia"],"game_id":440,"stv_port":27036,"stv_name":"Uncletopia | Atlanta | 3 | Community | STV","players":null},{"server_id":401,"name":"Uncletopia | Atlanta | 4 | No Payload","name_short":"atl-4","host":"atl-1.us.uncletopia.com","port":27045,"enabled":true,"region":"us-east","cc":"us","latitude":33.753746,"longitude":-84.38633,"reserved":0,"last_update":"0001-01-01T00:00:00Z","name_a2s":"","protocol":0,"map":"","folder":"","game":"","app_id":0,"player_count":0,"max_players":0,"Bots":0,"server_type":"","server_os":"","password":false,"vac":false,"version":"","steam_id":0,"keywords":null,"game_id":0,"stv_port":0,"stv_name":"","players":null},{"server_id":2,"name":"Uncletopia | Chicago | 1 | All Maps","name_short":"chi-1","host":"chi-1.us.uncletopia.com","port":27015,"enabled":true,"region":"us-central","cc":"us","latitude":41.881832,"longitude":-87.62318,"reserved":0,"last_update":"0001-01-01T00:00:00Z","name_a2s":"Uncletopia | Chicago | 1 | All Maps","protocol":17,"map":"pl_barnblitz","folder":"tf","game":"Team Fortress","app_id":440,"player_count":24,"max_players":24,"Bots":0,"server_type":"Dedicated","server_os":"Linux","password":true,"vac":true,"version":"7757534","steam_id":85568392924469984,"keywords":["nocrits","nodmgspread","payload","uncletopia"],"game_id":440,"stv_port":27016,"stv_name":"Uncletopia | Chicago | 1 | All Maps | STV","players":[{"user_id":564,"name":"Cream Corn","steam_id":76561198043791586,"connected_time":832000000000,"state":"active","ping":56},{"user_id":526,"name":"blue drink","steam_id":76561199260739414,"connected_time":4471000000000,"state":"active","ping":73},{"user_id":568,"name":"flamingcookies","steam_id":76561198280864779,"connected_time":754000000000,"state":"active","ping":78},{"user_id":525,"name":"igotmail","steam_id":76561198070631899,"connected_time":4530000000000,"state":"active","ping":70},{"user_id":565,"name":"TheSecretNewbie","steam_id":76561198194671218,"connected_time":825000000000,"state":"active","ping":48},{"user_id":539,"name":"Mann","steam_id":76561199030987614,"connected_time":4017000000000,"state":"active","ping":88},{"user_id":580,"name":"richard clock","steam_id":76561198048455671,"connected_time":213000000000,"state":"active","ping":61},{"user_id":576,"name":"A/funny/dream","steam_id":76561198354481597,"connected_time":705000000000,"state":"active","ping":75},{"user_id":583,"name":"Ta5K","steam_id":76561198939558155,"connected_time":89000000000,"state":"active","ping":46},{"user_id":507,"name":"Mads Mikkelsen","steam_id":76561198083482001,"connected_time":8137000000000,"state":"active","ping":137},{"user_id":511,"name":"blob","steam_id":76561198122375328,"connected_time":7129000000000,"state":"active","ping":60},{"user_id":578,"name":"DD_440","steam_id":76561199135978082,"connected_time":380000000000,"state":"active","ping":69},{"user_id":546,"name":"Speedy","steam_id":76561198080761661,"connected_time":2789000000000,"state":"active","ping":78},{"user_id":572,"name":"Dr. Dick","steam_id":76561198138011922,"connected_time":726000000000,"state":"active","ping":81},{"user_id":561,"name":"Eden","steam_id":76561198075587475,"connected_time":1072000000000,"state":"active","ping":42},{"user_id":569,"name":"Qball","steam_id":76561198179016466,"connected_time":753000000000,"state":"active","ping":64},{"user_id":573,"name":"SIN K4RMA","steam_id":76561198869287223,"connected_time":724000000000,"state":"active","ping":89},{"user_id":579,"name":"scarybroccoli","steam_id":76561198296440084,"connected_time":368000000000,"state":"active","ping":74},{"user_id":575,"name":"Craf227","steam_id":76561198196211121,"connected_time":718000000000,"state":"active","ping":87},{"user_id":522,"name":"Ademar","steam_id":76561199391802581,"connected_time":5330000000000,"state":"active","ping":56},{"user_id":577,"name":"Coach McFish","steam_id":76561198210456405,"connected_time":701000000000,"state":"active","ping":77},{"user_id":582,"name":"Velvet Reverb","steam_id":76561198017691029,"connected_time":122000000000,"state":"active","ping":60},{"user_id":551,"name":"Mitchu The Bidness Man","steam_id":76561198102494381,"connected_time":2373000000000,"state":"active","ping":62},{"user_id":458,"name":"Lia_Rein","steam_id":76561198151569597,"connected_time":11898000000000,"state":"active","ping":142}]},{"server_id":106,"name":"Uncletopia | Chicago | 2 | All Maps","name_short":"chi-2","host":"chi-1.us.uncletopia.com","port":27025,"enabled":true,"region":"us-central","cc":"us","latitude":41.881832,"longitude":-87.62318,"reserved":0,"last_update":"0001-01-01T00:00:00Z","name_a2s":"Uncletopia | Chicago | 2 | All Maps","protocol":17,"map":"pl_badwater","folder":"tf","game":"Team Fortress","app_id":440,"player_count":24,"max_players":24,"Bots":0,"server_type":"Dedicated","server_os":"Linux","password":true,"vac":true,"version":"7757534","steam_id":85568392924469985,"keywords":["nocrits","nodmgspread","payload","uncletopia"],"game_id":440,"stv_port":27026,"stv_name":"Uncletopia | Chicago | 2 | All Maps | STV","players":[{"user_id":602,"name":"MedRed™ #IATAH","steam_id":76561198002962970,"connected_time":3414000000000,"state":"active","ping":96},{"user_id":628,"name":"ameritech","steam_id":76561198064769089,"connected_time":901000000000,"state":"active","ping":71},{"user_id":630,"name":"FizzleWizard","steam_id":76561198045990868,"connected_time":868000000000,"state":"active","ping":65},{"user_id":633,"name":"sasharudzik","steam_id":76561199126617781,"connected_time":822000000000,"state":"active","ping":72},{"user_id":582,"name":"Mr_Frosty","steam_id":76561199380389079,"connected_time":4854000000000,"state":"active","ping":92},{"user_id":631,"name":"Rex The Mouse","steam_id":76561197995569428,"connected_time":842000000000,"state":"active","ping":81},{"user_id":621,"name":"toilethumor","steam_id":76561197962028780,"connected_time":1220000000000,"state":"active","ping":65},{"user_id":613,"name":"threethree","steam_id":76561198177354155,"connected_time":2442000000000,"state":"active","ping":68},{"user_id":597,"name":"Fun Police","steam_id":76561198267520577,"connected_time":3863000000000,"state":"active","ping":89},{"user_id":622,"name":"MankTKO","steam_id":76561198189421005,"connected_time":1147000000000,"state":"active","ping":56},{"user_id":620,"name":"broaderplum","steam_id":76561199055017722,"connected_time":1480000000000,"state":"active","ping":126},{"user_id":625,"name":"Lordkeiichi","steam_id":76561198011239395,"connected_time":999000000000,"state":"active","ping":73},{"user_id":637,"name":"Blargh","steam_id":76561198044095816,"connected_time":251000000000,"state":"active","ping":60},{"user_id":579,"name":"Sage","steam_id":76561198143101697,"connected_time":4916000000000,"state":"active","ping":101},{"user_id":617,"name":"viagra addict","steam_id":76561198017705248,"connected_time":1901000000000,"state":"active","ping":47},{"user_id":605,"name":"gummygeek","steam_id":76561198244543486,"connected_time":3356000000000,"state":"active","ping":113},{"user_id":632,"name":"HideOnTate","steam_id":76561198209880837,"connected_time":840000000000,"state":"active","ping":85},{"user_id":601,"name":"hej","steam_id":76561197996366940,"connected_time":3648000000000,"state":"active","ping":63},{"user_id":587,"name":"Also Known As Assteeth","steam_id":76561198049837377,"connected_time":4685000000000,"state":"active","ping":51},{"user_id":619,"name":"!","steam_id":76561198116821551,"connected_time":1700000000000,"state":"active","ping":60},{"user_id":627,"name":"SirKnight5067","steam_id":76561198377306047,"connected_time":902000000000,"state":"active","ping":69},{"user_id":530,"name":"私は不正行為をしてい","steam_id":76561199465653959,"connected_time":8991000000000,"state":"active","ping":129},{"user_id":635,"name":"mud","steam_id":76561198081243580,"connected_time":520000000000,"state":"active","ping":64},{"user_id":639,"name":"DarthEthanBoy","steam_id":76561198441643581,"connected_time":133000000000,"state":"active","ping":65}]},{"server_id":402,"name":"Uncletopia | Chicago | 3 | All Maps","name_short":"chi-3","host":"chi-1.us.uncletopia.com","port":27035,"enabled":true,"region":"us-central","cc":"us","latitude":41.881832,"longitude":-87.62318,"reserved":0,"last_update":"0001-01-01T00:00:00Z","name_a2s":"Uncletopia | Chicago | 3 | All Maps","protocol":17,"map":"pl_barnblitz","folder":"tf","game":"Team Fortress","app_id":440,"player_count":24,"max_players":24,"Bots":0,"server_type":"Dedicated","server_os":"Linux","password":true,"vac":true,"version":"7757534","steam_id":85568392924515191,"keywords":["nocrits","nodmgspread","payload","uncletopia"],"game_id":440,"stv_port":27036,"stv_name":"Uncletopia | Chicago | 3 | All Maps | STV","players":[{"user_id":209,"name":"Player_X_YT","steam_id":76561198377711617,"connected_time":1275000000000,"state":"active","ping":75},{"user_id":173,"name":"hashmap","steam_id":76561198043794014,"connected_time":4162000000000,"state":"active","ping":50},{"user_id":197,"name":"Crunchy","steam_id":76561199065412274,"connected_time":2363000000000,"state":"active","ping":67},{"user_id":181,"name":"Deathpill","steam_id":76561197994404793,"connected_time":3612000000000,"state":"active","ping":73},{"user_id":216,"name":"Scooby1961","steam_id":76561198019444443,"connected_time":923000000000,"state":"active","ping":75},{"user_id":212,"name":"DonoC","steam_id":76561198274473338,"connected_time":1073000000000,"state":"active","ping":75},{"user_id":220,"name":"hazel","steam_id":76561198447244031,"connected_time":516000000000,"state":"active","ping":69},{"user_id":219,"name":"Crazy Insane Proboscis Monkey","steam_id":76561198061011176,"connected_time":724000000000,"state":"active","ping":98},{"user_id":221,"name":"Normal Bagel","steam_id":76561198153971949,"connected_time":506000000000,"state":"active","ping":57},{"user_id":223,"name":"TacticalFluke","steam_id":76561198403291862,"connected_time":139000000000,"state":"active","ping":86},{"user_id":199,"name":"Cyber Cylon","steam_id":76561198048972781,"connected_time":2350000000000,"state":"active","ping":56},{"user_id":195,"name":"TheDanmanz","steam_id":76561198870519817,"connected_time":2561000000000,"state":"active","ping":109},{"user_id":187,"name":"Quibbli","steam_id":76561199214866732,"connected_time":3251000000000,"state":"active","ping":72},{"user_id":208,"name":"Zionight","steam_id":76561199453431468,"connected_time":1389000000000,"state":"active","ping":61},{"user_id":160,"name":"Masonator","steam_id":76561198409682030,"connected_time":5079000000000,"state":"active","ping":91},{"user_id":202,"name":"RabidSoda","steam_id":76561198115416316,"connected_time":2311000000000,"state":"active","ping":84},{"user_id":193,"name":"kib","steam_id":76561197993863671,"connected_time":2671000000000,"state":"active","ping":60},{"user_id":203,"name":"A Shiny Meat Bicycle","steam_id":76561198358757709,"connected_time":2292000000000,"state":"active","ping":96},{"user_id":222,"name":"Blazing Hyena","steam_id":76561199121852680,"connected_time":469000000000,"state":"active","ping":102},{"user_id":191,"name":"Motreir","steam_id":76561198151717946,"connected_time":2700000000000,"state":"active","ping":79},{"user_id":213,"name":"manbearswineflu","steam_id":76561198083945137,"connected_time":1059000000000,"state":"active","ping":66},{"user_id":192,"name":"bonk","steam_id":76561198004823930,"connected_time":2698000000000,"state":"active","ping":59},{"user_id":214,"name":"Butters495","steam_id":76561197998689042,"connected_time":1055000000000,"state":"active","ping":84},{"user_id":196,"name":"pim","steam_id":76561198095163441,"connected_time":2533000000000,"state":"active","ping":74}]},{"server_id":403,"name":"Uncletopia | Chicago | 4 | All Maps","name_short":"chi-4","host":"chi-1.us.uncletopia.com","port":27045,"enabled":true,"region":"us-central","cc":"us","latitude":41.881832,"longitude":-87.62318,"reserved":0,"last_update":"0001-01-01T00:00:00Z","name_a2s":"Uncletopia | Chicago | 4 | All Maps","protocol":17,"map":"koth_suijin","folder":"tf","game":"Team Fortress","app_id":440,"player_count":20,"max_players":24,"Bots":0,"server_type":"Dedicated","server_os":"Linux","password":true,"vac":true,"version":"7757534","steam_id":85568392924515193,"keywords":["cp","nocrits","nodmgspread","uncletopia"],"game_id":440,"stv_port":27046,"stv_name":"Uncletopia | Chicago | 4 | All Maps | STV","players":[{"user_id":537,"name":"spc1","steam_id":76561198050136796,"connected_time":12000000000,"state":"spawning","ping":77},{"user_id":519,"name":"highmechs","steam_id":76561198013650292,"connected_time":1116000000000,"state":"spawning","ping":125},{"user_id":530,"name":"Matidaus Tauntulas Greenwoodicu","steam_id":76561197992059815,"connected_time":210000000000,"state":"spawning","ping":100},{"user_id":514,"name":"Malcor","steam_id":76561198017594953,"connected_time":1314000000000,"state":"spawning","ping":60},{"user_id":442,"name":"embrzmr","steam_id":76561198416973765,"connected_time":4459000000000,"state":"spawning","ping":83},{"user_id":450,"name":"PurplePond","steam_id":76561199062421006,"connected_time":3916000000000,"state":"spawning","ping":68},{"user_id":526,"name":"yogrrt","steam_id":76561198012510968,"connected_time":457000000000,"state":"active","ping":200},{"user_id":446,"name":"Peter Popoff","steam_id":76561198027171160,"connected_time":4204000000000,"state":"spawning","ping":34},{"user_id":457,"name":"Snorgdarf","steam_id":76561198047962582,"connected_time":3418000000000,"state":"spawning","ping":252},{"user_id":536,"name":"Concolor","steam_id":76561198027734150,"connected_time":28000000000,"state":"spawning","ping":64},{"user_id":531,"name":"zeplinnn","steam_id":76561198301300987,"connected_time":209000000000,"state":"spawning","ping":95},{"user_id":516,"name":"Bob","steam_id":76561198074004469,"connected_time":1219000000000,"state":"spawning","ping":52},{"user_id":501,"name":"Bobato Chaps","steam_id":76561198065103552,"connected_time":2206000000000,"state":"spawning","ping":34},{"user_id":456,"name":"Shattered Glass","steam_id":76561198116835391,"connected_time":3430000000000,"state":"spawning","ping":69},{"user_id":534,"name":"golem","steam_id":76561198355040593,"connected_time":166000000000,"state":"spawning","ping":66},{"user_id":507,"name":"Teutiaplus","steam_id":76561198880943359,"connected_time":1381000000000,"state":"spawning","ping":57},{"user_id":511,"name":"help! country toad","steam_id":76561198042619246,"connected_time":1345000000000,"state":"spawning","ping":213},{"user_id":505,"name":"J.G. Klaus","steam_id":76561198001111196,"connected_time":1511000000000,"state":"spawning","ping":58},{"user_id":504,"name":"Dr_Spek","steam_id":76561198128667701,"connected_time":1532000000000,"state":"spawning","ping":69},{"user_id":524,"name":"Freak","steam_id":76561197999782172,"connected_time":703000000000,"state":"spawning","ping":62}]},{"server_id":36,"name":"Uncletopia | Chicago | 5 | All Maps","name_short":"chi-5","host":"chi-2.us.uncletopia.com","port":27015,"enabled":true,"region":"us-central","cc":"us","latitude":41.881832,"longitude":-87.62318,"reserved":0,"last_update":"0001-01-01T00:00:00Z","name_a2s":"Uncletopia | Chicago | 5 | All Maps","protocol":17,"map":"cp_coldfront","folder":"tf","game":"Team Fortress","app_id":440,"player_count":24,"max_players":24,"Bots":0,"server_type":"Dedicated","server_os":"Linux","password":true,"vac":true,"version":"7757534","steam_id":85568392924866362,"keywords":["cp","nocrits","nodmgspread","uncletopia"],"game_id":440,"stv_port":27016,"stv_name":"Uncletopia | Chicago | 5 | All Maps | STV","players":[{"user_id":229,"name":"n0moral","steam_id":76561198269094523,"connected_time":132000000000,"state":"active","ping":195},{"user_id":225,"name":"*****setget","steam_id":76561198118824188,"connected_time":141000000000,"state":"active","ping":124},{"user_id":224,"name":"Worst spy gaming","steam_id":76561198262559724,"connected_time":575000000000,"state":"active","ping":62},{"user_id":230,"name":"jeff","steam_id":76561199289121903,"connected_time":125000000000,"state":"active","ping":74},{"user_id":162,"name":"Sour Pink Lemonade","steam_id":76561199220389643,"connected_time":4411000000000,"state":"active","ping":53},{"user_id":206,"name":"Real_Ryth","steam_id":76561198024916177,"connected_time":1766000000000,"state":"active","ping":88},{"user_id":211,"name":"1998","steam_id":76561199200208797,"connected_time":1558000000000,"state":"active","ping":60},{"user_id":215,"name":"CapnKris22","steam_id":76561198049010994,"connected_time":1156000000000,"state":"active","ping":68},{"user_id":212,"name":"RX 6500 XT","steam_id":76561197999657118,"connected_time":1557000000000,"state":"active","ping":84},{"user_id":231,"name":"FelixCuticus","steam_id":76561198379107275,"connected_time":87000000000,"state":"spawning","ping":143},{"user_id":114,"name":"roast pig with apple in mouth","steam_id":76561198051353647,"connected_time":7860000000000,"state":"active","ping":65},{"user_id":170,"name":"Goose of Wisdom","steam_id":76561198233465044,"connected_time":4332000000000,"state":"active","ping":69},{"user_id":171,"name":"Deeply","steam_id":76561199000786530,"connected_time":4314000000000,"state":"active","ping":90},{"user_id":123,"name":"begolds8","steam_id":76561198841069098,"connected_time":7485000000000,"state":"active","ping":71},{"user_id":135,"name":"Stormz64(But weezer)","steam_id":76561198239036482,"connected_time":6485000000000,"state":"active","ping":71},{"user_id":227,"name":"slapnuts","steam_id":76561197964472656,"connected_time":139000000000,"state":"active","ping":75},{"user_id":204,"name":"Piyono","steam_id":76561197962188504,"connected_time":2016000000000,"state":"active","ping":70},{"user_id":233,"name":"Oh no","steam_id":76561198123441203,"connected_time":32000000000,"state":"active","ping":80},{"user_id":194,"name":"いちごまろ","steam_id":76561198166100997,"connected_time":3079000000000,"state":"active","ping":83},{"user_id":202,"name":"heavyArmor","steam_id":76561198191056059,"connected_time":2317000000000,"state":"active","ping":75},{"user_id":217,"name":"yeyoi","steam_id":76561198069821885,"connected_time":1142000000000,"state":"active","ping":76},{"user_id":64,"name":"Glue Gulper","steam_id":76561198158014525,"connected_time":11023000000000,"state":"active","ping":58},{"user_id":141,"name":"Casual Costanza","steam_id":76561198024409325,"connected_time":6359000000000,"state":"active","ping":71},{"user_id":223,"name":"Master Of Whales","steam_id":76561198349104889,"connected_time":875000000000,"state":"active","ping":115}]},{"server_id":37,"name":"Uncletopia | Chicago | 6 | All Maps","name_short":"chi-6","host":"chi-2.us.uncletopia.com","port":27025,"enabled":true,"region":"us-central","cc":"us","latitude":41.881832,"longitude":-87.62318,"reserved":0,"last_update":"0001-01-01T00:00:00Z","name_a2s":"Uncletopia | Chicago | 6 | All Maps","protocol":17,"map":"pl_barnblitz","folder":"tf","game":"Team Fortress","app_id":440,"player_count":24,"max_players":24,"Bots":0,"server_type":"Dedicated","server_os":"Linux","password":true,"vac":true,"version":"7757534","steam_id":85568392924866363,"keywords":["nocrits","nodmgspread","payload","uncletopia"],"game_id":440,"stv_port":27026,"stv_name":"Uncletopia | Chicago | 6 | All Maps | STV","players":[{"user_id":209,"name":"Clean Lines","steam_id":76561197960691518,"connected_time":5898000000000,"state":"active","ping":54},{"user_id":260,"name":"AlexeiStukov","steam_id":76561197993272929,"connected_time":1342000000000,"state":"active","ping":66},{"user_id":254,"name":"A Puppy","steam_id":76561198828184456,"connected_time":1592000000000,"state":"active","ping":59},{"user_id":250,"name":"delusional schizophrenic","steam_id":76561198323435040,"connected_time":3058000000000,"state":"active","ping":64},{"user_id":269,"name":"Gay Cake","steam_id":76561198004388831,"connected_time":467000000000,"state":"active","ping":69},{"user_id":265,"name":"minerkid2004","steam_id":76561198044262827,"connected_time":1179000000000,"state":"active","ping":98},{"user_id":266,"name":"sunrisebanana","steam_id":76561198038764622,"connected_time":950000000000,"state":"active","ping":49},{"user_id":277,"name":"a","steam_id":76561198131245396,"connected_time":142000000000,"state":"active","ping":61},{"user_id":278,"name":"Danger Days by MCR","steam_id":76561199107068627,"connected_time":138000000000,"state":"active","ping":55},{"user_id":245,"name":"Prof. Leafeon","steam_id":76561198123549027,"connected_time":3299000000000,"state":"active","ping":69},{"user_id":226,"name":"Stoa","steam_id":76561198332519926,"connected_time":4843000000000,"state":"active","ping":85},{"user_id":274,"name":"i hate car seat headrest","steam_id":76561198055186751,"connected_time":194000000000,"state":"active","ping":73},{"user_id":267,"name":"Maybe_Next_Day","steam_id":76561198117091534,"connected_time":945000000000,"state":"active","ping":63},{"user_id":242,"name":"BlixyDragon","steam_id":76561198295422834,"connected_time":3365000000000,"state":"active","ping":154},{"user_id":275,"name":"hk","steam_id":76561197977182378,"connected_time":183000000000,"state":"active","ping":54},{"user_id":276,"name":"Holiday Fartcruise","steam_id":76561198043851584,"connected_time":180000000000,"state":"active","ping":116},{"user_id":229,"name":"Hammerhead","steam_id":76561198897122890,"connected_time":4748000000000,"state":"active","ping":58},{"user_id":258,"name":"Transbian mommy GF","steam_id":76561198153233822,"connected_time":1562000000000,"state":"active","ping":66},{"user_id":249,"name":"Pertinax","steam_id":76561198000753987,"connected_time":3177000000000,"state":"active","ping":60},{"user_id":270,"name":"Rain","steam_id":76561198022607401,"connected_time":465000000000,"state":"active","ping":84},{"user_id":248,"name":"Mike","steam_id":76561198026768577,"connected_time":3231000000000,"state":"active","ping":83},{"user_id":203,"name":"ror!","steam_id":76561198021227843,"connected_time":6595000000000,"state":"active","ping":60},{"user_id":279,"name":"merektd","steam_id":76561198123109185,"connected_time":107000000000,"state":"spawning","ping":52},{"user_id":232,"name":"corpach","steam_id":76561198150418268,"connected_time":4551000000000,"state":"active","ping":76}]},{"server_id":38,"name":"Uncletopia | Chicago | 7 | Stopwatch Beta","name_short":"chi-7","host":"chi-2.us.uncletopia.com","port":27035,"enabled":true,"region":"us-central","cc":"us","latitude":41.881832,"longitude":-87.62318,"reserved":0,"last_update":"0001-01-01T00:00:00Z","name_a2s":"Uncletopia | Chicago | 7 | Stopwatch Beta","protocol":17,"map":"workshop/koth_bagel_rc6.ugc2514036946","folder":"tf","game":"Team Fortress","app_id":440,"player_count":24,"max_players":24,"Bots":0,"server_type":"Dedicated","server_os":"Linux","password":true,"vac":true,"version":"7757534","steam_id":85568392924866364,"keywords":["cp","nocrits","nodmgspread","uncletopia"],"game_id":440,"stv_port":27036,"stv_name":"Uncletopia | Chicago | 7 | Stopwatch Beta | STV","players":[{"user_id":23,"name":"Bruhdley","steam_id":76561198312865513,"connected_time":783000000000,"state":"active","ping":120},{"user_id":24,"name":"BT-7 Tank","steam_id":76561199095832839,"connected_time":769000000000,"state":"active","ping":83},{"user_id":78,"name":"toddler on ipad","steam_id":76561199016999537,"connected_time":304000000000,"state":"active","ping":122},{"user_id":26,"name":"Coolmancary","steam_id":76561199086127890,"connected_time":682000000000,"state":"active","ping":94},{"user_id":27,"name":"Zoryor","steam_id":76561198145512613,"connected_time":676000000000,"state":"active","ping":70},{"user_id":28,"name":"Spry0-0","steam_id":76561198168620884,"connected_time":640000000000,"state":"active","ping":80},{"user_id":29,"name":"Lemmers235","steam_id":76561199192668922,"connected_time":629000000000,"state":"active","ping":91},{"user_id":30,"name":"hashbrowns","steam_id":76561199038878121,"connected_time":622000000000,"state":"active","ping":142},{"user_id":66,"name":"Crackmire","steam_id":76561199016285746,"connected_time":372000000000,"state":"active","ping":90},{"user_id":74,"name":"RainbowLlama","steam_id":76561198129467214,"connected_time":344000000000,"state":"active","ping":58},{"user_id":79,"name":"Remy the rat","steam_id":76561198080519558,"connected_time":303000000000,"state":"active","ping":78},{"user_id":80,"name":"SomeFuckingGuy #SAVETF2","steam_id":76561199239165015,"connected_time":288000000000,"state":"active","ping":83},{"user_id":82,"name":"rockfantic","steam_id":76561199205066271,"connected_time":281000000000,"state":"active","ping":69},{"user_id":83,"name":"mEch114","steam_id":76561198236936060,"connected_time":281000000000,"state":"active","ping":65},{"user_id":85,"name":"dull","steam_id":76561198300417480,"connected_time":280000000000,"state":"active","ping":76},{"user_id":86,"name":"Stelyr","steam_id":76561198890322771,"connected_time":264000000000,"state":"spawning","ping":0},{"user_id":87,"name":"Onett_Boys","steam_id":76561198054735682,"connected_time":247000000000,"state":"active","ping":91},{"user_id":88,"name":"Goblin","steam_id":76561198338245497,"connected_time":246000000000,"state":"active","ping":49},{"user_id":89,"name":"Rickysuper_52","steam_id":76561198067865179,"connected_time":223000000000,"state":"active","ping":79},{"user_id":90,"name":"Mupu Mupu","steam_id":76561198808795775,"connected_time":167000000000,"state":"active","ping":108},{"user_id":91,"name":"lajeunessetalon","steam_id":76561199066516273,"connected_time":66000000000,"state":"active","ping":93},{"user_id":92,"name":"23™","steam_id":76561198314951185,"connected_time":40000000000,"state":"spawning","ping":585},{"user_id":93,"name":"crunchy obama","steam_id":76561198044485217,"connected_time":27000000000,"state":"active","ping":109},{"user_id":94,"name":"B)","steam_id":76561198093921290,"connected_time":21000000000,"state":"active","ping":47}]},{"server_id":39,"name":"Uncletopia | Chicago | 8 | Community","name_short":"chi-8","host":"chi-2.us.uncletopia.com","port":27045,"enabled":true,"region":"us-central","cc":"us","latitude":41.881832,"longitude":-87.62318,"reserved":0,"last_update":"0001-01-01T00:00:00Z","name_a2s":"Uncletopia | Chicago | 8 | Community","protocol":17,"map":"workshop/pl_barnblitz_pro7.ugc582280235","folder":"tf","game":"Team Fortress","app_id":440,"player_count":17,"max_players":24,"Bots":0,"server_type":"Dedicated","server_os":"Linux","password":true,"vac":true,"version":"7757534","steam_id":85568392924866365,"keywords":["nocrits","nodmgspread","payload","uncletopia"],"game_id":440,"stv_port":27046,"stv_name":"Uncletopia | Chicago | 8 | Community | STV","players":[{"user_id":110,"name":"Harper","steam_id":76561199214101143,"connected_time":1481000000000,"state":"active","ping":70},{"user_id":64,"name":"twitch.tv/frimpimy","steam_id":76561198142605675,"connected_time":5143000000000,"state":"active","ping":57},{"user_id":127,"name":"FROYO meyy","steam_id":76561198017539604,"connected_time":137000000000,"state":"active","ping":64},{"user_id":95,"name":"Doinnoid","steam_id":76561198262276139,"connected_time":2515000000000,"state":"active","ping":71},{"user_id":129,"name":"acidal","steam_id":76561198397640188,"connected_time":14000000000,"state":"spawning","ping":151},{"user_id":115,"name":"Lucky Ninja","steam_id":76561198053366752,"connected_time":1007000000000,"state":"active","ping":64},{"user_id":93,"name":"Grimace","steam_id":76561198297216420,"connected_time":3023000000000,"state":"active","ping":64},{"user_id":100,"name":"Firebug","steam_id":76561198081832157,"connected_time":2295000000000,"state":"active","ping":76},{"user_id":108,"name":"LoveShark","steam_id":76561198141498508,"connected_time":1503000000000,"state":"active","ping":69},{"user_id":63,"name":"Snowy Squill","steam_id":76561198073504207,"connected_time":5323000000000,"state":"active","ping":154},{"user_id":128,"name":"Kid B8","steam_id":76561198086764710,"connected_time":114000000000,"state":"active","ping":67},{"user_id":101,"name":"Batsy","steam_id":76561198044767185,"connected_time":2183000000000,"state":"active","ping":56},{"user_id":111,"name":"Corbe","steam_id":76561198353893927,"connected_time":1458000000000,"state":"active","ping":42},{"user_id":51,"name":"[TSG] Turner's Chocolate Milk","steam_id":76561198058963288,"connected_time":6148000000000,"state":"active","ping":56},{"user_id":83,"name":"LEGALIZE NUCLEAR BOMBS","steam_id":76561198031675881,"connected_time":3451000000000,"state":"active","ping":60},{"user_id":97,"name":"Joshua31704","steam_id":76561198125898714,"connected_time":2502000000000,"state":"active","ping":76},{"user_id":117,"name":"brain big okay?","steam_id":76561198102681457,"connected_time":526000000000,"state":"active","ping":66}]},{"server_id":8,"name":"Uncletopia | Dallas | 1 | All Maps","name_short":"dal-1","host":"dal-1.us.uncletopia.com","port":27015,"enabled":true,"region":"us-central","cc":"us","latitude":32.779167,"longitude":-96.80889,"reserved":0,"last_update":"0001-01-01T00:00:00Z","name_a2s":"Uncletopia | Dallas | 1 | All Maps","protocol":17,"map":"pl_swiftwater_final1","folder":"tf","game":"Team Fortress","app_id":440,"player_count":23,"max_players":24,"Bots":0,"server_type":"Dedicated","server_os":"Linux","password":true,"vac":true,"version":"7757534","steam_id":85568392924469986,"keywords":["nocrits","nodmgspread","payload","uncletopia"],"game_id":440,"stv_port":27016,"stv_name":"Uncletopia | Dallas | 1 | All Maps | STV","players":[{"user_id":423,"name":"cheetaz","steam_id":76561198224614084,"connected_time":91000000000,"state":"active","ping":75},{"user_id":413,"name":"ObsessedNerd505","steam_id":76561199045531456,"connected_time":582000000000,"state":"active","ping":85},{"user_id":406,"name":"Pizza Man","steam_id":76561198170459498,"connected_time":934000000000,"state":"active","ping":59},{"user_id":419,"name":"-Danger-","steam_id":76561198025405728,"connected_time":302000000000,"state":"active","ping":66},{"user_id":358,"name":"Jamendithas","steam_id":76561198119537716,"connected_time":4346000000000,"state":"active","ping":94},{"user_id":421,"name":"stoned jester","steam_id":76561198079609974,"connected_time":270000000000,"state":"active","ping":88},{"user_id":394,"name":"NOT Susie Deltarune (not real)","steam_id":76561199007365488,"connected_time":2143000000000,"state":"active","ping":70},{"user_id":412,"name":"TomosconesYT","steam_id":76561198813586588,"connected_time":612000000000,"state":"active","ping":100},{"user_id":408,"name":"IM NOT GONNA TAKE THIS ANYMORE","steam_id":76561198126358045,"connected_time":883000000000,"state":"active","ping":90},{"user_id":409,"name":"アップル","steam_id":76561198017686306,"connected_time":776000000000,"state":"active","ping":166},{"user_id":384,"name":"Ryo31337","steam_id":76561198063083553,"connected_time":2852000000000,"state":"active","ping":74},{"user_id":353,"name":"amby","steam_id":76561198143569935,"connected_time":4684000000000,"state":"active","ping":75},{"user_id":416,"name":"creamy","steam_id":76561198157435832,"connected_time":546000000000,"state":"active","ping":88},{"user_id":420,"name":"[DATS➡] Sugar Meowth","steam_id":76561197995251793,"connected_time":293000000000,"state":"active","ping":93},{"user_id":398,"name":"Lord Garrard","steam_id":76561198212184303,"connected_time":1293000000000,"state":"active","ping":54},{"user_id":424,"name":"Tibalt Nyahuma","steam_id":76561198034779431,"connected_time":20000000000,"state":"spawning","ping":69},{"user_id":349,"name":"Streetcleaner","steam_id":76561199160439080,"connected_time":4823000000000,"state":"active","ping":75},{"user_id":417,"name":"Zeora","steam_id":76561198799145251,"connected_time":503000000000,"state":"active","ping":73},{"user_id":393,"name":"joelygoat","steam_id":76561198949565555,"connected_time":2454000000000,"state":"active","ping":119},{"user_id":422,"name":":3","steam_id":76561198058890821,"connected_time":263000000000,"state":"active","ping":74},{"user_id":402,"name":"magnolia","steam_id":76561199228865188,"connected_time":1279000000000,"state":"active","ping":44},{"user_id":415,"name":"WarMace","steam_id":76561198395937853,"connected_time":572000000000,"state":"active","ping":96},{"user_id":386,"name":"Acid-talon","steam_id":76561198039545578,"connected_time":2851000000000,"state":"active","ping":98}]},{"server_id":108,"name":"Uncletopia | Dallas | 2 | All Maps","name_short":"dal-2","host":"dal-1.us.uncletopia.com","port":27025,"enabled":true,"region":"us-central","cc":"us","latitude":32.779167,"longitude":-96.80889,"reserved":0,"last_update":"0001-01-01T00:00:00Z","name_a2s":"Uncletopia | Dallas | 2 | All Maps","protocol":17,"map":"pl_badwater","folder":"tf","game":"Team Fortress","app_id":440,"player_count":24,"max_players":24,"Bots":0,"server_type":"Dedicated","server_os":"Linux","password":true,"vac":true,"version":"7757534","steam_id":85568392924469988,"keywords":["nocrits","nodmgspread","payload","uncletopia"],"game_id":440,"stv_port":27026,"stv_name":"Uncletopia | Dallas | 2 | All Maps | STV","players":[{"user_id":238,"name":"Kelpy G","steam_id":76561198105330587,"connected_time":5854000000000,"state":"active","ping":56},{"user_id":306,"name":"Amos","steam_id":76561198104317429,"connected_time":316000000000,"state":"active","ping":88},{"user_id":302,"name":"Nen","steam_id":76561198893347370,"connected_time":837000000000,"state":"active","ping":101},{"user_id":239,"name":"Maxley","steam_id":76561198148602225,"connected_time":5809000000000,"state":"active","ping":85},{"user_id":304,"name":"alxander spetz","steam_id":76561198087666917,"connected_time":778000000000,"state":"active","ping":60},{"user_id":303,"name":"TechnoBear2099","steam_id":76561198238863596,"connected_time":820000000000,"state":"active","ping":48},{"user_id":264,"name":"Purchase your tracks today","steam_id":76561198084422657,"connected_time":3798000000000,"state":"active","ping":80},{"user_id":267,"name":"678-999-8212","steam_id":76561198084260378,"connected_time":3645000000000,"state":"active","ping":34},{"user_id":268,"name":"Horse","steam_id":76561198004583631,"connected_time":3520000000000,"state":"active","ping":100},{"user_id":272,"name":"sandwich","steam_id":76561199158296084,"connected_time":2618000000000,"state":"active","ping":69},{"user_id":263,"name":"polarize","steam_id":76561198039686606,"connected_time":4027000000000,"state":"active","ping":93},{"user_id":305,"name":"Cedric","steam_id":76561198072090580,"connected_time":586000000000,"state":"active","ping":100},{"user_id":297,"name":"Ok then","steam_id":76561198891914787,"connected_time":914000000000,"state":"active","ping":83},{"user_id":286,"name":"zzzz","steam_id":76561199413388036,"connected_time":2360000000000,"state":"active","ping":88},{"user_id":307,"name":"Wagemage","steam_id":76561198013625580,"connected_time":290000000000,"state":"active","ping":83},{"user_id":287,"name":"Gary Come Home","steam_id":76561198411731591,"connected_time":2213000000000,"state":"active","ping":99},{"user_id":281,"name":"illious","steam_id":76561198169925494,"connected_time":2553000000000,"state":"active","ping":90},{"user_id":296,"name":"the nuisance","steam_id":76561198396326793,"connected_time":1029000000000,"state":"active","ping":79},{"user_id":300,"name":"Flubdy_","steam_id":76561198073338521,"connected_time":852000000000,"state":"active","ping":60},{"user_id":299,"name":"♠Maxsilvr♠","steam_id":76561199015858475,"connected_time":878000000000,"state":"active","ping":72},{"user_id":265,"name":"Fart.","steam_id":76561198066403448,"connected_time":3774000000000,"state":"active","ping":81},{"user_id":308,"name":"Big Yoshi","steam_id":76561199160576376,"connected_time":282000000000,"state":"active","ping":101},{"user_id":260,"name":"Xx-CostcoShopper-xX","steam_id":76561198066429444,"connected_time":4330000000000,"state":"active","ping":94},{"user_id":295,"name":"JimJee","steam_id":76561199120656064,"connected_time":1207000000000,"state":"active","ping":69}]},{"server_id":5,"name":"Uncletopia | Frankfurt | 1 | All Maps","name_short":"frk-1","host":"frk-1.de.uncletopia.com","port":27015,"enabled":true,"region":"eu","cc":"de","latitude":50.110924,"longitude":8.682127,"reserved":0,"last_update":"0001-01-01T00:00:00Z","name_a2s":"Uncletopia | Frankfurt | 1 | All Maps","protocol":17,"map":"pl_frontier_final","folder":"tf","game":"Team Fortress","app_id":440,"player_count":0,"max_players":24,"Bots":0,"server_type":"Dedicated","server_os":"Linux","password":true,"vac":true,"version":"7757534","steam_id":85568392924469989,"keywords":["nocrits","nodmgspread","payload","uncletopia"],"game_id":440,"stv_port":27016,"stv_name":"Uncletopia | Frankfurt | 1 | All Maps | STV","players":null},{"server_id":110,"name":"Uncletopia | Frankfurt | 2 | All Maps","name_short":"frk-2","host":"frk-1.de.uncletopia.com","port":27025,"enabled":true,"region":"eu","cc":"de","latitude":50.110924,"longitude":8.682127,"reserved":0,"last_update":"0001-01-01T00:00:00Z","name_a2s":"Uncletopia | Frankfurt | 2 | All Maps","protocol":17,"map":"cp_sunshine","folder":"tf","game":"Team Fortress","app_id":440,"player_count":1,"max_players":24,"Bots":0,"server_type":"Dedicated","server_os":"Linux","password":true,"vac":true,"version":"7757534","steam_id":85568392924469990,"keywords":["cp","nocrits","nodmgspread","uncletopia"],"game_id":440,"stv_port":27026,"stv_name":"Uncletopia | Frankfurt | 2 | All Maps | STV","players":[{"user_id":663,"name":"Hleno","steam_id":76561198060442619,"connected_time":18000000000,"state":"active","ping":34}]},{"server_id":308,"name":"Uncletopia | Frankfurt | 3 | All Maps","name_short":"frk-3","host":"frk-1.de.uncletopia.com","port":27035,"enabled":true,"region":"eu","cc":"de","latitude":50.110924,"longitude":8.682127,"reserved":0,"last_update":"0001-01-01T00:00:00Z","name_a2s":"Uncletopia | Frankfurt | 3 | All Maps","protocol":17,"map":"koth_lakeside_final","folder":"tf","game":"Team Fortress","app_id":440,"player_count":0,"max_players":24,"Bots":0,"server_type":"Dedicated","server_os":"Linux","password":true,"vac":true,"version":"7757534","steam_id":85568392924504274,"keywords":["cp","nocrits","nodmgspread","uncletopia"],"game_id":440,"stv_port":27036,"stv_name":"Uncletopia | Frankfurt | 3 | All Maps | STV","players":null},{"server_id":309,"name":"Uncletopia | Frankfurt | 4 | All Maps","name_short":"frk-4","host":"frk-1.de.uncletopia.com","port":27045,"enabled":true,"region":"eu","cc":"de","latitude":50.110924,"longitude":8.682127,"reserved":0,"last_update":"0001-01-01T00:00:00Z","name_a2s":"Uncletopia | Frankfurt | 4 | All Maps","protocol":17,"map":"koth_viaduct","folder":"tf","game":"Team Fortress","app_id":440,"player_count":0,"max_players":24,"Bots":0,"server_type":"Dedicated","server_os":"Linux","password":true,"vac":true,"version":"7757534","steam_id":85568392924504275,"keywords":["cp","nocrits","nodmgspread","uncletopia"],"game_id":440,"stv_port":27046,"stv_name":"Uncletopia | Frankfurt | 4 | All Maps | STV","players":null},{"server_id":310,"name":"Uncletopia | Frankfurt | 5 | All Maps","name_short":"frk-5","host":"frk-1.de.uncletopia.com","port":27055,"enabled":true,"region":"eu","cc":"de","latitude":50.110924,"longitude":8.682127,"reserved":0,"last_update":"0001-01-01T00:00:00Z","name_a2s":"Uncletopia | Frankfurt | 5 | All Maps","protocol":17,"map":"koth_highpass","folder":"tf","game":"Team Fortress","app_id":440,"player_count":0,"max_players":24,"Bots":0,"server_type":"Dedicated","server_os":"Linux","password":true,"vac":true,"version":"7757534","steam_id":85568392924504277,"keywords":["cp","nocrits","nodmgspread","uncletopia"],"game_id":440,"stv_port":27056,"stv_name":"Uncletopia | Frankfurt | 5 | All Maps | STV","players":null},{"server_id":311,"name":"Uncletopia | Frankfurt | 6 | All Maps","name_short":"frk-6","host":"frk-1.de.uncletopia.com","port":27065,"enabled":true,"region":"eu","cc":"de","latitude":50.110924,"longitude":8.682127,"reserved":0,"last_update":"0001-01-01T00:00:00Z","name_a2s":"Uncletopia | Frankfurt | 6 | All Maps","protocol":17,"map":"cp_snakewater_final1","folder":"tf","game":"Team Fortress","app_id":440,"player_count":0,"max_players":24,"Bots":0,"server_type":"Dedicated","server_os":"Linux","password":true,"vac":true,"version":"7757534","steam_id":85568392924504278,"keywords":["cp","nocrits","nodmgspread","uncletopia"],"game_id":440,"stv_port":27066,"stv_name":"Uncletopia | Frankfurt | 6 | All Maps | STV","players":null},{"server_id":23,"name":"Uncletopia | Frankfurt | 7 | Stopwatch Beta","name_short":"frk-7","host":"frk-1.de.uncletopia.com","port":27075,"enabled":true,"region":"eu","cc":"de","latitude":50.110924,"longitude":8.682127,"reserved":0,"last_update":"0001-01-01T00:00:00Z","name_a2s":"Uncletopia | Frankfurt | 7 | Stopwatch Beta","protocol":17,"map":"workshop/pl_barnblitz_pro7.ugc582280235","folder":"tf","game":"Team Fortress","app_id":440,"player_count":0,"max_players":24,"Bots":0,"server_type":"Dedicated","server_os":"Linux","password":true,"vac":true,"version":"7757534","steam_id":85568392924742827,"keywords":["nocrits","nodmgspread","payload","uncletopia"],"game_id":440,"stv_port":27076,"stv_name":"Uncletopia | Frankfurt | 7 | Stopwatch Beta | STV","players":null},{"server_id":24,"name":"Uncletopia | Frankfurt | 8 | Community","name_short":"frk-8","host":"frk-1.de.uncletopia.com","port":27085,"enabled":true,"region":"eu","cc":"de","latitude":50.110924,"longitude":8.682127,"reserved":0,"last_update":"0001-01-01T00:00:00Z","name_a2s":"Uncletopia | Frankfurt | 8 | Community","protocol":17,"map":"workshop/koth_ashville_final.ugc2130459942","folder":"tf","game":"Team Fortress","app_id":440,"player_count":0,"max_players":24,"Bots":0,"server_type":"Dedicated","server_os":"Linux","password":true,"vac":true,"version":"7757534","steam_id":85568392924742828,"keywords":["cp","nocrits","nodmgspread","uncletopia"],"game_id":440,"stv_port":27086,"stv_name":"Uncletopia | Frankfurt | 8 | Community | STV","players":null},{"server_id":202,"name":"Uncletopia | Hong Kong | 1 | All Maps","name_short":"hgk-1","host":"hgk-1.hk.uncletopia.com","port":27015,"enabled":true,"region":"asia","cc":"hk","latitude":22.302711,"longitude":114.177216,"reserved":0,"last_update":"0001-01-01T00:00:00Z","name_a2s":"Uncletopia | Hong Kong | 1 | All Maps","protocol":17,"map":"cp_snakewater_final1","folder":"tf","game":"Team Fortress","app_id":440,"player_count":1,"max_players":24,"Bots":0,"server_type":"Dedicated","server_os":"Linux","password":true,"vac":true,"version":"7757534","steam_id":85568392924494504,"keywords":["cp","nocrits","nodmgspread","uncletopia"],"game_id":440,"stv_port":27016,"stv_name":"Uncletopia | Hong Kong | 1 | All Maps | STV","players":[{"user_id":5,"name":"blobeye","steam_id":76561198420018387,"connected_time":1935000000000,"state":"active","ping":37}]},{"server_id":1,"name":"Uncletopia | Los Angeles | 1 | All Maps","name_short":"lax-1","host":"lax-1.us.uncletopia.com","port":27015,"enabled":true,"region":"us-west","cc":"us","latitude":33.94279,"longitude":-118.41004,"reserved":0,"last_update":"0001-01-01T00:00:00Z","name_a2s":"Uncletopia | Los Angeles | 1 | All Maps","protocol":17,"map":"plr_bananabay","folder":"tf","game":"Team Fortress","app_id":440,"player_count":19,"max_players":24,"Bots":0,"server_type":"Dedicated","server_os":"Linux","password":true,"vac":true,"version":"7757534","steam_id":85568392924469991,"keywords":["nocrits","nodmgspread","payload","uncletopia"],"game_id":440,"stv_port":27016,"stv_name":"Uncletopia | Los Angeles | 1 | All Maps | STV","players":[{"user_id":214,"name":"AAGooseman","steam_id":76561198378941369,"connected_time":731000000000,"state":"active","ping":44},{"user_id":209,"name":"StarGuyVI","steam_id":76561199366304746,"connected_time":1107000000000,"state":"active","ping":105},{"user_id":211,"name":"Hindmost","steam_id":76561199081837220,"connected_time":1072000000000,"state":"active","ping":100},{"user_id":193,"name":"GඞMER","steam_id":76561198340389876,"connected_time":1886000000000,"state":"active","ping":83},{"user_id":227,"name":"Larry Koopa","steam_id":76561199433618989,"connected_time":84000000000,"state":"active","ping":79},{"user_id":215,"name":"Javis","steam_id":76561198204163123,"connected_time":684000000000,"state":"active","ping":98},{"user_id":210,"name":"XxX420UwUMaster666XxX","steam_id":76561199351137762,"connected_time":1103000000000,"state":"active","ping":73},{"user_id":223,"name":"Alkemistt","steam_id":76561198147644202,"connected_time":380000000000,"state":"active","ping":49},{"user_id":216,"name":"blue of days","steam_id":76561199113013688,"connected_time":681000000000,"state":"active","ping":56},{"user_id":228,"name":"Buyer's Market Gardener","steam_id":76561197995200743,"connected_time":54000000000,"state":"active","ping":30},{"user_id":206,"name":"Furious George","steam_id":76561198405111646,"connected_time":1255000000000,"state":"active","ping":66},{"user_id":196,"name":"Cutter Locus","steam_id":76561198415857614,"connected_time":1867000000000,"state":"active","ping":102},{"user_id":217,"name":"weenie hut jr","steam_id":76561198206922028,"connected_time":656000000000,"state":"active","ping":53},{"user_id":218,"name":"Power Jake","steam_id":76561198051510260,"connected_time":645000000000,"state":"active","ping":60},{"user_id":200,"name":"Kidjays","steam_id":76561198124941901,"connected_time":1837000000000,"state":"active","ping":95},{"user_id":170,"name":"bonk schnoffer","steam_id":76561198301598124,"connected_time":3467000000000,"state":"active","ping":84},{"user_id":225,"name":"tN|SpiritofLight","steam_id":76561197967936643,"connected_time":187000000000,"state":"active","ping":64},{"user_id":207,"name":"GLXy","steam_id":76561198207551544,"connected_time":1189000000000,"state":"active","ping":89},{"user_id":222,"name":"BrightOrangeMango","steam_id":76561198023144607,"connected_time":477000000000,"state":"active","ping":61}]},{"server_id":112,"name":"Uncletopia | Los Angeles | 2 | All Maps","name_short":"lax-2","host":"lax-1.us.uncletopia.com","port":27025,"enabled":true,"region":"us-west","cc":"us","latitude":33.94279,"longitude":-118.41004,"reserved":0,"last_update":"0001-01-01T00:00:00Z","name_a2s":"Uncletopia | Los Angeles | 2 | All Maps","protocol":17,"map":"pl_swiftwater_final1","folder":"tf","game":"Team Fortress","app_id":440,"player_count":24,"max_players":24,"Bots":0,"server_type":"Dedicated","server_os":"Linux","password":true,"vac":true,"version":"7757534","steam_id":85568392924469992,"keywords":["nocrits","nodmgspread","payload","uncletopia"],"game_id":440,"stv_port":27026,"stv_name":"Uncletopia | Los Angeles | 2 | All Maps | STV","players":[{"user_id":330,"name":"420blzItM8","steam_id":76561198137983285,"connected_time":1780000000000,"state":"active","ping":123},{"user_id":368,"name":"CPTforever","steam_id":76561198237767198,"connected_time":86000000000,"state":"active","ping":58},{"user_id":367,"name":"Fenneck","steam_id":76561198061985604,"connected_time":143000000000,"state":"active","ping":121},{"user_id":369,"name":"Coolshroomish","steam_id":76561199109440924,"connected_time":85000000000,"state":"active","ping":82},{"user_id":361,"name":"plz talk about dogs","steam_id":76561198062924973,"connected_time":330000000000,"state":"active","ping":67},{"user_id":371,"name":"BruhtoniumB","steam_id":76561198989324150,"connected_time":25000000000,"state":"active","ping":70},{"user_id":260,"name":"Corpe","steam_id":76561198054490549,"connected_time":6986000000000,"state":"active","ping":87},{"user_id":336,"name":"sheep gf \u003c3","steam_id":76561198068189558,"connected_time":1745000000000,"state":"active","ping":56},{"user_id":325,"name":"Zigadox","steam_id":76561198079813479,"connected_time":2323000000000,"state":"active","ping":125},{"user_id":357,"name":"mao zedong","steam_id":76561199060687332,"connected_time":650000000000,"state":"active","ping":51},{"user_id":329,"name":"RagingBagon","steam_id":76561198255453127,"connected_time":1820000000000,"state":"active","ping":44},{"user_id":350,"name":"gugcat","steam_id":76561198129822860,"connected_time":999000000000,"state":"active","ping":57},{"user_id":372,"name":"get jumpscared","steam_id":76561198190962742,"connected_time":6000000000,"state":"spawning","ping":95},{"user_id":338,"name":"MR MODE","steam_id":76561198046775352,"connected_time":1714000000000,"state":"active","ping":59},{"user_id":352,"name":"The Horselords and Animal Gods","steam_id":76561197975094050,"connected_time":948000000000,"state":"active","ping":55},{"user_id":354,"name":"MORE BOUNCE TO THE OUNCE","steam_id":76561198243399336,"connected_time":790000000000,"state":"active","ping":62},{"user_id":244,"name":"muffinman12126","steam_id":76561199471924109,"connected_time":7914000000000,"state":"active","ping":65},{"user_id":349,"name":"❤ Ashley ❤","steam_id":76561198056428303,"connected_time":1082000000000,"state":"active","ping":46},{"user_id":360,"name":"BBL Sponsor","steam_id":76561199093733603,"connected_time":339000000000,"state":"active","ping":47},{"user_id":362,"name":"Cat in Your Backyard","steam_id":76561197979078330,"connected_time":320000000000,"state":"active","ping":118},{"user_id":359,"name":"T . T","steam_id":76561198041907345,"connected_time":341000000000,"state":"active","ping":61},{"user_id":358,"name":"Dr. drippenstein","steam_id":76561198209380493,"connected_time":353000000000,"state":"active","ping":111},{"user_id":363,"name":"oil","steam_id":76561198099980149,"connected_time":273000000000,"state":"active","ping":46},{"user_id":366,"name":"Thexx ❤","steam_id":76561198113823050,"connected_time":224000000000,"state":"active","ping":78}]},{"server_id":324,"name":"Uncletopia | Los Angeles | 3 | All Maps","name_short":"lax-3","host":"lax-1.us.uncletopia.com","port":27035,"enabled":true,"region":"us-west","cc":"us","latitude":33.94279,"longitude":-118.41004,"reserved":0,"last_update":"0001-01-01T00:00:00Z","name_a2s":"Uncletopia | Los Angeles | 3 | All Maps","protocol":17,"map":"koth_viaduct","folder":"tf","game":"Team Fortress","app_id":440,"player_count":4,"max_players":24,"Bots":0,"server_type":"Dedicated","server_os":"Linux","password":true,"vac":true,"version":"7757534","steam_id":85568392924510198,"keywords":["cp","nocrits","nodmgspread","uncletopia"],"game_id":440,"stv_port":27036,"stv_name":"Uncletopia | Los Angeles | 3 | All Maps | STV","players":[{"user_id":27,"name":"Beino","steam_id":76561198107120351,"connected_time":498000000000,"state":"active","ping":45},{"user_id":25,"name":"Little Schemer","steam_id":76561198394781830,"connected_time":1024000000000,"state":"active","ping":54},{"user_id":26,"name":"NaeNaeChungusBozo","steam_id":76561199446407203,"connected_time":879000000000,"state":"active","ping":113},{"user_id":29,"name":"old birb man","steam_id":76561199410269097,"connected_time":59000000000,"state":"active","ping":344}]},{"server_id":25,"name":"Uncletopia | Los Angeles | 4 | Stopwatch Beta","name_short":"lax-4","host":"lax-1.us.uncletopia.com","port":27045,"enabled":true,"region":"us-west","cc":"us","latitude":33.94279,"longitude":-118.41004,"reserved":0,"last_update":"0001-01-01T00:00:00Z","name_a2s":"Uncletopia | Los Angeles | 4 | Stopwatch Beta","protocol":17,"map":"pl_swiftwater_final1","folder":"tf","game":"Team Fortress","app_id":440,"player_count":0,"max_players":24,"Bots":0,"server_type":"Dedicated","server_os":"Linux","password":true,"vac":true,"version":"7757534","steam_id":85568392924510199,"keywords":["nocrits","nodmgspread","payload","uncletopia"],"game_id":440,"stv_port":27046,"stv_name":"Uncletopia | Los Angeles | 4 | Stopwatch Beta | STV","players":null},{"server_id":11,"name":"Uncletopia | London | 1 | All Maps","name_short":"lon-1","host":"lon-1.uk.uncletopia.com","port":27015,"enabled":true,"region":"eu","cc":"gb","latitude":51.509865,"longitude":-0.118092,"reserved":0,"last_update":"0001-01-01T00:00:00Z","name_a2s":"Uncletopia | London | 1 | All Maps","protocol":17,"map":"pl_frontier_final","folder":"tf","game":"Team Fortress","app_id":440,"player_count":23,"max_players":24,"Bots":0,"server_type":"Dedicated","server_os":"Linux","password":true,"vac":true,"version":"7757534","steam_id":85568392924367362,"keywords":["nocrits","nodmgspread","payload","uncletopia"],"game_id":440,"stv_port":27016,"stv_name":"Uncletopia | London | 1 | All Maps | STV","players":[{"user_id":778,"name":"[Kry]","steam_id":76561198145756066,"connected_time":1084000000000,"state":"active","ping":44},{"user_id":770,"name":"General Petrov","steam_id":76561198027204104,"connected_time":2111000000000,"state":"active","ping":79},{"user_id":757,"name":"Borat","steam_id":76561198122226417,"connected_time":2845000000000,"state":"active","ping":45},{"user_id":739,"name":"bird (trans rights)","steam_id":76561198393596975,"connected_time":4745000000000,"state":"active","ping":46},{"user_id":760,"name":"dd","steam_id":76561198257836694,"connected_time":2788000000000,"state":"active","ping":33},{"user_id":758,"name":"SuperBob103","steam_id":76561199175360012,"connected_time":2828000000000,"state":"active","ping":54},{"user_id":780,"name":"BLACKBIRD CLOSE [she/her]","steam_id":76561198262910410,"connected_time":878000000000,"state":"active","ping":115},{"user_id":773,"name":"Cabbch","steam_id":76561198045955679,"connected_time":1905000000000,"state":"active","ping":45},{"user_id":761,"name":"[BC™]♥DIVOSONG♥","steam_id":76561198051065807,"connected_time":2743000000000,"state":"active","ping":68},{"user_id":781,"name":"let me cook","steam_id":76561198010380786,"connected_time":781000000000,"state":"active","ping":45},{"user_id":688,"name":"Kristianma","steam_id":76561198021772843,"connected_time":11712000000000,"state":"active","ping":62},{"user_id":792,"name":"applejuice","steam_id":76561198059687646,"connected_time":45000000000,"state":"active","ping":55},{"user_id":776,"name":"G7 JOOOOOEYMEiSTER","steam_id":76561198061717026,"connected_time":1559000000000,"state":"active","ping":44},{"user_id":771,"name":"man-made horrors","steam_id":76561199480942903,"connected_time":2099000000000,"state":"active","ping":75},{"user_id":785,"name":"Jackson News","steam_id":76561198401610939,"connected_time":354000000000,"state":"active","ping":63},{"user_id":740,"name":"vi","steam_id":76561198303147966,"connected_time":4719000000000,"state":"active","ping":51},{"user_id":777,"name":"beebo","steam_id":76561199120277007,"connected_time":1124000000000,"state":"active","ping":44},{"user_id":788,"name":"Modge","steam_id":76561198034119979,"connected_time":218000000000,"state":"active","ping":53},{"user_id":789,"name":"SirSangoor","steam_id":76561198044462559,"connected_time":176000000000,"state":"active","ping":118},{"user_id":791,"name":"A Succulent Chinese Meal","steam_id":76561198069472440,"connected_time":61000000000,"state":"active","ping":49},{"user_id":793,"name":"Tadpole","steam_id":76561198062074818,"connected_time":38000000000,"state":"active","ping":50},{"user_id":744,"name":"aight","steam_id":76561198174474613,"connected_time":4519000000000,"state":"active","ping":38},{"user_id":751,"name":"xTheDarkLight","steam_id":76561198239128298,"connected_time":3733000000000,"state":"active","ping":61}]},{"server_id":114,"name":"Uncletopia | London | 2 | All Maps","name_short":"lon-2","host":"lon-1.uk.uncletopia.com","port":27025,"enabled":true,"region":"eu","cc":"gb","latitude":51.509865,"longitude":-0.118092,"reserved":0,"last_update":"0001-01-01T00:00:00Z","name_a2s":"Uncletopia | London | 2 | All Maps","protocol":17,"map":"pl_badwater","folder":"tf","game":"Team Fortress","app_id":440,"player_count":16,"max_players":24,"Bots":0,"server_type":"Dedicated","server_os":"Linux","password":true,"vac":true,"version":"7757534","steam_id":85568392924470941,"keywords":["nocrits","nodmgspread","payload","uncletopia"],"game_id":440,"stv_port":27026,"stv_name":"Uncletopia | London | 2 | All Maps | STV","players":[{"user_id":652,"name":"Grafko","steam_id":76561198053586330,"connected_time":2964000000000,"state":"active","ping":51},{"user_id":655,"name":"sir-scudio!","steam_id":76561197983860697,"connected_time":2891000000000,"state":"active","ping":57},{"user_id":681,"name":"Shynii","steam_id":76561198194682105,"connected_time":1372000000000,"state":"active","ping":50},{"user_id":678,"name":"DeanAdamFry","steam_id":76561198054153160,"connected_time":1688000000000,"state":"active","ping":54},{"user_id":683,"name":"Kan0_","steam_id":76561198129596771,"connected_time":1315000000000,"state":"active","ping":60},{"user_id":689,"name":"weenus","steam_id":76561198083804272,"connected_time":97000000000,"state":"active","ping":125},{"user_id":613,"name":"Teleporter Enjoyer","steam_id":76561198303429751,"connected_time":5639000000000,"state":"active","ping":45},{"user_id":664,"name":"based lesbian","steam_id":76561198080355874,"connected_time":2269000000000,"state":"active","ping":60},{"user_id":680,"name":"benk86","steam_id":76561198061919180,"connected_time":1379000000000,"state":"active","ping":87},{"user_id":684,"name":"Sky Tree","steam_id":76561198027103242,"connected_time":1295000000000,"state":"active","ping":102},{"user_id":645,"name":"[Sheep] Tomco","steam_id":76561198388549261,"connected_time":3618000000000,"state":"active","ping":69},{"user_id":686,"name":"Two-Ton Heavy Thing","steam_id":76561198201724274,"connected_time":718000000000,"state":"active","ping":160},{"user_id":642,"name":"YUNG LOAF","steam_id":76561198237338018,"connected_time":3782000000000,"state":"active","ping":159},{"user_id":688,"name":"vug","steam_id":76561198042227249,"connected_time":298000000000,"state":"active","ping":45},{"user_id":644,"name":"REINBORG","steam_id":76561199205207130,"connected_time":3739000000000,"state":"active","ping":155},{"user_id":677,"name":"Volpin","steam_id":76561198006123240,"connected_time":1706000000000,"state":"active","ping":73}]},{"server_id":320,"name":"Uncletopia | London | 3 | All Maps","name_short":"lon-3","host":"lon-1.uk.uncletopia.com","port":27035,"enabled":true,"region":"eu","cc":"gb","latitude":51.509865,"longitude":-0.118092,"reserved":0,"last_update":"0001-01-01T00:00:00Z","name_a2s":"Uncletopia | London | 3 | All Maps","protocol":17,"map":"pl_upward","folder":"tf","game":"Team Fortress","app_id":440,"player_count":14,"max_players":24,"Bots":0,"server_type":"Dedicated","server_os":"Linux","password":true,"vac":true,"version":"7757534","steam_id":85568392924510192,"keywords":["nocrits","nodmgspread","payload","uncletopia"],"game_id":440,"stv_port":27036,"stv_name":"Uncletopia | London | 3 | All Maps | STV","players":[{"user_id":842,"name":"Gameing4\u003c3","steam_id":76561198879748233,"connected_time":1017000000000,"state":"active","ping":59},{"user_id":824,"name":"Milca_11 [Wielder of Ham]","steam_id":76561198848650365,"connected_time":1981000000000,"state":"active","ping":89},{"user_id":841,"name":"Kubait","steam_id":76561198178022623,"connected_time":1178000000000,"state":"active","ping":181},{"user_id":832,"name":"Cosmetic brain","steam_id":76561198055936410,"connected_time":1526000000000,"state":"active","ping":81},{"user_id":822,"name":"volkiano","steam_id":76561198319802031,"connected_time":2268000000000,"state":"active","ping":53},{"user_id":843,"name":"Shoehorn Jim","steam_id":76561198310004779,"connected_time":879000000000,"state":"active","ping":160},{"user_id":833,"name":"glow","steam_id":76561199073972948,"connected_time":1522000000000,"state":"active","ping":98},{"user_id":852,"name":"LuigiBot63","steam_id":76561199122191695,"connected_time":35000000000,"state":"active","ping":156},{"user_id":835,"name":"im wearing gunnars","steam_id":76561198045413005,"connected_time":1389000000000,"state":"active","ping":58},{"user_id":837,"name":"CuriousMonkeyX","steam_id":76561198142322010,"connected_time":1359000000000,"state":"active","ping":140},{"user_id":850,"name":"NoPfizer","steam_id":76561198307914381,"connected_time":652000000000,"state":"active","ping":56},{"user_id":851,"name":"hades","steam_id":76561199435854673,"connected_time":642000000000,"state":"active","ping":44},{"user_id":813,"name":"whats an egg","steam_id":76561198991039398,"connected_time":2743000000000,"state":"active","ping":155},{"user_id":785,"name":"New","steam_id":76561198402195911,"connected_time":4759000000000,"state":"active","ping":108}]},{"server_id":321,"name":"Uncletopia | London | 4 | All Maps","name_short":"lon-4","host":"lon-1.uk.uncletopia.com","port":27045,"enabled":true,"region":"eu","cc":"gb","latitude":51.509865,"longitude":-0.118092,"reserved":0,"last_update":"0001-01-01T00:00:00Z","name_a2s":"Uncletopia | London | 4 | All Maps","protocol":17,"map":"pl_borneo","folder":"tf","game":"Team Fortress","app_id":440,"player_count":0,"max_players":24,"Bots":0,"server_type":"Dedicated","server_os":"Linux","password":true,"vac":true,"version":"7757534","steam_id":85568392924510193,"keywords":["nocrits","nodmgspread","payload","uncletopia"],"game_id":440,"stv_port":27046,"stv_name":"Uncletopia | London | 4 | All Maps | STV","players":null},{"server_id":21,"name":"Uncletopia | London | 5 | All Maps","name_short":"lon-5","host":"lon-1.uk.uncletopia.com","port":27055,"enabled":true,"region":"eu","cc":"gb","latitude":51.509865,"longitude":-0.118092,"reserved":0,"last_update":"0001-01-01T00:00:00Z","name_a2s":"Uncletopia | London | 5 | All Maps","protocol":17,"map":"cp_mountainlab","folder":"tf","game":"Team Fortress","app_id":440,"player_count":0,"max_players":24,"Bots":0,"server_type":"Dedicated","server_os":"Linux","password":true,"vac":true,"version":"7757534","steam_id":85568392924742829,"keywords":["cp","nocrits","nodmgspread","uncletopia"],"game_id":440,"stv_port":27056,"stv_name":"Uncletopia | London | 5 | All Maps | STV","players":null},{"server_id":22,"name":"Uncletopia | London | 6 | All Maps","name_short":"lon-6","host":"lon-1.uk.uncletopia.com","port":27065,"enabled":true,"region":"eu","cc":"gb","latitude":51.509865,"longitude":-0.118092,"reserved":0,"last_update":"0001-01-01T00:00:00Z","name_a2s":"Uncletopia | London | 6 | All Maps","protocol":17,"map":"cp_altitude","folder":"tf","game":"Team Fortress","app_id":440,"player_count":0,"max_players":24,"Bots":0,"server_type":"Dedicated","server_os":"Linux","password":true,"vac":true,"version":"7757534","steam_id":85568392924742830,"keywords":["cp","nocrits","nodmgspread","uncletopia"],"game_id":440,"stv_port":27066,"stv_name":"Uncletopia | London | 6 | All Maps | STV","players":null},{"server_id":40,"name":"Uncletopia | London | 7 | No Payload","name_short":"lon-7","host":"lon-1.uk.uncletopia.com","port":27075,"enabled":true,"region":"eu","cc":"gb","latitude":51.509865,"longitude":-0.118092,"reserved":0,"last_update":"0001-01-01T00:00:00Z","name_a2s":"Uncletopia | London | 7 | No Payload","protocol":17,"map":"koth_sawmill","folder":"tf","game":"Team Fortress","app_id":440,"player_count":0,"max_players":24,"Bots":0,"server_type":"Dedicated","server_os":"Linux","password":true,"vac":true,"version":"7757534","steam_id":85568392924964314,"keywords":["cp","nocrits","nodmgspread","uncletopia"],"game_id":440,"stv_port":27076,"stv_name":"Uncletopia | London | 7 | No Payload | STV","players":null},{"server_id":41,"name":"Uncletopia | London | 8 | Community","name_short":"lon-8","host":"lon-1.uk.uncletopia.com","port":27085,"enabled":true,"region":"eu","cc":"gb","latitude":51.509865,"longitude":-0.118092,"reserved":0,"last_update":"0001-01-01T00:00:00Z","name_a2s":"Uncletopia | London | 8 | Community","protocol":17,"map":"pl_barnblitz","folder":"tf","game":"Team Fortress","app_id":440,"player_count":0,"max_players":24,"Bots":0,"server_type":"Dedicated","server_os":"Linux","password":true,"vac":true,"version":"7757534","steam_id":85568392924964315,"keywords":["nocrits","nodmgspread","payload","uncletopia"],"game_id":440,"stv_port":27086,"stv_name":"Uncletopia | London | 8 | Community | STV","players":null},{"server_id":300,"name":"Uncletopia | Montréal | 1 | All Maps","name_short":"mtl-1","host":"mtl-1.ca.uncletopia.com","port":27015,"enabled":true,"region":"us-east","cc":"ca","latitude":45.50889,"longitude":-73.56167,"reserved":0,"last_update":"0001-01-01T00:00:00Z","name_a2s":"Uncletopia | Montréal | 1 | All Maps","protocol":17,"map":"koth_lakeside_final","folder":"tf","game":"Team Fortress","app_id":440,"player_count":21,"max_players":24,"Bots":0,"server_type":"Dedicated","server_os":"Linux","password":true,"vac":true,"version":"7757534","steam_id":85568392924500087,"keywords":["cp","nocrits","nodmgspread","uncletopia"],"game_id":440,"stv_port":27016,"stv_name":"Uncletopia | Montréal | 1 | All Maps | STV","players":[{"user_id":12,"name":"M16A1Sauce","steam_id":76561199058049384,"connected_time":4047000000000,"state":"active","ping":82},{"user_id":71,"name":"FS Jorda (She/Her)","steam_id":76561198071421459,"connected_time":23000000000,"state":"active","ping":45},{"user_id":70,"name":"The Mayo Man","steam_id":76561197995377425,"connected_time":229000000000,"state":"active","ping":72},{"user_id":68,"name":"Mr.Philosoraptor","steam_id":76561198192838687,"connected_time":400000000000,"state":"active","ping":75},{"user_id":45,"name":"vandeer","steam_id":76561198120124007,"connected_time":1701000000000,"state":"active","ping":72},{"user_id":46,"name":"Waaagh!","steam_id":76561197995317887,"connected_time":1680000000000,"state":"active","ping":49},{"user_id":67,"name":"Bungalow Bill","steam_id":76561198033536404,"connected_time":467000000000,"state":"active","ping":62},{"user_id":63,"name":"GltichBrah_T","steam_id":76561199467036505,"connected_time":857000000000,"state":"active","ping":85},{"user_id":23,"name":"Bomb Squirtle™","steam_id":76561197998931145,"connected_time":2642000000000,"state":"active","ping":81},{"user_id":42,"name":"TheChickenChuck","steam_id":76561199192686708,"connected_time":1919000000000,"state":"active","ping":78},{"user_id":26,"name":"unbind all","steam_id":76561199026845006,"connected_time":2506000000000,"state":"active","ping":62},{"user_id":60,"name":"sir fish","steam_id":76561199172185412,"connected_time":931000000000,"state":"active","ping":78},{"user_id":43,"name":"Xpiredd","steam_id":76561198449525437,"connected_time":1905000000000,"state":"active","ping":48},{"user_id":61,"name":"Fuzzy","steam_id":76561199100612353,"connected_time":888000000000,"state":"active","ping":75},{"user_id":30,"name":"cactus eater","steam_id":76561199107499844,"connected_time":2481000000000,"state":"active","ping":118},{"user_id":54,"name":"Chad","steam_id":76561198222313772,"connected_time":1361000000000,"state":"active","ping":89},{"user_id":32,"name":"Hey, It's Me! Goku!","steam_id":76561199103120314,"connected_time":2474000000000,"state":"active","ping":116},{"user_id":55,"name":"theoreminegaming","steam_id":76561198175573917,"connected_time":1259000000000,"state":"active","ping":56},{"user_id":69,"name":"Towelie","steam_id":76561198227381104,"connected_time":371000000000,"state":"active","ping":82},{"user_id":58,"name":"SDL","steam_id":76561198859719985,"connected_time":1155000000000,"state":"active","ping":101},{"user_id":62,"name":"RebelScum","steam_id":76561199231752872,"connected_time":888000000000,"state":"active","ping":101}]},{"server_id":301,"name":"Uncletopia | Montréal | 2 | All Maps","name_short":"mtl-2","host":"mtl-1.ca.uncletopia.com","port":27025,"enabled":true,"region":"us-east","cc":"ca","latitude":45.50889,"longitude":-73.56167,"reserved":0,"last_update":"0001-01-01T00:00:00Z","name_a2s":"Uncletopia | Montréal | 2 | All Maps","protocol":17,"map":"pl_snowycoast","folder":"tf","game":"Team Fortress","app_id":440,"player_count":0,"max_players":24,"Bots":0,"server_type":"Dedicated","server_os":"Linux","password":true,"vac":true,"version":"7757534","steam_id":85568392924500088,"keywords":["nocrits","nodmgspread","payload","uncletopia"],"game_id":440,"stv_port":27026,"stv_name":"Uncletopia | Montréal | 2 | All Maps | STV","players":null},{"server_id":302,"name":"Uncletopia | Montréal | 3 | All Maps","name_short":"mtl-3","host":"mtl-1.ca.uncletopia.com","port":27035,"enabled":true,"region":"us-east","cc":"ca","latitude":45.50889,"longitude":-73.56167,"reserved":0,"last_update":"0001-01-01T00:00:00Z","name_a2s":"Uncletopia | Montréal | 3 | All Maps","protocol":17,"map":"pl_swiftwater_final1","folder":"tf","game":"Team Fortress","app_id":440,"player_count":0,"max_players":24,"Bots":0,"server_type":"Dedicated","server_os":"Linux","password":true,"vac":true,"version":"7757534","steam_id":85568392924500089,"keywords":["nocrits","nodmgspread","payload","uncletopia"],"game_id":440,"stv_port":27036,"stv_name":"Uncletopia | Montréal | 3 | All Maps | STV","players":null},{"server_id":303,"name":"Uncletopia | Montréal | 4 | No Payload","name_short":"mtl-4","host":"mtl-1.ca.uncletopia.com","port":27045,"enabled":true,"region":"us-east","cc":"ca","latitude":45.50889,"longitude":-73.56167,"reserved":0,"last_update":"0001-01-01T00:00:00Z","name_a2s":"Uncletopia | Montréal | 4 | No Payload","protocol":17,"map":"cp_steel","folder":"tf","game":"Team Fortress","app_id":440,"player_count":0,"max_players":24,"Bots":0,"server_type":"Dedicated","server_os":"Linux","password":true,"vac":true,"version":"7757534","steam_id":85568392924500090,"keywords":["cp","nocrits","nodmgspread","uncletopia"],"game_id":440,"stv_port":27046,"stv_name":"Uncletopia | Montréal | 4 | No Payload | STV","players":null},{"server_id":13,"name":"Uncletopia | New York City | 1 | All Maps","name_short":"nyc-1","host":"nyc-1.us.uncletopia.com","port":27015,"enabled":true,"region":"us-east","cc":"us","latitude":40.73061,"longitude":-73.93524,"reserved":0,"last_update":"0001-01-01T00:00:00Z","name_a2s":"Uncletopia | New York City | 1 | All Maps","protocol":17,"map":"cp_dustbowl","folder":"tf","game":"Team Fortress","app_id":440,"player_count":25,"max_players":24,"Bots":0,"server_type":"Dedicated","server_os":"Linux","password":true,"vac":true,"version":"7757534","steam_id":85568392924469993,"keywords":["cp","nocrits","nodmgspread","uncletopia"],"game_id":440,"stv_port":27016,"stv_name":"Uncletopia | New York City | 1 | All Maps | STV","players":[{"user_id":539,"name":"Roken","steam_id":76561198037836282,"connected_time":161000000000,"state":"active","ping":66},{"user_id":531,"name":"Aviyarn","steam_id":76561199074194652,"connected_time":340000000000,"state":"active","ping":72},{"user_id":532,"name":"Irregulars","steam_id":76561198048498230,"connected_time":305000000000,"state":"active","ping":32},{"user_id":501,"name":"SkyFlyWhite","steam_id":76561198241383126,"connected_time":3611000000000,"state":"active","ping":76},{"user_id":528,"name":"BasicPeaches","steam_id":76561198190890150,"connected_time":858000000000,"state":"active","ping":65},{"user_id":540,"name":"Owl Pacino","steam_id":76561197979970666,"connected_time":160000000000,"state":"active","ping":75},{"user_id":533,"name":"chiswola","steam_id":76561198046920142,"connected_time":301000000000,"state":"active","ping":93},{"user_id":534,"name":"craf","steam_id":76561198163535075,"connected_time":290000000000,"state":"active","ping":64},{"user_id":494,"name":"Bad Thoughts Inside Your Head","steam_id":76561198124311404,"connected_time":4045000000000,"state":"active","ping":70},{"user_id":529,"name":"Adjim","steam_id":76561198179532535,"connected_time":565000000000,"state":"active","ping":68},{"user_id":421,"name":"light finder","steam_id":76561198368646092,"connected_time":8730000000000,"state":"active","ping":45},{"user_id":535,"name":"GENUINE ANGER","steam_id":76561198829069588,"connected_time":280000000000,"state":"active","ping":167},{"user_id":526,"name":"Bocchi the Cock","steam_id":76561198152455316,"connected_time":1942000000000,"state":"active","ping":166},{"user_id":541,"name":"steve","steam_id":76561197961024357,"connected_time":78000000000,"state":"active","ping":61},{"user_id":546,"name":"Horrizan","steam_id":76561197965028480,"connected_time":2000000000,"state":"spawning","ping":85},{"user_id":523,"name":"Schits","steam_id":76561199257940116,"connected_time":2147000000000,"state":"active","ping":64},{"user_id":542,"name":"Bottle O' Glue","steam_id":76561199176772833,"connected_time":58000000000,"state":"spawning","ping":87},{"user_id":510,"name":"Checky","steam_id":76561198083376134,"connected_time":3026000000000,"state":"active","ping":181},{"user_id":530,"name":"Atrain_","steam_id":76561198097007668,"connected_time":403000000000,"state":"active","ping":55},{"user_id":474,"name":"Loafus","steam_id":76561198154561111,"connected_time":4442000000000,"state":"active","ping":62},{"user_id":498,"name":"Dezorbo","steam_id":76561197971883897,"connected_time":3959000000000,"state":"active","ping":51},{"user_id":544,"name":"American Dad","steam_id":76561198059711448,"connected_time":55000000000,"state":"active","ping":75},{"user_id":519,"name":"Dylanxp300","steam_id":76561198271974937,"connected_time":2251000000000,"state":"active","ping":67},{"user_id":545,"name":"Grebnedulgo The Elder","steam_id":76561199123285878,"connected_time":54000000000,"state":"active","ping":65},{"user_id":547,"name":"Kyzer","steam_id":76561198048034600,"connected_time":1000000000,"state":"spawning","ping":55}]},{"server_id":14,"name":"Uncletopia | New York City | 2 | All Maps","name_short":"nyc-2","host":"nyc-1.us.uncletopia.com","port":27025,"enabled":true,"region":"us-east","cc":"us","latitude":40.73061,"longitude":-73.93524,"reserved":0,"last_update":"0001-01-01T00:00:00Z","name_a2s":"Uncletopia | New York City | 2 | All Maps","protocol":17,"map":"cp_steel","folder":"tf","game":"Team Fortress","app_id":440,"player_count":20,"max_players":24,"Bots":0,"server_type":"Dedicated","server_os":"Linux","password":true,"vac":true,"version":"7757534","steam_id":85568392924469994,"keywords":["cp","nocrits","nodmgspread","uncletopia"],"game_id":440,"stv_port":27026,"stv_name":"Uncletopia | New York City | 2 | All Maps | STV","players":[{"user_id":467,"name":"PersonMan","steam_id":76561198153426326,"connected_time":429000000000,"state":"spawning","ping":111},{"user_id":462,"name":"edging my anuerysm","steam_id":76561199093189162,"connected_time":1115000000000,"state":"spawning","ping":239},{"user_id":472,"name":"what","steam_id":76561198082336619,"connected_time":11000000000,"state":"spawning","ping":51},{"user_id":408,"name":"Potato57","steam_id":76561198144282089,"connected_time":4963000000000,"state":"spawning","ping":47},{"user_id":400,"name":"Bigsumoslammer","steam_id":76561198044505076,"connected_time":5193000000000,"state":"spawning","ping":53},{"user_id":446,"name":"nav","steam_id":76561198872608266,"connected_time":2504000000000,"state":"spawning","ping":81},{"user_id":405,"name":"-π- BakaD","steam_id":76561197960559169,"connected_time":5109000000000,"state":"active","ping":130},{"user_id":473,"name":"cheers2x","steam_id":76561198366299848,"connected_time":5000000000,"state":"spawning","ping":65},{"user_id":411,"name":"Monsieur l'INGENIEUR","steam_id":76561198090504334,"connected_time":4816000000000,"state":"spawning","ping":46},{"user_id":460,"name":"The magic doo bus","steam_id":76561198243387974,"connected_time":1342000000000,"state":"spawning","ping":29},{"user_id":445,"name":"ECCO","steam_id":76561198002821513,"connected_time":2618000000000,"state":"spawning","ping":64},{"user_id":474,"name":"Frodogorn","steam_id":76561198045539037,"connected_time":4000000000,"state":"spawning","ping":52},{"user_id":459,"name":"kevinleerose","steam_id":76561198105939171,"connected_time":1622000000000,"state":"spawning","ping":51},{"user_id":468,"name":"VexT","steam_id":76561199471734115,"connected_time":359000000000,"state":"spawning","ping":95},{"user_id":458,"name":"111segasonic","steam_id":76561198086630016,"connected_time":1704000000000,"state":"spawning","ping":34},{"user_id":466,"name":"Grilled Of The Cheese","steam_id":76561198145066749,"connected_time":589000000000,"state":"spawning","ping":63},{"user_id":461,"name":"oxy","steam_id":76561198089770351,"connected_time":1260000000000,"state":"spawning","ping":76},{"user_id":463,"name":"ClericsRose","steam_id":76561198011013806,"connected_time":622000000000,"state":"spawning","ping":64},{"user_id":470,"name":"Zack","steam_id":76561198308083836,"connected_time":242000000000,"state":"connecting","ping":0},{"user_id":471,"name":"BurnN8or101","steam_id":76561198132668224,"connected_time":200000000000,"state":"spawning","ping":63}]},{"server_id":15,"name":"Uncletopia | New York City | 3 | Stopwatch Beta","name_short":"nyc-3","host":"nyc-1.us.uncletopia.com","port":27035,"enabled":true,"region":"us-east","cc":"us","latitude":40.73061,"longitude":-73.93524,"reserved":0,"last_update":"0001-01-01T00:00:00Z","name_a2s":"Uncletopia | New York City | 3 | Stopwatch Beta","protocol":17,"map":"workshop/koth_ashville_final.ugc2130459942","folder":"tf","game":"Team Fortress","app_id":440,"player_count":0,"max_players":24,"Bots":0,"server_type":"Dedicated","server_os":"Linux","password":true,"vac":true,"version":"7757534","steam_id":85568392924742820,"keywords":["cp","nocrits","nodmgspread","uncletopia"],"game_id":440,"stv_port":27036,"stv_name":"Uncletopia | New York City | 3 | Stopwatch Beta | STV","players":null},{"server_id":16,"name":"Uncletopia | New York City | 4 | Community","name_short":"nyc-4","host":"nyc-1.us.uncletopia.com","port":27045,"enabled":true,"region":"us-east","cc":"us","latitude":40.73061,"longitude":-73.93524,"reserved":0,"last_update":"0001-01-01T00:00:00Z","name_a2s":"Uncletopia | New York City | 4 | Community","protocol":17,"map":"workshop/cp_propaganda_b18.ugc1603743849","folder":"tf","game":"Team Fortress","app_id":440,"player_count":16,"max_players":24,"Bots":0,"server_type":"Dedicated","server_os":"Linux","password":true,"vac":true,"version":"7757534","steam_id":85568392924742821,"keywords":["cp","nocrits","nodmgspread","uncletopia"],"game_id":440,"stv_port":27046,"stv_name":"Uncletopia | New York City | 4 | Community | STV","players":[{"user_id":87,"name":"Acro Banwagon","steam_id":76561198092451804,"connected_time":1068000000000,"state":"spawning","ping":86},{"user_id":112,"name":"Heppeh","steam_id":76561198068049507,"connected_time":4000000000,"state":"spawning","ping":113},{"user_id":110,"name":"Zack","steam_id":76561198308083836,"connected_time":124000000000,"state":"spawning","ping":52},{"user_id":104,"name":"djdinosaur","steam_id":76561197961629382,"connected_time":416000000000,"state":"spawning","ping":60},{"user_id":79,"name":"Dannnnnn","steam_id":76561198442700385,"connected_time":1708000000000,"state":"spawning","ping":204},{"user_id":98,"name":"Dog Goggles","steam_id":76561197995233692,"connected_time":791000000000,"state":"spawning","ping":57},{"user_id":107,"name":"truck sex 1989","steam_id":76561198062712676,"connected_time":370000000000,"state":"spawning","ping":108},{"user_id":102,"name":"girthmilk","steam_id":76561198054799782,"connected_time":610000000000,"state":"spawning","ping":84},{"user_id":106,"name":"Trusty","steam_id":76561198035444237,"connected_time":385000000000,"state":"spawning","ping":70},{"user_id":96,"name":"BluJay","steam_id":76561198044670560,"connected_time":838000000000,"state":"spawning","ping":109},{"user_id":92,"name":"PhoenixVirus™","steam_id":76561198028064823,"connected_time":967000000000,"state":"spawning","ping":61},{"user_id":88,"name":"LeNoobe","steam_id":76561199092079229,"connected_time":1065000000000,"state":"spawning","ping":125},{"user_id":111,"name":"t.tv/FamilyGuyFunnyMoments277","steam_id":76561198416047580,"connected_time":116000000000,"state":"spawning","ping":86},{"user_id":90,"name":"Apple Zoo lfs(Sanwich_King)","steam_id":76561198013732450,"connected_time":1047000000000,"state":"spawning","ping":89},{"user_id":93,"name":"yaoi war general","steam_id":76561198123885527,"connected_time":905000000000,"state":"spawning","ping":87},{"user_id":91,"name":"jolo","steam_id":76561198042831480,"connected_time":1031000000000,"state":"spawning","ping":89}]},{"server_id":142,"name":"Uncletopia | São Paulo | 1 | All Maps","name_short":"sao-1","host":"sao-1.br.uncletopia.com","port":27015,"enabled":true,"region":"sa","cc":"br","latitude":-23.533773,"longitude":-46.62529,"reserved":0,"last_update":"0001-01-01T00:00:00Z","name_a2s":"Uncletopia | São Paulo | 1 | All Maps","protocol":17,"map":"cp_mountainlab","folder":"tf","game":"Team Fortress","app_id":440,"player_count":0,"max_players":24,"Bots":0,"server_type":"Dedicated","server_os":"Linux","password":true,"vac":true,"version":"7757534","steam_id":85568392924469996,"keywords":["cp","nocrits","nodmgspread","uncletopia"],"game_id":440,"stv_port":27016,"stv_name":"Uncletopia | São Paulo | 1 | All Maps | STV","players":null},{"server_id":143,"name":"Uncletopia | São Paulo | 2 | All Maps","name_short":"sao-2","host":"sao-2.br.uncletopia.com","port":27015,"enabled":true,"region":"sa","cc":"br","latitude":-23.533773,"longitude":-46.62529,"reserved":0,"last_update":"0001-01-01T00:00:00Z","name_a2s":"Uncletopia | São Paulo | 2 | All Maps","protocol":17,"map":"cp_dustbowl","folder":"tf","game":"Team Fortress","app_id":440,"player_count":0,"max_players":24,"Bots":0,"server_type":"Dedicated","server_os":"Linux","password":true,"vac":true,"version":"7757534","steam_id":85568392924485349,"keywords":["cp","nocrits","nodmgspread","uncletopia"],"game_id":440,"stv_port":27016,"stv_name":"Uncletopia | São Paulo | 2 | All Maps | STV","players":null},{"server_id":7,"name":"Uncletopia | Seattle | 1 | All Maps","name_short":"sea-1","host":"sea-1.us.uncletopia.com","port":27015,"enabled":true,"region":"us-west","cc":"us","latitude":47.608013,"longitude":-122.33517,"reserved":0,"last_update":"0001-01-01T00:00:00Z","name_a2s":"Uncletopia | Seattle | 1 | All Maps","protocol":17,"map":"pl_swiftwater_final1","folder":"tf","game":"Team Fortress","app_id":440,"player_count":24,"max_players":24,"Bots":0,"server_type":"Dedicated","server_os":"Linux","password":true,"vac":true,"version":"7757534","steam_id":85568392924469997,"keywords":["nocrits","nodmgspread","payload","uncletopia"],"game_id":440,"stv_port":27016,"stv_name":"Uncletopia | Seattle | 1 | All Maps | STV","players":[{"user_id":514,"name":"resting neutral face","steam_id":76561197999259502,"connected_time":2945000000000,"state":"active","ping":59},{"user_id":557,"name":"James Dong","steam_id":76561198130434298,"connected_time":472000000000,"state":"active","ping":57},{"user_id":524,"name":"Pinky","steam_id":76561198084685841,"connected_time":2163000000000,"state":"active","ping":55},{"user_id":529,"name":"Strikerbolt","steam_id":76561199095622897,"connected_time":1977000000000,"state":"active","ping":78},{"user_id":533,"name":"Lentil Soup","steam_id":76561198051834684,"connected_time":1118000000000,"state":"active","ping":61},{"user_id":488,"name":"HiFivr","steam_id":76561198285190162,"connected_time":5143000000000,"state":"active","ping":69},{"user_id":542,"name":"J O S H³²","steam_id":76561198122603779,"connected_time":1030000000000,"state":"active","ping":81},{"user_id":535,"name":"Warlock","steam_id":76561199033164093,"connected_time":1085000000000,"state":"active","ping":57},{"user_id":539,"name":"Carl","steam_id":76561198285931413,"connected_time":1070000000000,"state":"active","ping":114},{"user_id":507,"name":"litcherally in vents","steam_id":76561199169558959,"connected_time":3692000000000,"state":"active","ping":44},{"user_id":500,"name":"D0VE","steam_id":76561198151618566,"connected_time":4017000000000,"state":"active","ping":58},{"user_id":482,"name":"Username","steam_id":76561198855586261,"connected_time":5583000000000,"state":"active","ping":65},{"user_id":550,"name":"robot with human hair","steam_id":76561198018691308,"connected_time":834000000000,"state":"active","ping":124},{"user_id":556,"name":"Crake","steam_id":76561198001959071,"connected_time":474000000000,"state":"active","ping":60},{"user_id":516,"name":"tsaide","steam_id":76561198384120999,"connected_time":2930000000000,"state":"active","ping":122},{"user_id":508,"name":"Quarter Cheese","steam_id":76561198115814588,"connected_time":3514000000000,"state":"active","ping":47},{"user_id":559,"name":"Unc4nny","steam_id":76561198131507408,"connected_time":293000000000,"state":"active","ping":124},{"user_id":552,"name":"makeshift_burrito","steam_id":76561198042510825,"connected_time":794000000000,"state":"active","ping":75},{"user_id":551,"name":"Keamy","steam_id":76561199471434875,"connected_time":816000000000,"state":"active","ping":44},{"user_id":531,"name":"gunkeater","steam_id":76561198120387104,"connected_time":1782000000000,"state":"active","ping":111},{"user_id":540,"name":"PileofPolygons","steam_id":76561199321343460,"connected_time":1065000000000,"state":"active","ping":120},{"user_id":554,"name":"soda","steam_id":76561198105924953,"connected_time":685000000000,"state":"active","ping":73},{"user_id":548,"name":"Edited Atom","steam_id":76561198210844957,"connected_time":856000000000,"state":"active","ping":131},{"user_id":558,"name":"duddlee","steam_id":76561198030052564,"connected_time":335000000000,"state":"active","ping":57}]},{"server_id":119,"name":"Uncletopia | Seattle | 2 | All Maps","name_short":"sea-2","host":"sea-1.us.uncletopia.com","port":27025,"enabled":true,"region":"us-west","cc":"us","latitude":47.608013,"longitude":-122.33517,"reserved":0,"last_update":"0001-01-01T00:00:00Z","name_a2s":"Uncletopia | Seattle | 2 | All Maps","protocol":17,"map":"pl_badwater","folder":"tf","game":"Team Fortress","app_id":440,"player_count":24,"max_players":24,"Bots":0,"server_type":"Dedicated","server_os":"Linux","password":true,"vac":true,"version":"7757534","steam_id":85568392924469998,"keywords":["nocrits","nodmgspread","payload","uncletopia"],"game_id":440,"stv_port":27026,"stv_name":"Uncletopia | Seattle | 2 | All Maps | STV","players":[{"user_id":479,"name":"Yosh","steam_id":76561198027078899,"connected_time":4558000000000,"state":"active","ping":89},{"user_id":541,"name":"john","steam_id":76561198850447852,"connected_time":607000000000,"state":"active","ping":85},{"user_id":491,"name":"Qas","steam_id":76561198067564482,"connected_time":3263000000000,"state":"active","ping":64},{"user_id":528,"name":"Bendidy","steam_id":76561198041964300,"connected_time":840000000000,"state":"active","ping":80},{"user_id":468,"name":"Magic Enjoyer","steam_id":76561198258451026,"connected_time":5331000000000,"state":"active","ping":52},{"user_id":546,"name":"Why am I the only person who","steam_id":76561198139634916,"connected_time":67000000000,"state":"active","ping":37},{"user_id":483,"name":"MarkyMark1995","steam_id":76561198822440840,"connected_time":3963000000000,"state":"active","ping":123},{"user_id":544,"name":"Algibruh","steam_id":76561199221599415,"connected_time":560000000000,"state":"active","ping":48},{"user_id":542,"name":"BasedGod","steam_id":76561198061177973,"connected_time":571000000000,"state":"active","ping":60},{"user_id":534,"name":"bobbymcbobington","steam_id":76561199089411172,"connected_time":662000000000,"state":"active","ping":166},{"user_id":535,"name":"Rat","steam_id":76561198330059340,"connected_time":658000000000,"state":"active","ping":66},{"user_id":521,"name":"the forbidden one","steam_id":76561198844273999,"connected_time":915000000000,"state":"active","ping":44},{"user_id":512,"name":"Psych03","steam_id":76561198061753667,"connected_time":1599000000000,"state":"active","ping":72},{"user_id":488,"name":"glue eater","steam_id":76561198210322871,"connected_time":3785000000000,"state":"active","ping":66},{"user_id":536,"name":"Eggs","steam_id":76561199094378158,"connected_time":654000000000,"state":"active","ping":122},{"user_id":526,"name":"oxbudy","steam_id":76561198022120207,"connected_time":872000000000,"state":"active","ping":73},{"user_id":531,"name":"Pyrotek⁴","steam_id":76561198072747672,"connected_time":751000000000,"state":"active","ping":74},{"user_id":545,"name":"Indicative","steam_id":76561199076612537,"connected_time":560000000000,"state":"active","ping":88},{"user_id":537,"name":"juan.valdez2003","steam_id":76561197995428542,"connected_time":653000000000,"state":"active","ping":82},{"user_id":538,"name":"toodles","steam_id":76561198025463883,"connected_time":645000000000,"state":"active","ping":51},{"user_id":478,"name":"Yume","steam_id":76561198018060136,"connected_time":4581000000000,"state":"active","ping":95},{"user_id":539,"name":"Skittles","steam_id":76561198141398266,"connected_time":640000000000,"state":"active","ping":67},{"user_id":391,"name":"why the wig?","steam_id":76561199084109885,"connected_time":11547000000000,"state":"active","ping":128},{"user_id":527,"name":"NayrTheMayor","steam_id":76561198853726475,"connected_time":870000000000,"state":"active","ping":61}]},{"server_id":406,"name":"Uncletopia | Seattle | 3 | Stopwatch Beta","name_short":"sea-3","host":"sea-1.us.uncletopia.com","port":27035,"enabled":true,"region":"us-west","cc":"us","latitude":47.608013,"longitude":-122.33517,"reserved":0,"last_update":"0001-01-01T00:00:00Z","name_a2s":"Uncletopia | Seattle | 3 | Stopwatch Beta","protocol":17,"map":"koth_lakeside_final","folder":"tf","game":"Team Fortress","app_id":440,"player_count":0,"max_players":24,"Bots":0,"server_type":"Dedicated","server_os":"Linux","password":true,"vac":true,"version":"7757534","steam_id":85568392924515217,"keywords":["cp","nocrits","nodmgspread","uncletopia"],"game_id":440,"stv_port":27036,"stv_name":"Uncletopia | Seattle | 3 | Stopwatch Beta | STV","players":null},{"server_id":17,"name":"Uncletopia | San Francisco | 1 | All Maps","name_short":"sfo-1","host":"sfo-1.us.uncletopia.com","port":27015,"enabled":true,"region":"us-west","cc":"us","latitude":37.77397,"longitude":-122.4313,"reserved":0,"last_update":"0001-01-01T00:00:00Z","name_a2s":"Uncletopia | San Francisco | 1 | All Maps","protocol":17,"map":"pl_borneo","folder":"tf","game":"Team Fortress","app_id":440,"player_count":24,"max_players":24,"Bots":0,"server_type":"Dedicated","server_os":"Linux","password":true,"vac":true,"version":"7757534","steam_id":85568392924469999,"keywords":["nocrits","nodmgspread","payload","uncletopia"],"game_id":440,"stv_port":27016,"stv_name":"Uncletopia | San Francisco | 1 | All Maps | STV","players":[{"user_id":315,"name":"Norriss","steam_id":76561198920296293,"connected_time":1939000000000,"state":"active","ping":57},{"user_id":302,"name":"morgenne","steam_id":76561199224141679,"connected_time":3044000000000,"state":"active","ping":55},{"user_id":294,"name":"\u003cM\u003e","steam_id":76561198028068603,"connected_time":4079000000000,"state":"active","ping":55},{"user_id":326,"name":"smuck","steam_id":76561198342427583,"connected_time":1064000000000,"state":"active","ping":133},{"user_id":304,"name":"DemoLiberTF2","steam_id":76561198095378689,"connected_time":2955000000000,"state":"active","ping":91},{"user_id":320,"name":"jBracko","steam_id":76561198019261602,"connected_time":1684000000000,"state":"active","ping":45},{"user_id":331,"name":"Grassman (Cc)","steam_id":76561198026488532,"connected_time":880000000000,"state":"active","ping":41},{"user_id":335,"name":"Toad :)","steam_id":76561198163008022,"connected_time":194000000000,"state":"active","ping":61},{"user_id":327,"name":"cool beans","steam_id":76561198045758072,"connected_time":1034000000000,"state":"active","ping":50},{"user_id":328,"name":"JayBurb","steam_id":76561199119579978,"connected_time":1022000000000,"state":"active","ping":107},{"user_id":336,"name":"Whiskey","steam_id":76561198858154667,"connected_time":176000000000,"state":"active","ping":54},{"user_id":311,"name":"Maho","steam_id":76561199076491805,"connected_time":2472000000000,"state":"active","ping":108},{"user_id":312,"name":"colespudzo","steam_id":76561198051127147,"connected_time":2416000000000,"state":"active","ping":62},{"user_id":293,"name":"Honeybunch","steam_id":76561198014850580,"connected_time":4125000000000,"state":"active","ping":60},{"user_id":264,"name":"Huntsman Sniper","steam_id":76561198204055701,"connected_time":5044000000000,"state":"active","ping":47},{"user_id":321,"name":"Superman123389","steam_id":76561198267472539,"connected_time":1607000000000,"state":"active","ping":89},{"user_id":323,"name":"Ronnie Pickering!","steam_id":76561198041842118,"connected_time":1565000000000,"state":"active","ping":64},{"user_id":329,"name":"Bluedime","steam_id":76561198123181025,"connected_time":1021000000000,"state":"active","ping":123},{"user_id":332,"name":"e7","steam_id":76561198154265084,"connected_time":867000000000,"state":"active","ping":61},{"user_id":271,"name":"CassandraRC7","steam_id":76561198094123940,"connected_time":4905000000000,"state":"active","ping":112},{"user_id":325,"name":"Drake from State Farm","steam_id":76561199069029812,"connected_time":1380000000000,"state":"active","ping":51},{"user_id":306,"name":"Tort boi","steam_id":76561198125327110,"connected_time":2943000000000,"state":"active","ping":80},{"user_id":261,"name":"MonkeyNobody","steam_id":76561199451266605,"connected_time":5680000000000,"state":"active","ping":64},{"user_id":307,"name":"ScoutSecoTF2","steam_id":76561198366212156,"connected_time":2943000000000,"state":"active","ping":116}]},{"server_id":18,"name":"Uncletopia | San Francisco | 2 | All Maps","name_short":"sfo-2","host":"sfo-1.us.uncletopia.com","port":27025,"enabled":true,"region":"us-west","cc":"us","latitude":37.77397,"longitude":-122.4313,"reserved":0,"last_update":"0001-01-01T00:00:00Z","name_a2s":"Uncletopia | San Francisco | 2 | All Maps","protocol":17,"map":"pl_swiftwater_final1","folder":"tf","game":"Team Fortress","app_id":440,"player_count":24,"max_players":24,"Bots":0,"server_type":"Dedicated","server_os":"Linux","password":true,"vac":true,"version":"7757534","steam_id":85568392924470000,"keywords":["nocrits","nodmgspread","payload","uncletopia"],"game_id":440,"stv_port":27026,"stv_name":"Uncletopia | San Francisco | 2 | All Maps | STV","players":[{"user_id":99,"name":"walkerarcher2","steam_id":76561199479691952,"connected_time":2518000000000,"state":"active","ping":178},{"user_id":111,"name":"Ken-Sama","steam_id":76561198040465331,"connected_time":578000000000,"state":"active","ping":64},{"user_id":12,"name":"Cole Boye","steam_id":76561198282449106,"connected_time":6866000000000,"state":"active","ping":92},{"user_id":104,"name":"Pantaloons","steam_id":76561198073071139,"connected_time":2401000000000,"state":"active","ping":85},{"user_id":80,"name":"Super Kami Guru","steam_id":76561198322956099,"connected_time":3662000000000,"state":"active","ping":62},{"user_id":115,"name":"greens beans","steam_id":76561198153611491,"connected_time":349000000000,"state":"active","ping":57},{"user_id":91,"name":"lolgamer247","steam_id":76561198974645534,"connected_time":3036000000000,"state":"active","ping":93},{"user_id":113,"name":"uufyfuu","steam_id":76561198142787212,"connected_time":415000000000,"state":"active","ping":88},{"user_id":97,"name":"Jake","steam_id":76561198118425600,"connected_time":2585000000000,"state":"active","ping":87},{"user_id":93,"name":"ForAPessimistImPrettyOptimistic","steam_id":76561198170128009,"connected_time":2804000000000,"state":"active","ping":53},{"user_id":107,"name":"frank gallagher","steam_id":76561198973429541,"connected_time":1559000000000,"state":"active","ping":132},{"user_id":106,"name":"huiei","steam_id":76561198073763735,"connected_time":1565000000000,"state":"active","ping":56},{"user_id":76,"name":"Renz","steam_id":76561198118995036,"connected_time":3974000000000,"state":"active","ping":75},{"user_id":108,"name":"squash","steam_id":76561198150281353,"connected_time":1541000000000,"state":"active","ping":73},{"user_id":77,"name":"⌞pizzaguy⌝","steam_id":76561197963710485,"connected_time":3940000000000,"state":"active","ping":74},{"user_id":31,"name":"Woodstock","steam_id":76561198041442667,"connected_time":5879000000000,"state":"active","ping":65},{"user_id":32,"name":"GEOFF BURNSTOCK DIED","steam_id":76561198083610844,"connected_time":5870000000000,"state":"active","ping":59},{"user_id":109,"name":"Rafl","steam_id":76561198055222756,"connected_time":1539000000000,"state":"active","ping":77},{"user_id":114,"name":"Homunculus Humphrey","steam_id":76561198079797048,"connected_time":408000000000,"state":"active","ping":111},{"user_id":112,"name":"O_x","steam_id":76561198289696924,"connected_time":555000000000,"state":"active","ping":57},{"user_id":116,"name":"jorts","steam_id":76561199041179985,"connected_time":246000000000,"state":"active","ping":73},{"user_id":66,"name":"PooPoo Pantaloons","steam_id":76561199065932107,"connected_time":4394000000000,"state":"active","ping":120},{"user_id":89,"name":"Jesus Christ","steam_id":76561199388058358,"connected_time":3179000000000,"state":"active","ping":87},{"user_id":103,"name":"AweStruckEXP","steam_id":76561198820920580,"connected_time":2449000000000,"state":"active","ping":87}]},{"server_id":19,"name":"Uncletopia | San Francisco | 3 | Stopwatch Beta","name_short":"sfo-3","host":"sfo-1.us.uncletopia.com","port":27035,"enabled":true,"region":"us-west","cc":"us","latitude":37.77397,"longitude":-122.4313,"reserved":0,"last_update":"0001-01-01T00:00:00Z","name_a2s":"Uncletopia | San Francisco | 3 | Stopwatch Beta","protocol":17,"map":"koth_lakeside_final","folder":"tf","game":"Team Fortress","app_id":440,"player_count":0,"max_players":24,"Bots":0,"server_type":"Dedicated","server_os":"Linux","password":true,"vac":true,"version":"7757534","steam_id":85568392924742824,"keywords":["cp","nocrits","nodmgspread","uncletopia"],"game_id":440,"stv_port":27036,"stv_name":"Uncletopia | San Francisco | 3 | Stopwatch Beta | STV","players":null},{"server_id":20,"name":"Uncletopia | San Francisco | 4 | Community","name_short":"sfo-4","host":"sfo-1.us.uncletopia.com","port":27045,"enabled":true,"region":"us-west","cc":"us","latitude":37.77397,"longitude":-122.4313,"reserved":0,"last_update":"0001-01-01T00:00:00Z","name_a2s":"Uncletopia | San Francisco | 4 | Community","protocol":17,"map":"workshop/koth_slaughter_rc1.ugc1712845210","folder":"tf","game":"Team Fortress","app_id":440,"player_count":0,"max_players":24,"Bots":0,"server_type":"Dedicated","server_os":"Linux","password":true,"vac":true,"version":"7757534","steam_id":85568392924742826,"keywords":["cp","nocrits","nodmgspread","uncletopia"],"game_id":440,"stv_port":27046,"stv_name":"Uncletopia | San Francisco | 4 | Community | STV","players":null},{"server_id":141,"name":"Uncletopia | Sydney | 1 | All Maps","name_short":"syd-1","host":"syd-1.au.uncletopia.com","port":27015,"enabled":true,"region":"au","cc":"au","latitude":-33.865143,"longitude":151.2099,"reserved":0,"last_update":"0001-01-01T00:00:00Z","name_a2s":"Uncletopia | Sydney | 1 | All Maps","protocol":17,"map":"koth_viaduct","folder":"tf","game":"Team Fortress","app_id":440,"player_count":0,"max_players":24,"Bots":0,"server_type":"Dedicated","server_os":"Linux","password":true,"vac":true,"version":"7757534","steam_id":85568392924470001,"keywords":["cp","nocrits","nodmgspread","uncletopia"],"game_id":440,"stv_port":27016,"stv_name":"Uncletopia | Sydney | 1 | All Maps | STV","players":null},{"server_id":123,"name":"Uncletopia | Sydney | 2 | All Maps","name_short":"syd-2","host":"syd-1.au.uncletopia.com","port":27025,"enabled":true,"region":"au","cc":"au","latitude":-33.865143,"longitude":151.2099,"reserved":0,"last_update":"0001-01-01T00:00:00Z","name_a2s":"Uncletopia | Sydney | 2 | All Maps","protocol":17,"map":"cp_process_final","folder":"tf","game":"Team Fortress","app_id":440,"player_count":0,"max_players":24,"Bots":0,"server_type":"Dedicated","server_os":"Linux","password":true,"vac":true,"version":"7757534","steam_id":85568392924470002,"keywords":["cp","nocrits","nodmgspread","uncletopia"],"game_id":440,"stv_port":27026,"stv_name":"Uncletopia | Sydney | 2 | All Maps | STV","players":null},{"server_id":395,"name":"Uncletopia | Sydney | 3 | All Maps","name_short":"syd-3","host":"syd-1.au.uncletopia.com","port":27035,"enabled":true,"region":"au","cc":"au","latitude":-33.865143,"longitude":151.2099,"reserved":0,"last_update":"0001-01-01T00:00:00Z","name_a2s":"Uncletopia | Sydney | 3 | All Maps","protocol":17,"map":"pl_swiftwater_final1","folder":"tf","game":"Team Fortress","app_id":440,"player_count":0,"max_players":24,"Bots":0,"server_type":"Dedicated","server_os":"Linux","password":true,"vac":true,"version":"7757534","steam_id":85568392925194467,"keywords":["nocrits","nodmgspread","payload","uncletopia"],"game_id":440,"stv_port":27036,"stv_name":"Uncletopia | Sydney | 3 | All Maps | STV","players":null},{"server_id":396,"name":"Uncletopia | Sydney | 4 | All Maps","name_short":"syd-4","host":"syd-1.au.uncletopia.com","port":27045,"enabled":true,"region":"au","cc":"au","latitude":-33.865143,"longitude":151.2099,"reserved":0,"last_update":"0001-01-01T00:00:00Z","name_a2s":"Uncletopia | Sydney | 4 | All Maps","protocol":17,"map":"koth_highpass","folder":"tf","game":"Team Fortress","app_id":440,"player_count":0,"max_players":24,"Bots":0,"server_type":"Dedicated","server_os":"Linux","password":true,"vac":true,"version":"7757534","steam_id":85568392925397958,"keywords":["cp","nocrits","nodmgspread","uncletopia"],"game_id":440,"stv_port":27046,"stv_name":"Uncletopia | Sydney | 4 | All Maps | STV","players":null},{"server_id":58,"name":"Uncletopia | Sydney | 5 | Stopwatch Beta","name_short":"syd-5","host":"syd-1.au.uncletopia.com","port":27055,"enabled":true,"region":"au","cc":"au","latitude":-33.865143,"longitude":151.2099,"reserved":0,"last_update":"0001-01-01T00:00:00Z","name_a2s":"Uncletopia | Sydney | 5 | Stopwatch Beta","protocol":17,"map":"koth_cascade","folder":"tf","game":"Team Fortress","app_id":440,"player_count":0,"max_players":24,"Bots":0,"server_type":"Dedicated","server_os":"Linux","password":true,"vac":true,"version":"7757534","steam_id":85568392925397959,"keywords":["cp","nocrits","nodmgspread","uncletopia"],"game_id":440,"stv_port":27056,"stv_name":"Uncletopia | Sydney | 5 | Stopwatch Beta | STV","players":null},{"server_id":59,"name":"Uncletopia | Sydney | 6 | Community","name_short":"syd-6","host":"syd-1.au.uncletopia.com","port":27065,"enabled":true,"region":"au","cc":"au","latitude":-33.865143,"longitude":151.2099,"reserved":0,"last_update":"0001-01-01T00:00:00Z","name_a2s":"Uncletopia | Sydney | 6 | Community","protocol":17,"map":"cp_snakewater_final1","folder":"tf","game":"Team Fortress","app_id":440,"player_count":0,"max_players":24,"Bots":0,"server_type":"Dedicated","server_os":"Linux","password":true,"vac":true,"version":"7757534","steam_id":85568392925397960,"keywords":["cp","nocrits","nodmgspread","uncletopia"],"game_id":440,"stv_port":27066,"stv_name":"Uncletopia | Sydney | 6 | Community | STV","players":null},{"server_id":49,"name":"Uncletopia | Warsaw | 1 | All Maps","name_short":"waw-1","host":"waw-1.pl.uncletopia.com","port":27015,"enabled":true,"region":"eu","cc":"pl","latitude":52.2297,"longitude":21.017532,"reserved":0,"last_update":"0001-01-01T00:00:00Z","name_a2s":"","protocol":0,"map":"","folder":"","game":"","app_id":0,"player_count":0,"max_players":0,"Bots":0,"server_type":"","server_os":"","password":false,"vac":false,"version":"","steam_id":0,"keywords":null,"game_id":0,"stv_port":0,"stv_name":"","players":null},{"server_id":50,"name":"Uncletopia | Warsaw | 2 | All Maps","name_short":"waw-2","host":"waw-1.pl.uncletopia.com","port":27025,"enabled":true,"region":"eu","cc":"pl","latitude":52.2297,"longitude":21.017532,"reserved":0,"last_update":"0001-01-01T00:00:00Z","name_a2s":"Uncletopia | Warsaw | 2 | All Maps","protocol":17,"map":"pl_frontier_final","folder":"tf","game":"Team Fortress","app_id":440,"player_count":0,"max_players":24,"Bots":0,"server_type":"Dedicated","server_os":"Linux","password":true,"vac":true,"version":"7757534","steam_id":85568392925397851,"keywords":["nocrits","nodmgspread","payload","uncletopia"],"game_id":440,"stv_port":27026,"stv_name":"Uncletopia | Warsaw | 2 | All Maps | STV","players":null},{"server_id":51,"name":"Uncletopia | Warsaw | 3 | All Maps","name_short":"waw-3","host":"waw-1.pl.uncletopia.com","port":27035,"enabled":true,"region":"eu","cc":"pl","latitude":52.2297,"longitude":21.017532,"reserved":0,"last_update":"0001-01-01T00:00:00Z","name_a2s":"Uncletopia | Warsaw | 3 | All Maps","protocol":17,"map":"cp_snakewater_final1","folder":"tf","game":"Team Fortress","app_id":440,"player_count":0,"max_players":24,"Bots":0,"server_type":"Dedicated","server_os":"Linux","password":true,"vac":true,"version":"7757534","steam_id":85568392925397852,"keywords":["cp","nocrits","nodmgspread","uncletopia"],"game_id":440,"stv_port":27036,"stv_name":"Uncletopia | Warsaw | 3 | All Maps | STV","players":null},{"server_id":52,"name":"Uncletopia | Warsaw | 4 | All Maps","name_short":"waw-4","host":"waw-1.pl.uncletopia.com","port":27045,"enabled":true,"region":"eu","cc":"pl","latitude":52.2297,"longitude":21.017532,"reserved":0,"last_update":"0001-01-01T00:00:00Z","name_a2s":"Uncletopia | Warsaw | 4 | All Maps","protocol":17,"map":"koth_lakeside_final","folder":"tf","game":"Team Fortress","app_id":440,"player_count":0,"max_players":24,"Bots":0,"server_type":"Dedicated","server_os":"Linux","password":true,"vac":true,"version":"7757534","steam_id":85568392925397853,"keywords":["cp","nocrits","nodmgspread","uncletopia"],"game_id":440,"stv_port":27046,"stv_name":"Uncletopia | Warsaw | 4 | All Maps | STV","players":null},{"server_id":53,"name":"Uncletopia | Warsaw | 5 | Stopwatch Beta","name_short":"waw-5","host":"waw-1.pl.uncletopia.com","port":27055,"enabled":true,"region":"eu","cc":"pl","latitude":52.2297,"longitude":21.017532,"reserved":0,"last_update":"0001-01-01T00:00:00Z","name_a2s":"Uncletopia | Warsaw | 5 | Stopwatch Beta","protocol":17,"map":"pl_borneo","folder":"tf","game":"Team Fortress","app_id":440,"player_count":0,"max_players":24,"Bots":0,"server_type":"Dedicated","server_os":"Linux","password":true,"vac":true,"version":"7757534","steam_id":85568392925397854,"keywords":["nocrits","nodmgspread","payload","uncletopia"],"game_id":440,"stv_port":27056,"stv_name":"Uncletopia | Warsaw | 5 | Stopwatch Beta | STV","players":null},{"server_id":54,"name":"Uncletopia | Warsaw | 6 | Community","name_short":"waw-6","host":"waw-1.pl.uncletopia.com","port":27065,"enabled":true,"region":"eu","cc":"pl","latitude":52.2297,"longitude":21.017532,"reserved":0,"last_update":"0001-01-01T00:00:00Z","name_a2s":"Uncletopia | Warsaw | 6 | Community","protocol":17,"map":"koth_lakeside_final","folder":"tf","game":"Team Fortress","app_id":440,"player_count":0,"max_players":24,"Bots":0,"server_type":"Dedicated","server_os":"Linux","password":true,"vac":true,"version":"7757534","steam_id":85568392925397856,"keywords":["cp","nocrits","nodmgspread","uncletopia"],"game_id":440,"stv_port":27066,"stv_name":"Uncletopia | Warsaw | 6 | Community | STV","players":null}]}