{"status":true,"message":"","result":[{"server_id":9,"name":"Uncletopia | Atlanta | 1 | All Maps","name_short":"atl-1","host":"atl-1.us.uncletopia.com","port":27015,"enabled":true,"region":"us-east","cc":"us","latitude":33.753746,"longitude":-84.38633,"reserved":0,"last_update":"0001-01-01T00:00:00Z","name_a2s":"Uncletopia | Atlanta | 1 | All Maps","protocol":17,"map":"cp_dustbowl","folder":"tf","game":"Team Fortress","app_id":440,"player_count":24,"max_players":24,"Bots":0,"server_type":"Dedicated","server_os":"Linux","password":true,"vac":true,"version":"7961495","steam_id":85568392924469982,"keywords":["cp","nocrits","nodmgspread","uncletopia"],"game_id":440,"stv_port":27016,"stv_name":"Uncletopia | Atlanta | 1 | All Maps | STV","players":[{"user_id":560,"name":"Tommy Provolone","steam_id":76561198170062377,"connected_time":779000000000,"state":"active","ping":83},{"user_id":561,"name":"WheelieChopper","steam_id":76561198070980426,"connected_time":673000000000,"state":"active","ping":110},{"user_id":548,"name":"Reisalin Stout","steam_id":76561198272955205,"connected_time":2513000000000,"state":"active","ping":83},{"user_id":368,"name":"eish","steam_id":76561198089463603,"connected_time":16509000000000,"state":"active","ping":123},{"user_id":534,"name":"Ripping Heads","steam_id":76561198006146062,"connected_time":4157000000000,"state":"active","ping":73},{"user_id":562,"name":"joe","steam_id":76561198045781320,"connected_time":632000000000,"state":"active","ping":60},{"user_id":535,"name":"C Papi","steam_id":76561198027779564,"connected_time":3801000000000,"state":"active","ping":50},{"user_id":545,"name":"shaderoses","steam_id":76561198070800500,"connected_time":2806000000000,"state":"active","ping":62},{"user_id":554,"name":"brian eno","steam_id":76561198109901138,"connected_time":1416000000000,"state":"active","ping":75},{"user_id":563,"name":"mepes","steam_id":76561198080430008,"connected_time":628000000000,"state":"active","ping":75},{"user_id":525,"name":"Tommy Pickles (Very Cool)","steam_id":76561198391261463,"connected_time":4725000000000,"state":"active","ping":89},{"user_id":551,"name":"TriggyDiggy","steam_id":76561198364366159,"connected_time":2453000000000,"state":"active","ping":70},{"user_id":531,"name":"pharmacist","steam_id":76561198274424248,"connected_time":4520000000000,"state":"active","ping":191},{"user_id":559,"name":"Birch","steam_id":76561198316231704,"connected_time":791000000000,"state":"active","ping":59},{"user_id":564,"name":"ThatGirlWithaK","steam_id":76561198317602350,"connected_time":588000000000,"state":"active","ping":95},{"user_id":568,"name":"Discourse","steam_id":76561198984286678,"connected_time":27000000000,"state":"active","ping":82},{"user_id":533,"name":"Nine-Tails Delsin","steam_id":76561198149825187,"connected_time":4398000000000,"state":"active","ping":140},{"user_id":558,"name":"chud smoker","steam_id":76561198120973162,"connected_time":832000000000,"state":"active","ping":74},{"user_id":498,"name":"/\\","steam_id":76561198045522596,"connected_time":6756000000000,"state":"active","ping":69},{"user_id":555,"name":"Ludcmorais","steam_id":76561198359217809,"connected_time":1398000000000,"state":"active","ping":185},{"user_id":556,"name":"pocket ranni","steam_id":76561198077366457,"connected_time":1269000000000,"state":"active","ping":56},{"user_id":566,"name":"dog food eater","steam_id":76561198047950170,"connected_time":353000000000,"state":"active","ping":74},{"user_id":530,"name":"why","steam_id":76561199059732212,"connected_time":4659000000000,"state":"active","ping":53},{"user_id":567,"name":"controller config abuser","steam_id":76561198293548204,"connected_time":344000000000,"state":"active","ping":101}]},{"server_id":104,"name":"Uncletopia | Atlanta | 2 | All Maps","name_short":"atl-2","host":"atl-1.us.uncletopia.com","port":27025,"enabled":true,"region":"us-east","cc":"us","latitude":33.753746,"longitude":-84.38633,"reserved":0,"last_update":"0001-01-01T00:00:00Z","name_a2s":"Uncletopia | Atlanta | 2 | All Maps","protocol":17,"map":"koth_lakeside_final","folder":"tf","game":"Team Fortress","app_id":440,"player_count":1,"max_players":24,"Bots":0,"server_type":"Dedicated","server_os":"Linux","password":true,"vac":true,"version":"7961495","steam_id":85568392924469983,"keywords":["cp","nocrits","nodmgspread","uncletopia"],"game_id":440,"stv_port":27026,"stv_name":"Uncletopia | Atlanta | 2 | All Maps | STV","players":[{"user_id":757,"name":"jawzyhungrys","steam_id":76561199081912733,"connected_time":191000000000,"state":"active","ping":52}]},{"server_id":400,"name":"Uncletopia | Atlanta | 3 | Stopwatch","name_short":"atl-3","host":"atl-1.us.uncletopia.com","port":27035,"enabled":true,"region":"us-east","cc":"us","latitude":33.753746,"longitude":-84.38633,"reserved":0,"last_update":"0001-01-01T00:00:00Z","name_a2s":"Uncletopia | Atlanta | 3 | Stopwatch","protocol":17,"map":"workshop/koth_clearcut_b15.ugc2107050255","folder":"tf","game":"Team Fortress","app_id":440,"player_count":0,"max_players":24,"Bots":0,"server_type":"Dedicated","server_os":"Linux","password":true,"vac":true,"version":"7961495","steam_id":85568392924515187,"keywords":["cp","nocrits","nodmgspread","uncletopia"],"game_id":440,"stv_port":27036,"stv_name":"Uncletopia | Atlanta | 3 | Stopwatch | STV","players":null},{"server_id":401,"name":"Uncletopia | Atlanta | 4 | Community","name_short":"atl-4","host":"atl-1.us.uncletopia.com","port":27045,"enabled":true,"region":"us-east","cc":"us","latitude":33.753746,"longitude":-84.38633,"reserved":0,"last_update":"0001-01-01T00:00:00Z","name_a2s":"Uncletopia | Atlanta | 4 | Community","protocol":17,"map":"workshop/pl_divulgence_b4b.ugc2884808746","folder":"tf","game":"Team Fortress","app_id":440,"player_count":0,"max_players":24,"Bots":0,"server_type":"Dedicated","server_os":"Linux","password":true,"vac":true,"version":"7961495","steam_id":85568392924515188,"keywords":["nocrits","nodmgspread","payload","uncletopia"],"game_id":440,"stv_port":27046,"stv_name":"Uncletopia | Atlanta | 4 | Community | STV","players":null},{"server_id":2,"name":"Uncletopia | Chicago | 1 | All Maps","name_short":"chi-1","host":"chi-1.us.uncletopia.com","port":27015,"enabled":true,"region":"us-central","cc":"us","latitude":41.881832,"longitude":-87.62318,"reserved":0,"last_update":"0001-01-01T00:00:00Z","name_a2s":"Uncletopia | Chicago | 1 | All Maps","protocol":17,"map":"pl_snowycoast","folder":"tf","game":"Team Fortress","app_id":440,"player_count":24,"max_players":24,"Bots":0,"server_type":"Dedicated","server_os":"Linux","password":true,"vac":true,"version":"7961495","steam_id":85568392924469984,"keywords":["nocrits","nodmgspread","payload","uncletopia"],"game_id":440,"stv_port":27016,"stv_name":"Uncletopia | Chicago | 1 | All Maps | STV","players":[{"user_id":779,"name":"harlowng","steam_id":76561198060542928,"connected_time":8000000000,"state":"connecting","ping":114},{"user_id":744,"name":"Female Gamer","steam_id":76561199366482682,"connected_time":1684000000000,"state":"connecting","ping":107},{"user_id":749,"name":"berserker_tf2","steam_id":76561198303464488,"connected_time":1192000000000,"state":"connecting","ping":86},{"user_id":770,"name":"Spy Gaming","steam_id":76561198453295613,"connected_time":491000000000,"state":"connecting","ping":131},{"user_id":718,"name":"Call Me Pedro","steam_id":76561198149130308,"connected_time":3708000000000,"state":"connecting","ping":69},{"user_id":777,"name":"Zerek","steam_id":76561197995161637,"connected_time":39000000000,"state":"connecting","ping":105},{"user_id":762,"name":"Pop","steam_id":76561199012562851,"connected_time":739000000000,"state":"connecting","ping":89},{"user_id":776,"name":"Pineapple Mango Lemonade","steam_id":76561198127421560,"connected_time":108000000000,"state":"connecting","ping":69},{"user_id":771,"name":"Û†Ä°Û†Ä°","steam_id":76561198348035053,"connected_time":489000000000,"state":"connecting","ping":131},{"user_id":774,"name":"XmasterEZ12","steam_id":76561198216207079,"connected_time":138000000000,"state":"connecting","ping":115},{"user_id":764,"name":"tolnut","steam_id":76561198818842933,"connected_time":734000000000,"state":"connecting","ping":110},{"user_id":769,"name":"DanthePunman","steam_id":76561198453724913,"connected_time":606000000000,"state":"connecting","ping":69},{"user_id":766,"name":"tgirl swag","steam_id":76561198128164970,"connected_time":649000000000,"state":"connecting","ping":127},{"user_id":778,"name":"rat 2","steam_id":76561198197297414,"connected_time":25000000000,"state":"connecting","ping":39},{"user_id":760,"name":"Tideflat","steam_id":76561198179850851,"connected_time":829000000000,"state":"connecting","ping":102},{"user_id":756,"name":"Shipmunk","steam_id":76561198063062670,"connected_time":1004000000000,"state":"connecting","ping":60},{"user_id":767,"name":"Day By Day","steam_id":76561198410957728,"connected_time":644000000000,"state":"connecting","ping":59},{"user_id":768,"name":"leonardo doujinshi","steam_id":76561198025810326,"connected_time":638000000000,"state":"connecting","ping":57},{"user_id":772,"name":"Muselk","steam_id":76561199289676387,"connected_time":472000000000,"state":"connecting","ping":112},{"user_id":742,"name":"Klip","steam_id":76561198316254429,"connected_time":1874000000000,"state":"connecting","ping":94},{"user_id":775,"name":"yomommasabitch","steam_id":76561198323217150,"connected_time":133000000000,"state":"connecting","ping":77},{"user_id":724,"name":"Gang Shit","steam_id":76561198408436344,"connected_time":3134000000000,"state":"connecting","ping":131},{"user_id":758,"name":"werecat","steam_id":76561198005091213,"connected_time":978000000000,"state":"connecting","ping":66},{"user_id":761,"name":"ok","steam_id":76561198310495200,"connected_time":829000000000,"state":"connecting","ping":72}]},{"server_id":106,"name":"Uncletopia | Chicago | 2 | All Maps","name_short":"chi-2","host":"chi-1.us.uncletopia.com","port":27025,"enabled":true,"region":"us-central","cc":"us","latitude":41.881832,"longitude":-87.62318,"reserved":0,"last_update":"0001-01-01T00:00:00Z","name_a2s":"Uncletopia | Chicago | 2 | All Maps","protocol":17,"map":"koth_harvest_final","folder":"tf","game":"Team Fortress","app_id":440,"player_count":24,"max_players":24,"Bots":0,"server_type":"Dedicated","server_os":"Linux","password":true,"vac":true,"version":"7961495","steam_id":85568392924469985,"keywords":["cp","nocrits","nodmgspread","uncletopia"],"game_id":440,"stv_port":27026,"stv_name":"Uncletopia | Chicago | 2 | All Maps | STV","players":[{"user_id":805,"name":"Microsoft Word","steam_id":76561198797633439,"connected_time":387000000000,"state":"active","ping":99},{"user_id":775,"name":"GuyGoom","steam_id":76561198254522178,"connected_time":3027000000000,"state":"active","ping":55},{"user_id":810,"name":"rice white","steam_id":76561198320732910,"connected_time":197000000000,"state":"active","ping":72},{"user_id":747,"name":"Ya viene...ü•µ","steam_id":76561198298364415,"connected_time":5179000000000,"state":"active","ping":120},{"user_id":796,"name":"stao","steam_id":76561198110348558,"connected_time":965000000000,"state":"active","ping":103},{"user_id":774,"name":"Fresnel","steam_id":76561198266960876,"connected_time":3066000000000,"state":"active","ping":89},{"user_id":811,"name":"13¬£","steam_id":76561198425726464,"connected_time":196000000000,"state":"active","ping":73},{"user_id":797,"name":"thundah!","steam_id":76561199159928133,"connected_time":959000000000,"state":"active","ping":71},{"user_id":748,"name":"hittign dabong","steam_id":76561198097588802,"connected_time":5148000000000,"state":"active","ping":48},{"user_id":778,"name":"Fazer","steam_id":76561197979461186,"connected_time":2976000000000,"state":"active","ping":91},{"user_id":806,"name":"Comrade Emperor","steam_id":76561198004636463,"connected_time":373000000000,"state":"active","ping":149},{"user_id":807,"name":"–õ—É–∫–∞—Å–Ω–∞—Ü","steam_id":76561198308073456,"connected_time":311000000000,"state":"active","ping":123},{"user_id":756,"name":"Dot.","steam_id":76561198149463984,"connected_time":4563000000000,"state":"active","ping":48},{"user_id":809,"name":"Rusted Cake","steam_id":76561198209755931,"connected_time":212000000000,"state":"active","ping":109},{"user_id":798,"name":"Wique","steam_id":76561198071217597,"connected_time":952000000000,"state":"active","ping":90},{"user_id":715,"name":"A Puppy","steam_id":76561198828184456,"connected_time":8233000000000,"state":"active","ping":60},{"user_id":799,"name":"they/The","steam_id":76561198016479886,"connected_time":950000000000,"state":"active","ping":90},{"user_id":792,"name":"BL√òRG","steam_id":76561198036126673,"connected_time":1377000000000,"state":"active","ping":81},{"user_id":782,"name":"Masticatedux","steam_id":76561198068323286,"connected_time":2921000000000,"state":"active","ping":118},{"user_id":783,"name":"Blast Off!","steam_id":76561198149560087,"connected_time":2907000000000,"state":"active","ping":90},{"user_id":790,"name":"Epiknezz","steam_id":76561198040397776,"connected_time":1735000000000,"state":"active","ping":112},{"user_id":808,"name":"speedy","steam_id":76561197974493959,"connected_time":271000000000,"state":"active","ping":59},{"user_id":801,"name":"Yarman53","steam_id":76561198099889202,"connected_time":894000000000,"state":"active","ping":39},{"user_id":802,"name":"El Gato Paranoico","steam_id":76561198116567116,"connected_time":888000000000,"state":"active","ping":101}]},{"server_id":402,"name":"Uncletopia | Chicago | 3 | All Maps","name_short":"chi-3","host":"chi-1.us.uncletopia.com","port":27035,"enabled":true,"region":"us-central","cc":"us","latitude":41.881832,"longitude":-87.62318,"reserved":0,"last_update":"0001-01-01T00:00:00Z","name_a2s":"Uncletopia | Chicago | 3 | All Maps","protocol":17,"map":"pl_pier","folder":"tf","game":"Team Fortress","app_id":440,"player_count":24,"max_players":24,"Bots":0,"server_type":"Dedicated","server_os":"Linux","password":true,"vac":true,"version":"7961495","steam_id":85568392924515191,"keywords":["nocrits","nodmgspread","payload","uncletopia"],"game_id":440,"stv_port":27036,"stv_name":"Uncletopia | Chicago | 3 | All Maps | STV","players":[{"user_id":765,"name":"Castroy","steam_id":76561198108160099,"connected_time":4571000000000,"state":"active","ping":55},{"user_id":822,"name":"Punished \"Venom\" Snake","steam_id":76561199004825390,"connected_time":473000000000,"state":"active","ping":104},{"user_id":809,"name":"Tectonic11","steam_id":76561198061169359,"connected_time":1309000000000,"state":"active","ping":66},{"user_id":808,"name":"Yoshimelon","steam_id":76561198253054325,"connected_time":1342000000000,"state":"active","ping":60},{"user_id":812,"name":"warren","steam_id":76561198136331136,"connected_time":960000000000,"state":"active","ping":75},{"user_id":779,"name":"Person","steam_id":76561198093244204,"connected_time":4350000000000,"state":"active","ping":75},{"user_id":823,"name":"King","steam_id":76561198123927752,"connected_time":305000000000,"state":"active","ping":54},{"user_id":813,"name":"kuani","steam_id":76561199061380038,"connected_time":957000000000,"state":"active","ping":74},{"user_id":807,"name":"DeL's Arcade","steam_id":76561197972530119,"connected_time":1367000000000,"state":"active","ping":65},{"user_id":793,"name":"PostTraumaticDoWnSyndrome(PTSD)","steam_id":76561198180711105,"connected_time":3351000000000,"state":"active","ping":62},{"user_id":810,"name":"Tired","steam_id":76561198072620682,"connected_time":1305000000000,"state":"active","ping":88},{"user_id":817,"name":"Green Icicle","steam_id":76561198069624529,"connected_time":814000000000,"state":"active","ping":91},{"user_id":815,"name":"Oneiwon","steam_id":76561198084587698,"connected_time":855000000000,"state":"active","ping":114},{"user_id":821,"name":"Mohg-lester","steam_id":76561198974246700,"connected_time":709000000000,"state":"active","ping":167},{"user_id":795,"name":"KYLE KYLESON","steam_id":76561198021920887,"connected_time":3248000000000,"state":"active","ping":45},{"user_id":816,"name":"Morgott the Omen King","steam_id":76561198278511598,"connected_time":827000000000,"state":"active","ping":149},{"user_id":802,"name":"Rukks","steam_id":76561197993918954,"connected_time":2322000000000,"state":"active","ping":87},{"user_id":818,"name":"RedBaron","steam_id":76561198972426107,"connected_time":786000000000,"state":"active","ping":63},{"user_id":819,"name":"Laventhey","steam_id":76561198977523626,"connected_time":764000000000,"state":"active","ping":61},{"user_id":800,"name":"Engideer","steam_id":76561198145733164,"connected_time":2701000000000,"state":"active","ping":68},{"user_id":804,"name":"sez","steam_id":76561199465922101,"connected_time":2232000000000,"state":"active","ping":119},{"user_id":820,"name":"Fiendish Frog","steam_id":76561198029478821,"connected_time":742000000000,"state":"active","ping":75},{"user_id":797,"name":"üçíbutaüçí","steam_id":76561198135538212,"connected_time":3229000000000,"state":"active","ping":54},{"user_id":760,"name":"Tweek Tweak","steam_id":76561198445739792,"connected_time":5793000000000,"state":"active","ping":68}]},{"server_id":403,"name":"Uncletopia | Chicago | 4 | All Maps","name_short":"chi-4","host":"chi-1.us.uncletopia.com","port":27045,"enabled":true,"region":"us-central","cc":"us","latitude":41.881832,"longitude":-87.62318,"reserved":0,"last_update":"0001-01-01T00:00:00Z","name_a2s":"Uncletopia | Chicago | 4 | All Maps","protocol":17,"map":"koth_highpass","folder":"tf","game":"Team Fortress","app_id":440,"player_count":0,"max_players":24,"Bots":0,"server_type":"Dedicated","server_os":"Linux","password":true,"vac":true,"version":"7961495","steam_id":85568392924515193,"keywords":["cp","nocrits","nodmgspread","uncletopia"],"game_id":440,"stv_port":27046,"stv_name":"Uncletopia | Chicago | 4 | All Maps | STV","players":null},{"server_id":36,"name":"Uncletopia | Chicago | 5 | All Maps","name_short":"chi-5","host":"chi-2.us.uncletopia.com","port":27015,"enabled":true,"region":"us-central","cc":"us","latitude":41.881832,"longitude":-87.62318,"reserved":0,"last_update":"0001-01-01T00:00:00Z","name_a2s":"Uncletopia | Chicago | 5 | All Maps","protocol":17,"map":"koth_cascade","folder":"tf","game":"Team Fortress","app_id":440,"player_count":0,"max_players":24,"Bots":0,"server_type":"Dedicated","server_os":"Linux","password":true,"vac":true,"version":"7961495","steam_id":85568392924866362,"keywords":["cp","nocrits","nodmgspread","uncletopia"],"game_id":440,"stv_port":27016,"stv_name":"Uncletopia | Chicago | 5 | All Maps | STV","players":null},{"server_id":37,"name":"Uncletopia | Chicago | 6 | All Maps","name_short":"chi-6","host":"chi-2.us.uncletopia.com","port":27025,"enabled":true,"region":"us-central","cc":"us","latitude":41.881832,"longitude":-87.62318,"reserved":0,"last_update":"0001-01-01T00:00:00Z","name_a2s":"Uncletopia | Chicago | 6 | All Maps","protocol":17,"map":"koth_highpass","folder":"tf","game":"Team Fortress","app_id":440,"player_count":3,"max_players":24,"Bots":0,"server_type":"Dedicated","server_os":"Linux","password":true,"vac":true,"version":"7961495","steam_id":85568392924866363,"keywords":["cp","nocrits","nodmgspread","uncletopia"],"game_id":440,"stv_port":27026,"stv_name":"Uncletopia | Chicago | 6 | All Maps | STV","players":[{"user_id":787,"name":"Draou","steam_id":76561198081775590,"connected_time":1309000000000,"state":"active","ping":86},{"user_id":791,"name":"LemonShirt","steam_id":76561198917095857,"connected_time":512000000000,"state":"active","ping":70},{"user_id":788,"name":"midnightjedi","steam_id":76561198058629182,"connected_time":1084000000000,"state":"active","ping":114}]},{"server_id":38,"name":"Uncletopia | Chicago | 7 | Stopwatch","name_short":"chi-7","host":"chi-2.us.uncletopia.com","port":27035,"enabled":true,"region":"us-central","cc":"us","latitude":41.881832,"longitude":-87.62318,"reserved":0,"last_update":"0001-01-01T00:00:00Z","name_a2s":"Uncletopia | Chicago | 7 | Stopwatch","protocol":17,"map":"cp_process_final","folder":"tf","game":"Team Fortress","app_id":440,"player_count":0,"max_players":24,"Bots":0,"server_type":"Dedicated","server_os":"Linux","password":true,"vac":true,"version":"7961495","steam_id":85568392924866364,"keywords":["cp","nocrits","nodmgspread","uncletopia"],"game_id":440,"stv_port":27036,"stv_name":"Uncletopia | Chicago | 7 | Stopwatch | STV","players":null},{"server_id":39,"name":"Uncletopia | Chicago | 8 | Community","name_short":"chi-8","host":"chi-2.us.uncletopia.com","port":27045,"enabled":true,"region":"us-central","cc":"us","latitude":41.881832,"longitude":-87.62318,"reserved":0,"last_update":"0001-01-01T00:00:00Z","name_a2s":"Uncletopia | Chicago | 8 | Community","protocol":17,"map":"workshop/cp_alloy_rc3.ugc592805587","folder":"tf","game":"Team Fortress","app_id":440,"player_count":0,"max_players":24,"Bots":0,"server_type":"Dedicated","server_os":"Linux","password":true,"vac":true,"version":"7961495","steam_id":85568392924866365,"keywords":["cp","nocrits","nodmgspread","uncletopia"],"game_id":440,"stv_port":27046,"stv_name":"Uncletopia | Chicago | 8 | Community | STV","players":null},{"server_id":8,"name":"Uncletopia | Dallas | 1 | All Maps","name_short":"dal-1","host":"dal-1.us.uncletopia.com","port":27015,"enabled":true,"region":"us-central","cc":"us","latitude":32.779167,"longitude":-96.80889,"reserved":0,"last_update":"0001-01-01T00:00:00Z","name_a2s":"Uncletopia | Dallas | 1 | All Maps","protocol":17,"map":"pl_badwater","folder":"tf","game":"Team Fortress","app_id":440,"player_count":24,"max_players":24,"Bots":0,"server_type":"Dedicated","server_os":"Linux","password":true,"vac":true,"version":"7961495","steam_id":85568392924469986,"keywords":["nocrits","nodmgspread","payload","uncletopia"],"game_id":440,"stv_port":27016,"stv_name":"Uncletopia | Dallas | 1 | All Maps | STV","players":[{"user_id":675,"name":"twink gaming","steam_id":76561199117379404,"connected_time":2373000000000,"state":"active","ping":90},{"user_id":695,"name":"Randle of John","steam_id":76561198328210524,"connected_time":656000000000,"state":"active","ping":90},{"user_id":644,"name":"GOLDIE","steam_id":76561199375258674,"connected_time":3630000000000,"state":"active","ping":85},{"user_id":669,"name":"wolf_71","steam_id":76561198963570945,"connected_time":2514000000000,"state":"active","ping":50},{"user_id":594,"name":"The Winter Medic","steam_id":76561198197112922,"connected_time":7766000000000,"state":"active","ping":96},{"user_id":670,"name":"remmy_se","steam_id":76561198841729555,"connected_time":2482000000000,"state":"active","ping":76},{"user_id":667,"name":"dodecadron","steam_id":76561198027397222,"connected_time":2564000000000,"state":"active","ping":113},{"user_id":683,"name":"The Apoleon","steam_id":76561198870709855,"connected_time":1228000000000,"state":"active","ping":81},{"user_id":700,"name":"ZyluxLynx","steam_id":76561198268442856,"connected_time":145000000000,"state":"active","ping":64},{"user_id":699,"name":"rocketspires","steam_id":76561198800386026,"connected_time":240000000000,"state":"active","ping":109},{"user_id":696,"name":"Specter the Unchained","steam_id":76561198348354629,"connected_time":643000000000,"state":"active","ping":66},{"user_id":589,"name":"Silverstar","steam_id":76561198399525329,"connected_time":8109000000000,"state":"active","ping":95},{"user_id":691,"name":"Meepster","steam_id":76561198146305159,"connected_time":769000000000,"state":"active","ping":94},{"user_id":687,"name":"Gwendolyn","steam_id":76561198170458145,"connected_time":904000000000,"state":"active","ping":100},{"user_id":684,"name":"albert581_gaming","steam_id":76561198219209367,"connected_time":1212000000000,"state":"active","ping":75},{"user_id":671,"name":"motherfucker 2.0","steam_id":76561198141189209,"connected_time":2474000000000,"state":"active","ping":45},{"user_id":701,"name":"-W3E- grim10465","steam_id":76561198045698581,"connected_time":139000000000,"state":"active","ping":76},{"user_id":672,"name":"Levi","steam_id":76561198089832776,"connected_time":2445000000000,"state":"active","ping":57},{"user_id":702,"name":"skegeton","steam_id":76561198095581099,"connected_time":138000000000,"state":"active","ping":60},{"user_id":689,"name":"Whyamidoingthisaaaa","steam_id":76561199168837342,"connected_time":894000000000,"state":"active","ping":93},{"user_id":703,"name":"plsplsplslol","steam_id":76561198868084626,"connected_time":134000000000,"state":"active","ping":87},{"user_id":660,"name":"Matches_                       ","steam_id":76561198048925904,"connected_time":3056000000000,"state":"active","ping":87},{"user_id":681,"name":"Bogey","steam_id":76561198096227944,"connected_time":1837000000000,"state":"active","ping":47},{"user_id":692,"name":"whitemansgame","steam_id":76561198436099670,"connected_time":739000000000,"state":"active","ping":59}]},{"server_id":108,"name":"Uncletopia | Dallas | 2 | All Maps","name_short":"dal-2","host":"dal-1.us.uncletopia.com","port":27025,"enabled":true,"region":"us-central","cc":"us","latitude":32.779167,"longitude":-96.80889,"reserved":0,"last_update":"0001-01-01T00:00:00Z","name_a2s":"Uncletopia | Dallas | 2 | All Maps","protocol":17,"map":"cp_snakewater_final1","folder":"tf","game":"Team Fortress","app_id":440,"player_count":0,"max_players":24,"Bots":0,"server_type":"Dedicated","server_os":"Linux","password":true,"vac":true,"version":"7961495","steam_id":85568392924469988,"keywords":["cp","nocrits","nodmgspread","uncletopia"],"game_id":440,"stv_port":27026,"stv_name":"Uncletopia | Dallas | 2 | All Maps | STV","players":null},{"server_id":404,"name":"Uncletopia | Dallas | 3 | All Maps","name_short":"dal-3","host":"dal-1.us.uncletopia.com","port":27035,"enabled":true,"region":"us-central","cc":"us","latitude":32.779167,"longitude":-96.80889,"reserved":0,"last_update":"0001-01-01T00:00:00Z","name_a2s":"Uncletopia | Dallas | 3 | All Maps","protocol":17,"map":"pl_snowycoast","folder":"tf","game":"Team Fortress","app_id":440,"player_count":10,"max_players":24,"Bots":0,"server_type":"Dedicated","server_os":"Linux","password":true,"vac":true,"version":"7961495","steam_id":85568392924515219,"keywords":["nocrits","nodmgspread","payload","uncletopia"],"game_id":440,"stv_port":27036,"stv_name":"Uncletopia | Dallas | 3 | All Maps | STV","players":[{"user_id":575,"name":"noahgil02","steam_id":76561198342889553,"connected_time":357000000000,"state":"active","ping":150},{"user_id":576,"name":"Vivi","steam_id":76561198141001353,"connected_time":83000000000,"state":"active","ping":57},{"user_id":517,"name":"cajun thotsauce","steam_id":76561198101636066,"connected_time":5014000000000,"state":"active","ping":87},{"user_id":577,"name":"squid game","steam_id":76561199248960166,"connected_time":1000000000,"state":"spawning","ping":64},{"user_id":548,"name":"Otis from Back at the Barnyard","steam_id":76561198051059704,"connected_time":3119000000000,"state":"active","ping":35},{"user_id":563,"name":"KhorneBread Ô∏ª„Éá ‰∏Ä","steam_id":76561198097069958,"connected_time":1357000000000,"state":"active","ping":104},{"user_id":561,"name":"Breakaway","steam_id":76561198089308523,"connected_time":1467000000000,"state":"active","ping":100},{"user_id":566,"name":"CoziestGlobe","steam_id":76561198199237735,"connected_time":1306000000000,"state":"active","ping":81},{"user_id":551,"name":"Snoopy","steam_id":76561198273735974,"connected_time":2521000000000,"state":"active","ping":80},{"user_id":555,"name":"John Xina","steam_id":76561198350649871,"connected_time":2335000000000,"state":"active","ping":77}]},{"server_id":405,"name":"Uncletopia | Dallas | 4 | Community","name_short":"dal-4","host":"dal-1.us.uncletopia.com","port":27045,"enabled":true,"region":"us-central","cc":"us","latitude":32.779167,"longitude":-96.80889,"reserved":0,"last_update":"0001-01-01T00:00:00Z","name_a2s":"Uncletopia | Dallas | 4 | Community","protocol":17,"map":"workshop/koth_slaughter_rc1.ugc1712845210","folder":"tf","game":"Team Fortress","app_id":440,"player_count":0,"max_players":24,"Bots":0,"server_type":"Dedicated","server_os":"Linux","password":true,"vac":true,"version":"7961495","steam_id":85568392924515220,"keywords":["cp","nocrits","nodmgspread","uncletopia"],"game_id":440,"stv_port":27046,"stv_name":"Uncletopia | Dallas | 4 | Community | STV","players":null},{"server_id":5,"name":"Uncletopia | Frankfurt | 1 | All Maps","name_short":"frk-1","host":"frk-1.de.uncletopia.com","port":27015,"enabled":true,"region":"eu","cc":"de","latitude":50.110924,"longitude":8.682127,"reserved":0,"last_update":"0001-01-01T00:00:00Z","name_a2s":"Uncletopia | Frankfurt | 1 | All Maps","protocol":17,"map":"koth_highpass","folder":"tf","game":"Team Fortress","app_id":440,"player_count":0,"max_players":24,"Bots":0,"server_type":"Dedicated","server_os":"Linux","password":true,"vac":true,"version":"7961495","steam_id":85568392924469989,"keywords":["cp","nocrits","nodmgspread","uncletopia"],"game_id":440,"stv_port":27016,"stv_name":"Uncletopia | Frankfurt | 1 | All Maps | STV","players":null},{"server_id":110,"name":"Uncletopia | Frankfurt | 2 | All Maps","name_short":"frk-2","host":"frk-1.de.uncletopia.com","port":27025,"enabled":true,"region":"eu","cc":"de","latitude":50.110924,"longitude":8.682127,"reserved":0,"last_update":"0001-01-01T00:00:00Z","name_a2s":"Uncletopia | Frankfurt | 2 | All Maps","protocol":17,"map":"cp_dustbowl","folder":"tf","game":"Team Fortress","app_id":440,"player_count":0,"max_players":24,"Bots":0,"server_type":"Dedicated","server_os":"Linux","password":true,"vac":true,"version":"7961495","steam_id":85568392924469990,"keywords":["cp","nocrits","nodmgspread","uncletopia"],"game_id":440,"stv_port":27026,"stv_name":"Uncletopia | Frankfurt | 2 | All Maps | STV","players":null},{"server_id":308,"name":"Uncletopia | Frankfurt | 3 | All Maps","name_short":"frk-3","host":"frk-1.de.uncletopia.com","port":27035,"enabled":true,"region":"eu","cc":"de","latitude":50.110924,"longitude":8.682127,"reserved":0,"last_update":"0001-01-01T00:00:00Z","name_a2s":"Uncletopia | Frankfurt | 3 | All Maps","protocol":17,"map":"pl_barnblitz","folder":"tf","game":"Team Fortress","app_id":440,"player_count":0,"max_players":24,"Bots":0,"server_type":"Dedicated","server_os":"Linux","password":true,"vac":true,"version":"7961495","steam_id":85568392924504274,"keywords":["nocrits","nodmgspread","payload","uncletopia"],"game_id":440,"stv_port":27036,"stv_name":"Uncletopia | Frankfurt | 3 | All Maps | STV","players":null},{"server_id":309,"name":"Uncletopia | Frankfurt | 4 | All Maps","name_short":"frk-4","host":"frk-1.de.uncletopia.com","port":27045,"enabled":true,"region":"eu","cc":"de","latitude":50.110924,"longitude":8.682127,"reserved":0,"last_update":"0001-01-01T00:00:00Z","name_a2s":"Uncletopia | Frankfurt | 4 | All Maps","protocol":17,"map":"koth_highpass","folder":"tf","game":"Team Fortress","app_id":440,"player_count":0,"max_players":24,"Bots":0,"server_type":"Dedicated","server_os":"Linux","password":true,"vac":true,"version":"7961495","steam_id":85568392924504275,"keywords":["cp","nocrits","nodmgspread","uncletopia"],"game_id":440,"stv_port":27046,"stv_name":"Uncletopia | Frankfurt | 4 | All Maps | STV","players":null},{"server_id":310,"name":"Uncletopia | Frankfurt | 5 | All Maps","name_short":"frk-5","host":"frk-1.de.uncletopia.com","port":27055,"enabled":true,"region":"eu","cc":"de","latitude":50.110924,"longitude":8.682127,"reserved":0,"last_update":"0001-01-01T00:00:00Z","name_a2s":"Uncletopia | Frankfurt | 5 | All Maps","protocol":17,"map":"pl_badwater","folder":"tf","game":"Team Fortress","app_id":440,"player_count":0,"max_players":24,"Bots":0,"server_type":"Dedicated","server_os":"Linux","password":true,"vac":true,"version":"7961495","steam_id":85568392924504277,"keywords":["nocrits","nodmgspread","payload","uncletopia"],"game_id":440,"stv_port":27056,"stv_name":"Uncletopia | Frankfurt | 5 | All Maps | STV","players":null},{"server_id":311,"name":"Uncletopia | Frankfurt | 6 | All Maps","name_short":"frk-6","host":"frk-1.de.uncletopia.com","port":27065,"enabled":true,"region":"eu","cc":"de","latitude":50.110924,"longitude":8.682127,"reserved":0,"last_update":"0001-01-01T00:00:00Z","name_a2s":"Uncletopia | Frankfurt | 6 | All Maps","protocol":17,"map":"pl_pier","folder":"tf","game":"Team Fortress","app_id":440,"player_count":0,"max_players":24,"Bots":0,"server_type":"Dedicated","server_os":"Linux","password":true,"vac":true,"version":"7961495","steam_id":85568392924504278,"keywords":["nocrits","nodmgspread","payload","uncletopia"],"game_id":440,"stv_port":27066,"stv_name":"Uncletopia | Frankfurt | 6 | All Maps | STV","players":null},{"server_id":23,"name":"Uncletopia | Frankfurt | 7 | Stopwatch","name_short":"frk-7","host":"frk-1.de.uncletopia.com","port":27075,"enabled":true,"region":"eu","cc":"de","latitude":50.110924,"longitude":8.682127,"reserved":0,"last_update":"0001-01-01T00:00:00Z","name_a2s":"Uncletopia | Frankfurt | 7 | Stopwatch","protocol":17,"map":"pl_frontier_final","folder":"tf","game":"Team Fortress","app_id":440,"player_count":0,"max_players":24,"Bots":0,"server_type":"Dedicated","server_os":"Linux","password":true,"vac":true,"version":"7961495","steam_id":85568392924742827,"keywords":["nocrits","nodmgspread","payload","uncletopia"],"game_id":440,"stv_port":27076,"stv_name":"Uncletopia | Frankfurt | 7 | Stopwatch | STV","players":null},{"server_id":24,"name":"Uncletopia | Frankfurt | 8 | Community","name_short":"frk-8","host":"frk-1.de.uncletopia.com","port":27085,"enabled":true,"region":"eu","cc":"de","latitude":50.110924,"longitude":8.682127,"reserved":0,"last_update":"0001-01-01T00:00:00Z","name_a2s":"Uncletopia | Frankfurt | 8 | Community","protocol":17,"map":"cp_mountainlab","folder":"tf","game":"Team Fortress","app_id":440,"player_count":0,"max_players":24,"Bots":0,"server_type":"Dedicated","server_os":"Linux","password":true,"vac":true,"version":"7961495","steam_id":85568392924742828,"keywords":["cp","nocrits","nodmgspread","uncletopia"],"game_id":440,"stv_port":27086,"stv_name":"Uncletopia | Frankfurt | 8 | Community | STV","players":null},{"server_id":202,"name":"Uncletopia | Hong Kong | 1 | All Maps","name_short":"hgk-1","host":"hgk-1.hk.uncletopia.com","port":27015,"enabled":true,"region":"asia","cc":"hk","latitude":22.302711,"longitude":114.177216,"reserved":0,"last_update":"0001-01-01T00:00:00Z","name_a2s":"Uncletopia | Hong Kong | 1 | All Maps","protocol":17,"map":"cp_altitude","folder":"tf","game":"Team Fortress","app_id":440,"player_count":25,"max_players":24,"Bots":0,"server_type":"Dedicated","server_os":"Linux","password":true,"vac":true,"version":"7961495","steam_id":85568392924494504,"keywords":["cp","nocrits","nodmgspread","uncletopia"],"game_id":440,"stv_port":27016,"stv_name":"Uncletopia | Hong Kong | 1 | All Maps | STV","players":[{"user_id":377,"name":"‚òÖaÃ≤cÃ≤aÃ≤tÃ≤","steam_id":76561198334099003,"connected_time":1876000000000,"state":"active","ping":143},{"user_id":296,"name":"screaming sniper","steam_id":76561199085568674,"connected_time":3402000000000,"state":"active","ping":61},{"user_id":427,"name":"minepow","steam_id":76561198257589031,"connected_time":1099000000000,"state":"active","ping":44},{"user_id":331,"name":"coming","steam_id":76561198835623050,"connected_time":2684000000000,"state":"active","ping":67},{"user_id":432,"name":"Someone","steam_id":76561199243091145,"connected_time":951000000000,"state":"active","ping":94},{"user_id":423,"name":"2746","steam_id":76561199390507975,"connected_time":1141000000000,"state":"active","ping":54},{"user_id":460,"name":"brizzard","steam_id":76561198048438653,"connected_time":318000000000,"state":"active","ping":52},{"user_id":300,"name":"Talkk More","steam_id":76561198305424433,"connected_time":3361000000000,"state":"active","ping":79},{"user_id":338,"name":"big beaver","steam_id":76561199219484527,"connected_time":2588000000000,"state":"active","ping":167},{"user_id":381,"name":"TheSimpLord","steam_id":76561199169274715,"connected_time":1793000000000,"state":"active","ping":77},{"user_id":434,"name":"juan233","steam_id":76561198867566247,"connected_time":842000000000,"state":"active","ping":109},{"user_id":357,"name":"piston","steam_id":76561198992723983,"connected_time":2217000000000,"state":"active","ping":94},{"user_id":153,"name":"Lu ‚úø","steam_id":76561198320532821,"connected_time":8464000000000,"state":"active","ping":59},{"user_id":266,"name":"spinach (old mouse)","steam_id":76561198042539541,"connected_time":4146000000000,"state":"active","ping":80},{"user_id":334,"name":"Hanta","steam_id":76561199031390218,"connected_time":2673000000000,"state":"active","ping":177},{"user_id":433,"name":"Deeznutz69Gamer","steam_id":76561199221531190,"connected_time":930000000000,"state":"active","ping":102},{"user_id":462,"name":"water tastes good","steam_id":76561199375947670,"connected_time":311000000000,"state":"active","ping":61},{"user_id":137,"name":"beet juice","steam_id":76561198055553140,"connected_time":9728000000000,"state":"active","ping":94},{"user_id":356,"name":"medic gaming #SaveTF2","steam_id":76561199212822785,"connected_time":2233000000000,"state":"active","ping":142},{"user_id":426,"name":"ScottishSultan","steam_id":76561199086166621,"connected_time":1109000000000,"state":"active","ping":82},{"user_id":428,"name":"pyroman51","steam_id":76561198074339034,"connected_time":1092000000000,"state":"active","ping":79},{"user_id":474,"name":"corpse_cadaver","steam_id":76561199225360457,"connected_time":18000000000,"state":"spawning","ping":42},{"user_id":461,"name":"derek.patriarca30","steam_id":76561199427230206,"connected_time":316000000000,"state":"active","ping":72},{"user_id":152,"name":"allah no.1, gambling no.2","steam_id":76561198113401862,"connected_time":8480000000000,"state":"active","ping":87},{"user_id":422,"name":"Samoyed","steam_id":76561198299150410,"connected_time":1161000000000,"state":"active","ping":82}]},{"server_id":1,"name":"Uncletopia | Los Angeles | 1 | All Maps","name_short":"lax-1","host":"lax-1.us.uncletopia.com","port":27015,"enabled":true,"region":"us-west","cc":"us","latitude":33.94279,"longitude":-118.41004,"reserved":0,"last_update":"0001-01-01T00:00:00Z","name_a2s":"Uncletopia | Los Angeles | 1 | All Maps","protocol":17,"map":"cp_snakewater_final1","folder":"tf","game":"Team Fortress","app_id":440,"player_count":20,"max_players":24,"Bots":0,"server_type":"Dedicated","server_os":"Linux","password":true,"vac":true,"version":"7961495","steam_id":85568392924469991,"keywords":["cp","nocrits","nodmgspread","uncletopia"],"game_id":440,"stv_port":27016,"stv_name":"Uncletopia | Los Angeles | 1 | All Maps | STV","players":[{"user_id":657,"name":"two slices of mushrooms","steam_id":76561198167075606,"connected_time":142000000000,"state":"active","ping":99},{"user_id":644,"name":"JungleFoxGZ","steam_id":76561198965661587,"connected_time":1216000000000,"state":"active","ping":117},{"user_id":633,"name":"Erodplayer","steam_id":76561198183840185,"connected_time":2054000000000,"state":"active","ping":72},{"user_id":627,"name":"jim awesome","steam_id":76561198337486020,"connected_time":2587000000000,"state":"active","ping":59},{"user_id":655,"name":"small meth pouch","steam_id":76561198130412963,"connected_time":340000000000,"state":"active","ping":84},{"user_id":658,"name":"i need to see your balls","steam_id":76561198168492250,"connected_time":120000000000,"state":"active","ping":44},{"user_id":631,"name":"cilo","steam_id":76561198046163502,"connected_time":2154000000000,"state":"active","ping":72},{"user_id":638,"name":"sobaka","steam_id":76561198116008934,"connected_time":1915000000000,"state":"active","ping":56},{"user_id":660,"name":"lavender","steam_id":76561199069518286,"connected_time":34000000000,"state":"active","ping":33},{"user_id":635,"name":"| Lesser |","steam_id":76561198141832239,"connected_time":2018000000000,"state":"active","ping":52},{"user_id":617,"name":"tek lintowe fan","steam_id":76561198206177593,"connected_time":3818000000000,"state":"active","ping":42},{"user_id":637,"name":"A Walnut #BUFFTHESPEED","steam_id":76561198136655837,"connected_time":1988000000000,"state":"active","ping":80},{"user_id":653,"name":"shannongram influencer","steam_id":76561198143132686,"connected_time":881000000000,"state":"active","ping":76},{"user_id":642,"name":"Pho","steam_id":76561198306515742,"connected_time":1423000000000,"state":"active","ping":59},{"user_id":656,"name":"Korn Dawg","steam_id":76561198026941076,"connected_time":255000000000,"state":"active","ping":58},{"user_id":643,"name":"Artimedias","steam_id":76561198315635706,"connected_time":1371000000000,"state":"active","ping":105},{"user_id":646,"name":"Schizophrenic Lesbian","steam_id":76561198162559143,"connected_time":1083000000000,"state":"active","ping":76},{"user_id":647,"name":"Micro","steam_id":76561198319239296,"connected_time":1080000000000,"state":"active","ping":107},{"user_id":654,"name":"[FSE] UncleDane2003Gaming","steam_id":76561198310874055,"connected_time":668000000000,"state":"active","ping":47},{"user_id":652,"name":"Jack","steam_id":76561198986214155,"connected_time":964000000000,"state":"active","ping":55}]},{"server_id":112,"name":"Uncletopia | Los Angeles | 2 | All Maps","name_short":"lax-2","host":"lax-1.us.uncletopia.com","port":27025,"enabled":true,"region":"us-west","cc":"us","latitude":33.94279,"longitude":-118.41004,"reserved":0,"last_update":"0001-01-01T00:00:00Z","name_a2s":"Uncletopia | Los Angeles | 2 | All Maps","protocol":17,"map":"cp_snakewater_final1","folder":"tf","game":"Team Fortress","app_id":440,"player_count":23,"max_players":24,"Bots":0,"server_type":"Dedicated","server_os":"Linux","password":true,"vac":true,"version":"7961495","steam_id":85568392924469992,"keywords":["cp","nocrits","nodmgspread","uncletopia"],"game_id":440,"stv_port":27026,"stv_name":"Uncletopia | Los Angeles | 2 | All Maps | STV","players":[{"user_id":367,"name":"Eden","steam_id":76561198081284664,"connected_time":2893000000000,"state":"active","ping":46},{"user_id":410,"name":"A Parliament of Owls","steam_id":76561197996200417,"connected_time":108000000000,"state":"active","ping":48},{"user_id":368,"name":"Hektur Salmondchonka","steam_id":76561198136982572,"connected_time":2840000000000,"state":"active","ping":88},{"user_id":395,"name":"The_Skull","steam_id":76561198121244647,"connected_time":776000000000,"state":"active","ping":101},{"user_id":407,"name":"Spooks","steam_id":76561198360959776,"connected_time":265000000000,"state":"active","ping":67},{"user_id":398,"name":"Scorpianswag","steam_id":76561198260651036,"connected_time":443000000000,"state":"active","ping":30},{"user_id":391,"name":"nothowon","steam_id":76561198937601452,"connected_time":1115000000000,"state":"active","ping":104},{"user_id":352,"name":"Andreshatesmondays","steam_id":76561198889349797,"connected_time":3662000000000,"state":"active","ping":47},{"user_id":380,"name":"4 life","steam_id":76561198175961598,"connected_time":2266000000000,"state":"active","ping":60},{"user_id":401,"name":"Wiggs is the Shiggs","steam_id":76561198078379719,"connected_time":375000000000,"state":"active","ping":58},{"user_id":387,"name":"GoldtoothFour","steam_id":76561198055529332,"connected_time":1668000000000,"state":"active","ping":104},{"user_id":394,"name":"Immortal8Reaper","steam_id":76561198297661559,"connected_time":829000000000,"state":"active","ping":121},{"user_id":390,"name":"Whisper!","steam_id":76561198119609795,"connected_time":1266000000000,"state":"active","ping":56},{"user_id":404,"name":"Tanner The Fish Man","steam_id":76561198372696640,"connected_time":318000000000,"state":"active","ping":60},{"user_id":409,"name":"‰ª£Ë°®ÂèñÁ∑†ÂΩπ„ÅÆ„É©„Ç§„Éï„Çπ","steam_id":76561198811854523,"connected_time":157000000000,"state":"active","ping":57},{"user_id":411,"name":"Chica","steam_id":76561198381832158,"connected_time":78000000000,"state":"active","ping":65},{"user_id":397,"name":"NightGhost1400","steam_id":76561198810730471,"connected_time":450000000000,"state":"active","ping":103},{"user_id":405,"name":"Wheathins","steam_id":76561198109062198,"connected_time":276000000000,"state":"active","ping":86},{"user_id":383,"name":"HOG RIDER","steam_id":76561198298589502,"connected_time":2120000000000,"state":"active","ping":51},{"user_id":353,"name":"Monkey","steam_id":76561199083234231,"connected_time":3662000000000,"state":"active","ping":60},{"user_id":408,"name":"JudeTheDude","steam_id":76561198834387981,"connected_time":250000000000,"state":"active","ping":42},{"user_id":377,"name":"Bcuz","steam_id":76561197981318027,"connected_time":2442000000000,"state":"active","ping":68},{"user_id":359,"name":"Squatter1","steam_id":76561198078987734,"connected_time":3451000000000,"state":"active","ping":84}]},{"server_id":324,"name":"Uncletopia | Los Angeles | 3 | All Maps","name_short":"lax-3","host":"lax-1.us.uncletopia.com","port":27035,"enabled":true,"region":"us-west","cc":"us","latitude":33.94279,"longitude":-118.41004,"reserved":0,"last_update":"0001-01-01T00:00:00Z","name_a2s":"Uncletopia | Los Angeles | 3 | All Maps","protocol":17,"map":"pl_snowycoast","folder":"tf","game":"Team Fortress","app_id":440,"player_count":24,"max_players":24,"Bots":0,"server_type":"Dedicated","server_os":"Linux","password":true,"vac":true,"version":"7961495","steam_id":85568392924510198,"keywords":["nocrits","nodmgspread","payload","uncletopia"],"game_id":440,"stv_port":27036,"stv_name":"Uncletopia | Los Angeles | 3 | All Maps | STV","players":[{"user_id":503,"name":"Soggy Zogg","steam_id":76561198836316052,"connected_time":2731000000000,"state":"active","ping":58},{"user_id":519,"name":"Theodore John Kaczynski","steam_id":76561199127590316,"connected_time":1269000000000,"state":"active","ping":58},{"user_id":488,"name":"Sleuth","steam_id":76561198418288939,"connected_time":3355000000000,"state":"active","ping":63},{"user_id":510,"name":"Deryn Sharp","steam_id":76561198047017346,"connected_time":1915000000000,"state":"active","ping":56},{"user_id":498,"name":"Shabooyaroll-call","steam_id":76561198112306237,"connected_time":2996000000000,"state":"active","ping":59},{"user_id":514,"name":"playguy carter","steam_id":76561198080679337,"connected_time":1664000000000,"state":"active","ping":107},{"user_id":515,"name":"Megatron G","steam_id":76561198168864083,"connected_time":1663000000000,"state":"active","ping":75},{"user_id":526,"name":"The Caretaker","steam_id":76561198125241411,"connected_time":761000000000,"state":"active","ping":101},{"user_id":476,"name":"dyson","steam_id":76561199081837220,"connected_time":3883000000000,"state":"active","ping":99},{"user_id":431,"name":"Hydroxianchaos","steam_id":76561198043786828,"connected_time":6475000000000,"state":"active","ping":111},{"user_id":527,"name":"FriskyDemon","steam_id":76561198043684646,"connected_time":330000000000,"state":"active","ping":72},{"user_id":507,"name":"yall need me frfr","steam_id":76561198294192287,"connected_time":2485000000000,"state":"active","ping":66},{"user_id":520,"name":"Leaky Louie","steam_id":76561198132755619,"connected_time":1267000000000,"state":"active","ping":43},{"user_id":486,"name":"babywhoa","steam_id":76561198070854627,"connected_time":3377000000000,"state":"active","ping":73},{"user_id":500,"name":"SneekiCheekiQbone","steam_id":76561198045077980,"connected_time":2860000000000,"state":"active","ping":44},{"user_id":508,"name":"ChozoChorizo","steam_id":76561198272609196,"connected_time":1930000000000,"state":"active","ping":97},{"user_id":491,"name":"Crylec","steam_id":76561198092755279,"connected_time":3323000000000,"state":"active","ping":100},{"user_id":501,"name":"Context","steam_id":76561197972634187,"connected_time":2828000000000,"state":"active","ping":46},{"user_id":525,"name":"poob","steam_id":76561198406728732,"connected_time":895000000000,"state":"active","ping":97},{"user_id":511,"name":"Olitude","steam_id":76561199238964574,"connected_time":1901000000000,"state":"active","ping":69},{"user_id":494,"name":"Ralph Kramden (Slim Charles)","steam_id":76561197981687895,"connected_time":3300000000000,"state":"active","ping":55},{"user_id":523,"name":"Philo","steam_id":76561198061873341,"connected_time":1103000000000,"state":"active","ping":116},{"user_id":512,"name":"zztempo314","steam_id":76561198202057550,"connected_time":1873000000000,"state":"active","ping":54},{"user_id":499,"name":"FROYO b4nny","steam_id":76561197970669109,"connected_time":2978000000000,"state":"active","ping":57}]},{"server_id":25,"name":"Uncletopia | Los Angeles | 4 | Stopwatch","name_short":"lax-4","host":"lax-1.us.uncletopia.com","port":27045,"enabled":true,"region":"us-west","cc":"us","latitude":33.94279,"longitude":-118.41004,"reserved":0,"last_update":"0001-01-01T00:00:00Z","name_a2s":"Uncletopia | Los Angeles | 4 | Stopwatch","protocol":17,"map":"koth_lakeside_final","folder":"tf","game":"Team Fortress","app_id":440,"player_count":0,"max_players":24,"Bots":0,"server_type":"Dedicated","server_os":"Linux","password":true,"vac":true,"version":"7961495","steam_id":85568392924510199,"keywords":["cp","nocrits","nodmgspread","uncletopia"],"game_id":440,"stv_port":27046,"stv_name":"Uncletopia | Los Angeles | 4 | Stopwatch | STV","players":null},{"server_id":11,"name":"Uncletopia | London | 1 | All Maps","name_short":"lon-1","host":"lon-1.uk.uncletopia.com","port":27015,"enabled":true,"region":"eu","cc":"gb","latitude":51.509865,"longitude":-0.118092,"reserved":0,"last_update":"0001-01-01T00:00:00Z","name_a2s":"Uncletopia | London | 1 | All Maps","protocol":17,"map":"koth_highpass","folder":"tf","game":"Team Fortress","app_id":440,"player_count":0,"max_players":24,"Bots":0,"server_type":"Dedicated","server_os":"Linux","password":true,"vac":true,"version":"7961495","steam_id":85568392924367362,"keywords":["cp","nocrits","nodmgspread","uncletopia"],"game_id":440,"stv_port":27016,"stv_name":"Uncletopia | London | 1 | All Maps | STV","players":null},{"server_id":114,"name":"Uncletopia | London | 2 | All Maps","name_short":"lon-2","host":"lon-1.uk.uncletopia.com","port":27025,"enabled":true,"region":"eu","cc":"gb","latitude":51.509865,"longitude":-0.118092,"reserved":0,"last_update":"0001-01-01T00:00:00Z","name_a2s":"Uncletopia | London | 2 | All Maps","protocol":17,"map":"pl_barnblitz","folder":"tf","game":"Team Fortress","app_id":440,"player_count":23,"max_players":24,"Bots":0,"server_type":"Dedicated","server_os":"Linux","password":true,"vac":true,"version":"7961495","steam_id":85568392924470941,"keywords":["nocrits","nodmgspread","payload","uncletopia"],"game_id":440,"stv_port":27026,"stv_name":"Uncletopia | London | 2 | All Maps | STV","players":[{"user_id":38,"name":"Pingus","steam_id":76561199015156956,"connected_time":2680000000000,"state":"active","ping":90},{"user_id":56,"name":"Weeb exterminator","steam_id":76561198078964973,"connected_time":1142000000000,"state":"active","ping":68},{"user_id":60,"name":"Kael","steam_id":76561197984179265,"connected_time":353000000000,"state":"active","ping":97},{"user_id":9,"name":"dron gandon","steam_id":76561198412922428,"connected_time":4599000000000,"state":"active","ping":141},{"user_id":8,"name":"huggle's serbian war criminal","steam_id":76561198024743746,"connected_time":4618000000000,"state":"active","ping":73},{"user_id":10,"name":"–¥–∏–ª–¥—é–∫","steam_id":76561198397720520,"connected_time":4595000000000,"state":"active","ping":143},{"user_id":50,"name":"GGabe","steam_id":76561198117199068,"connected_time":1503000000000,"state":"active","ping":75},{"user_id":47,"name":"Ember The Femboy","steam_id":76561198139630565,"connected_time":1778000000000,"state":"active","ping":60},{"user_id":15,"name":"Uncle Dane's Evil Twin","steam_id":76561198012410589,"connected_time":4584000000000,"state":"active","ping":42},{"user_id":59,"name":"I have","steam_id":76561199184873889,"connected_time":446000000000,"state":"active","ping":73},{"user_id":63,"name":"Lemmy","steam_id":76561199038870751,"connected_time":191000000000,"state":"active","ping":61},{"user_id":61,"name":"peruna","steam_id":76561198000721196,"connected_time":353000000000,"state":"active","ping":86},{"user_id":64,"name":"rubn","steam_id":76561198119586410,"connected_time":114000000000,"state":"active","ping":70},{"user_id":52,"name":"Neimon","steam_id":76561198343485710,"connected_time":1409000000000,"state":"active","ping":117},{"user_id":41,"name":"This Guy","steam_id":76561199215849598,"connected_time":2583000000000,"state":"active","ping":71},{"user_id":62,"name":"dunduu","steam_id":76561198875240717,"connected_time":214000000000,"state":"active","ping":80},{"user_id":53,"name":"pepega","steam_id":76561198210509251,"connected_time":1393000000000,"state":"active","ping":98},{"user_id":42,"name":"SGT Ran Dom","steam_id":76561198080827405,"connected_time":2465000000000,"state":"active","ping":64},{"user_id":54,"name":"Saluton vi Potato","steam_id":76561198364368307,"connected_time":1365000000000,"state":"active","ping":105},{"user_id":33,"name":"sparkyzZ \u003c3","steam_id":76561198120107112,"connected_time":2958000000000,"state":"active","ping":53},{"user_id":36,"name":"noseb","steam_id":76561199480942903,"connected_time":2848000000000,"state":"active","ping":70},{"user_id":58,"name":"doing a sit-up every kill i get","steam_id":76561198441622971,"connected_time":754000000000,"state":"active","ping":99},{"user_id":55,"name":"Amiriki","steam_id":76561198005050734,"connected_time":1351000000000,"state":"active","ping":53}]},{"server_id":320,"name":"Uncletopia | London | 3 | All Maps","name_short":"lon-3","host":"lon-1.uk.uncletopia.com","port":27035,"enabled":true,"region":"eu","cc":"gb","latitude":51.509865,"longitude":-0.118092,"reserved":0,"last_update":"0001-01-01T00:00:00Z","name_a2s":"Uncletopia | London | 3 | All Maps","protocol":17,"map":"cp_process_final","folder":"tf","game":"Team Fortress","app_id":440,"player_count":0,"max_players":24,"Bots":0,"server_type":"Dedicated","server_os":"Linux","password":true,"vac":true,"version":"7961495","steam_id":85568392924510192,"keywords":["cp","nocrits","nodmgspread","uncletopia"],"game_id":440,"stv_port":27036,"stv_name":"Uncletopia | London | 3 | All Maps | STV","players":null},{"server_id":321,"name":"Uncletopia | London | 4 | All Maps","name_short":"lon-4","host":"lon-1.uk.uncletopia.com","port":27045,"enabled":true,"region":"eu","cc":"gb","latitude":51.509865,"longitude":-0.118092,"reserved":0,"last_update":"0001-01-01T00:00:00Z","name_a2s":"Uncletopia | London | 4 | All Maps","protocol":17,"map":"koth_cascade","folder":"tf","game":"Team Fortress","app_id":440,"player_count":0,"max_players":24,"Bots":0,"server_type":"Dedicated","server_os":"Linux","password":true,"vac":true,"version":"7961495","steam_id":85568392924510193,"keywords":["cp","nocrits","nodmgspread","uncletopia"],"game_id":440,"stv_port":27046,"stv_name":"Uncletopia | London | 4 | All Maps | STV","players":null},{"server_id":21,"name":"Uncletopia | London | 5 | All Maps","name_short":"lon-5","host":"lon-1.uk.uncletopia.com","port":27055,"enabled":true,"region":"eu","cc":"gb","latitude":51.509865,"longitude":-0.118092,"reserved":0,"last_update":"0001-01-01T00:00:00Z","name_a2s":"Uncletopia | London | 5 | All Maps","protocol":17,"map":"koth_lakeside_final","folder":"tf","game":"Team Fortress","app_id":440,"player_count":0,"max_players":24,"Bots":0,"server_type":"Dedicated","server_os":"Linux","password":true,"vac":true,"version":"7961495","steam_id":85568392924742829,"keywords":["cp","nocrits","nodmgspread","uncletopia"],"game_id":440,"stv_port":27056,"stv_name":"Uncletopia | London | 5 | All Maps | STV","players":null},{"server_id":22,"name":"Uncletopia | London | 6 | All Maps","name_short":"lon-6","host":"lon-1.uk.uncletopia.com","port":27065,"enabled":true,"region":"eu","cc":"gb","latitude":51.509865,"longitude":-0.118092,"reserved":0,"last_update":"0001-01-01T00:00:00Z","name_a2s":"Uncletopia | London | 6 | All Maps","protocol":17,"map":"cp_dustbowl","folder":"tf","game":"Team Fortress","app_id":440,"player_count":0,"max_players":24,"Bots":0,"server_type":"Dedicated","server_os":"Linux","password":true,"vac":true,"version":"7961495","steam_id":85568392924742830,"keywords":["cp","nocrits","nodmgspread","uncletopia"],"game_id":440,"stv_port":27066,"stv_name":"Uncletopia | London | 6 | All Maps | STV","players":null},{"server_id":40,"name":"Uncletopia | London | 7 | Stopwatch","name_short":"lon-7","host":"lon-1.uk.uncletopia.com","port":27075,"enabled":true,"region":"eu","cc":"gb","latitude":51.509865,"longitude":-0.118092,"reserved":0,"last_update":"0001-01-01T00:00:00Z","name_a2s":"Uncletopia | London | 7 | Stopwatch","protocol":17,"map":"koth_lakeside_final","folder":"tf","game":"Team Fortress","app_id":440,"player_count":0,"max_players":24,"Bots":0,"server_type":"Dedicated","server_os":"Linux","password":true,"vac":true,"version":"7961495","steam_id":85568392924964314,"keywords":["cp","nocrits","nodmgspread","uncletopia"],"game_id":440,"stv_port":27076,"stv_name":"Uncletopia | London | 7 | Stopwatch | STV","players":null},{"server_id":41,"name":"Uncletopia | London | 8 | Community","name_short":"lon-8","host":"lon-1.uk.uncletopia.com","port":27085,"enabled":true,"region":"eu","cc":"gb","latitude":51.509865,"longitude":-0.118092,"reserved":0,"last_update":"0001-01-01T00:00:00Z","name_a2s":"Uncletopia | London | 8 | Community","protocol":17,"map":"cp_snakewater_final1","folder":"tf","game":"Team Fortress","app_id":440,"player_count":0,"max_players":24,"Bots":0,"server_type":"Dedicated","server_os":"Linux","password":true,"vac":true,"version":"7961495","steam_id":85568392924964315,"keywords":["cp","nocrits","nodmgspread","uncletopia"],"game_id":440,"stv_port":27086,"stv_name":"Uncletopia | London | 8 | Community | STV","players":null},{"server_id":300,"name":"Uncletopia | Montr√©al | 1 | One Thousand Uncles","name_short":"mtl-1","host":"mtl-1.ca.uncletopia.com","port":27015,"enabled":true,"region":"us-east","cc":"ca","latitude":45.50889,"longitude":-73.56167,"reserved":0,"last_update":"0001-01-01T00:00:00Z","name_a2s":"","protocol":0,"map":"","folder":"","game":"","app_id":0,"player_count":0,"max_players":0,"Bots":0,"server_type":"","server_os":"","password":false,"vac":false,"version":"","steam_id":0,"keywords":null,"game_id":0,"stv_port":0,"stv_name":"","players":null},{"server_id":301,"name":"Uncletopia | Montr√©al | 2 | One Thousand Uncles","name_short":"mtl-2","host":"mtl-1.ca.uncletopia.com","port":27025,"enabled":true,"region":"us-east","cc":"ca","latitude":45.50889,"longitude":-73.56167,"reserved":0,"last_update":"0001-01-01T00:00:00Z","name_a2s":"","protocol":0,"map":"","folder":"","game":"","app_id":0,"player_count":0,"max_players":0,"Bots":0,"server_type":"","server_os":"","password":false,"vac":false,"version":"","steam_id":0,"keywords":null,"game_id":0,"stv_port":0,"stv_name":"","players":null},{"server_id":302,"name":"Uncletopia | Montr√©al | 3 | One Thousand Uncles","name_short":"mtl-3","host":"mtl-1.ca.uncletopia.com","port":27035,"enabled":true,"region":"us-east","cc":"ca","latitude":45.50889,"longitude":-73.56167,"reserved":0,"last_update":"0001-01-01T00:00:00Z","name_a2s":"","protocol":0,"map":"","folder":"","game":"","app_id":0,"player_count":0,"max_players":0,"Bots":0,"server_type":"","server_os":"","password":false,"vac":false,"version":"","steam_id":0,"keywords":null,"game_id":0,"stv_port":0,"stv_name":"","players":null},{"server_id":13,"name":"Uncletopia | New York City | 1 | All Maps","name_short":"nyc-1","host":"nyc-1.us.uncletopia.com","port":27015,"enabled":true,"region":"us-east","cc":"us","latitude":40.73061,"longitude":-73.93524,"reserved":0,"last_update":"0001-01-01T00:00:00Z","name_a2s":"Uncletopia | New York City | 1 | All Maps","protocol":17,"map":"koth_lakeside_final","folder":"tf","game":"Team Fortress","app_id":440,"player_count":0,"max_players":24,"Bots":0,"server_type":"Dedicated","server_os":"Linux","password":true,"vac":true,"version":"7961495","steam_id":85568392924469993,"keywords":["cp","nocrits","nodmgspread","uncletopia"],"game_id":440,"stv_port":27016,"stv_name":"Uncletopia | New York City | 1 | All Maps | STV","players":null},{"server_id":14,"name":"Uncletopia | New York City | 2 | All Maps","name_short":"nyc-2","host":"nyc-1.us.uncletopia.com","port":27025,"enabled":true,"region":"us-east","cc":"us","latitude":40.73061,"longitude":-73.93524,"reserved":0,"last_update":"0001-01-01T00:00:00Z","name_a2s":"Uncletopia | New York City | 2 | All Maps","protocol":17,"map":"plr_bananabay","folder":"tf","game":"Team Fortress","app_id":440,"player_count":23,"max_players":24,"Bots":0,"server_type":"Dedicated","server_os":"Linux","password":true,"vac":true,"version":"7961495","steam_id":85568392924469994,"keywords":["nocrits","nodmgspread","payload","uncletopia"],"game_id":440,"stv_port":27026,"stv_name":"Uncletopia | New York City | 2 | All Maps | STV","players":[{"user_id":777,"name":"Dzhoshua","steam_id":76561198071915251,"connected_time":1893000000000,"state":"active","ping":84},{"user_id":802,"name":"Cosmic sR","steam_id":76561198081738675,"connected_time":2000000000,"state":"spawning","ping":56},{"user_id":761,"name":"Steve (from Minecraft)","steam_id":76561198232026076,"connected_time":2842000000000,"state":"active","ping":61},{"user_id":789,"name":"alphatwo","steam_id":76561198012511255,"connected_time":922000000000,"state":"active","ping":69},{"user_id":766,"name":"Spongebob boiling in Shit.jpeg","steam_id":76561198879929343,"connected_time":2652000000000,"state":"active","ping":69},{"user_id":791,"name":"take yer swing","steam_id":76561198270926835,"connected_time":789000000000,"state":"active","ping":95},{"user_id":757,"name":"Willow.","steam_id":76561198229691912,"connected_time":3852000000000,"state":"active","ping":49},{"user_id":739,"name":"PackingPeanutt :]","steam_id":76561199053229413,"connected_time":5378000000000,"state":"active","ping":87},{"user_id":774,"name":"Catalina Caldwell","steam_id":76561198263579848,"connected_time":2200000000000,"state":"active","ping":67},{"user_id":729,"name":"DiscoTraveler","steam_id":76561199240168088,"connected_time":5976000000000,"state":"active","ping":53},{"user_id":797,"name":"Rambly Dambly","steam_id":76561198844496567,"connected_time":486000000000,"state":"active","ping":44},{"user_id":800,"name":"ball","steam_id":76561198394080554,"connected_time":222000000000,"state":"active","ping":128},{"user_id":793,"name":"Captain Emerald The Changeling","steam_id":76561198320651177,"connected_time":729000000000,"state":"active","ping":60},{"user_id":746,"name":"Gentoo Linux Gaming","steam_id":76561197999657118,"connected_time":4371000000000,"state":"active","ping":71},{"user_id":801,"name":"orbi","steam_id":76561199114778257,"connected_time":155000000000,"state":"active","ping":95},{"user_id":659,"name":"MAXIMUS","steam_id":76561198085809453,"connected_time":12035000000000,"state":"active","ping":82},{"user_id":767,"name":"Havok","steam_id":76561198063455003,"connected_time":2647000000000,"state":"active","ping":53},{"user_id":795,"name":"Lifial","steam_id":76561198271885819,"connected_time":625000000000,"state":"active","ping":58},{"user_id":778,"name":"Alejandro","steam_id":76561197970051493,"connected_time":1807000000000,"state":"active","ping":113},{"user_id":785,"name":"Take the L","steam_id":76561198379223875,"connected_time":1188000000000,"state":"active","ping":83},{"user_id":753,"name":"ShadowBolt","steam_id":76561198061610985,"connected_time":4125000000000,"state":"active","ping":74},{"user_id":754,"name":"‚ù§Addy‚ù§","steam_id":76561199153405603,"connected_time":4117000000000,"state":"active","ping":104},{"user_id":796,"name":"sloth (be nice im cringe)","steam_id":76561198047098172,"connected_time":610000000000,"state":"active","ping":60}]},{"server_id":15,"name":"Uncletopia | New York City | 3 | Stopwatch","name_short":"nyc-3","host":"nyc-1.us.uncletopia.com","port":27035,"enabled":true,"region":"us-east","cc":"us","latitude":40.73061,"longitude":-73.93524,"reserved":0,"last_update":"0001-01-01T00:00:00Z","name_a2s":"Uncletopia | New York City | 3 | Stopwatch","protocol":17,"map":"workshop/pl_barnblitz_pro7.ugc582280235","folder":"tf","game":"Team Fortress","app_id":440,"player_count":0,"max_players":24,"Bots":0,"server_type":"Dedicated","server_os":"Linux","password":true,"vac":true,"version":"7961495","steam_id":85568392924742820,"keywords":["nocrits","nodmgspread","payload","uncletopia"],"game_id":440,"stv_port":27036,"stv_name":"Uncletopia | New York City | 3 | Stopwatch | STV","players":null},{"server_id":16,"name":"Uncletopia | New York City | 4 | Community","name_short":"nyc-4","host":"nyc-1.us.uncletopia.com","port":27045,"enabled":true,"region":"us-east","cc":"us","latitude":40.73061,"longitude":-73.93524,"reserved":0,"last_update":"0001-01-01T00:00:00Z","name_a2s":"Uncletopia | New York City | 4 | Community","protocol":17,"map":"workshop/koth_synthetic_rc6a.ugc1549817316","folder":"tf","game":"Team Fortress","app_id":440,"player_count":0,"max_players":24,"Bots":0,"server_type":"Dedicated","server_os":"Linux","password":true,"vac":true,"version":"7961495","steam_id":85568392924742821,"keywords":["cp","nocrits","nodmgspread","uncletopia"],"game_id":440,"stv_port":27046,"stv_name":"Uncletopia | New York City | 4 | Community | STV","players":null},{"server_id":142,"name":"Uncletopia | S√£o Paulo | 1 | All Maps","name_short":"sao-1","host":"sao-1.br.uncletopia.com","port":27015,"enabled":true,"region":"sa","cc":"br","latitude":-23.533773,"longitude":-46.62529,"reserved":0,"last_update":"0001-01-01T00:00:00Z","name_a2s":"Uncletopia | S√£o Paulo | 1 | All Maps","protocol":17,"map":"koth_viaduct","folder":"tf","game":"Team Fortress","app_id":440,"player_count":3,"max_players":24,"Bots":0,"server_type":"Dedicated","server_os":"Linux","password":true,"vac":true,"version":"7961495","steam_id":85568392924469996,"keywords":["cp","nocrits","nodmgspread","uncletopia"],"game_id":440,"stv_port":27016,"stv_name":"Uncletopia | S√£o Paulo | 1 | All Maps | STV","players":[{"user_id":36,"name":"DJ Samurai Cafeteira","steam_id":76561198998614592,"connected_time":352000000000,"state":"active","ping":44},{"user_id":37,"name":"DJ Dasho Torradeira","steam_id":76561198344543260,"connected_time":316000000000,"state":"active","ping":60},{"user_id":38,"name":"ASSUSTANEG√ÉO_-","steam_id":76561199478380122,"connected_time":15000000000,"state":"active","ping":111}]},{"server_id":143,"name":"Uncletopia | S√£o Paulo | 2 | Community","name_short":"sao-2","host":"sao-2.br.uncletopia.com","port":27015,"enabled":true,"region":"sa","cc":"br","latitude":-23.533773,"longitude":-46.62529,"reserved":0,"last_update":"0001-01-01T00:00:00Z","name_a2s":"Uncletopia | S√£o Paulo | 2 | Community","protocol":17,"map":"workshop/cp_hazyfort_rc6.ugc1365963729","folder":"tf","game":"Team Fortress","app_id":440,"player_count":0,"max_players":24,"Bots":0,"server_type":"Dedicated","server_os":"Linux","password":true,"vac":true,"version":"7961495","steam_id":85568392924485349,"keywords":["cp","nocrits","nodmgspread","uncletopia"],"game_id":440,"stv_port":27016,"stv_name":"Uncletopia | S√£o Paulo | 2 | Community | STV","players":null},{"server_id":7,"name":"Uncletopia | Seattle | 1 | All Maps","name_short":"sea-1","host":"sea-1.us.uncletopia.com","port":27015,"enabled":true,"region":"us-west","cc":"us","latitude":47.608013,"longitude":-122.33517,"reserved":0,"last_update":"0001-01-01T00:00:00Z","name_a2s":"Uncletopia | Seattle | 1 | All Maps","protocol":17,"map":"pl_pier","folder":"tf","game":"Team Fortress","app_id":440,"player_count":24,"max_players":24,"Bots":0,"server_type":"Dedicated","server_os":"Linux","password":true,"vac":true,"version":"7961495","steam_id":85568392924469997,"keywords":["nocrits","nodmgspread","payload","uncletopia"],"game_id":440,"stv_port":27016,"stv_name":"Uncletopia | Seattle | 1 | All Maps | STV","players":[{"user_id":513,"name":"mega","steam_id":76561198089520959,"connected_time":7558000000000,"state":"active","ping":96},{"user_id":551,"name":"Smells","steam_id":76561197985297402,"connected_time":3736000000000,"state":"active","ping":87},{"user_id":531,"name":"hazel","steam_id":76561198037292232,"connected_time":5452000000000,"state":"active","ping":120},{"user_id":566,"name":"exephur","steam_id":76561198135763234,"connected_time":2629000000000,"state":"active","ping":61},{"user_id":560,"name":"Donny Q","steam_id":76561198020901703,"connected_time":3580000000000,"state":"active","ping":35},{"user_id":581,"name":"RURU","steam_id":76561198039758987,"connected_time":241000000000,"state":"active","ping":59},{"user_id":530,"name":"Havi","steam_id":76561198197832829,"connected_time":5641000000000,"state":"active","ping":53},{"user_id":561,"name":"bees??? w","steam_id":76561198059604047,"connected_time":3547000000000,"state":"active","ping":39},{"user_id":487,"name":"Drone #0432 (they/it)","steam_id":76561198027321950,"connected_time":9628000000000,"state":"active","ping":40},{"user_id":559,"name":"lusty","steam_id":76561198138478947,"connected_time":3592000000000,"state":"active","ping":35},{"user_id":555,"name":"blinkerton city","steam_id":76561198054270410,"connected_time":3726000000000,"state":"active","ping":58},{"user_id":492,"name":"Necronics","steam_id":76561198072673123,"connected_time":9436000000000,"state":"active","ping":60},{"user_id":557,"name":"Sniff","steam_id":76561198010270922,"connected_time":3701000000000,"state":"active","ping":60},{"user_id":577,"name":"[TrC] Dackstrus","steam_id":76561197973518509,"connected_time":819000000000,"state":"active","ping":57},{"user_id":582,"name":"Jodi Engwyrn","steam_id":76561198131833567,"connected_time":241000000000,"state":"active","ping":68},{"user_id":556,"name":"PopcornBucketGames","steam_id":76561199089562026,"connected_time":3724000000000,"state":"active","ping":44},{"user_id":548,"name":"HotHead","steam_id":76561198138468982,"connected_time":3753000000000,"state":"active","ping":44},{"user_id":538,"name":"An Old Lady","steam_id":76561198047480318,"connected_time":5187000000000,"state":"active","ping":60},{"user_id":573,"name":"CasemanTheBlondeBear","steam_id":76561198144862404,"connected_time":1988000000000,"state":"active","ping":53},{"user_id":506,"name":"Level 99 Mudcrab","steam_id":76561198077452771,"connected_time":7914000000000,"state":"active","ping":60},{"user_id":580,"name":"smart fella","steam_id":76561198064059721,"connected_time":797000000000,"state":"active","ping":48},{"user_id":455,"name":"cheesebro","steam_id":76561198002072852,"connected_time":11845000000000,"state":"active","ping":65},{"user_id":570,"name":"fart smella","steam_id":76561198129564488,"connected_time":2022000000000,"state":"active","ping":47},{"user_id":478,"name":"Be Gay, Do Crimes, Smoke Weed!","steam_id":76561198092419868,"connected_time":9743000000000,"state":"active","ping":85}]},{"server_id":119,"name":"Uncletopia | Seattle | 2 | All Maps","name_short":"sea-2","host":"sea-1.us.uncletopia.com","port":27025,"enabled":true,"region":"us-west","cc":"us","latitude":47.608013,"longitude":-122.33517,"reserved":0,"last_update":"0001-01-01T00:00:00Z","name_a2s":"Uncletopia | Seattle | 2 | All Maps","protocol":17,"map":"pl_snowycoast","folder":"tf","game":"Team Fortress","app_id":440,"player_count":19,"max_players":24,"Bots":0,"server_type":"Dedicated","server_os":"Linux","password":true,"vac":true,"version":"7961495","steam_id":85568392924469998,"keywords":["nocrits","nodmgspread","payload","uncletopia"],"game_id":440,"stv_port":27026,"stv_name":"Uncletopia | Seattle | 2 | All Maps | STV","players":[{"user_id":524,"name":"Inflight","steam_id":76561198920049475,"connected_time":1997000000000,"state":"active","ping":92},{"user_id":488,"name":"dragonskull122","steam_id":76561198996268558,"connected_time":4651000000000,"state":"active","ping":46},{"user_id":545,"name":"earthDF","steam_id":76561198026084025,"connected_time":423000000000,"state":"active","ping":71},{"user_id":529,"name":"Rabblerouser","steam_id":76561198127930963,"connected_time":1691000000000,"state":"active","ping":43},{"user_id":406,"name":"BradB.","steam_id":76561199163905036,"connected_time":10967000000000,"state":"active","ping":118},{"user_id":549,"name":"io_est","steam_id":76561198079538952,"connected_time":193000000000,"state":"active","ping":37},{"user_id":543,"name":"top 10 sidewalks","steam_id":76561198844273999,"connected_time":752000000000,"state":"active","ping":37},{"user_id":530,"name":"A very tiny hyena :3","steam_id":76561197998241729,"connected_time":1656000000000,"state":"active","ping":33},{"user_id":552,"name":"sleepy‚äπ","steam_id":76561199200969139,"connected_time":17000000000,"state":"spawning","ping":1283},{"user_id":550,"name":"The New Bob","steam_id":76561199122072556,"connected_time":103000000000,"state":"active","ping":135},{"user_id":551,"name":"CHIKN","steam_id":76561198277792665,"connected_time":83000000000,"state":"active","ping":77},{"user_id":548,"name":"DORK","steam_id":76561198037384555,"connected_time":297000000000,"state":"active","ping":79},{"user_id":359,"name":"Trouser Snivy","steam_id":76561198073788829,"connected_time":13665000000000,"state":"active","ping":60},{"user_id":535,"name":"there is cum in my ramen","steam_id":76561198059815894,"connected_time":1498000000000,"state":"active","ping":90},{"user_id":536,"name":"Keamy","steam_id":76561199471434875,"connected_time":1473000000000,"state":"active","ping":41},{"user_id":537,"name":"BIG TEXT HELPS ME FIND MY NAME","steam_id":76561197969830059,"connected_time":1438000000000,"state":"active","ping":95},{"user_id":516,"name":"IBadLlama","steam_id":76561199188220675,"connected_time":3170000000000,"state":"active","ping":121},{"user_id":522,"name":"weed boner","steam_id":76561198034131572,"connected_time":2418000000000,"state":"active","ping":45},{"user_id":541,"name":"Day Man","steam_id":76561198067154807,"connected_time":902000000000,"state":"active","ping":50}]},{"server_id":406,"name":"Uncletopia | Seattle | 3 | Stopwatch","name_short":"sea-3","host":"sea-1.us.uncletopia.com","port":27035,"enabled":true,"region":"us-west","cc":"us","latitude":47.608013,"longitude":-122.33517,"reserved":0,"last_update":"0001-01-01T00:00:00Z","name_a2s":"Uncletopia | Seattle | 3 | Stopwatch","protocol":17,"map":"workshop/koth_product_final.ugc454272353","folder":"tf","game":"Team Fortress","app_id":440,"player_count":0,"max_players":24,"Bots":0,"server_type":"Dedicated","server_os":"Linux","password":true,"vac":true,"version":"7961495","steam_id":85568392924515217,"keywords":["cp","nocrits","nodmgspread","uncletopia"],"game_id":440,"stv_port":27036,"stv_name":"Uncletopia | Seattle | 3 | Stopwatch | STV","players":null},{"server_id":17,"name":"Uncletopia | San Francisco | 1 | All Maps","name_short":"sfo-1","host":"sfo-1.us.uncletopia.com","port":27015,"enabled":true,"region":"us-west","cc":"us","latitude":37.77397,"longitude":-122.4313,"reserved":0,"last_update":"0001-01-01T00:00:00Z","name_a2s":"Uncletopia | San Francisco | 1 | All Maps","protocol":17,"map":"cp_altitude","folder":"tf","game":"Team Fortress","app_id":440,"player_count":0,"max_players":24,"Bots":0,"server_type":"Dedicated","server_os":"Linux","password":true,"vac":true,"version":"7961495","steam_id":85568392924469999,"keywords":["cp","nocrits","nodmgspread","uncletopia"],"game_id":440,"stv_port":27016,"stv_name":"Uncletopia | San Francisco | 1 | All Maps | STV","players":null},{"server_id":18,"name":"Uncletopia | San Francisco | 2 | All Maps","name_short":"sfo-2","host":"sfo-1.us.uncletopia.com","port":27025,"enabled":true,"region":"us-west","cc":"us","latitude":37.77397,"longitude":-122.4313,"reserved":0,"last_update":"0001-01-01T00:00:00Z","name_a2s":"Uncletopia | San Francisco | 2 | All Maps","protocol":17,"map":"pl_frontier_final","folder":"tf","game":"Team Fortress","app_id":440,"player_count":22,"max_players":24,"Bots":0,"server_type":"Dedicated","server_os":"Linux","password":true,"vac":true,"version":"7961495","steam_id":85568392924470000,"keywords":["nocrits","nodmgspread","payload","uncletopia"],"game_id":440,"stv_port":27026,"stv_name":"Uncletopia | San Francisco | 2 | All Maps | STV","players":[{"user_id":506,"name":"Dog","steam_id":76561198041841128,"connected_time":3759000000000,"state":"active","ping":62},{"user_id":488,"name":"finland","steam_id":76561198041820125,"connected_time":5102000000000,"state":"active","ping":61},{"user_id":543,"name":"Cheff cook","steam_id":76561198451203268,"connected_time":875000000000,"state":"active","ping":51},{"user_id":528,"name":"ElectronX","steam_id":76561198116034988,"connected_time":2328000000000,"state":"active","ping":60},{"user_id":546,"name":"Hatchitis","steam_id":76561198320346037,"connected_time":723000000000,"state":"active","ping":57},{"user_id":480,"name":"Daz","steam_id":76561198041431938,"connected_time":5652000000000,"state":"active","ping":66},{"user_id":481,"name":"miguelrodriguez2013","steam_id":76561198269253587,"connected_time":5554000000000,"state":"active","ping":45},{"user_id":484,"name":"Amethyst212","steam_id":76561198797600530,"connected_time":5335000000000,"state":"active","ping":64},{"user_id":524,"name":"Riah!!","steam_id":76561198147205390,"connected_time":3073000000000,"state":"active","ping":59},{"user_id":551,"name":"sandman","steam_id":76561198144772540,"connected_time":615000000000,"state":"active","ping":95},{"user_id":547,"name":"RC","steam_id":76561198048127881,"connected_time":710000000000,"state":"active","ping":60},{"user_id":548,"name":"Szaint","steam_id":76561198165050614,"connected_time":696000000000,"state":"active","ping":60},{"user_id":553,"name":"bocaJ","steam_id":76561198374535092,"connected_time":543000000000,"state":"active","ping":45},{"user_id":491,"name":"Ruckminn","steam_id":76561198040779297,"connected_time":5048000000000,"state":"active","ping":84},{"user_id":554,"name":"Gwuf","steam_id":76561198091503282,"connected_time":483000000000,"state":"active","ping":81},{"user_id":556,"name":"Chef","steam_id":76561198037041957,"connected_time":263000000000,"state":"active","ping":53},{"user_id":557,"name":"up tossin my pigskin","steam_id":76561198062294687,"connected_time":256000000000,"state":"active","ping":46},{"user_id":539,"name":"PercsPlease","steam_id":76561199057899661,"connected_time":1263000000000,"state":"active","ping":67},{"user_id":455,"name":"SanitysEdge","steam_id":76561198130732813,"connected_time":8407000000000,"state":"active","ping":53},{"user_id":558,"name":"God's Drunkest Driver","steam_id":76561199174579733,"connected_time":31000000000,"state":"active","ping":105},{"user_id":559,"name":"El Duderino","steam_id":76561198263911241,"connected_time":20000000000,"state":"active","ping":57},{"user_id":503,"name":"Gary Sinfeld","steam_id":76561198042274074,"connected_time":4213000000000,"state":"active","ping":64}]},{"server_id":19,"name":"Uncletopia | San Francisco | 3 | Stopwatch","name_short":"sfo-3","host":"sfo-1.us.uncletopia.com","port":27035,"enabled":true,"region":"us-west","cc":"us","latitude":37.77397,"longitude":-122.4313,"reserved":0,"last_update":"0001-01-01T00:00:00Z","name_a2s":"Uncletopia | San Francisco | 3 | Stopwatch","protocol":17,"map":"workshop/koth_clearcut_b15.ugc2107050255","folder":"tf","game":"Team Fortress","app_id":440,"player_count":0,"max_players":24,"Bots":0,"server_type":"Dedicated","server_os":"Linux","password":true,"vac":true,"version":"7961495","steam_id":85568392924742824,"keywords":["cp","nocrits","nodmgspread","uncletopia"],"game_id":440,"stv_port":27036,"stv_name":"Uncletopia | San Francisco | 3 | Stopwatch | STV","players":null},{"server_id":20,"name":"Uncletopia | San Francisco | 4 | Community","name_short":"sfo-4","host":"sfo-1.us.uncletopia.com","port":27045,"enabled":true,"region":"us-west","cc":"us","latitude":37.77397,"longitude":-122.4313,"reserved":0,"last_update":"0001-01-01T00:00:00Z","name_a2s":"Uncletopia | San Francisco | 4 | Community","protocol":17,"map":"workshop/cp_coilblaze_rc7.ugc1272700588","folder":"tf","game":"Team Fortress","app_id":440,"player_count":0,"max_players":24,"Bots":0,"server_type":"Dedicated","server_os":"Linux","password":true,"vac":true,"version":"7961495","steam_id":85568392924742826,"keywords":["cp","nocrits","nodmgspread","uncletopia"],"game_id":440,"stv_port":27046,"stv_name":"Uncletopia | San Francisco | 4 | Community | STV","players":null},{"server_id":141,"name":"Uncletopia | Sydney | 1 | All Maps","name_short":"syd-1","host":"syd-1.au.uncletopia.com","port":27015,"enabled":true,"region":"au","cc":"au","latitude":-33.865143,"longitude":151.2099,"reserved":0,"last_update":"0001-01-01T00:00:00Z","name_a2s":"Uncletopia | Sydney | 1 | All Maps","protocol":17,"map":"koth_cascade","folder":"tf","game":"Team Fortress","app_id":440,"player_count":0,"max_players":24,"Bots":0,"server_type":"Dedicated","server_os":"Linux","password":true,"vac":true,"version":"7961495","steam_id":85568392924470001,"keywords":["cp","nocrits","nodmgspread","uncletopia"],"game_id":440,"stv_port":27016,"stv_name":"Uncletopia | Sydney | 1 | All Maps | STV","players":null},{"server_id":123,"name":"Uncletopia | Sydney | 2 | All Maps","name_short":"syd-2","host":"syd-1.au.uncletopia.com","port":27025,"enabled":true,"region":"au","cc":"au","latitude":-33.865143,"longitude":151.2099,"reserved":0,"last_update":"0001-01-01T00:00:00Z","name_a2s":"Uncletopia | Sydney | 2 | All Maps","protocol":17,"map":"pl_frontier_final","folder":"tf","game":"Team Fortress","app_id":440,"player_count":22,"max_players":24,"Bots":0,"server_type":"Dedicated","server_os":"Linux","password":true,"vac":true,"version":"7961495","steam_id":85568392924470002,"keywords":["nocrits","nodmgspread","payload","uncletopia"],"game_id":440,"stv_port":27026,"stv_name":"Uncletopia | Sydney | 2 | All Maps | STV","players":[{"user_id":82,"name":"...","steam_id":76561198309750355,"connected_time":325000000000,"state":"active","ping":46},{"user_id":75,"name":"kaoski the mystic autistic","steam_id":76561198179045463,"connected_time":651000000000,"state":"active","ping":50},{"user_id":63,"name":"Sover blw.tf","steam_id":76561198136347837,"connected_time":1001000000000,"state":"active","ping":131},{"user_id":44,"name":"Beangodhiann","steam_id":76561198189663681,"connected_time":2311000000000,"state":"active","ping":56},{"user_id":76,"name":"Cabanela","steam_id":76561198305342025,"connected_time":553000000000,"state":"active","ping":71},{"user_id":46,"name":"horrid webbon ·òõ‚ÅêÃ§·ïê·ê∑","steam_id":76561198061998379,"connected_time":2207000000000,"state":"active","ping":45},{"user_id":52,"name":"modus","steam_id":76561198025099660,"connected_time":1710000000000,"state":"active","ping":32},{"user_id":66,"name":"Sentry Gun (EpicGuy4227)","steam_id":76561198094132328,"connected_time":923000000000,"state":"active","ping":50},{"user_id":55,"name":"Second Lieutenant Pisser","steam_id":76561198866538028,"connected_time":1617000000000,"state":"active","ping":74},{"user_id":83,"name":"Snuky","steam_id":76561198117902338,"connected_time":315000000000,"state":"active","ping":45},{"user_id":60,"name":"Albert in the hand is worth two","steam_id":76561198301282416,"connected_time":1163000000000,"state":"active","ping":46},{"user_id":85,"name":"james16","steam_id":76561198362678073,"connected_time":147000000000,"state":"active","ping":39},{"user_id":77,"name":"glassy-eyed automaton","steam_id":76561198048064049,"connected_time":537000000000,"state":"active","ping":68},{"user_id":80,"name":"uhe insurance","steam_id":76561198064112935,"connected_time":394000000000,"state":"active","ping":68},{"user_id":69,"name":"Ishanu","steam_id":76561198009397092,"connected_time":884000000000,"state":"active","ping":74},{"user_id":70,"name":"Matt VII (7) (seven)","steam_id":76561198065340795,"connected_time":874000000000,"state":"active","ping":45},{"user_id":71,"name":"funny burn victim","steam_id":76561198117646415,"connected_time":862000000000,"state":"active","ping":95},{"user_id":79,"name":"Immense","steam_id":76561198172588525,"connected_time":465000000000,"state":"active","ping":54},{"user_id":73,"name":"the kerser","steam_id":76561198212504797,"connected_time":813000000000,"state":"active","ping":67},{"user_id":84,"name":"yilli_","steam_id":76561198210960700,"connected_time":280000000000,"state":"active","ping":60},{"user_id":86,"name":"Sig kuntt","steam_id":76561198126638443,"connected_time":115000000000,"state":"active","ping":83},{"user_id":87,"name":"wobblygoogus sbizzlefritz","steam_id":76561198063481761,"connected_time":65000000000,"state":"active","ping":40}]},{"server_id":395,"name":"Uncletopia | Sydney | 3 | All Maps","name_short":"syd-3","host":"syd-1.au.uncletopia.com","port":27035,"enabled":true,"region":"au","cc":"au","latitude":-33.865143,"longitude":151.2099,"reserved":0,"last_update":"0001-01-01T00:00:00Z","name_a2s":"Uncletopia | Sydney | 3 | All Maps","protocol":17,"map":"pl_frontier_final","folder":"tf","game":"Team Fortress","app_id":440,"player_count":0,"max_players":24,"Bots":0,"server_type":"Dedicated","server_os":"Linux","password":true,"vac":true,"version":"7961495","steam_id":85568392925194467,"keywords":["nocrits","nodmgspread","payload","uncletopia"],"game_id":440,"stv_port":27036,"stv_name":"Uncletopia | Sydney | 3 | All Maps | STV","players":null},{"server_id":396,"name":"Uncletopia | Sydney | 4 | All Maps","name_short":"syd-4","host":"syd-1.au.uncletopia.com","port":27045,"enabled":true,"region":"au","cc":"au","latitude":-33.865143,"longitude":151.2099,"reserved":0,"last_update":"0001-01-01T00:00:00Z","name_a2s":"Uncletopia | Sydney | 4 | All Maps","protocol":17,"map":"pl_snowycoast","folder":"tf","game":"Team Fortress","app_id":440,"player_count":0,"max_players":24,"Bots":0,"server_type":"Dedicated","server_os":"Linux","password":true,"vac":true,"version":"7961495","steam_id":85568392925397958,"keywords":["nocrits","nodmgspread","payload","uncletopia"],"game_id":440,"stv_port":27046,"stv_name":"Uncletopia | Sydney | 4 | All Maps | STV","players":null},{"server_id":58,"name":"Uncletopia | Sydney | 5 | Stopwatch","name_short":"syd-5","host":"syd-1.au.uncletopia.com","port":27055,"enabled":true,"region":"au","cc":"au","latitude":-33.865143,"longitude":151.2099,"reserved":0,"last_update":"0001-01-01T00:00:00Z","name_a2s":"Uncletopia | Sydney | 5 | Stopwatch","protocol":17,"map":"pl_frontier_final","folder":"tf","game":"Team Fortress","app_id":440,"player_count":0,"max_players":24,"Bots":0,"server_type":"Dedicated","server_os":"Linux","password":true,"vac":true,"version":"7961495","steam_id":85568392925397959,"keywords":["nocrits","nodmgspread","payload","uncletopia"],"game_id":440,"stv_port":27056,"stv_name":"Uncletopia | Sydney | 5 | Stopwatch | STV","players":null},{"server_id":59,"name":"Uncletopia | Sydney | 6 | Community","name_short":"syd-6","host":"syd-1.au.uncletopia.com","port":27065,"enabled":true,"region":"au","cc":"au","latitude":-33.865143,"longitude":151.2099,"reserved":0,"last_update":"0001-01-01T00:00:00Z","name_a2s":"Uncletopia | Sydney | 6 | Community","protocol":17,"map":"cp_sunshine","folder":"tf","game":"Team Fortress","app_id":440,"player_count":0,"max_players":24,"Bots":0,"server_type":"Dedicated","server_os":"Linux","password":true,"vac":true,"version":"7961495","steam_id":85568392925397960,"keywords":["cp","nocrits","nodmgspread","uncletopia"],"game_id":440,"stv_port":27066,"stv_name":"Uncletopia | Sydney | 6 | Community | STV","players":null},{"server_id":49,"name":"Uncletopia | Warsaw | 1 | One Thousand Uncles","name_short":"waw-1","host":"waw-1.pl.uncletopia.com","port":27015,"enabled":true,"region":"eu","cc":"pl","latitude":52.2297,"longitude":21.017532,"reserved":0,"last_update":"0001-01-01T00:00:00Z","name_a2s":"Uncletopia | Warsaw | 1 | One Thousand Uncles","protocol":17,"map":"koth_highpass","folder":"tf","game":"Team Fortress","app_id":440,"player_count":0,"max_players":32,"Bots":0,"server_type":"Dedicated","server_os":"Linux","password":true,"vac":true,"version":"7961495","steam_id":85568392925397850,"keywords":["alltalk","cp","danepve","increased_maxplayers","nocrits","norespawntime","uncletopia"],"game_id":440,"stv_port":0,"stv_name":"","players":null},{"server_id":50,"name":"Uncletopia | Warsaw | 2 | One Thousand Uncles","name_short":"waw-2","host":"waw-1.pl.uncletopia.com","port":27025,"enabled":true,"region":"eu","cc":"pl","latitude":52.2297,"longitude":21.017532,"reserved":0,"last_update":"0001-01-01T00:00:00Z","name_a2s":"Uncletopia | Warsaw | 2 | One Thousand Uncles","protocol":17,"map":"pl_goldrush","folder":"tf","game":"Team Fortress","app_id":440,"player_count":0,"max_players":32,"Bots":0,"server_type":"Dedicated","server_os":"Linux","password":true,"vac":true,"version":"7961495","steam_id":85568392925397851,"keywords":["alltalk","danepve","increased_maxplayers","nocrits","norespawntime","payload","uncletopia"],"game_id":440,"stv_port":0,"stv_name":"","players":null},{"server_id":51,"name":"Uncletopia | Warsaw | 3 | All Maps","name_short":"waw-3","host":"waw-1.pl.uncletopia.com","port":27035,"enabled":true,"region":"eu","cc":"pl","latitude":52.2297,"longitude":21.017532,"reserved":0,"last_update":"0001-01-01T00:00:00Z","name_a2s":"Uncletopia | Warsaw | 3 | All Maps","protocol":17,"map":"plr_pipeline","folder":"tf","game":"Team Fortress","app_id":440,"player_count":0,"max_players":24,"Bots":0,"server_type":"Dedicated","server_os":"Linux","password":true,"vac":true,"version":"7961495","steam_id":85568392925397852,"keywords":["nocrits","nodmgspread","payload","uncletopia"],"game_id":440,"stv_port":27036,"stv_name":"Uncletopia | Warsaw | 3 | All Maps | STV","players":null},{"server_id":52,"name":"Uncletopia | Warsaw | 4 | All Maps","name_short":"waw-4","host":"waw-1.pl.uncletopia.com","port":27045,"enabled":true,"region":"eu","cc":"pl","latitude":52.2297,"longitude":21.017532,"reserved":0,"last_update":"0001-01-01T00:00:00Z","name_a2s":"Uncletopia | Warsaw | 4 | All Maps","protocol":17,"map":"cp_coldfront","folder":"tf","game":"Team Fortress","app_id":440,"player_count":0,"max_players":24,"Bots":0,"server_type":"Dedicated","server_os":"Linux","password":true,"vac":true,"version":"7961495","steam_id":85568392925397853,"keywords":["cp","nocrits","nodmgspread","uncletopia"],"game_id":440,"stv_port":27046,"stv_name":"Uncletopia | Warsaw | 4 | All Maps | STV","players":null},{"server_id":53,"name":"Uncletopia | Warsaw | 5 | Stopwatch","name_short":"waw-5","host":"waw-1.pl.uncletopia.com","port":27055,"enabled":true,"region":"eu","cc":"pl","latitude":52.2297,"longitude":21.017532,"reserved":0,"last_update":"0001-01-01T00:00:00Z","name_a2s":"Uncletopia | Warsaw | 5 | Stopwatch","protocol":17,"map":"workshop/koth_bagel_rc6.ugc2514036946","folder":"tf","game":"Team Fortress","app_id":440,"player_count":0,"max_players":24,"Bots":0,"server_type":"Dedicated","server_os":"Linux","password":true,"vac":true,"version":"7961495","steam_id":85568392925397854,"keywords":["cp","nocrits","nodmgspread","uncletopia"],"game_id":440,"stv_port":27056,"stv_name":"Uncletopia | Warsaw | 5 | Stopwatch | STV","players":null},{"server_id":54,"name":"Uncletopia | Warsaw | 6 | Community","name_short":"waw-6","host":"waw-1.pl.uncletopia.com","port":27065,"enabled":true,"region":"eu","cc":"pl","latitude":52.2297,"longitude":21.017532,"reserved":0,"last_update":"0001-01-01T00:00:00Z","name_a2s":"Uncletopia | Warsaw | 6 | Community","protocol":17,"map":"workshop/pl_badwater_pro_v12.ugc2142942074","folder":"tf","game":"Team Fortress","app_id":440,"player_count":0,"max_players":24,"Bots":0,"server_type":"Dedicated","server_os":"Linux","password":true,"vac":true,"version":"7961495","steam_id":85568392925397856,"keywords":["nocrits","nodmgspread","payload","uncletopia"],"game_id":440,"stv_port":27066,"stv_name":"Uncletopia | Warsaw | 6 | Community | STV","players":null}]}