{"status":true,"message":"","result":[{"server_id":9,"name":"Uncletopia | Atlanta | 1 | All Maps","name_short":"atl-1","host":"atl-1.us.uncletopia.com","port":27015,"enabled":true,"region":"us-east","cc":"us","latitude":33.753746,"longitude":-84.38633,"reserved":0,"last_update":"0001-01-01T00:00:00Z","name_a2s":"Uncletopia | Atlanta | 1 | All Maps","protocol":17,"map":"koth_king","folder":"tf","game":"Team Fortress","app_id":440,"player_count":19,"max_players":24,"Bots":0,"server_type":"Dedicated","server_os":"Linux","password":true,"vac":true,"version":"7757534","steam_id":85568392924469982,"keywords":["cp","nocrits","nodmgspread","uncletopia"],"game_id":440,"stv_port":27016,"stv_name":"Uncletopia | Atlanta | 1 | All Maps | STV","players":[{"user_id":623,"name":"Hyper","steam_id":76561198976760150,"connected_time":11000000000,"state":"spawning","ping":90},{"user_id":622,"name":"Tyfonic","steam_id":76561198179282774,"connected_time":45000000000,"state":"connecting","ping":58},{"user_id":572,"name":"Jin","steam_id":76561198119873148,"connected_time":7530000000000,"state":"active","ping":61},{"user_id":571,"name":"Mufalito","steam_id":76561198951889482,"connected_time":8437000000000,"state":"active","ping":160},{"user_id":575,"name":"wire-guided","steam_id":76561198055407168,"connected_time":7294000000000,"state":"active","ping":57},{"user_id":594,"name":"Username","steam_id":76561199033122306,"connected_time":5100000000000,"state":"spawning","ping":46},{"user_id":620,"name":"Sgt. Pepper","steam_id":76561198063674627,"connected_time":260000000000,"state":"active","ping":59},{"user_id":616,"name":"Towns","steam_id":76561198984662863,"connected_time":1190000000000,"state":"active","ping":51},{"user_id":605,"name":"Aniz","steam_id":76561199226665024,"connected_time":3730000000000,"state":"spawning","ping":481},{"user_id":597,"name":"Moonglass Kaiju","steam_id":76561198043431819,"connected_time":4058000000000,"state":"active","ping":100},{"user_id":569,"name":"zpalmtree","steam_id":76561198134307620,"connected_time":8522000000000,"state":"active","ping":72},{"user_id":596,"name":"Mage","steam_id":76561198285026879,"connected_time":4062000000000,"state":"spawning","ping":66},{"user_id":618,"name":"Nash","steam_id":76561198044192734,"connected_time":879000000000,"state":"active","ping":38},{"user_id":522,"name":"Nox(She/They)","steam_id":76561198141950842,"connected_time":15835000000000,"state":"active","ping":53},{"user_id":568,"name":"ash","steam_id":76561198127890645,"connected_time":9060000000000,"state":"active","ping":66},{"user_id":598,"name":"Cecilian","steam_id":76561198092582478,"connected_time":4056000000000,"state":"active","ping":68},{"user_id":611,"name":"Ganja Bandit","steam_id":76561198875131601,"connected_time":2493000000000,"state":"active","ping":71},{"user_id":621,"name":"turtle","steam_id":76561198112673874,"connected_time":216000000000,"state":"spawning","ping":94},{"user_id":599,"name":"façade","steam_id":76561199157009256,"connected_time":4053000000000,"state":"spawning","ping":104}]},{"server_id":104,"name":"Uncletopia | Atlanta | 2 | All Maps","name_short":"atl-2","host":"atl-1.us.uncletopia.com","port":27025,"enabled":true,"region":"us-east","cc":"us","latitude":33.753746,"longitude":-84.38633,"reserved":0,"last_update":"0001-01-01T00:00:00Z","name_a2s":"Uncletopia | Atlanta | 2 | All Maps","protocol":17,"map":"cp_dustbowl","folder":"tf","game":"Team Fortress","app_id":440,"player_count":5,"max_players":24,"Bots":0,"server_type":"Dedicated","server_os":"Linux","password":true,"vac":true,"version":"7757534","steam_id":85568392924469983,"keywords":["cp","nocrits","nodmgspread","uncletopia"],"game_id":440,"stv_port":27026,"stv_name":"Uncletopia | Atlanta | 2 | All Maps | STV","players":[{"user_id":849,"name":"The Pencil Cunts","steam_id":76561198272606252,"connected_time":8326000000000,"state":"active","ping":40},{"user_id":934,"name":"Off Season Swallow","steam_id":76561198054647777,"connected_time":1059000000000,"state":"active","ping":54},{"user_id":936,"name":"Burny Sanders","steam_id":76561197961879048,"connected_time":1025000000000,"state":"active","ping":60},{"user_id":927,"name":"EJFV007","steam_id":76561199233174289,"connected_time":2668000000000,"state":"active","ping":103},{"user_id":930,"name":"Steve Burns","steam_id":76561198069968316,"connected_time":1681000000000,"state":"active","ping":98}]},{"server_id":400,"name":"Uncletopia | Atlanta | 3 | Community","name_short":"atl-3","host":"atl-1.us.uncletopia.com","port":27035,"enabled":true,"region":"us-east","cc":"us","latitude":33.753746,"longitude":-84.38633,"reserved":0,"last_update":"0001-01-01T00:00:00Z","name_a2s":"Uncletopia | Atlanta | 3 | Community","protocol":17,"map":"workshop/cp_glassworks_rc6a.ugc454118349","folder":"tf","game":"Team Fortress","app_id":440,"player_count":0,"max_players":24,"Bots":0,"server_type":"Dedicated","server_os":"Linux","password":true,"vac":true,"version":"7757534","steam_id":85568392924515187,"keywords":["cp","nocrits","nodmgspread","uncletopia"],"game_id":440,"stv_port":27036,"stv_name":"Uncletopia | Atlanta | 3 | Community | STV","players":null},{"server_id":401,"name":"Uncletopia | Atlanta | 4 | No Payload","name_short":"atl-4","host":"atl-1.us.uncletopia.com","port":27045,"enabled":true,"region":"us-east","cc":"us","latitude":33.753746,"longitude":-84.38633,"reserved":0,"last_update":"0001-01-01T00:00:00Z","name_a2s":"","protocol":0,"map":"","folder":"","game":"","app_id":0,"player_count":0,"max_players":0,"Bots":0,"server_type":"","server_os":"","password":false,"vac":false,"version":"","steam_id":0,"keywords":null,"game_id":0,"stv_port":0,"stv_name":"","players":null},{"server_id":2,"name":"Uncletopia | Chicago | 1 | All Maps","name_short":"chi-1","host":"chi-1.us.uncletopia.com","port":27015,"enabled":true,"region":"us-central","cc":"us","latitude":41.881832,"longitude":-87.62318,"reserved":0,"last_update":"0001-01-01T00:00:00Z","name_a2s":"Uncletopia | Chicago | 1 | All Maps","protocol":17,"map":"pl_thundermountain","folder":"tf","game":"Team Fortress","app_id":440,"player_count":24,"max_players":24,"Bots":0,"server_type":"Dedicated","server_os":"Linux","password":true,"vac":true,"version":"7757534","steam_id":85568392924469984,"keywords":["nocrits","nodmgspread","payload","uncletopia"],"game_id":440,"stv_port":27016,"stv_name":"Uncletopia | Chicago | 1 | All Maps | STV","players":[{"user_id":834,"name":"ihave80hp","steam_id":76561199251621911,"connected_time":1400000000000,"state":"active","ping":92},{"user_id":844,"name":"Maxxycat","steam_id":76561198194062681,"connected_time":1020000000000,"state":"active","ping":58},{"user_id":814,"name":"SG21","steam_id":76561199381171306,"connected_time":3566000000000,"state":"active","ping":101},{"user_id":846,"name":"soupy","steam_id":76561197974283797,"connected_time":554000000000,"state":"active","ping":47},{"user_id":847,"name":"Scooter O'Boyl","steam_id":76561197971687069,"connected_time":433000000000,"state":"active","ping":91},{"user_id":829,"name":"Mitchu The Bidness Man","steam_id":76561198102494381,"connected_time":1967000000000,"state":"active","ping":60},{"user_id":816,"name":"scrotal recall","steam_id":76561198135945598,"connected_time":3483000000000,"state":"active","ping":63},{"user_id":840,"name":"MagicalBoyChan","steam_id":76561198024776873,"connected_time":1223000000000,"state":"active","ping":101},{"user_id":835,"name":"qwerg","steam_id":76561198107191794,"connected_time":1395000000000,"state":"active","ping":75},{"user_id":841,"name":"Spike","steam_id":76561198141356571,"connected_time":1215000000000,"state":"active","ping":60},{"user_id":845,"name":"SirKnight5067","steam_id":76561198377306047,"connected_time":1016000000000,"state":"active","ping":68},{"user_id":842,"name":"debin","steam_id":76561198070711217,"connected_time":1190000000000,"state":"active","ping":56},{"user_id":848,"name":"Nolan","steam_id":76561198169648081,"connected_time":57000000000,"state":"active","ping":80},{"user_id":818,"name":"Dead Space 2","steam_id":76561199062987914,"connected_time":3415000000000,"state":"active","ping":81},{"user_id":819,"name":"Lemon Drop","steam_id":76561198023684559,"connected_time":3414000000000,"state":"active","ping":92},{"user_id":843,"name":"♦♣Quadric♥♠","steam_id":76561198061003853,"connected_time":1090000000000,"state":"active","ping":71},{"user_id":820,"name":"Lucki's Fat Belly","steam_id":76561198237789592,"connected_time":3411000000000,"state":"active","ping":77},{"user_id":804,"name":"Javaris Jamar Javarison-Lamar","steam_id":76561198146951387,"connected_time":4403000000000,"state":"active","ping":74},{"user_id":821,"name":"coxen","steam_id":76561198095125557,"connected_time":3409000000000,"state":"active","ping":63},{"user_id":828,"name":"Dot.","steam_id":76561198149463984,"connected_time":2400000000000,"state":"active","ping":51},{"user_id":825,"name":"Giggles™","steam_id":76561198058708019,"connected_time":2704000000000,"state":"active","ping":58},{"user_id":839,"name":"TomatoPotato","steam_id":76561198351725991,"connected_time":1355000000000,"state":"active","ping":88},{"user_id":807,"name":"Buttfuck Armstrong","steam_id":76561198075547905,"connected_time":4392000000000,"state":"active","ping":62},{"user_id":831,"name":"SonicClubCool","steam_id":76561198079187808,"connected_time":1900000000000,"state":"active","ping":71}]},{"server_id":106,"name":"Uncletopia | Chicago | 2 | All Maps","name_short":"chi-2","host":"chi-1.us.uncletopia.com","port":27025,"enabled":true,"region":"us-central","cc":"us","latitude":41.881832,"longitude":-87.62318,"reserved":0,"last_update":"0001-01-01T00:00:00Z","name_a2s":"Uncletopia | Chicago | 2 | All Maps","protocol":17,"map":"pl_swiftwater_final1","folder":"tf","game":"Team Fortress","app_id":440,"player_count":24,"max_players":24,"Bots":0,"server_type":"Dedicated","server_os":"Linux","password":true,"vac":true,"version":"7757534","steam_id":85568392924469985,"keywords":["nocrits","nodmgspread","payload","uncletopia"],"game_id":440,"stv_port":27026,"stv_name":"Uncletopia | Chicago | 2 | All Maps | STV","players":[{"user_id":935,"name":"Mikidy","steam_id":76561197972958970,"connected_time":2737000000000,"state":"active","ping":69},{"user_id":963,"name":"Vortiger","steam_id":76561198275813176,"connected_time":933000000000,"state":"active","ping":101},{"user_id":960,"name":"Bearegard","steam_id":76561198061926542,"connected_time":1390000000000,"state":"active","ping":61},{"user_id":937,"name":"ian","steam_id":76561198119616750,"connected_time":2683000000000,"state":"active","ping":91},{"user_id":962,"name":"Flaming O'Gaming","steam_id":76561198044185725,"connected_time":984000000000,"state":"active","ping":83},{"user_id":973,"name":"Eden Hazard","steam_id":76561198089241053,"connected_time":365000000000,"state":"active","ping":61},{"user_id":969,"name":"Kurg","steam_id":76561198143381218,"connected_time":738000000000,"state":"active","ping":49},{"user_id":965,"name":"Yuhh","steam_id":76561199112894955,"connected_time":874000000000,"state":"active","ping":76},{"user_id":966,"name":"The Color Cyan idk im blind","steam_id":76561198978548208,"connected_time":870000000000,"state":"active","ping":106},{"user_id":967,"name":"Regi","steam_id":76561198271508598,"connected_time":814000000000,"state":"active","ping":55},{"user_id":968,"name":"din afore","steam_id":76561198079892116,"connected_time":759000000000,"state":"active","ping":51},{"user_id":947,"name":"ArnoldGamingﾠٴ","steam_id":76561198040140247,"connected_time":2152000000000,"state":"active","ping":98},{"user_id":943,"name":"villainy","steam_id":76561199061380038,"connected_time":2544000000000,"state":"active","ping":74},{"user_id":902,"name":"great1photo","steam_id":76561198085481933,"connected_time":6450000000000,"state":"active","ping":70},{"user_id":955,"name":"NerdyEnforcement","steam_id":76561198437710820,"connected_time":1968000000000,"state":"active","ping":64},{"user_id":970,"name":"heimdall","steam_id":76561198069380992,"connected_time":722000000000,"state":"active","ping":92},{"user_id":972,"name":"Scout","steam_id":76561199030987614,"connected_time":577000000000,"state":"active","ping":91},{"user_id":924,"name":"Mookie Burns","steam_id":76561199202153909,"connected_time":3668000000000,"state":"active","ping":83},{"user_id":971,"name":"Colonel Chikara","steam_id":76561198010021087,"connected_time":717000000000,"state":"active","ping":98},{"user_id":958,"name":"Steadman Slick","steam_id":76561198092633444,"connected_time":1713000000000,"state":"active","ping":44},{"user_id":961,"name":"Aunt May's House Fight","steam_id":76561198208294764,"connected_time":1135000000000,"state":"active","ping":97},{"user_id":944,"name":"Rudy","steam_id":76561198013456828,"connected_time":2484000000000,"state":"active","ping":70},{"user_id":952,"name":"professional swag haver","steam_id":76561198143132686,"connected_time":2096000000000,"state":"active","ping":89},{"user_id":932,"name":"Otterman Empire","steam_id":76561198047758442,"connected_time":3052000000000,"state":"active","ping":94}]},{"server_id":402,"name":"Uncletopia | Chicago | 3 | All Maps","name_short":"chi-3","host":"chi-1.us.uncletopia.com","port":27035,"enabled":true,"region":"us-central","cc":"us","latitude":41.881832,"longitude":-87.62318,"reserved":0,"last_update":"0001-01-01T00:00:00Z","name_a2s":"Uncletopia | Chicago | 3 | All Maps","protocol":17,"map":"cp_gullywash_final1","folder":"tf","game":"Team Fortress","app_id":440,"player_count":24,"max_players":24,"Bots":0,"server_type":"Dedicated","server_os":"Linux","password":true,"vac":true,"version":"7757534","steam_id":85568392924515191,"keywords":["cp","nocrits","nodmgspread","uncletopia"],"game_id":440,"stv_port":27036,"stv_name":"Uncletopia | Chicago | 3 | All Maps | STV","players":[{"user_id":891,"name":"lemon","steam_id":76561198086406706,"connected_time":94000000000,"state":"active","ping":39},{"user_id":845,"name":"booger","steam_id":76561198333832807,"connected_time":2197000000000,"state":"active","ping":124},{"user_id":853,"name":"RURU","steam_id":76561198039758987,"connected_time":1961000000000,"state":"active","ping":102},{"user_id":883,"name":"Satan","steam_id":76561199056514770,"connected_time":222000000000,"state":"active","ping":112},{"user_id":884,"name":"cookies_247","steam_id":76561199310150479,"connected_time":208000000000,"state":"active","ping":72},{"user_id":881,"name":"Rick Owens","steam_id":76561199075528394,"connected_time":337000000000,"state":"active","ping":88},{"user_id":847,"name":"Lo-Pan","steam_id":76561198085670133,"connected_time":2172000000000,"state":"active","ping":82},{"user_id":872,"name":"AzuriousAlex","steam_id":76561198158026405,"connected_time":631000000000,"state":"active","ping":73},{"user_id":870,"name":"Dreamy Sweat from 2hu","steam_id":76561198094602446,"connected_time":1042000000000,"state":"active","ping":61},{"user_id":885,"name":"YUNG NASTYMAN","steam_id":76561198039710677,"connected_time":181000000000,"state":"active","ping":72},{"user_id":854,"name":"jeffus","steam_id":76561199347238848,"connected_time":1927000000000,"state":"active","ping":98},{"user_id":864,"name":"White Bill Clinton","steam_id":76561198307516731,"connected_time":1380000000000,"state":"active","ping":81},{"user_id":875,"name":"Anthoneeee","steam_id":76561199209220671,"connected_time":454000000000,"state":"active","ping":122},{"user_id":787,"name":"Yummy Kabobz","steam_id":76561198067661705,"connected_time":4147000000000,"state":"active","ping":66},{"user_id":886,"name":"☂hito","steam_id":76561199074179331,"connected_time":167000000000,"state":"active","ping":102},{"user_id":869,"name":"Ricta","steam_id":76561198086475766,"connected_time":1084000000000,"state":"active","ping":65},{"user_id":876,"name":"Jon Snuh","steam_id":76561198075298635,"connected_time":451000000000,"state":"active","ping":75},{"user_id":830,"name":"Fluffypillow64","steam_id":76561198853272694,"connected_time":3063000000000,"state":"active","ping":72},{"user_id":826,"name":"dahperson","steam_id":76561198067207467,"connected_time":3123000000000,"state":"active","ping":57},{"user_id":887,"name":"jalapeno handjob","steam_id":76561198123298824,"connected_time":149000000000,"state":"active","ping":69},{"user_id":858,"name":"boy from the rafters","steam_id":76561198042926224,"connected_time":1845000000000,"state":"active","ping":83},{"user_id":889,"name":"finman","steam_id":76561198127639913,"connected_time":144000000000,"state":"active","ping":104},{"user_id":890,"name":"LNRPdeadshot","steam_id":76561199160013540,"connected_time":127000000000,"state":"active","ping":93}]},{"server_id":403,"name":"Uncletopia | Chicago | 4 | All Maps","name_short":"chi-4","host":"chi-1.us.uncletopia.com","port":27045,"enabled":true,"region":"us-central","cc":"us","latitude":41.881832,"longitude":-87.62318,"reserved":0,"last_update":"0001-01-01T00:00:00Z","name_a2s":"Uncletopia | Chicago | 4 | All Maps","protocol":17,"map":"pl_pier","folder":"tf","game":"Team Fortress","app_id":440,"player_count":23,"max_players":24,"Bots":0,"server_type":"Dedicated","server_os":"Linux","password":true,"vac":true,"version":"7757534","steam_id":85568392924515193,"keywords":["nocrits","nodmgspread","payload","uncletopia"],"game_id":440,"stv_port":27046,"stv_name":"Uncletopia | Chicago | 4 | All Maps | STV","players":[{"user_id":639,"name":"Transgirl Goku","steam_id":76561198091555100,"connected_time":436000000000,"state":"active","ping":73},{"user_id":624,"name":"dolphs","steam_id":76561198831972272,"connected_time":1189000000000,"state":"active","ping":89},{"user_id":605,"name":"squids a Grandmaster","steam_id":76561199200296010,"connected_time":2485000000000,"state":"active","ping":81},{"user_id":616,"name":"enmgxcltayiqoacx","steam_id":76561197974965536,"connected_time":1646000000000,"state":"active","ping":59},{"user_id":625,"name":"alpha1zer0ready","steam_id":76561199206731331,"connected_time":1155000000000,"state":"active","ping":89},{"user_id":626,"name":"Marcy2231","steam_id":76561198202323656,"connected_time":1127000000000,"state":"active","ping":70},{"user_id":597,"name":"Nahvee","steam_id":76561198119759695,"connected_time":2936000000000,"state":"active","ping":60},{"user_id":609,"name":"volta","steam_id":76561199214283884,"connected_time":2076000000000,"state":"active","ping":93},{"user_id":633,"name":"Firepig102","steam_id":76561198060248559,"connected_time":923000000000,"state":"active","ping":99},{"user_id":613,"name":"strawberry shortcock","steam_id":76561198032040831,"connected_time":1781000000000,"state":"active","ping":83},{"user_id":641,"name":"Queen Frau the Round","steam_id":76561197999942134,"connected_time":350000000000,"state":"active","ping":46},{"user_id":627,"name":"Chiney","steam_id":76561199232892414,"connected_time":1127000000000,"state":"active","ping":85},{"user_id":628,"name":"Chef Boyardee","steam_id":76561199450037040,"connected_time":1113000000000,"state":"active","ping":73},{"user_id":585,"name":"nic","steam_id":76561198030654668,"connected_time":4513000000000,"state":"active","ping":69},{"user_id":620,"name":"The Local Toilet","steam_id":76561198908823271,"connected_time":1418000000000,"state":"active","ping":70},{"user_id":629,"name":"Tech Deck","steam_id":76561199070437675,"connected_time":1047000000000,"state":"active","ping":115},{"user_id":570,"name":"Resh420","steam_id":76561198066619792,"connected_time":6004000000000,"state":"active","ping":72},{"user_id":630,"name":"god doesnt here me","steam_id":76561198125328737,"connected_time":1029000000000,"state":"active","ping":72},{"user_id":631,"name":"Andy","steam_id":76561198043115724,"connected_time":1019000000000,"state":"active","ping":84},{"user_id":640,"name":"Triple Lizard","steam_id":76561198188459654,"connected_time":397000000000,"state":"active","ping":75},{"user_id":634,"name":"MedicalMuffin","steam_id":76561198448798866,"connected_time":882000000000,"state":"active","ping":53},{"user_id":635,"name":"astral","steam_id":76561198872396820,"connected_time":875000000000,"state":"active","ping":107},{"user_id":636,"name":"Dylan Pulido","steam_id":76561198272681544,"connected_time":851000000000,"state":"active","ping":90}]},{"server_id":36,"name":"Uncletopia | Chicago | 5 | All Maps","name_short":"chi-5","host":"chi-2.us.uncletopia.com","port":27015,"enabled":true,"region":"us-central","cc":"us","latitude":41.881832,"longitude":-87.62318,"reserved":0,"last_update":"0001-01-01T00:00:00Z","name_a2s":"Uncletopia | Chicago | 5 | All Maps","protocol":17,"map":"pl_snowycoast","folder":"tf","game":"Team Fortress","app_id":440,"player_count":0,"max_players":24,"Bots":0,"server_type":"Dedicated","server_os":"Linux","password":true,"vac":true,"version":"7757534","steam_id":85568392924866362,"keywords":["nocrits","nodmgspread","payload","uncletopia"],"game_id":440,"stv_port":27016,"stv_name":"Uncletopia | Chicago | 5 | All Maps | STV","players":null},{"server_id":37,"name":"Uncletopia | Chicago | 6 | All Maps","name_short":"chi-6","host":"chi-2.us.uncletopia.com","port":27025,"enabled":true,"region":"us-central","cc":"us","latitude":41.881832,"longitude":-87.62318,"reserved":0,"last_update":"0001-01-01T00:00:00Z","name_a2s":"Uncletopia | Chicago | 6 | All Maps","protocol":17,"map":"cp_snakewater_final1","folder":"tf","game":"Team Fortress","app_id":440,"player_count":0,"max_players":24,"Bots":0,"server_type":"Dedicated","server_os":"Linux","password":true,"vac":true,"version":"7757534","steam_id":85568392924866363,"keywords":["cp","nocrits","nodmgspread","uncletopia"],"game_id":440,"stv_port":27026,"stv_name":"Uncletopia | Chicago | 6 | All Maps | STV","players":null},{"server_id":38,"name":"Uncletopia | Chicago | 7 | Stopwatch Beta","name_short":"chi-7","host":"chi-2.us.uncletopia.com","port":27035,"enabled":true,"region":"us-central","cc":"us","latitude":41.881832,"longitude":-87.62318,"reserved":0,"last_update":"0001-01-01T00:00:00Z","name_a2s":"Uncletopia | Chicago | 7 | Stopwatch Beta","protocol":17,"map":"workshop/pl_badwater_pro_v12.ugc2142942074","folder":"tf","game":"Team Fortress","app_id":440,"player_count":0,"max_players":24,"Bots":0,"server_type":"Dedicated","server_os":"Linux","password":true,"vac":true,"version":"7757534","steam_id":85568392924866364,"keywords":["nocrits","nodmgspread","payload","uncletopia"],"game_id":440,"stv_port":27036,"stv_name":"Uncletopia | Chicago | 7 | Stopwatch Beta | STV","players":null},{"server_id":39,"name":"Uncletopia | Chicago | 8 | Community","name_short":"chi-8","host":"chi-2.us.uncletopia.com","port":27045,"enabled":true,"region":"us-central","cc":"us","latitude":41.881832,"longitude":-87.62318,"reserved":0,"last_update":"0001-01-01T00:00:00Z","name_a2s":"Uncletopia | Chicago | 8 | Community","protocol":17,"map":"workshop/pl_barnblitz_pro7.ugc582280235","folder":"tf","game":"Team Fortress","app_id":440,"player_count":0,"max_players":24,"Bots":0,"server_type":"Dedicated","server_os":"Linux","password":true,"vac":true,"version":"7757534","steam_id":85568392924866365,"keywords":["nocrits","nodmgspread","payload","uncletopia"],"game_id":440,"stv_port":27046,"stv_name":"Uncletopia | Chicago | 8 | Community | STV","players":null},{"server_id":8,"name":"Uncletopia | Dallas | 1 | All Maps","name_short":"dal-1","host":"dal-1.us.uncletopia.com","port":27015,"enabled":true,"region":"us-central","cc":"us","latitude":32.779167,"longitude":-96.80889,"reserved":0,"last_update":"0001-01-01T00:00:00Z","name_a2s":"Uncletopia | Dallas | 1 | All Maps","protocol":17,"map":"pl_snowycoast","folder":"tf","game":"Team Fortress","app_id":440,"player_count":24,"max_players":24,"Bots":0,"server_type":"Dedicated","server_os":"Linux","password":true,"vac":true,"version":"7757534","steam_id":85568392924469986,"keywords":["nocrits","nodmgspread","payload","uncletopia"],"game_id":440,"stv_port":27016,"stv_name":"Uncletopia | Dallas | 1 | All Maps | STV","players":[{"user_id":696,"name":"[SODA] Eagan Gbao","steam_id":76561198846826090,"connected_time":3047000000000,"state":"active","ping":114},{"user_id":687,"name":"minty","steam_id":76561198062821894,"connected_time":4465000000000,"state":"active","ping":54},{"user_id":666,"name":"Burger","steam_id":76561198124642383,"connected_time":7499000000000,"state":"active","ping":89},{"user_id":733,"name":"tobrehto","steam_id":76561198097544038,"connected_time":735000000000,"state":"active","ping":104},{"user_id":743,"name":"Fargo","steam_id":76561198044703931,"connected_time":172000000000,"state":"active","ping":62},{"user_id":735,"name":"Valinov","steam_id":76561197991349953,"connected_time":581000000000,"state":"active","ping":79},{"user_id":723,"name":"SneekiCheekiQbone","steam_id":76561198045077980,"connected_time":1021000000000,"state":"active","ping":78},{"user_id":740,"name":"Satan-2","steam_id":76561199231742764,"connected_time":492000000000,"state":"active","ping":96},{"user_id":741,"name":"Meth Goblin","steam_id":76561198086355221,"connected_time":308000000000,"state":"active","ping":61},{"user_id":701,"name":"NChan141","steam_id":76561199038987817,"connected_time":2945000000000,"state":"active","ping":118},{"user_id":682,"name":"Ms Chatmen","steam_id":76561198309567814,"connected_time":4856000000000,"state":"active","ping":43},{"user_id":742,"name":"KewlKris","steam_id":76561198260738308,"connected_time":199000000000,"state":"active","ping":37},{"user_id":663,"name":"DannyM","steam_id":76561198351165570,"connected_time":7775000000000,"state":"active","ping":38},{"user_id":739,"name":"Hog Leader","steam_id":76561198812197325,"connected_time":512000000000,"state":"active","ping":108},{"user_id":748,"name":"FROYO reptilebud","steam_id":76561198017539604,"connected_time":67000000000,"state":"active","ping":75},{"user_id":614,"name":"Loki!","steam_id":76561198089201861,"connected_time":14175000000000,"state":"active","ping":62},{"user_id":745,"name":"-BRH- Tangled up in Bluegrass","steam_id":76561197987181139,"connected_time":107000000000,"state":"active","ping":90},{"user_id":729,"name":"gods drunkest driver","steam_id":76561198293857963,"connected_time":993000000000,"state":"active","ping":93},{"user_id":746,"name":"Hong Xiuquan","steam_id":76561198110046630,"connected_time":101000000000,"state":"active","ping":76},{"user_id":747,"name":"dustbowl gaming","steam_id":76561198057374871,"connected_time":100000000000,"state":"active","ping":83},{"user_id":716,"name":"Jarryl97","steam_id":76561198055451373,"connected_time":1805000000000,"state":"active","ping":70},{"user_id":730,"name":"[_Dr.Scythe_]","steam_id":76561198845245858,"connected_time":976000000000,"state":"active","ping":60},{"user_id":715,"name":"shwatyygotaabodddyieyeah","steam_id":76561198102681457,"connected_time":1912000000000,"state":"active","ping":77},{"user_id":731,"name":"SPREAD SPRING GROWTH AND WARMTH","steam_id":76561198800386026,"connected_time":971000000000,"state":"active","ping":98}]},{"server_id":108,"name":"Uncletopia | Dallas | 2 | All Maps","name_short":"dal-2","host":"dal-1.us.uncletopia.com","port":27025,"enabled":true,"region":"us-central","cc":"us","latitude":32.779167,"longitude":-96.80889,"reserved":0,"last_update":"0001-01-01T00:00:00Z","name_a2s":"Uncletopia | Dallas | 2 | All Maps","protocol":17,"map":"cp_sunshine","folder":"tf","game":"Team Fortress","app_id":440,"player_count":19,"max_players":24,"Bots":0,"server_type":"Dedicated","server_os":"Linux","password":true,"vac":true,"version":"7757534","steam_id":85568392924469988,"keywords":["cp","nocrits","nodmgspread","uncletopia"],"game_id":440,"stv_port":27026,"stv_name":"Uncletopia | Dallas | 2 | All Maps | STV","players":[{"user_id":703,"name":"Rusted Cake","steam_id":76561198209755931,"connected_time":387000000000,"state":"active","ping":84},{"user_id":704,"name":"cycoone","steam_id":76561198059745285,"connected_time":334000000000,"state":"active","ping":75},{"user_id":707,"name":"Born 2 shit Forced 2 wipe","steam_id":76561199438197886,"connected_time":172000000000,"state":"active","ping":125},{"user_id":701,"name":"Dog Goggles","steam_id":76561197995233692,"connected_time":458000000000,"state":"active","ping":101},{"user_id":706,"name":"MR MODE","steam_id":76561198046775352,"connected_time":254000000000,"state":"active","ping":80},{"user_id":676,"name":"Nat-Hat86","steam_id":76561198853762206,"connected_time":2120000000000,"state":"active","ping":107},{"user_id":649,"name":"Ben Ben","steam_id":76561198307247913,"connected_time":3912000000000,"state":"active","ping":76},{"user_id":708,"name":"Icarus the legend","steam_id":76561199013250091,"connected_time":43000000000,"state":"spawning","ping":48},{"user_id":695,"name":"_","steam_id":76561198191199554,"connected_time":558000000000,"state":"active","ping":88},{"user_id":691,"name":"SirBacon","steam_id":76561198070832540,"connected_time":630000000000,"state":"active","ping":113},{"user_id":696,"name":"Justtophat","steam_id":76561198308787175,"connected_time":541000000000,"state":"active","ping":93},{"user_id":693,"name":"GuyGoom","steam_id":76561198254522178,"connected_time":616000000000,"state":"active","ping":61},{"user_id":674,"name":"HumanSentry","steam_id":76561198832231487,"connected_time":2145000000000,"state":"active","ping":45},{"user_id":694,"name":"Wooter","steam_id":76561198107186157,"connected_time":609000000000,"state":"active","ping":76},{"user_id":697,"name":"Clumsy","steam_id":76561198056345245,"connected_time":539000000000,"state":"active","ping":73},{"user_id":655,"name":"Chad","steam_id":76561198222313772,"connected_time":3693000000000,"state":"active","ping":98},{"user_id":698,"name":"Tydaxer","steam_id":76561198049309515,"connected_time":509000000000,"state":"active","ping":49},{"user_id":702,"name":"pigswill","steam_id":76561197999081865,"connected_time":437000000000,"state":"active","ping":89},{"user_id":657,"name":"SpicyTacoMan","steam_id":76561198335699828,"connected_time":3661000000000,"state":"active","ping":104}]},{"server_id":5,"name":"Uncletopia | Frankfurt | 1 | All Maps","name_short":"frk-1","host":"frk-1.de.uncletopia.com","port":27015,"enabled":true,"region":"eu","cc":"de","latitude":50.110924,"longitude":8.682127,"reserved":0,"last_update":"0001-01-01T00:00:00Z","name_a2s":"Uncletopia | Frankfurt | 1 | All Maps","protocol":17,"map":"pl_snowycoast","folder":"tf","game":"Team Fortress","app_id":440,"player_count":0,"max_players":24,"Bots":0,"server_type":"Dedicated","server_os":"Linux","password":true,"vac":true,"version":"7757534","steam_id":85568392924469989,"keywords":["nocrits","nodmgspread","payload","uncletopia"],"game_id":440,"stv_port":27016,"stv_name":"Uncletopia | Frankfurt | 1 | All Maps | STV","players":null},{"server_id":110,"name":"Uncletopia | Frankfurt | 2 | All Maps","name_short":"frk-2","host":"frk-1.de.uncletopia.com","port":27025,"enabled":true,"region":"eu","cc":"de","latitude":50.110924,"longitude":8.682127,"reserved":0,"last_update":"0001-01-01T00:00:00Z","name_a2s":"Uncletopia | Frankfurt | 2 | All Maps","protocol":17,"map":"cp_snakewater_final1","folder":"tf","game":"Team Fortress","app_id":440,"player_count":0,"max_players":24,"Bots":0,"server_type":"Dedicated","server_os":"Linux","password":true,"vac":true,"version":"7757534","steam_id":85568392924469990,"keywords":["cp","nocrits","nodmgspread","uncletopia"],"game_id":440,"stv_port":27026,"stv_name":"Uncletopia | Frankfurt | 2 | All Maps | STV","players":null},{"server_id":308,"name":"Uncletopia | Frankfurt | 3 | All Maps","name_short":"frk-3","host":"frk-1.de.uncletopia.com","port":27035,"enabled":true,"region":"eu","cc":"de","latitude":50.110924,"longitude":8.682127,"reserved":0,"last_update":"0001-01-01T00:00:00Z","name_a2s":"Uncletopia | Frankfurt | 3 | All Maps","protocol":17,"map":"pl_swiftwater_final1","folder":"tf","game":"Team Fortress","app_id":440,"player_count":0,"max_players":24,"Bots":0,"server_type":"Dedicated","server_os":"Linux","password":true,"vac":true,"version":"7757534","steam_id":85568392924504274,"keywords":["nocrits","nodmgspread","payload","uncletopia"],"game_id":440,"stv_port":27036,"stv_name":"Uncletopia | Frankfurt | 3 | All Maps | STV","players":null},{"server_id":309,"name":"Uncletopia | Frankfurt | 4 | All Maps","name_short":"frk-4","host":"frk-1.de.uncletopia.com","port":27045,"enabled":true,"region":"eu","cc":"de","latitude":50.110924,"longitude":8.682127,"reserved":0,"last_update":"0001-01-01T00:00:00Z","name_a2s":"Uncletopia | Frankfurt | 4 | All Maps","protocol":17,"map":"koth_viaduct","folder":"tf","game":"Team Fortress","app_id":440,"player_count":0,"max_players":24,"Bots":0,"server_type":"Dedicated","server_os":"Linux","password":true,"vac":true,"version":"7757534","steam_id":85568392924504275,"keywords":["cp","nocrits","nodmgspread","uncletopia"],"game_id":440,"stv_port":27046,"stv_name":"Uncletopia | Frankfurt | 4 | All Maps | STV","players":null},{"server_id":310,"name":"Uncletopia | Frankfurt | 5 | All Maps","name_short":"frk-5","host":"frk-1.de.uncletopia.com","port":27055,"enabled":true,"region":"eu","cc":"de","latitude":50.110924,"longitude":8.682127,"reserved":0,"last_update":"0001-01-01T00:00:00Z","name_a2s":"Uncletopia | Frankfurt | 5 | All Maps","protocol":17,"map":"koth_lakeside_final","folder":"tf","game":"Team Fortress","app_id":440,"player_count":0,"max_players":24,"Bots":0,"server_type":"Dedicated","server_os":"Linux","password":true,"vac":true,"version":"7757534","steam_id":85568392924504277,"keywords":["cp","nocrits","nodmgspread","uncletopia"],"game_id":440,"stv_port":27056,"stv_name":"Uncletopia | Frankfurt | 5 | All Maps | STV","players":null},{"server_id":311,"name":"Uncletopia | Frankfurt | 6 | All Maps","name_short":"frk-6","host":"frk-1.de.uncletopia.com","port":27065,"enabled":true,"region":"eu","cc":"de","latitude":50.110924,"longitude":8.682127,"reserved":0,"last_update":"0001-01-01T00:00:00Z","name_a2s":"Uncletopia | Frankfurt | 6 | All Maps","protocol":17,"map":"pl_frontier_final","folder":"tf","game":"Team Fortress","app_id":440,"player_count":0,"max_players":24,"Bots":0,"server_type":"Dedicated","server_os":"Linux","password":true,"vac":true,"version":"7757534","steam_id":85568392924504278,"keywords":["nocrits","nodmgspread","payload","uncletopia"],"game_id":440,"stv_port":27066,"stv_name":"Uncletopia | Frankfurt | 6 | All Maps | STV","players":null},{"server_id":23,"name":"Uncletopia | Frankfurt | 7 | Stopwatch Beta","name_short":"frk-7","host":"frk-1.de.uncletopia.com","port":27075,"enabled":true,"region":"eu","cc":"de","latitude":50.110924,"longitude":8.682127,"reserved":0,"last_update":"0001-01-01T00:00:00Z","name_a2s":"Uncletopia | Frankfurt | 7 | Stopwatch Beta","protocol":17,"map":"cp_sunshine","folder":"tf","game":"Team Fortress","app_id":440,"player_count":0,"max_players":24,"Bots":0,"server_type":"Dedicated","server_os":"Linux","password":true,"vac":true,"version":"7757534","steam_id":85568392924742827,"keywords":["cp","nocrits","nodmgspread","uncletopia"],"game_id":440,"stv_port":27076,"stv_name":"Uncletopia | Frankfurt | 7 | Stopwatch Beta | STV","players":null},{"server_id":24,"name":"Uncletopia | Frankfurt | 8 | Community","name_short":"frk-8","host":"frk-1.de.uncletopia.com","port":27085,"enabled":true,"region":"eu","cc":"de","latitude":50.110924,"longitude":8.682127,"reserved":0,"last_update":"0001-01-01T00:00:00Z","name_a2s":"Uncletopia | Frankfurt | 8 | Community","protocol":17,"map":"koth_lakeside_final","folder":"tf","game":"Team Fortress","app_id":440,"player_count":0,"max_players":24,"Bots":0,"server_type":"Dedicated","server_os":"Linux","password":true,"vac":true,"version":"7757534","steam_id":85568392924742828,"keywords":["cp","nocrits","nodmgspread","uncletopia"],"game_id":440,"stv_port":27086,"stv_name":"Uncletopia | Frankfurt | 8 | Community | STV","players":null},{"server_id":202,"name":"Uncletopia | Hong Kong | 1 | All Maps","name_short":"hgk-1","host":"hgk-1.hk.uncletopia.com","port":27015,"enabled":true,"region":"asia","cc":"hk","latitude":22.302711,"longitude":114.177216,"reserved":0,"last_update":"0001-01-01T00:00:00Z","name_a2s":"Uncletopia | Hong Kong | 1 | All Maps","protocol":17,"map":"pl_snowycoast","folder":"tf","game":"Team Fortress","app_id":440,"player_count":21,"max_players":24,"Bots":0,"server_type":"Dedicated","server_os":"Linux","password":true,"vac":true,"version":"7757534","steam_id":85568392924494504,"keywords":["nocrits","nodmgspread","payload","uncletopia"],"game_id":440,"stv_port":27016,"stv_name":"Uncletopia | Hong Kong | 1 | All Maps | STV","players":[{"user_id":39,"name":"Puppycorn","steam_id":76561198384164542,"connected_time":1908000000000,"state":"active","ping":132},{"user_id":54,"name":"Aetherella","steam_id":76561198327674775,"connected_time":546000000000,"state":"active","ping":47},{"user_id":24,"name":"Shades on Goggles","steam_id":76561198406067629,"connected_time":3194000000000,"state":"active","ping":57},{"user_id":55,"name":"\"I will have order!\"","steam_id":76561199118887297,"connected_time":527000000000,"state":"active","ping":91},{"user_id":21,"name":"Is that a Subaru?","steam_id":76561198420018387,"connected_time":3237000000000,"state":"active","ping":37},{"user_id":38,"name":"smith johnson","steam_id":76561198889862851,"connected_time":2272000000000,"state":"active","ping":43},{"user_id":50,"name":"twitch.tv/tf2ferb","steam_id":76561198074413124,"connected_time":1038000000000,"state":"active","ping":91},{"user_id":30,"name":"ironhelmet8","steam_id":76561198354900426,"connected_time":2988000000000,"state":"active","ping":80},{"user_id":28,"name":"Vortex Artemisio","steam_id":76561198833527091,"connected_time":3062000000000,"state":"active","ping":92},{"user_id":56,"name":"jyn.","steam_id":76561198343681664,"connected_time":463000000000,"state":"active","ping":79},{"user_id":41,"name":"!!!","steam_id":76561199058258142,"connected_time":1531000000000,"state":"active","ping":78},{"user_id":44,"name":"ZeniaPY (Playing on Wacom)","steam_id":76561198404352831,"connected_time":1297000000000,"state":"active","ping":57},{"user_id":57,"name":"house always wins","steam_id":76561198320532821,"connected_time":401000000000,"state":"active","ping":71},{"user_id":45,"name":"iamthenoname","steam_id":76561198982785447,"connected_time":1296000000000,"state":"active","ping":61},{"user_id":58,"name":"Victor Charlie","steam_id":76561198255287958,"connected_time":281000000000,"state":"active","ping":97},{"user_id":48,"name":"villy","steam_id":76561198169263597,"connected_time":1131000000000,"state":"active","ping":36},{"user_id":63,"name":"ruikaifu","steam_id":76561199123497581,"connected_time":58000000000,"state":"active","ping":93},{"user_id":52,"name":"Eugene the WISE","steam_id":76561198303608523,"connected_time":1002000000000,"state":"active","ping":112},{"user_id":60,"name":"「ඞ 」pink ඞ","steam_id":76561199160972366,"connected_time":174000000000,"state":"active","ping":76},{"user_id":61,"name":"LET THE INTRUSIVE THOUGHTS WIN","steam_id":76561199174449723,"connected_time":138000000000,"state":"active","ping":105},{"user_id":62,"name":"左 辙","steam_id":76561198202460529,"connected_time":134000000000,"state":"active","ping":90}]},{"server_id":1,"name":"Uncletopia | Los Angeles | 1 | All Maps","name_short":"lax-1","host":"lax-1.us.uncletopia.com","port":27015,"enabled":true,"region":"us-west","cc":"us","latitude":33.94279,"longitude":-118.41004,"reserved":0,"last_update":"0001-01-01T00:00:00Z","name_a2s":"Uncletopia | Los Angeles | 1 | All Maps","protocol":17,"map":"cp_coldfront","folder":"tf","game":"Team Fortress","app_id":440,"player_count":24,"max_players":24,"Bots":0,"server_type":"Dedicated","server_os":"Linux","password":true,"vac":true,"version":"7757534","steam_id":85568392924469991,"keywords":["cp","nocrits","nodmgspread","uncletopia"],"game_id":440,"stv_port":27016,"stv_name":"Uncletopia | Los Angeles | 1 | All Maps | STV","players":[{"user_id":416,"name":"aqua","steam_id":76561199407709552,"connected_time":7737000000000,"state":"active","ping":99},{"user_id":492,"name":"Sirphantom","steam_id":76561198125415432,"connected_time":1613000000000,"state":"active","ping":51},{"user_id":463,"name":"ScoutBox","steam_id":76561198111539895,"connected_time":3179000000000,"state":"active","ping":46},{"user_id":494,"name":"selvhat","steam_id":76561198114225509,"connected_time":1586000000000,"state":"active","ping":65},{"user_id":470,"name":"XanderDragon","steam_id":76561198121029713,"connected_time":2659000000000,"state":"active","ping":69},{"user_id":506,"name":"PunishedCrab","steam_id":76561198079650017,"connected_time":632000000000,"state":"active","ping":58},{"user_id":510,"name":"BIG HOG","steam_id":76561198079923652,"connected_time":47000000000,"state":"active","ping":84},{"user_id":495,"name":"FCKGW-RHQQ2-YXRKT-8TG6W-2B7Q8","steam_id":76561197993138592,"connected_time":1555000000000,"state":"active","ping":70},{"user_id":500,"name":"OrangeShoes","steam_id":76561197971249940,"connected_time":1291000000000,"state":"active","ping":116},{"user_id":507,"name":"kato","steam_id":76561198088665810,"connected_time":479000000000,"state":"active","ping":45},{"user_id":483,"name":"Mozz","steam_id":76561198132892873,"connected_time":2048000000000,"state":"active","ping":61},{"user_id":484,"name":"Chrysalis","steam_id":76561198028576126,"connected_time":2041000000000,"state":"active","ping":108},{"user_id":479,"name":"TeCon","steam_id":76561198049127236,"connected_time":2157000000000,"state":"active","ping":51},{"user_id":505,"name":"Thunder","steam_id":76561198097721532,"connected_time":816000000000,"state":"active","ping":46},{"user_id":502,"name":"MaDeuce","steam_id":76561198110732835,"connected_time":1169000000000,"state":"active","ping":99},{"user_id":503,"name":"bengineer","steam_id":76561198171912174,"connected_time":1141000000000,"state":"active","ping":86},{"user_id":491,"name":"nori_420","steam_id":76561199117134203,"connected_time":1713000000000,"state":"active","ping":57},{"user_id":488,"name":"cringepilled girlmoder","steam_id":76561198066241998,"connected_time":1844000000000,"state":"active","ping":61},{"user_id":411,"name":"Custard","steam_id":76561198069680083,"connected_time":8003000000000,"state":"active","ping":48},{"user_id":501,"name":"★SuperBurgerBoy★","steam_id":76561198856387197,"connected_time":1289000000000,"state":"active","ping":54},{"user_id":493,"name":"An00bis","steam_id":76561198044084508,"connected_time":1612000000000,"state":"active","ping":45},{"user_id":496,"name":"Chrisjongun","steam_id":76561198331685904,"connected_time":1499000000000,"state":"active","ping":87},{"user_id":497,"name":"Assassin","steam_id":76561198321410235,"connected_time":1498000000000,"state":"active","ping":39},{"user_id":509,"name":"Sens","steam_id":76561198019334820,"connected_time":136000000000,"state":"active","ping":77}]},{"server_id":112,"name":"Uncletopia | Los Angeles | 2 | All Maps","name_short":"lax-2","host":"lax-1.us.uncletopia.com","port":27025,"enabled":true,"region":"us-west","cc":"us","latitude":33.94279,"longitude":-118.41004,"reserved":0,"last_update":"0001-01-01T00:00:00Z","name_a2s":"Uncletopia | Los Angeles | 2 | All Maps","protocol":17,"map":"pl_borneo","folder":"tf","game":"Team Fortress","app_id":440,"player_count":21,"max_players":24,"Bots":0,"server_type":"Dedicated","server_os":"Linux","password":true,"vac":true,"version":"7757534","steam_id":85568392924469992,"keywords":["nocrits","nodmgspread","payload","uncletopia"],"game_id":440,"stv_port":27026,"stv_name":"Uncletopia | Los Angeles | 2 | All Maps | STV","players":[{"user_id":351,"name":"Frank Ugly","steam_id":76561198247002810,"connected_time":4302000000000,"state":"active","ping":67},{"user_id":363,"name":"Klitz Penischmidt","steam_id":76561198050582941,"connected_time":3126000000000,"state":"active","ping":120},{"user_id":374,"name":"eau:","steam_id":76561198110020262,"connected_time":2906000000000,"state":"active","ping":33},{"user_id":389,"name":"FUCK","steam_id":76561198334059206,"connected_time":812000000000,"state":"active","ping":57},{"user_id":406,"name":"despacitosavage98","steam_id":76561198208270929,"connected_time":99000000000,"state":"active","ping":49},{"user_id":378,"name":"ʀ.ʚɞ.","steam_id":76561198029580420,"connected_time":2818000000000,"state":"active","ping":150},{"user_id":397,"name":"MegaBron James","steam_id":76561198066091050,"connected_time":646000000000,"state":"active","ping":76},{"user_id":367,"name":"Whisper!","steam_id":76561198119609795,"connected_time":3058000000000,"state":"active","ping":50},{"user_id":381,"name":"Artic_Ryuu","steam_id":76561198182194918,"connected_time":2482000000000,"state":"active","ping":36},{"user_id":407,"name":"DukeofWutang","steam_id":76561198010246343,"connected_time":5000000000,"state":"spawning","ping":28},{"user_id":346,"name":"Billy Yank","steam_id":76561199059733640,"connected_time":4617000000000,"state":"active","ping":57},{"user_id":370,"name":"fortzei","steam_id":76561198210920541,"connected_time":3026000000000,"state":"active","ping":66},{"user_id":405,"name":"DOPEam1ne","steam_id":76561198112204774,"connected_time":115000000000,"state":"active","ping":59},{"user_id":322,"name":"Vintage TV","steam_id":76561198800334545,"connected_time":6132000000000,"state":"active","ping":43},{"user_id":376,"name":"lol","steam_id":76561198026491738,"connected_time":2868000000000,"state":"active","ping":59},{"user_id":404,"name":"amsung","steam_id":76561198205756163,"connected_time":151000000000,"state":"active","ping":47},{"user_id":393,"name":"jimmyfortnite2014","steam_id":76561198987713830,"connected_time":718000000000,"state":"active","ping":151},{"user_id":286,"name":"SanitysEdge","steam_id":76561198130732813,"connected_time":8913000000000,"state":"active","ping":49},{"user_id":382,"name":"Link_Starr","steam_id":76561198133884015,"connected_time":2096000000000,"state":"active","ping":60},{"user_id":399,"name":"squinzi","steam_id":76561198086520846,"connected_time":493000000000,"state":"active","ping":68},{"user_id":392,"name":"souljaboytellem.com","steam_id":76561198095824426,"connected_time":770000000000,"state":"active","ping":88}]},{"server_id":324,"name":"Uncletopia | Los Angeles | 3 | All Maps","name_short":"lax-3","host":"lax-1.us.uncletopia.com","port":27035,"enabled":true,"region":"us-west","cc":"us","latitude":33.94279,"longitude":-118.41004,"reserved":0,"last_update":"0001-01-01T00:00:00Z","name_a2s":"Uncletopia | Los Angeles | 3 | All Maps","protocol":17,"map":"pl_upward","folder":"tf","game":"Team Fortress","app_id":440,"player_count":24,"max_players":24,"Bots":0,"server_type":"Dedicated","server_os":"Linux","password":true,"vac":true,"version":"7757534","steam_id":85568392924510198,"keywords":["nocrits","nodmgspread","payload","uncletopia"],"game_id":440,"stv_port":27036,"stv_name":"Uncletopia | Los Angeles | 3 | All Maps | STV","players":[{"user_id":381,"name":"stinker","steam_id":76561198295640486,"connected_time":1015000000000,"state":"active","ping":45},{"user_id":389,"name":"putzarino","steam_id":76561198021525430,"connected_time":489000000000,"state":"active","ping":80},{"user_id":322,"name":"Gundam Guy","steam_id":76561198178453993,"connected_time":5778000000000,"state":"active","ping":67},{"user_id":399,"name":"Death Bird","steam_id":76561198041329791,"connected_time":203000000000,"state":"active","ping":42},{"user_id":390,"name":"O_x","steam_id":76561198289696924,"connected_time":485000000000,"state":"active","ping":45},{"user_id":379,"name":"iphone 7 plus","steam_id":76561198335836405,"connected_time":1107000000000,"state":"active","ping":103},{"user_id":373,"name":"crunchy obama","steam_id":76561198044485217,"connected_time":1280000000000,"state":"active","ping":69},{"user_id":348,"name":"FurryPlague","steam_id":76561198824729615,"connected_time":3584000000000,"state":"active","ping":94},{"user_id":374,"name":"motherfucker 2.0","steam_id":76561198141189209,"connected_time":1239000000000,"state":"active","ping":73},{"user_id":392,"name":"The Assistant Regional Manager","steam_id":76561199221484936,"connected_time":429000000000,"state":"active","ping":66},{"user_id":339,"name":"Mystic man of potatoe","steam_id":76561198027267207,"connected_time":4518000000000,"state":"active","ping":56},{"user_id":349,"name":"Bong Water","steam_id":76561198320044243,"connected_time":3576000000000,"state":"active","ping":95},{"user_id":393,"name":"sameways","steam_id":76561198120982884,"connected_time":425000000000,"state":"active","ping":61},{"user_id":385,"name":"Abobo","steam_id":76561198161817421,"connected_time":614000000000,"state":"active","ping":69},{"user_id":402,"name":"Soozy420","steam_id":76561198809074422,"connected_time":39000000000,"state":"active","ping":49},{"user_id":401,"name":"봇치 더 아카이브","steam_id":76561198453203619,"connected_time":102000000000,"state":"active","ping":45},{"user_id":384,"name":"J O S H³²","steam_id":76561198122603779,"connected_time":707000000000,"state":"active","ping":114},{"user_id":369,"name":"kaede :3","steam_id":76561198345528370,"connected_time":1555000000000,"state":"active","ping":57},{"user_id":360,"name":"Looking For Therapist","steam_id":76561198234965408,"connected_time":2405000000000,"state":"active","ping":108},{"user_id":386,"name":"robot with human hair","steam_id":76561198018691308,"connected_time":606000000000,"state":"active","ping":133},{"user_id":397,"name":"riSygneD","steam_id":76561198331618687,"connected_time":283000000000,"state":"active","ping":33},{"user_id":361,"name":"Camohno","steam_id":76561198283519918,"connected_time":2377000000000,"state":"active","ping":73},{"user_id":398,"name":"Thequirka","steam_id":76561198968058652,"connected_time":260000000000,"state":"active","ping":78},{"user_id":363,"name":"returnofpussypoppinhondacivic","steam_id":76561198307012859,"connected_time":2311000000000,"state":"active","ping":121}]},{"server_id":25,"name":"Uncletopia | Los Angeles | 4 | Stopwatch Beta","name_short":"lax-4","host":"lax-1.us.uncletopia.com","port":27045,"enabled":true,"region":"us-west","cc":"us","latitude":33.94279,"longitude":-118.41004,"reserved":0,"last_update":"0001-01-01T00:00:00Z","name_a2s":"Uncletopia | Los Angeles | 4 | Stopwatch Beta","protocol":17,"map":"pl_swiftwater_final1","folder":"tf","game":"Team Fortress","app_id":440,"player_count":0,"max_players":24,"Bots":0,"server_type":"Dedicated","server_os":"Linux","password":true,"vac":true,"version":"7757534","steam_id":85568392924510199,"keywords":["nocrits","nodmgspread","payload","uncletopia"],"game_id":440,"stv_port":27046,"stv_name":"Uncletopia | Los Angeles | 4 | Stopwatch Beta | STV","players":null},{"server_id":11,"name":"Uncletopia | London | 1 | All Maps","name_short":"lon-1","host":"lon-1.uk.uncletopia.com","port":27015,"enabled":true,"region":"eu","cc":"gb","latitude":51.509865,"longitude":-0.118092,"reserved":0,"last_update":"0001-01-01T00:00:00Z","name_a2s":"Uncletopia | London | 1 | All Maps","protocol":17,"map":"pl_frontier_final","folder":"tf","game":"Team Fortress","app_id":440,"player_count":24,"max_players":24,"Bots":0,"server_type":"Dedicated","server_os":"Linux","password":true,"vac":true,"version":"7757534","steam_id":85568392924367362,"keywords":["nocrits","nodmgspread","payload","uncletopia"],"game_id":440,"stv_port":27016,"stv_name":"Uncletopia | London | 1 | All Maps | STV","players":[{"user_id":82,"name":"Mr.B","steam_id":76561199204478925,"connected_time":818000000000,"state":"active","ping":110},{"user_id":70,"name":"Flint","steam_id":76561197995920776,"connected_time":1846000000000,"state":"active","ping":47},{"user_id":69,"name":"FUKTARD2005","steam_id":76561198839121591,"connected_time":1899000000000,"state":"active","ping":62},{"user_id":46,"name":"sriracha..","steam_id":76561198005560221,"connected_time":4105000000000,"state":"active","ping":111},{"user_id":71,"name":"ja","steam_id":76561199228540618,"connected_time":1817000000000,"state":"active","ping":89},{"user_id":37,"name":"Rage spell","steam_id":76561198279952779,"connected_time":4482000000000,"state":"active","ping":141},{"user_id":91,"name":"Gabe","steam_id":76561197994239444,"connected_time":262000000000,"state":"active","ping":108},{"user_id":83,"name":"moro","steam_id":76561198084174868,"connected_time":817000000000,"state":"active","ping":66},{"user_id":39,"name":"minn","steam_id":76561198099101232,"connected_time":4443000000000,"state":"active","ping":50},{"user_id":40,"name":"Shynii","steam_id":76561198194682105,"connected_time":4392000000000,"state":"active","ping":55},{"user_id":41,"name":"челкарь против ш\ufffd","steam_id":76561199149307190,"connected_time":4348000000000,"state":"active","ping":80},{"user_id":75,"name":"B.batt","steam_id":76561198998684199,"connected_time":1312000000000,"state":"active","ping":132},{"user_id":88,"name":"Drdarlekzzz","steam_id":76561198160141785,"connected_time":563000000000,"state":"active","ping":44},{"user_id":55,"name":"Egor Pomidor","steam_id":76561199175688390,"connected_time":2946000000000,"state":"active","ping":87},{"user_id":72,"name":"Arti","steam_id":76561197983352845,"connected_time":1750000000000,"state":"active","ping":45},{"user_id":84,"name":"Mamut Rahal","steam_id":76561198157830174,"connected_time":793000000000,"state":"active","ping":112},{"user_id":56,"name":"Vitamin Weee","steam_id":76561199183937747,"connected_time":2936000000000,"state":"active","ping":87},{"user_id":74,"name":"None","steam_id":76561199388730984,"connected_time":1516000000000,"state":"active","ping":136},{"user_id":92,"name":"smackaroni and grease","steam_id":76561198074807915,"connected_time":99000000000,"state":"active","ping":83},{"user_id":89,"name":"Gucio [CSC]","steam_id":76561198797330806,"connected_time":531000000000,"state":"active","ping":86},{"user_id":90,"name":"Pinochet","steam_id":76561198194042394,"connected_time":465000000000,"state":"active","ping":156},{"user_id":81,"name":"Dungeon Keeper","steam_id":76561199475507686,"connected_time":1042000000000,"state":"active","ping":146},{"user_id":85,"name":"Oxer","steam_id":76561198055942412,"connected_time":704000000000,"state":"active","ping":83},{"user_id":86,"name":"kallerannar","steam_id":76561199095701143,"connected_time":699000000000,"state":"active","ping":83}]},{"server_id":114,"name":"Uncletopia | London | 2 | All Maps","name_short":"lon-2","host":"lon-1.uk.uncletopia.com","port":27025,"enabled":true,"region":"eu","cc":"gb","latitude":51.509865,"longitude":-0.118092,"reserved":0,"last_update":"0001-01-01T00:00:00Z","name_a2s":"Uncletopia | London | 2 | All Maps","protocol":17,"map":"koth_viaduct","folder":"tf","game":"Team Fortress","app_id":440,"player_count":0,"max_players":24,"Bots":0,"server_type":"Dedicated","server_os":"Linux","password":true,"vac":true,"version":"7757534","steam_id":85568392924470941,"keywords":["cp","nocrits","nodmgspread","uncletopia"],"game_id":440,"stv_port":27026,"stv_name":"Uncletopia | London | 2 | All Maps | STV","players":null},{"server_id":320,"name":"Uncletopia | London | 3 | All Maps","name_short":"lon-3","host":"lon-1.uk.uncletopia.com","port":27035,"enabled":true,"region":"eu","cc":"gb","latitude":51.509865,"longitude":-0.118092,"reserved":0,"last_update":"0001-01-01T00:00:00Z","name_a2s":"Uncletopia | London | 3 | All Maps","protocol":17,"map":"cp_dustbowl","folder":"tf","game":"Team Fortress","app_id":440,"player_count":0,"max_players":24,"Bots":0,"server_type":"Dedicated","server_os":"Linux","password":true,"vac":true,"version":"7757534","steam_id":85568392924510192,"keywords":["cp","nocrits","nodmgspread","uncletopia"],"game_id":440,"stv_port":27036,"stv_name":"Uncletopia | London | 3 | All Maps | STV","players":null},{"server_id":321,"name":"Uncletopia | London | 4 | All Maps","name_short":"lon-4","host":"lon-1.uk.uncletopia.com","port":27045,"enabled":true,"region":"eu","cc":"gb","latitude":51.509865,"longitude":-0.118092,"reserved":0,"last_update":"0001-01-01T00:00:00Z","name_a2s":"Uncletopia | London | 4 | All Maps","protocol":17,"map":"cp_dustbowl","folder":"tf","game":"Team Fortress","app_id":440,"player_count":0,"max_players":24,"Bots":0,"server_type":"Dedicated","server_os":"Linux","password":true,"vac":true,"version":"7757534","steam_id":85568392924510193,"keywords":["cp","nocrits","nodmgspread","uncletopia"],"game_id":440,"stv_port":27046,"stv_name":"Uncletopia | London | 4 | All Maps | STV","players":null},{"server_id":21,"name":"Uncletopia | London | 5 | All Maps","name_short":"lon-5","host":"lon-1.uk.uncletopia.com","port":27055,"enabled":true,"region":"eu","cc":"gb","latitude":51.509865,"longitude":-0.118092,"reserved":0,"last_update":"0001-01-01T00:00:00Z","name_a2s":"Uncletopia | London | 5 | All Maps","protocol":17,"map":"cp_altitude","folder":"tf","game":"Team Fortress","app_id":440,"player_count":0,"max_players":24,"Bots":0,"server_type":"Dedicated","server_os":"Linux","password":true,"vac":true,"version":"7757534","steam_id":85568392924742829,"keywords":["cp","nocrits","nodmgspread","uncletopia"],"game_id":440,"stv_port":27056,"stv_name":"Uncletopia | London | 5 | All Maps | STV","players":null},{"server_id":22,"name":"Uncletopia | London | 6 | All Maps","name_short":"lon-6","host":"lon-1.uk.uncletopia.com","port":27065,"enabled":true,"region":"eu","cc":"gb","latitude":51.509865,"longitude":-0.118092,"reserved":0,"last_update":"0001-01-01T00:00:00Z","name_a2s":"Uncletopia | London | 6 | All Maps","protocol":17,"map":"cp_mountainlab","folder":"tf","game":"Team Fortress","app_id":440,"player_count":0,"max_players":24,"Bots":0,"server_type":"Dedicated","server_os":"Linux","password":true,"vac":true,"version":"7757534","steam_id":85568392924742830,"keywords":["cp","nocrits","nodmgspread","uncletopia"],"game_id":440,"stv_port":27066,"stv_name":"Uncletopia | London | 6 | All Maps | STV","players":null},{"server_id":40,"name":"Uncletopia | London | 7 | No Payload","name_short":"lon-7","host":"lon-1.uk.uncletopia.com","port":27075,"enabled":true,"region":"eu","cc":"gb","latitude":51.509865,"longitude":-0.118092,"reserved":0,"last_update":"0001-01-01T00:00:00Z","name_a2s":"Uncletopia | London | 7 | No Payload","protocol":17,"map":"pl_badwater","folder":"tf","game":"Team Fortress","app_id":440,"player_count":0,"max_players":24,"Bots":0,"server_type":"Dedicated","server_os":"Linux","password":true,"vac":true,"version":"7757534","steam_id":85568392924964314,"keywords":["nocrits","nodmgspread","payload","uncletopia"],"game_id":440,"stv_port":27076,"stv_name":"Uncletopia | London | 7 | No Payload | STV","players":null},{"server_id":41,"name":"Uncletopia | London | 8 | Community","name_short":"lon-8","host":"lon-1.uk.uncletopia.com","port":27085,"enabled":true,"region":"eu","cc":"gb","latitude":51.509865,"longitude":-0.118092,"reserved":0,"last_update":"0001-01-01T00:00:00Z","name_a2s":"Uncletopia | London | 8 | Community","protocol":17,"map":"pl_barnblitz","folder":"tf","game":"Team Fortress","app_id":440,"player_count":0,"max_players":24,"Bots":0,"server_type":"Dedicated","server_os":"Linux","password":true,"vac":true,"version":"7757534","steam_id":85568392924964315,"keywords":["nocrits","nodmgspread","payload","uncletopia"],"game_id":440,"stv_port":27086,"stv_name":"Uncletopia | London | 8 | Community | STV","players":null},{"server_id":300,"name":"Uncletopia | Montréal | 1 | All Maps","name_short":"mtl-1","host":"mtl-1.ca.uncletopia.com","port":27015,"enabled":true,"region":"us-east","cc":"ca","latitude":45.50889,"longitude":-73.56167,"reserved":0,"last_update":"0001-01-01T00:00:00Z","name_a2s":"Uncletopia | Montréal | 1 | All Maps","protocol":17,"map":"koth_viaduct","folder":"tf","game":"Team Fortress","app_id":440,"player_count":0,"max_players":24,"Bots":0,"server_type":"Dedicated","server_os":"Linux","password":true,"vac":true,"version":"7757534","steam_id":85568392924500087,"keywords":["cp","nocrits","nodmgspread","uncletopia"],"game_id":440,"stv_port":27016,"stv_name":"Uncletopia | Montréal | 1 | All Maps | STV","players":null},{"server_id":301,"name":"Uncletopia | Montréal | 2 | All Maps","name_short":"mtl-2","host":"mtl-1.ca.uncletopia.com","port":27025,"enabled":true,"region":"us-east","cc":"ca","latitude":45.50889,"longitude":-73.56167,"reserved":0,"last_update":"0001-01-01T00:00:00Z","name_a2s":"Uncletopia | Montréal | 2 | All Maps","protocol":17,"map":"koth_lakeside_final","folder":"tf","game":"Team Fortress","app_id":440,"player_count":0,"max_players":24,"Bots":0,"server_type":"Dedicated","server_os":"Linux","password":true,"vac":true,"version":"7757534","steam_id":85568392924500088,"keywords":["cp","nocrits","nodmgspread","uncletopia"],"game_id":440,"stv_port":27026,"stv_name":"Uncletopia | Montréal | 2 | All Maps | STV","players":null},{"server_id":302,"name":"Uncletopia | Montréal | 3 | All Maps","name_short":"mtl-3","host":"mtl-1.ca.uncletopia.com","port":27035,"enabled":true,"region":"us-east","cc":"ca","latitude":45.50889,"longitude":-73.56167,"reserved":0,"last_update":"0001-01-01T00:00:00Z","name_a2s":"Uncletopia | Montréal | 3 | All Maps","protocol":17,"map":"pl_barnblitz","folder":"tf","game":"Team Fortress","app_id":440,"player_count":4,"max_players":24,"Bots":0,"server_type":"Dedicated","server_os":"Linux","password":true,"vac":true,"version":"7757534","steam_id":85568392924500089,"keywords":["nocrits","nodmgspread","payload","uncletopia"],"game_id":440,"stv_port":27036,"stv_name":"Uncletopia | Montréal | 3 | All Maps | STV","players":[{"user_id":61,"name":"Tuzakci","steam_id":76561198438587196,"connected_time":7119000000000,"state":"active","ping":81},{"user_id":62,"name":"thebigannoyance","steam_id":76561198851604387,"connected_time":7116000000000,"state":"active","ping":66},{"user_id":63,"name":"kriglar","steam_id":76561198346652267,"connected_time":7056000000000,"state":"active","ping":71},{"user_id":66,"name":"dtjauch","steam_id":76561198152364093,"connected_time":6821000000000,"state":"active","ping":71}]},{"server_id":303,"name":"Uncletopia | Montréal | 4 | No Payload","name_short":"mtl-4","host":"mtl-1.ca.uncletopia.com","port":27045,"enabled":true,"region":"us-east","cc":"ca","latitude":45.50889,"longitude":-73.56167,"reserved":0,"last_update":"0001-01-01T00:00:00Z","name_a2s":"Uncletopia | Montréal | 4 | No Payload","protocol":17,"map":"cp_mercenarypark","folder":"tf","game":"Team Fortress","app_id":440,"player_count":0,"max_players":24,"Bots":0,"server_type":"Dedicated","server_os":"Linux","password":true,"vac":true,"version":"7757534","steam_id":85568392924500090,"keywords":["cp","nocrits","nodmgspread","uncletopia"],"game_id":440,"stv_port":27046,"stv_name":"Uncletopia | Montréal | 4 | No Payload | STV","players":null},{"server_id":13,"name":"Uncletopia | New York City | 1 | All Maps","name_short":"nyc-1","host":"nyc-1.us.uncletopia.com","port":27015,"enabled":true,"region":"us-east","cc":"us","latitude":40.73061,"longitude":-73.93524,"reserved":0,"last_update":"0001-01-01T00:00:00Z","name_a2s":"Uncletopia | New York City | 1 | All Maps","protocol":17,"map":"cp_sunshine","folder":"tf","game":"Team Fortress","app_id":440,"player_count":0,"max_players":24,"Bots":0,"server_type":"Dedicated","server_os":"Linux","password":true,"vac":true,"version":"7757534","steam_id":85568392924469993,"keywords":["cp","nocrits","nodmgspread","uncletopia"],"game_id":440,"stv_port":27016,"stv_name":"Uncletopia | New York City | 1 | All Maps | STV","players":null},{"server_id":14,"name":"Uncletopia | New York City | 2 | All Maps","name_short":"nyc-2","host":"nyc-1.us.uncletopia.com","port":27025,"enabled":true,"region":"us-east","cc":"us","latitude":40.73061,"longitude":-73.93524,"reserved":0,"last_update":"0001-01-01T00:00:00Z","name_a2s":"Uncletopia | New York City | 2 | All Maps","protocol":17,"map":"pl_barnblitz","folder":"tf","game":"Team Fortress","app_id":440,"player_count":11,"max_players":24,"Bots":0,"server_type":"Dedicated","server_os":"Linux","password":true,"vac":true,"version":"7757534","steam_id":85568392924469994,"keywords":["nocrits","nodmgspread","payload","uncletopia"],"game_id":440,"stv_port":27026,"stv_name":"Uncletopia | New York City | 2 | All Maps | STV","players":[{"user_id":1077,"name":"Corrin","steam_id":76561199480535845,"connected_time":396000000000,"state":"active","ping":39},{"user_id":991,"name":"Inferno Shadowclaw","steam_id":76561198044505696,"connected_time":7591000000000,"state":"active","ping":122},{"user_id":1071,"name":"DufsterYT","steam_id":76561199122486848,"connected_time":1254000000000,"state":"active","ping":52},{"user_id":1047,"name":"Braamklauw","steam_id":76561198283287697,"connected_time":3292000000000,"state":"active","ping":143},{"user_id":1078,"name":"Hate of War","steam_id":76561199178358956,"connected_time":384000000000,"state":"active","ping":124},{"user_id":1079,"name":"JTP7x","steam_id":76561198836467731,"connected_time":225000000000,"state":"active","ping":73},{"user_id":1058,"name":"kenoTetra","steam_id":76561197995247977,"connected_time":2461000000000,"state":"active","ping":109},{"user_id":1075,"name":"Emperor_Bloodbane","steam_id":76561198013537261,"connected_time":663000000000,"state":"active","ping":114},{"user_id":989,"name":"Vapor","steam_id":76561198185606142,"connected_time":7655000000000,"state":"active","ping":53},{"user_id":1051,"name":"Pozyomka","steam_id":76561198086331015,"connected_time":3064000000000,"state":"active","ping":30},{"user_id":1054,"name":"Xpiredd","steam_id":76561198449525437,"connected_time":2659000000000,"state":"active","ping":53}]},{"server_id":15,"name":"Uncletopia | New York City | 3 | Stopwatch Beta","name_short":"nyc-3","host":"nyc-1.us.uncletopia.com","port":27035,"enabled":true,"region":"us-east","cc":"us","latitude":40.73061,"longitude":-73.93524,"reserved":0,"last_update":"0001-01-01T00:00:00Z","name_a2s":"Uncletopia | New York City | 3 | Stopwatch Beta","protocol":17,"map":"pl_upward","folder":"tf","game":"Team Fortress","app_id":440,"player_count":0,"max_players":24,"Bots":0,"server_type":"Dedicated","server_os":"Linux","password":true,"vac":true,"version":"7757534","steam_id":85568392924742820,"keywords":["nocrits","nodmgspread","payload","uncletopia"],"game_id":440,"stv_port":27036,"stv_name":"Uncletopia | New York City | 3 | Stopwatch Beta | STV","players":null},{"server_id":16,"name":"Uncletopia | New York City | 4 | Community","name_short":"nyc-4","host":"nyc-1.us.uncletopia.com","port":27045,"enabled":true,"region":"us-east","cc":"us","latitude":40.73061,"longitude":-73.93524,"reserved":0,"last_update":"0001-01-01T00:00:00Z","name_a2s":"Uncletopia | New York City | 4 | Community","protocol":17,"map":"workshop/cp_fulgur_rc2a.ugc2068252300","folder":"tf","game":"Team Fortress","app_id":440,"player_count":0,"max_players":24,"Bots":0,"server_type":"Dedicated","server_os":"Linux","password":true,"vac":true,"version":"7757534","steam_id":85568392924742821,"keywords":["cp","nocrits","nodmgspread","uncletopia"],"game_id":440,"stv_port":27046,"stv_name":"Uncletopia | New York City | 4 | Community | STV","players":null},{"server_id":142,"name":"Uncletopia | São Paulo | 1 | All Maps","name_short":"sao-1","host":"sao-1.br.uncletopia.com","port":27015,"enabled":true,"region":"sa","cc":"br","latitude":-23.533773,"longitude":-46.62529,"reserved":0,"last_update":"0001-01-01T00:00:00Z","name_a2s":"Uncletopia | São Paulo | 1 | All Maps","protocol":17,"map":"pl_borneo","folder":"tf","game":"Team Fortress","app_id":440,"player_count":0,"max_players":24,"Bots":0,"server_type":"Dedicated","server_os":"Linux","password":true,"vac":true,"version":"7757534","steam_id":85568392924469996,"keywords":["nocrits","nodmgspread","payload","uncletopia"],"game_id":440,"stv_port":27016,"stv_name":"Uncletopia | São Paulo | 1 | All Maps | STV","players":null},{"server_id":143,"name":"Uncletopia | São Paulo | 2 | All Maps","name_short":"sao-2","host":"sao-2.br.uncletopia.com","port":27015,"enabled":true,"region":"sa","cc":"br","latitude":-23.533773,"longitude":-46.62529,"reserved":0,"last_update":"0001-01-01T00:00:00Z","name_a2s":"Uncletopia | São Paulo | 2 | All Maps","protocol":17,"map":"koth_viaduct","folder":"tf","game":"Team Fortress","app_id":440,"player_count":0,"max_players":24,"Bots":0,"server_type":"Dedicated","server_os":"Linux","password":true,"vac":true,"version":"7757534","steam_id":85568392924485349,"keywords":["cp","nocrits","nodmgspread","uncletopia"],"game_id":440,"stv_port":27016,"stv_name":"Uncletopia | São Paulo | 2 | All Maps | STV","players":null},{"server_id":7,"name":"Uncletopia | Seattle | 1 | All Maps","name_short":"sea-1","host":"sea-1.us.uncletopia.com","port":27015,"enabled":true,"region":"us-west","cc":"us","latitude":47.608013,"longitude":-122.33517,"reserved":0,"last_update":"0001-01-01T00:00:00Z","name_a2s":"Uncletopia | Seattle | 1 | All Maps","protocol":17,"map":"cp_steel","folder":"tf","game":"Team Fortress","app_id":440,"player_count":24,"max_players":24,"Bots":0,"server_type":"Dedicated","server_os":"Linux","password":true,"vac":true,"version":"7757534","steam_id":85568392924469997,"keywords":["cp","nocrits","nodmgspread","uncletopia"],"game_id":440,"stv_port":27016,"stv_name":"Uncletopia | Seattle | 1 | All Maps | STV","players":[{"user_id":645,"name":"SIGMA [BS]","steam_id":76561197962604879,"connected_time":351000000000,"state":"active","ping":122},{"user_id":626,"name":"Octo","steam_id":76561198024056355,"connected_time":1488000000000,"state":"active","ping":75},{"user_id":629,"name":"rivulet","steam_id":76561198165825391,"connected_time":1341000000000,"state":"active","ping":73},{"user_id":646,"name":"Bed Buge","steam_id":76561198276310307,"connected_time":31000000000,"state":"active","ping":82},{"user_id":515,"name":"lili ezili","steam_id":76561199391478575,"connected_time":10474000000000,"state":"active","ping":69},{"user_id":605,"name":"squats!","steam_id":76561198314221897,"connected_time":2065000000000,"state":"active","ping":73},{"user_id":598,"name":"Inflight","steam_id":76561198920049475,"connected_time":2488000000000,"state":"active","ping":115},{"user_id":644,"name":"8 raw papers","steam_id":76561198424248616,"connected_time":429000000000,"state":"active","ping":106},{"user_id":631,"name":"PeptoBismol","steam_id":76561198082669076,"connected_time":1268000000000,"state":"active","ping":88},{"user_id":627,"name":"Oneetama","steam_id":76561198052917390,"connected_time":1446000000000,"state":"active","ping":142},{"user_id":609,"name":"green cupcake","steam_id":76561198114030795,"connected_time":1965000000000,"state":"active","ping":70},{"user_id":619,"name":"shrimp","steam_id":76561197981374406,"connected_time":1659000000000,"state":"active","ping":57},{"user_id":635,"name":"Dealer","steam_id":76561198801450794,"connected_time":1115000000000,"state":"active","ping":99},{"user_id":599,"name":"Closed.","steam_id":76561198212598967,"connected_time":2460000000000,"state":"active","ping":82},{"user_id":595,"name":"The Edumacator","steam_id":76561198347157125,"connected_time":2719000000000,"state":"active","ping":72},{"user_id":602,"name":"GKumo","steam_id":76561198023175868,"connected_time":2296000000000,"state":"active","ping":67},{"user_id":638,"name":"hart","steam_id":76561198046073848,"connected_time":972000000000,"state":"active","ping":47},{"user_id":624,"name":"SearingGustav #tG","steam_id":76561198040560786,"connected_time":1537000000000,"state":"active","ping":64},{"user_id":586,"name":"doopsies","steam_id":76561198083000867,"connected_time":3858000000000,"state":"active","ping":54},{"user_id":640,"name":"Coinclever","steam_id":76561198099972692,"connected_time":888000000000,"state":"active","ping":105},{"user_id":625,"name":"nipplezits","steam_id":76561198138409507,"connected_time":1533000000000,"state":"active","ping":104},{"user_id":603,"name":"gorlab","steam_id":76561198025089694,"connected_time":2254000000000,"state":"active","ping":73},{"user_id":641,"name":"Sentient Trash Can","steam_id":76561199438622491,"connected_time":877000000000,"state":"active","ping":56},{"user_id":580,"name":"alaska","steam_id":76561198017030029,"connected_time":4296000000000,"state":"active","ping":67}]},{"server_id":119,"name":"Uncletopia | Seattle | 2 | All Maps","name_short":"sea-2","host":"sea-1.us.uncletopia.com","port":27025,"enabled":true,"region":"us-west","cc":"us","latitude":47.608013,"longitude":-122.33517,"reserved":0,"last_update":"0001-01-01T00:00:00Z","name_a2s":"Uncletopia | Seattle | 2 | All Maps","protocol":17,"map":"cp_mountainlab","folder":"tf","game":"Team Fortress","app_id":440,"player_count":24,"max_players":24,"Bots":0,"server_type":"Dedicated","server_os":"Linux","password":true,"vac":true,"version":"7757534","steam_id":85568392924469998,"keywords":["cp","nocrits","nodmgspread","uncletopia"],"game_id":440,"stv_port":27026,"stv_name":"Uncletopia | Seattle | 2 | All Maps | STV","players":[{"user_id":841,"name":"Vagrant","steam_id":76561198242536886,"connected_time":970000000000,"state":"active","ping":82},{"user_id":827,"name":"tender mike","steam_id":76561198058821622,"connected_time":1860000000000,"state":"active","ping":98},{"user_id":846,"name":"Thrifty","steam_id":76561198372664592,"connected_time":504000000000,"state":"active","ping":48},{"user_id":838,"name":"Trans Anime Rizz Gaming","steam_id":76561198257541502,"connected_time":1127000000000,"state":"active","ping":57},{"user_id":850,"name":"Matte :)","steam_id":76561198070631073,"connected_time":478000000000,"state":"active","ping":69},{"user_id":821,"name":"Bread","steam_id":76561198320293423,"connected_time":1973000000000,"state":"active","ping":54},{"user_id":754,"name":"MisterManne","steam_id":76561198106598600,"connected_time":8220000000000,"state":"active","ping":57},{"user_id":852,"name":"seats","steam_id":76561197998756039,"connected_time":222000000000,"state":"active","ping":72},{"user_id":819,"name":"Karl Wheezer","steam_id":76561198848722936,"connected_time":2316000000000,"state":"active","ping":54},{"user_id":837,"name":"KellyKapoor","steam_id":76561198040828123,"connected_time":1147000000000,"state":"active","ping":48},{"user_id":804,"name":"forest","steam_id":76561198157960257,"connected_time":3297000000000,"state":"active","ping":46},{"user_id":798,"name":"HetchHetchy","steam_id":76561198128125728,"connected_time":4067000000000,"state":"active","ping":72},{"user_id":803,"name":"Maho","steam_id":76561199076491805,"connected_time":3302000000000,"state":"active","ping":190},{"user_id":843,"name":"charley","steam_id":76561198828238339,"connected_time":582000000000,"state":"active","ping":83},{"user_id":830,"name":"Spaceman","steam_id":76561198349305249,"connected_time":1753000000000,"state":"active","ping":65},{"user_id":844,"name":"Skabbety","steam_id":76561198168044257,"connected_time":554000000000,"state":"active","ping":37},{"user_id":845,"name":"Bingleton","steam_id":76561197998930473,"connected_time":536000000000,"state":"active","ping":42},{"user_id":820,"name":"exephur","steam_id":76561198135763234,"connected_time":2225000000000,"state":"active","ping":60},{"user_id":840,"name":"Grill Skills","steam_id":76561198053575147,"connected_time":1123000000000,"state":"active","ping":67},{"user_id":836,"name":"DoubleTee","steam_id":76561198018980347,"connected_time":1430000000000,"state":"active","ping":134},{"user_id":775,"name":"wmjledger","steam_id":76561198443046861,"connected_time":5971000000000,"state":"active","ping":62},{"user_id":808,"name":"Engie Buddy©","steam_id":76561199026911063,"connected_time":3156000000000,"state":"active","ping":56},{"user_id":831,"name":"0CD.nøbu","steam_id":76561198100614981,"connected_time":1714000000000,"state":"active","ping":54},{"user_id":826,"name":"InfernoFlower64","steam_id":76561198181097391,"connected_time":1904000000000,"state":"active","ping":124}]},{"server_id":406,"name":"Uncletopia | Seattle | 3 | Stopwatch Beta","name_short":"sea-3","host":"sea-1.us.uncletopia.com","port":27035,"enabled":true,"region":"us-west","cc":"us","latitude":47.608013,"longitude":-122.33517,"reserved":0,"last_update":"0001-01-01T00:00:00Z","name_a2s":"Uncletopia | Seattle | 3 | Stopwatch Beta","protocol":17,"map":"workshop/pl_summercoast_rc8e.ugc1761528829","folder":"tf","game":"Team Fortress","app_id":440,"player_count":0,"max_players":24,"Bots":0,"server_type":"Dedicated","server_os":"Linux","password":true,"vac":true,"version":"7757534","steam_id":85568392924515217,"keywords":["nocrits","nodmgspread","payload","uncletopia"],"game_id":440,"stv_port":27036,"stv_name":"Uncletopia | Seattle | 3 | Stopwatch Beta | STV","players":null},{"server_id":17,"name":"Uncletopia | San Francisco | 1 | All Maps","name_short":"sfo-1","host":"sfo-1.us.uncletopia.com","port":27015,"enabled":true,"region":"us-west","cc":"us","latitude":37.77397,"longitude":-122.4313,"reserved":0,"last_update":"0001-01-01T00:00:00Z","name_a2s":"Uncletopia | San Francisco | 1 | All Maps","protocol":17,"map":"cp_dustbowl","folder":"tf","game":"Team Fortress","app_id":440,"player_count":23,"max_players":24,"Bots":0,"server_type":"Dedicated","server_os":"Linux","password":true,"vac":true,"version":"7757534","steam_id":85568392924469999,"keywords":["cp","nocrits","nodmgspread","uncletopia"],"game_id":440,"stv_port":27016,"stv_name":"Uncletopia | San Francisco | 1 | All Maps | STV","players":[{"user_id":618,"name":"ed","steam_id":76561198080475712,"connected_time":1249000000000,"state":"active","ping":48},{"user_id":598,"name":"Ian","steam_id":76561198159334435,"connected_time":3492000000000,"state":"active","ping":167},{"user_id":633,"name":"Princeofwales","steam_id":76561198027021225,"connected_time":41000000000,"state":"active","ping":105},{"user_id":546,"name":"squash","steam_id":76561198150281353,"connected_time":6951000000000,"state":"active","ping":74},{"user_id":621,"name":"rorywashere /ᐠ - ˕ -マ Ⳋ","steam_id":76561198065825165,"connected_time":753000000000,"state":"active","ping":126},{"user_id":609,"name":"Sweese","steam_id":76561198863456987,"connected_time":2001000000000,"state":"active","ping":70},{"user_id":567,"name":"Frank (#ripJimmyCarter)","steam_id":76561198126681511,"connected_time":5507000000000,"state":"active","ping":59},{"user_id":595,"name":"t","steam_id":76561198175988929,"connected_time":3852000000000,"state":"active","ping":69},{"user_id":568,"name":"the stallion","steam_id":76561198212242403,"connected_time":5501000000000,"state":"active","ping":45},{"user_id":576,"name":"Seal","steam_id":76561198043985619,"connected_time":4948000000000,"state":"active","ping":120},{"user_id":607,"name":"p9 delight","steam_id":76561197980280272,"connected_time":2991000000000,"state":"active","ping":61},{"user_id":579,"name":"Constipated Barry","steam_id":76561198004482269,"connected_time":4854000000000,"state":"active","ping":46},{"user_id":622,"name":"Sg Lily fan","steam_id":76561198169755734,"connected_time":734000000000,"state":"active","ping":45},{"user_id":631,"name":"\u003cBLAH\u003e","steam_id":76561198094826838,"connected_time":109000000000,"state":"active","ping":125},{"user_id":570,"name":"bengy","steam_id":76561198264288798,"connected_time":5491000000000,"state":"active","ping":62},{"user_id":620,"name":"Can You Feel It Mr.Krabs","steam_id":76561198128302414,"connected_time":852000000000,"state":"active","ping":63},{"user_id":627,"name":"Cheff cook","steam_id":76561198451203268,"connected_time":445000000000,"state":"active","ping":53},{"user_id":628,"name":"jimmy carter pack loud asf","steam_id":76561198131166135,"connected_time":388000000000,"state":"active","ping":56},{"user_id":603,"name":"airbudenjoyer2012","steam_id":76561198150428763,"connected_time":3253000000000,"state":"active","ping":61},{"user_id":630,"name":"Amadeus","steam_id":76561198160047173,"connected_time":204000000000,"state":"active","ping":59},{"user_id":587,"name":"cheeeezball","steam_id":76561198086461519,"connected_time":4144000000000,"state":"active","ping":51},{"user_id":634,"name":"dust | she/it","steam_id":76561198045218909,"connected_time":38000000000,"state":"active","ping":60},{"user_id":590,"name":"p9 jorts","steam_id":76561199041179985,"connected_time":4113000000000,"state":"active","ping":84}]},{"server_id":18,"name":"Uncletopia | San Francisco | 2 | All Maps","name_short":"sfo-2","host":"sfo-1.us.uncletopia.com","port":27025,"enabled":true,"region":"us-west","cc":"us","latitude":37.77397,"longitude":-122.4313,"reserved":0,"last_update":"0001-01-01T00:00:00Z","name_a2s":"Uncletopia | San Francisco | 2 | All Maps","protocol":17,"map":"koth_highpass","folder":"tf","game":"Team Fortress","app_id":440,"player_count":5,"max_players":24,"Bots":0,"server_type":"Dedicated","server_os":"Linux","password":true,"vac":true,"version":"7757534","steam_id":85568392924470000,"keywords":["cp","nocrits","nodmgspread","uncletopia"],"game_id":440,"stv_port":27026,"stv_name":"Uncletopia | San Francisco | 2 | All Maps | STV","players":[{"user_id":587,"name":"Ediot","steam_id":76561199349494096,"connected_time":1323000000000,"state":"active","ping":131},{"user_id":588,"name":"ChuChu","steam_id":76561199443647976,"connected_time":1302000000000,"state":"active","ping":114},{"user_id":590,"name":"cofferhead","steam_id":76561199191108449,"connected_time":824000000000,"state":"active","ping":68},{"user_id":592,"name":"CrackedSanity","steam_id":76561198279841251,"connected_time":482000000000,"state":"active","ping":50},{"user_id":593,"name":"Killer_Byte_","steam_id":76561198153259922,"connected_time":6000000000,"state":"spawning","ping":42}]},{"server_id":19,"name":"Uncletopia | San Francisco | 3 | Stopwatch Beta","name_short":"sfo-3","host":"sfo-1.us.uncletopia.com","port":27035,"enabled":true,"region":"us-west","cc":"us","latitude":37.77397,"longitude":-122.4313,"reserved":0,"last_update":"0001-01-01T00:00:00Z","name_a2s":"Uncletopia | San Francisco | 3 | Stopwatch Beta","protocol":17,"map":"koth_highpass","folder":"tf","game":"Team Fortress","app_id":440,"player_count":2,"max_players":24,"Bots":0,"server_type":"Dedicated","server_os":"Linux","password":true,"vac":true,"version":"7757534","steam_id":85568392924742824,"keywords":["cp","nocrits","nodmgspread","uncletopia"],"game_id":440,"stv_port":27036,"stv_name":"Uncletopia | San Francisco | 3 | Stopwatch Beta | STV","players":[{"user_id":18,"name":"awakaxis","steam_id":76561198359812673,"connected_time":251000000000,"state":"active","ping":62},{"user_id":19,"name":"shy","steam_id":76561198182346011,"connected_time":172000000000,"state":"active","ping":85}]},{"server_id":20,"name":"Uncletopia | San Francisco | 4 | Community","name_short":"sfo-4","host":"sfo-1.us.uncletopia.com","port":27045,"enabled":true,"region":"us-west","cc":"us","latitude":37.77397,"longitude":-122.4313,"reserved":0,"last_update":"0001-01-01T00:00:00Z","name_a2s":"Uncletopia | San Francisco | 4 | Community","protocol":17,"map":"workshop/cp_hazyfort_rc6.ugc1365963729","folder":"tf","game":"Team Fortress","app_id":440,"player_count":2,"max_players":24,"Bots":0,"server_type":"Dedicated","server_os":"Linux","password":true,"vac":true,"version":"7757534","steam_id":85568392924742826,"keywords":["cp","nocrits","nodmgspread","uncletopia"],"game_id":440,"stv_port":27046,"stv_name":"Uncletopia | San Francisco | 4 | Community | STV","players":[{"user_id":393,"name":"awning","steam_id":76561198202285760,"connected_time":1394000000000,"state":"active","ping":68},{"user_id":394,"name":"tracy","steam_id":76561198319677284,"connected_time":1323000000000,"state":"active","ping":38}]},{"server_id":141,"name":"Uncletopia | Sydney | 1 | All Maps","name_short":"syd-1","host":"syd-1.au.uncletopia.com","port":27015,"enabled":true,"region":"au","cc":"au","latitude":-33.865143,"longitude":151.2099,"reserved":0,"last_update":"0001-01-01T00:00:00Z","name_a2s":"Uncletopia | Sydney | 1 | All Maps","protocol":17,"map":"pl_barnblitz","folder":"tf","game":"Team Fortress","app_id":440,"player_count":13,"max_players":24,"Bots":0,"server_type":"Dedicated","server_os":"Linux","password":true,"vac":true,"version":"7757534","steam_id":85568392924470001,"keywords":["nocrits","nodmgspread","payload","uncletopia"],"game_id":440,"stv_port":27016,"stv_name":"Uncletopia | Sydney | 1 | All Maps | STV","players":[{"user_id":78,"name":"Dimond_bird","steam_id":76561199129051643,"connected_time":2105000000000,"state":"active","ping":55},{"user_id":80,"name":"Zzep_","steam_id":76561198059402662,"connected_time":2053000000000,"state":"active","ping":61},{"user_id":110,"name":"average nothing enjoyer","steam_id":76561198302936089,"connected_time":144000000000,"state":"active","ping":113},{"user_id":65,"name":"Worst Sniper","steam_id":76561198025733081,"connected_time":2708000000000,"state":"active","ping":80},{"user_id":66,"name":"Mr Mahal","steam_id":76561198123234137,"connected_time":2664000000000,"state":"active","ping":57},{"user_id":106,"name":"Sparky","steam_id":76561198117687688,"connected_time":597000000000,"state":"active","ping":62},{"user_id":94,"name":"thepixel","steam_id":76561198155396809,"connected_time":1418000000000,"state":"active","ping":50},{"user_id":71,"name":"KeeperOfBalance","steam_id":76561198028070089,"connected_time":2410000000000,"state":"active","ping":86},{"user_id":73,"name":"zero.bitches.1999","steam_id":76561198241303512,"connected_time":2303000000000,"state":"active","ping":49},{"user_id":76,"name":"tom :D","steam_id":76561198073393715,"connected_time":2213000000000,"state":"active","ping":90},{"user_id":95,"name":"amps","steam_id":76561198060894632,"connected_time":1402000000000,"state":"active","ping":71},{"user_id":84,"name":"søren","steam_id":76561199126710327,"connected_time":1915000000000,"state":"active","ping":55},{"user_id":108,"name":"michael","steam_id":76561198052848358,"connected_time":530000000000,"state":"active","ping":56}]},{"server_id":123,"name":"Uncletopia | Sydney | 2 | All Maps","name_short":"syd-2","host":"syd-1.au.uncletopia.com","port":27025,"enabled":true,"region":"au","cc":"au","latitude":-33.865143,"longitude":151.2099,"reserved":0,"last_update":"0001-01-01T00:00:00Z","name_a2s":"Uncletopia | Sydney | 2 | All Maps","protocol":17,"map":"koth_cascade","folder":"tf","game":"Team Fortress","app_id":440,"player_count":5,"max_players":24,"Bots":0,"server_type":"Dedicated","server_os":"Linux","password":true,"vac":true,"version":"7757534","steam_id":85568392924470002,"keywords":["cp","nocrits","nodmgspread","uncletopia"],"game_id":440,"stv_port":27026,"stv_name":"Uncletopia | Sydney | 2 | All Maps | STV","players":[{"user_id":13,"name":"Nin","steam_id":76561198084813558,"connected_time":2087000000000,"state":"active","ping":256},{"user_id":14,"name":"Monkey","steam_id":76561198046311471,"connected_time":2059000000000,"state":"active","ping":56},{"user_id":18,"name":"TSTM","steam_id":76561198031870836,"connected_time":1329000000000,"state":"active","ping":62},{"user_id":20,"name":"BadmanTing","steam_id":76561198011496098,"connected_time":1042000000000,"state":"active","ping":47},{"user_id":21,"name":"Atner","steam_id":76561198442934454,"connected_time":953000000000,"state":"active","ping":89}]},{"server_id":395,"name":"Uncletopia | Sydney | 3 | All Maps","name_short":"syd-3","host":"syd-1.au.uncletopia.com","port":27035,"enabled":true,"region":"au","cc":"au","latitude":-33.865143,"longitude":151.2099,"reserved":0,"last_update":"0001-01-01T00:00:00Z","name_a2s":"Uncletopia | Sydney | 3 | All Maps","protocol":17,"map":"cp_mountainlab","folder":"tf","game":"Team Fortress","app_id":440,"player_count":20,"max_players":24,"Bots":0,"server_type":"Dedicated","server_os":"Linux","password":true,"vac":true,"version":"7757534","steam_id":85568392925194467,"keywords":["cp","nocrits","nodmgspread","uncletopia"],"game_id":440,"stv_port":27036,"stv_name":"Uncletopia | Sydney | 3 | All Maps | STV","players":[{"user_id":198,"name":"CrazyGlobe","steam_id":76561198992451299,"connected_time":434000000000,"state":"active","ping":49},{"user_id":156,"name":"Morgenstein","steam_id":76561198253080474,"connected_time":3798000000000,"state":"active","ping":62},{"user_id":186,"name":"Zoey","steam_id":76561198126153554,"connected_time":1339000000000,"state":"active","ping":80},{"user_id":125,"name":"Rashid Of The Dank Memes","steam_id":76561198281398078,"connected_time":5041000000000,"state":"active","ping":56},{"user_id":200,"name":"Madallar","steam_id":76561198379635302,"connected_time":265000000000,"state":"active","ping":75},{"user_id":188,"name":"DeathEagle シ","steam_id":76561197997644542,"connected_time":1251000000000,"state":"active","ping":46},{"user_id":203,"name":"Livid","steam_id":76561198060024585,"connected_time":71000000000,"state":"active","ping":209},{"user_id":75,"name":"Jodelkönig Franzl Lang","steam_id":76561198007667830,"connected_time":8734000000000,"state":"active","ping":45},{"user_id":85,"name":"LightningBlock","steam_id":76561198289997742,"connected_time":7874000000000,"state":"active","ping":42},{"user_id":189,"name":"stamm","steam_id":76561198041993019,"connected_time":1054000000000,"state":"active","ping":61},{"user_id":196,"name":"Spooderman","steam_id":76561199407073234,"connected_time":514000000000,"state":"active","ping":60},{"user_id":194,"name":"perturb","steam_id":76561198085124297,"connected_time":854000000000,"state":"active","ping":53},{"user_id":197,"name":"Barry","steam_id":76561198994478643,"connected_time":468000000000,"state":"active","ping":75},{"user_id":192,"name":"KiwiJiwi","steam_id":76561198262081410,"connected_time":1044000000000,"state":"active","ping":68},{"user_id":174,"name":"the frail","steam_id":76561198025099660,"connected_time":2232000000000,"state":"active","ping":32},{"user_id":180,"name":"there was me, what is alex","steam_id":76561199057568663,"connected_time":2004000000000,"state":"active","ping":60},{"user_id":182,"name":"AmethystDragon10","steam_id":76561198412979983,"connected_time":1789000000000,"state":"active","ping":82},{"user_id":143,"name":"Rosemary","steam_id":76561198996803743,"connected_time":4264000000000,"state":"active","ping":65},{"user_id":199,"name":"lasngngna","steam_id":76561198025246698,"connected_time":373000000000,"state":"active","ping":54},{"user_id":161,"name":"you have been deemed, Gilbert","steam_id":76561198301282416,"connected_time":3665000000000,"state":"active","ping":57}]},{"server_id":396,"name":"Uncletopia | Sydney | 4 | All Maps","name_short":"syd-4","host":"syd-1.au.uncletopia.com","port":27045,"enabled":true,"region":"au","cc":"au","latitude":-33.865143,"longitude":151.2099,"reserved":0,"last_update":"0001-01-01T00:00:00Z","name_a2s":"Uncletopia | Sydney | 4 | All Maps","protocol":17,"map":"koth_highpass","folder":"tf","game":"Team Fortress","app_id":440,"player_count":0,"max_players":24,"Bots":0,"server_type":"Dedicated","server_os":"Linux","password":true,"vac":true,"version":"7757534","steam_id":85568392925397958,"keywords":["cp","nocrits","nodmgspread","uncletopia"],"game_id":440,"stv_port":27046,"stv_name":"Uncletopia | Sydney | 4 | All Maps | STV","players":null},{"server_id":58,"name":"Uncletopia | Sydney | 5 | Stopwatch Beta","name_short":"syd-5","host":"syd-1.au.uncletopia.com","port":27055,"enabled":true,"region":"au","cc":"au","latitude":-33.865143,"longitude":151.2099,"reserved":0,"last_update":"0001-01-01T00:00:00Z","name_a2s":"Uncletopia | Sydney | 5 | Stopwatch Beta","protocol":17,"map":"pl_upward","folder":"tf","game":"Team Fortress","app_id":440,"player_count":0,"max_players":24,"Bots":0,"server_type":"Dedicated","server_os":"Linux","password":true,"vac":true,"version":"7757534","steam_id":85568392925397959,"keywords":["nocrits","nodmgspread","payload","uncletopia"],"game_id":440,"stv_port":27056,"stv_name":"Uncletopia | Sydney | 5 | Stopwatch Beta | STV","players":null},{"server_id":59,"name":"Uncletopia | Sydney | 6 | Community","name_short":"syd-6","host":"syd-1.au.uncletopia.com","port":27065,"enabled":true,"region":"au","cc":"au","latitude":-33.865143,"longitude":151.2099,"reserved":0,"last_update":"0001-01-01T00:00:00Z","name_a2s":"Uncletopia | Sydney | 6 | Community","protocol":17,"map":"workshop/koth_ashville_final.ugc2130459942","folder":"tf","game":"Team Fortress","app_id":440,"player_count":0,"max_players":24,"Bots":0,"server_type":"Dedicated","server_os":"Linux","password":true,"vac":true,"version":"7757534","steam_id":85568392925397960,"keywords":["cp","nocrits","nodmgspread","uncletopia"],"game_id":440,"stv_port":27066,"stv_name":"Uncletopia | Sydney | 6 | Community | STV","players":null},{"server_id":49,"name":"Uncletopia | Warsaw | 1 | All Maps","name_short":"waw-1","host":"waw-1.pl.uncletopia.com","port":27015,"enabled":true,"region":"eu","cc":"pl","latitude":52.2297,"longitude":21.017532,"reserved":0,"last_update":"0001-01-01T00:00:00Z","name_a2s":"","protocol":0,"map":"","folder":"","game":"","app_id":0,"player_count":0,"max_players":0,"Bots":0,"server_type":"","server_os":"","password":false,"vac":false,"version":"","steam_id":0,"keywords":null,"game_id":0,"stv_port":0,"stv_name":"","players":null},{"server_id":50,"name":"Uncletopia | Warsaw | 2 | All Maps","name_short":"waw-2","host":"waw-1.pl.uncletopia.com","port":27025,"enabled":true,"region":"eu","cc":"pl","latitude":52.2297,"longitude":21.017532,"reserved":0,"last_update":"0001-01-01T00:00:00Z","name_a2s":"Uncletopia | Warsaw | 2 | All Maps","protocol":17,"map":"koth_viaduct","folder":"tf","game":"Team Fortress","app_id":440,"player_count":0,"max_players":24,"Bots":0,"server_type":"Dedicated","server_os":"Linux","password":true,"vac":true,"version":"7757534","steam_id":85568392925397851,"keywords":["cp","nocrits","nodmgspread","uncletopia"],"game_id":440,"stv_port":27026,"stv_name":"Uncletopia | Warsaw | 2 | All Maps | STV","players":null},{"server_id":51,"name":"Uncletopia | Warsaw | 3 | All Maps","name_short":"waw-3","host":"waw-1.pl.uncletopia.com","port":27035,"enabled":true,"region":"eu","cc":"pl","latitude":52.2297,"longitude":21.017532,"reserved":0,"last_update":"0001-01-01T00:00:00Z","name_a2s":"Uncletopia | Warsaw | 3 | All Maps","protocol":17,"map":"pl_badwater","folder":"tf","game":"Team Fortress","app_id":440,"player_count":0,"max_players":24,"Bots":0,"server_type":"Dedicated","server_os":"Linux","password":true,"vac":true,"version":"7757534","steam_id":85568392925397852,"keywords":["nocrits","nodmgspread","payload","uncletopia"],"game_id":440,"stv_port":27036,"stv_name":"Uncletopia | Warsaw | 3 | All Maps | STV","players":null},{"server_id":52,"name":"Uncletopia | Warsaw | 4 | All Maps","name_short":"waw-4","host":"waw-1.pl.uncletopia.com","port":27045,"enabled":true,"region":"eu","cc":"pl","latitude":52.2297,"longitude":21.017532,"reserved":0,"last_update":"0001-01-01T00:00:00Z","name_a2s":"Uncletopia | Warsaw | 4 | All Maps","protocol":17,"map":"koth_lakeside_final","folder":"tf","game":"Team Fortress","app_id":440,"player_count":0,"max_players":24,"Bots":0,"server_type":"Dedicated","server_os":"Linux","password":true,"vac":true,"version":"7757534","steam_id":85568392925397853,"keywords":["cp","nocrits","nodmgspread","uncletopia"],"game_id":440,"stv_port":27046,"stv_name":"Uncletopia | Warsaw | 4 | All Maps | STV","players":null},{"server_id":53,"name":"Uncletopia | Warsaw | 5 | Stopwatch Beta","name_short":"waw-5","host":"waw-1.pl.uncletopia.com","port":27055,"enabled":true,"region":"eu","cc":"pl","latitude":52.2297,"longitude":21.017532,"reserved":0,"last_update":"0001-01-01T00:00:00Z","name_a2s":"Uncletopia | Warsaw | 5 | Stopwatch Beta","protocol":17,"map":"pl_borneo","folder":"tf","game":"Team Fortress","app_id":440,"player_count":0,"max_players":24,"Bots":0,"server_type":"Dedicated","server_os":"Linux","password":true,"vac":true,"version":"7757534","steam_id":85568392925397854,"keywords":["nocrits","nodmgspread","payload","uncletopia"],"game_id":440,"stv_port":27056,"stv_name":"Uncletopia | Warsaw | 5 | Stopwatch Beta | STV","players":null},{"server_id":54,"name":"Uncletopia | Warsaw | 6 | Community","name_short":"waw-6","host":"waw-1.pl.uncletopia.com","port":27065,"enabled":true,"region":"eu","cc":"pl","latitude":52.2297,"longitude":21.017532,"reserved":0,"last_update":"0001-01-01T00:00:00Z","name_a2s":"Uncletopia | Warsaw | 6 | Community","protocol":17,"map":"koth_lakeside_final","folder":"tf","game":"Team Fortress","app_id":440,"player_count":0,"max_players":24,"Bots":0,"server_type":"Dedicated","server_os":"Linux","password":true,"vac":true,"version":"7757534","steam_id":85568392925397856,"keywords":["cp","nocrits","nodmgspread","uncletopia"],"game_id":440,"stv_port":27066,"stv_name":"Uncletopia | Warsaw | 6 | Community | STV","players":null}]}