{"status":true,"message":"","result":[{"server_id":9,"name":"Uncletopia | Atlanta | 1 | All Maps","name_short":"atl-1","host":"atl-1.us.uncletopia.com","port":27015,"enabled":true,"region":"us-east","cc":"us","latitude":33.753746,"longitude":-84.38633,"reserved":0,"last_update":"0001-01-01T00:00:00Z","name_a2s":"Uncletopia | Atlanta | 1 | All Maps","protocol":17,"map":"pl_barnblitz","folder":"tf","game":"Team Fortress","app_id":440,"player_count":24,"max_players":24,"Bots":0,"server_type":"Dedicated","server_os":"Linux","password":true,"vac":true,"version":"7742253","steam_id":85568392924469982,"keywords":["nocrits","nodmgspread","payload","uncletopia"],"game_id":440,"stv_port":27016,"stv_name":"Uncletopia | Atlanta | 1 | All Maps | STV","players":[{"user_id":586,"name":"skaj","steam_id":76561198082278586,"connected_time":17000000000,"state":"active","ping":74},{"user_id":550,"name":"Michael Scarn","steam_id":76561198035740143,"connected_time":2254000000000,"state":"active","ping":43},{"user_id":569,"name":"Mimic_E","steam_id":76561199141505964,"connected_time":861000000000,"state":"active","ping":69},{"user_id":552,"name":"Alt","steam_id":76561197992591984,"connected_time":1686000000000,"state":"active","ping":90},{"user_id":572,"name":"stink","steam_id":76561198099318923,"connected_time":662000000000,"state":"active","ping":74},{"user_id":577,"name":"craf","steam_id":76561198163535075,"connected_time":139000000000,"state":"active","ping":74},{"user_id":537,"name":"pab","steam_id":76561198156915999,"connected_time":3797000000000,"state":"active","ping":56},{"user_id":519,"name":"Luucyf3r","steam_id":76561198141820085,"connected_time":4465000000000,"state":"active","ping":61},{"user_id":573,"name":"papa","steam_id":76561198109308860,"connected_time":487000000000,"state":"active","ping":60},{"user_id":565,"name":"Bort","steam_id":76561198048992198,"connected_time":1213000000000,"state":"active","ping":49},{"user_id":579,"name":"Goku","steam_id":76561198064143198,"connected_time":101000000000,"state":"active","ping":76},{"user_id":580,"name":"Va1lentine","steam_id":76561198216281649,"connected_time":97000000000,"state":"active","ping":81},{"user_id":583,"name":"SwooWoop","steam_id":76561199244312225,"connected_time":73000000000,"state":"active","ping":111},{"user_id":582,"name":"belieber2011","steam_id":76561198998340318,"connected_time":81000000000,"state":"active","ping":160},{"user_id":530,"name":"Major7th","steam_id":76561199000847414,"connected_time":4033000000000,"state":"active","ping":69},{"user_id":553,"name":"Carbon8ed","steam_id":76561198188488341,"connected_time":1677000000000,"state":"active","ping":77},{"user_id":584,"name":"fluttershy","steam_id":76561198152938797,"connected_time":68000000000,"state":"active","ping":80},{"user_id":563,"name":"El mono sucio","steam_id":76561198080054116,"connected_time":1257000000000,"state":"active","ping":77},{"user_id":551,"name":"Karate","steam_id":76561198352187445,"connected_time":1702000000000,"state":"active","ping":65},{"user_id":479,"name":"fritzzl","steam_id":76561199067153815,"connected_time":7786000000000,"state":"active","ping":90},{"user_id":491,"name":"Jojoker","steam_id":76561198049833406,"connected_time":7038000000000,"state":"active","ping":75},{"user_id":585,"name":"skipper","steam_id":76561198395965181,"connected_time":59000000000,"state":"active","ping":66},{"user_id":575,"name":"Intro Bonito","steam_id":76561198119478838,"connected_time":196000000000,"state":"active","ping":59},{"user_id":571,"name":"Copper","steam_id":76561198858209214,"connected_time":787000000000,"state":"active","ping":94}]},{"server_id":400,"name":"Uncletopia | Atlanta | 3 | Stopwatch Beta","name_short":"atl-3","host":"atl-1.us.uncletopia.com","port":27035,"enabled":true,"region":"us-east","cc":"us","latitude":33.753746,"longitude":-84.38633,"reserved":0,"last_update":"0001-01-01T00:00:00Z","name_a2s":"Uncletopia | Atlanta | 3 | Stopwatch Beta","protocol":17,"map":"pl_pier","folder":"tf","game":"Team Fortress","app_id":440,"player_count":0,"max_players":24,"Bots":0,"server_type":"Dedicated","server_os":"Linux","password":true,"vac":true,"version":"7742253","steam_id":85568392924515187,"keywords":["nocrits","nodmgspread","payload","uncletopia"],"game_id":440,"stv_port":27036,"stv_name":"Uncletopia | Atlanta | 3 | Stopwatch Beta | STV","players":null},{"server_id":401,"name":"Uncletopia | Atlanta | 4 | No Payload","name_short":"atl-4","host":"atl-1.us.uncletopia.com","port":27045,"enabled":true,"region":"us-east","cc":"us","latitude":33.753746,"longitude":-84.38633,"reserved":0,"last_update":"0001-01-01T00:00:00Z","name_a2s":"Uncletopia | Atlanta | 4 | No Payload","protocol":17,"map":"pl_pier","folder":"tf","game":"Team Fortress","app_id":440,"player_count":0,"max_players":24,"Bots":0,"server_type":"Dedicated","server_os":"Linux","password":true,"vac":true,"version":"7723704","steam_id":85568392924515188,"keywords":["nocrits","nodmgspread","payload","uncletopia"],"game_id":440,"stv_port":27046,"stv_name":"Uncletopia | Atlanta | 4 | No Payload | STV","players":null},{"server_id":2,"name":"Uncletopia | Chicago | 1 | All Maps","name_short":"chi-1","host":"chi-1.us.uncletopia.com","port":27015,"enabled":true,"region":"us-central","cc":"us","latitude":41.881832,"longitude":-87.62318,"reserved":0,"last_update":"0001-01-01T00:00:00Z","name_a2s":"Uncletopia | Chicago | 1 | All Maps","protocol":17,"map":"koth_lakeside_final","folder":"tf","game":"Team Fortress","app_id":440,"player_count":24,"max_players":24,"Bots":0,"server_type":"Dedicated","server_os":"Linux","password":true,"vac":true,"version":"7742253","steam_id":85568392924469984,"keywords":["cp","nocrits","nodmgspread","uncletopia"],"game_id":440,"stv_port":27016,"stv_name":"Uncletopia | Chicago | 1 | All Maps | STV","players":[{"user_id":472,"name":"CampinCarl","steam_id":76561197997373624,"connected_time":293000000000,"state":"active","ping":94},{"user_id":395,"name":"No Telefrag Plz","steam_id":76561198113931312,"connected_time":8501000000000,"state":"active","ping":66},{"user_id":478,"name":"FiveStryker","steam_id":76561198366172207,"connected_time":161000000000,"state":"active","ping":47},{"user_id":442,"name":"vdub63","steam_id":76561198093443689,"connected_time":3808000000000,"state":"active","ping":60},{"user_id":464,"name":"WalterMondale_84","steam_id":76561198979196151,"connected_time":1228000000000,"state":"active","ping":55},{"user_id":456,"name":"idontknow2018","steam_id":76561198886524996,"connected_time":2631000000000,"state":"active","ping":73},{"user_id":468,"name":"Infinitytacos","steam_id":76561198884260211,"connected_time":377000000000,"state":"active","ping":45},{"user_id":465,"name":"TeeTree","steam_id":76561198862307874,"connected_time":392000000000,"state":"active","ping":56},{"user_id":474,"name":"Bee_Pirate","steam_id":76561199000599111,"connected_time":247000000000,"state":"active","ping":71},{"user_id":462,"name":"Jelqing Table","steam_id":76561198051373750,"connected_time":1237000000000,"state":"active","ping":96},{"user_id":454,"name":"Twan (no vibes plz)","steam_id":76561197991064908,"connected_time":2805000000000,"state":"active","ping":60},{"user_id":467,"name":"deepmeta","steam_id":76561199053600691,"connected_time":384000000000,"state":"active","ping":49},{"user_id":455,"name":"BurnN8or101","steam_id":76561198132668224,"connected_time":2786000000000,"state":"active","ping":59},{"user_id":470,"name":"MrMangoHands","steam_id":76561198030975524,"connected_time":320000000000,"state":"active","ping":111},{"user_id":466,"name":"Rukks","steam_id":76561197993918954,"connected_time":392000000000,"state":"active","ping":60},{"user_id":461,"name":"flygonboy127","steam_id":76561199105773990,"connected_time":1643000000000,"state":"active","ping":60},{"user_id":471,"name":"B45Guy","steam_id":76561198117290531,"connected_time":301000000000,"state":"active","ping":60},{"user_id":459,"name":"Vibe‚Ñ¢","steam_id":76561198156083411,"connected_time":1722000000000,"state":"active","ping":61},{"user_id":453,"name":"TheToastingToaster","steam_id":76561198439391966,"connected_time":2819000000000,"state":"active","ping":60},{"user_id":473,"name":"BOT Bot","steam_id":76561197995225620,"connected_time":288000000000,"state":"active","ping":77},{"user_id":353,"name":"Red","steam_id":76561197998285162,"connected_time":13021000000000,"state":"active","ping":89},{"user_id":475,"name":"Pete's Feet Meat 'n Treats","steam_id":76561198014446593,"connected_time":246000000000,"state":"active","ping":91},{"user_id":476,"name":"eryn üó∫","steam_id":76561198004433070,"connected_time":238000000000,"state":"active","ping":82},{"user_id":477,"name":"rainingmudkips","steam_id":76561198018010854,"connected_time":227000000000,"state":"active","ping":62}]},{"server_id":106,"name":"Uncletopia | Chicago | 2 | All Maps","name_short":"chi-2","host":"chi-1.us.uncletopia.com","port":27025,"enabled":true,"region":"us-central","cc":"us","latitude":41.881832,"longitude":-87.62318,"reserved":0,"last_update":"0001-01-01T00:00:00Z","name_a2s":"Uncletopia | Chicago | 2 | All Maps","protocol":17,"map":"cp_process_final","folder":"tf","game":"Team Fortress","app_id":440,"player_count":24,"max_players":24,"Bots":0,"server_type":"Dedicated","server_os":"Linux","password":true,"vac":true,"version":"7742253","steam_id":85568392924469985,"keywords":["cp","nocrits","nodmgspread","uncletopia"],"game_id":440,"stv_port":27026,"stv_name":"Uncletopia | Chicago | 2 | All Maps | STV","players":[{"user_id":910,"name":"schmopp","steam_id":76561198076490954,"connected_time":1633000000000,"state":"active","ping":44},{"user_id":830,"name":"happy man!!! :D!!!!","steam_id":76561198128468316,"connected_time":4361000000000,"state":"active","ping":86},{"user_id":904,"name":"Inevitable","steam_id":76561198210050169,"connected_time":1976000000000,"state":"active","ping":66},{"user_id":831,"name":"Edi","steam_id":76561198283003299,"connected_time":4232000000000,"state":"active","ping":91},{"user_id":937,"name":"hoe cakes","steam_id":76561199007970657,"connected_time":152000000000,"state":"active","ping":75},{"user_id":916,"name":"Da2303","steam_id":76561199055103969,"connected_time":1423000000000,"state":"active","ping":71},{"user_id":934,"name":"av2ry","steam_id":76561198102081732,"connected_time":340000000000,"state":"active","ping":61},{"user_id":927,"name":"BuddyMocha","steam_id":76561198054654515,"connected_time":1150000000000,"state":"active","ping":49},{"user_id":935,"name":"Thog","steam_id":76561198093699060,"connected_time":336000000000,"state":"active","ping":66},{"user_id":917,"name":"SewerNinja","steam_id":76561198015268145,"connected_time":1417000000000,"state":"active","ping":82},{"user_id":807,"name":"Bad Medic Buddy","steam_id":76561198093222632,"connected_time":5814000000000,"state":"active","ping":86},{"user_id":936,"name":"HunterGathererTypeBeat","steam_id":76561198309751350,"connected_time":235000000000,"state":"active","ping":91},{"user_id":938,"name":"DJFunnyBone","steam_id":76561198892528359,"connected_time":130000000000,"state":"active","ping":30},{"user_id":928,"name":"nalezinik","steam_id":76561198030026119,"connected_time":1056000000000,"state":"active","ping":65},{"user_id":906,"name":"Pusieeeeeee!!!!!!!!!!!!!!!!!","steam_id":76561198083175190,"connected_time":1899000000000,"state":"active","ping":95},{"user_id":919,"name":"KirriLuv","steam_id":76561199152138301,"connected_time":1415000000000,"state":"active","ping":85},{"user_id":930,"name":"Koi","steam_id":76561198064411172,"connected_time":939000000000,"state":"active","ping":59},{"user_id":875,"name":"noclip","steam_id":76561198046205921,"connected_time":2718000000000,"state":"active","ping":80},{"user_id":847,"name":"Fever Dreams","steam_id":76561198116614620,"connected_time":3841000000000,"state":"active","ping":71},{"user_id":889,"name":"Trox","steam_id":76561198263581464,"connected_time":2437000000000,"state":"active","ping":79},{"user_id":920,"name":"Spekktre","steam_id":76561199089094169,"connected_time":1403000000000,"state":"active","ping":63},{"user_id":929,"name":"gwy","steam_id":76561198277458653,"connected_time":1054000000000,"state":"active","ping":83},{"user_id":931,"name":"CJspellsfish","steam_id":76561198277342368,"connected_time":532000000000,"state":"active","ping":73}]},{"server_id":402,"name":"Uncletopia | Chicago | 3 | All Maps","name_short":"chi-3","host":"chi-1.us.uncletopia.com","port":27035,"enabled":true,"region":"us-central","cc":"us","latitude":41.881832,"longitude":-87.62318,"reserved":0,"last_update":"0001-01-01T00:00:00Z","name_a2s":"Uncletopia | Chicago | 3 | All Maps","protocol":17,"map":"pl_upward","folder":"tf","game":"Team Fortress","app_id":440,"player_count":18,"max_players":24,"Bots":0,"server_type":"Dedicated","server_os":"Linux","password":true,"vac":true,"version":"7742253","steam_id":85568392924515191,"keywords":["nocrits","nodmgspread","payload","uncletopia"],"game_id":440,"stv_port":27036,"stv_name":"Uncletopia | Chicago | 3 | All Maps | STV","players":[{"user_id":707,"name":"lil bro","steam_id":76561198031675881,"connected_time":864000000000,"state":"connecting","ping":86},{"user_id":708,"name":"THICCBEEF GRANDPA","steam_id":76561197993550572,"connected_time":862000000000,"state":"connecting","ping":69},{"user_id":713,"name":"Whorse","steam_id":76561198114141445,"connected_time":815000000000,"state":"connecting","ping":68},{"user_id":709,"name":"crotuslovershanks","steam_id":76561199091300223,"connected_time":859000000000,"state":"connecting","ping":84},{"user_id":714,"name":"Fuegan Ra","steam_id":76561198287923849,"connected_time":791000000000,"state":"connecting","ping":66},{"user_id":637,"name":"Filthy Acts at Reasonable Price","steam_id":76561198354615890,"connected_time":6507000000000,"state":"connecting","ping":114},{"user_id":703,"name":"Cerberus","steam_id":76561198025970306,"connected_time":1984000000000,"state":"connecting","ping":84},{"user_id":711,"name":"$200 Shirt","steam_id":76561197977329534,"connected_time":854000000000,"state":"connecting","ping":68},{"user_id":716,"name":"Backside540","steam_id":76561197960602545,"connected_time":783000000000,"state":"connecting","ping":107},{"user_id":721,"name":"footoftheday","steam_id":76561198052712449,"connected_time":473000000000,"state":"connecting","ping":80},{"user_id":619,"name":"Silverio","steam_id":76561197999425381,"connected_time":7928000000000,"state":"connecting","ping":89},{"user_id":724,"name":"Flyingcat9000","steam_id":76561198179561797,"connected_time":75000000000,"state":"connecting","ping":104},{"user_id":697,"name":"Krellah","steam_id":76561198287045069,"connected_time":2404000000000,"state":"connecting","ping":78},{"user_id":722,"name":"Raven","steam_id":76561198393887732,"connected_time":238000000000,"state":"connecting","ping":86},{"user_id":723,"name":"scout main (derogatory)","steam_id":76561199117424896,"connected_time":170000000000,"state":"connecting","ping":59},{"user_id":675,"name":"Íú±·¥ã è·¥á","steam_id":76561198024477688,"connected_time":3979000000000,"state":"connecting","ping":94}]},{"server_id":403,"name":"Uncletopia | Chicago | 4 | All Maps","name_short":"chi-4","host":"chi-1.us.uncletopia.com","port":27045,"enabled":true,"region":"us-central","cc":"us","latitude":41.881832,"longitude":-87.62318,"reserved":0,"last_update":"0001-01-01T00:00:00Z","name_a2s":"Uncletopia | Chicago | 4 | All Maps","protocol":17,"map":"pl_upward","folder":"tf","game":"Team Fortress","app_id":440,"player_count":24,"max_players":24,"Bots":0,"server_type":"Dedicated","server_os":"Linux","password":true,"vac":true,"version":"7742253","steam_id":85568392924515193,"keywords":["nocrits","nodmgspread","payload","uncletopia"],"game_id":440,"stv_port":27046,"stv_name":"Uncletopia | Chicago | 4 | All Maps | STV","players":[{"user_id":522,"name":"BananaArm","steam_id":76561199087528350,"connected_time":1697000000000,"state":"active","ping":59},{"user_id":488,"name":"Cj Lightning","steam_id":76561198044265072,"connected_time":4969000000000,"state":"active","ping":62},{"user_id":534,"name":"rubb3r","steam_id":76561198096874230,"connected_time":1495000000000,"state":"active","ping":77},{"user_id":544,"name":"MR.meeseeks","steam_id":76561198294943420,"connected_time":805000000000,"state":"active","ping":70},{"user_id":540,"name":"soy jury","steam_id":76561198026664629,"connected_time":978000000000,"state":"active","ping":50},{"user_id":542,"name":"Joji - Tick Tock","steam_id":76561198418414338,"connected_time":930000000000,"state":"active","ping":77},{"user_id":468,"name":"Moshi Man","steam_id":76561198038249762,"connected_time":5986000000000,"state":"active","ping":46},{"user_id":482,"name":"tranquil","steam_id":76561198319990195,"connected_time":5426000000000,"state":"active","ping":76},{"user_id":537,"name":"ConPhlux","steam_id":76561198052969252,"connected_time":1275000000000,"state":"active","ping":72},{"user_id":521,"name":"DogWithaKolibri","steam_id":76561198194885365,"connected_time":1729000000000,"state":"active","ping":84},{"user_id":470,"name":"PAC-MATH","steam_id":76561198327729748,"connected_time":5977000000000,"state":"active","ping":55},{"user_id":497,"name":"penguinlord","steam_id":76561198305192692,"connected_time":3875000000000,"state":"active","ping":58},{"user_id":510,"name":"ShadBad","steam_id":76561198248287390,"connected_time":2636000000000,"state":"active","ping":104},{"user_id":518,"name":"redzach","steam_id":76561198444094359,"connected_time":2231000000000,"state":"active","ping":52},{"user_id":539,"name":"Voicebox‚Ñ¢","steam_id":76561198140396611,"connected_time":1063000000000,"state":"active","ping":91},{"user_id":543,"name":"Eggs","steam_id":76561198414356455,"connected_time":920000000000,"state":"active","ping":72},{"user_id":533,"name":"El Viejo Paulino","steam_id":76561198211944169,"connected_time":1508000000000,"state":"active","ping":92},{"user_id":502,"name":"GuyGoom","steam_id":76561198254522178,"connected_time":3801000000000,"state":"active","ping":59},{"user_id":545,"name":"Gigabars","steam_id":76561198119267479,"connected_time":772000000000,"state":"active","ping":60},{"user_id":503,"name":"the.land.of.avalon","steam_id":76561198245431668,"connected_time":3796000000000,"state":"active","ping":61},{"user_id":433,"name":"starfungus","steam_id":76561198158312789,"connected_time":9467000000000,"state":"active","ping":67},{"user_id":532,"name":"Brotalium","steam_id":76561198055439054,"connected_time":1537000000000,"state":"active","ping":80},{"user_id":516,"name":"Rollo","steam_id":76561198064812108,"connected_time":2521000000000,"state":"active","ping":112},{"user_id":517,"name":"Seanvich","steam_id":76561198065805500,"connected_time":2502000000000,"state":"active","ping":102}]},{"server_id":36,"name":"Uncletopia | Chicago | 5 | All Maps","name_short":"chi-5","host":"chi-2.us.uncletopia.com","port":27015,"enabled":true,"region":"us-central","cc":"us","latitude":41.881832,"longitude":-87.62318,"reserved":0,"last_update":"0001-01-01T00:00:00Z","name_a2s":"Uncletopia | Chicago | 5 | All Maps","protocol":17,"map":"pl_barnblitz","folder":"tf","game":"Team Fortress","app_id":440,"player_count":24,"max_players":24,"Bots":0,"server_type":"Dedicated","server_os":"Linux","password":true,"vac":true,"version":"7742253","steam_id":85568392924866362,"keywords":["nocrits","nodmgspread","payload","uncletopia"],"game_id":440,"stv_port":27016,"stv_name":"Uncletopia | Chicago | 5 | All Maps | STV","players":[{"user_id":707,"name":"psy","steam_id":76561198013195018,"connected_time":220000000000,"state":"active","ping":79},{"user_id":701,"name":"Epha","steam_id":76561198079379951,"connected_time":519000000000,"state":"active","ping":70},{"user_id":678,"name":"JellyParrot","steam_id":76561199190990163,"connected_time":3587000000000,"state":"active","ping":79},{"user_id":688,"name":"Doggy Girl Kikimora","steam_id":76561198097117564,"connected_time":2220000000000,"state":"active","ping":72},{"user_id":699,"name":"Temper","steam_id":76561198044123690,"connected_time":564000000000,"state":"active","ping":61},{"user_id":630,"name":"ShitsandGiggles‚Ñ¢","steam_id":76561198058708019,"connected_time":6255000000000,"state":"active","ping":57},{"user_id":684,"name":"Chuburn","steam_id":76561199078803862,"connected_time":2774000000000,"state":"active","ping":67},{"user_id":673,"name":"Jak","steam_id":76561197990363504,"connected_time":4105000000000,"state":"active","ping":75},{"user_id":679,"name":"sora","steam_id":76561198094256973,"connected_time":3564000000000,"state":"active","ping":146},{"user_id":687,"name":"Okar","steam_id":76561199274214624,"connected_time":2241000000000,"state":"active","ping":85},{"user_id":690,"name":"Mr.CannibalTaco","steam_id":76561198117288713,"connected_time":2201000000000,"state":"active","ping":96},{"user_id":700,"name":"Kdash","steam_id":76561198043829155,"connected_time":552000000000,"state":"active","ping":83},{"user_id":662,"name":"SHADOW (he/him)","steam_id":76561198207768148,"connected_time":4825000000000,"state":"active","ping":115},{"user_id":693,"name":"goon tf2","steam_id":76561198341806593,"connected_time":1673000000000,"state":"active","ping":74},{"user_id":683,"name":"rsfs","steam_id":76561198051928674,"connected_time":2972000000000,"state":"active","ping":56},{"user_id":663,"name":"Late-Night Dog Poker","steam_id":76561198091299589,"connected_time":4787000000000,"state":"active","ping":76},{"user_id":669,"name":"chunkysquare","steam_id":76561199076468383,"connected_time":4443000000000,"state":"active","ping":132},{"user_id":702,"name":"Lore","steam_id":76561198098407538,"connected_time":518000000000,"state":"active","ping":55},{"user_id":708,"name":"Carnamate","steam_id":76561198138077990,"connected_time":161000000000,"state":"active","ping":88},{"user_id":676,"name":"SuperJagops","steam_id":76561198034689716,"connected_time":3645000000000,"state":"active","ping":64},{"user_id":709,"name":"Bliss","steam_id":76561199238105890,"connected_time":145000000000,"state":"active","ping":130},{"user_id":672,"name":"NastyStarchy","steam_id":76561198291849732,"connected_time":4135000000000,"state":"active","ping":66},{"user_id":608,"name":"Insurance Frog","steam_id":76561198067556825,"connected_time":7797000000000,"state":"active","ping":73},{"user_id":696,"name":"I_made_cummy","steam_id":76561198086107548,"connected_time":1095000000000,"state":"active","ping":77}]},{"server_id":37,"name":"Uncletopia | Chicago | 6 | All Maps","name_short":"chi-6","host":"chi-2.us.uncletopia.com","port":27025,"enabled":true,"region":"us-central","cc":"us","latitude":41.881832,"longitude":-87.62318,"reserved":0,"last_update":"0001-01-01T00:00:00Z","name_a2s":"Uncletopia | Chicago | 6 | All Maps","protocol":17,"map":"pl_coal_event","folder":"tf","game":"Team Fortress","app_id":440,"player_count":22,"max_players":24,"Bots":0,"server_type":"Dedicated","server_os":"Linux","password":true,"vac":true,"version":"7742253","steam_id":85568392924866363,"keywords":["nocrits","nodmgspread","payload","uncletopia"],"game_id":440,"stv_port":27026,"stv_name":"Uncletopia | Chicago | 6 | All Maps | STV","players":[{"user_id":758,"name":"Rose","steam_id":76561198020936286,"connected_time":2164000000000,"state":"active","ping":97},{"user_id":786,"name":"lost in the sauce","steam_id":76561199043827112,"connected_time":785000000000,"state":"active","ping":55},{"user_id":745,"name":"bass97","steam_id":76561198849018884,"connected_time":3064000000000,"state":"active","ping":69},{"user_id":768,"name":"Scarlet","steam_id":76561197992361965,"connected_time":1670000000000,"state":"active","ping":82},{"user_id":788,"name":"ah piss I left the oven on agai","steam_id":76561198160569248,"connected_time":45000000000,"state":"active","ping":97},{"user_id":784,"name":"Kaizoku","steam_id":76561198123017274,"connected_time":1087000000000,"state":"active","ping":49},{"user_id":751,"name":"KevCraft","steam_id":76561199000622939,"connected_time":2911000000000,"state":"active","ping":67},{"user_id":753,"name":"Dealyo","steam_id":76561198282395338,"connected_time":2739000000000,"state":"active","ping":73},{"user_id":765,"name":"Dongarrian","steam_id":76561198078564422,"connected_time":1761000000000,"state":"active","ping":81},{"user_id":679,"name":"Femboy mouth user","steam_id":76561198085813708,"connected_time":8038000000000,"state":"active","ping":67},{"user_id":719,"name":"watchfull","steam_id":76561198433266742,"connected_time":4230000000000,"state":"active","ping":104},{"user_id":787,"name":"Devoid","steam_id":76561198254039012,"connected_time":72000000000,"state":"active","ping":72},{"user_id":676,"name":"best head giver 2013","steam_id":76561198812086921,"connected_time":8058000000000,"state":"active","ping":64},{"user_id":756,"name":"BingSoy","steam_id":76561199091381775,"connected_time":2362000000000,"state":"active","ping":103},{"user_id":748,"name":"capybara","steam_id":76561198798828328,"connected_time":3016000000000,"state":"active","ping":45},{"user_id":759,"name":"DiHMO","steam_id":76561198030130169,"connected_time":2157000000000,"state":"active","ping":45},{"user_id":760,"name":"sakn","steam_id":76561198081817461,"connected_time":2111000000000,"state":"active","ping":78},{"user_id":742,"name":"Professional Spectator","steam_id":76561198085888959,"connected_time":3173000000000,"state":"active","ping":57},{"user_id":735,"name":"30 Hours of Pain, All at once","steam_id":76561198057745131,"connected_time":3544000000000,"state":"active","ping":52},{"user_id":736,"name":"wherever i go","steam_id":76561198126575026,"connected_time":3507000000000,"state":"active","ping":60},{"user_id":761,"name":"totally not a pile of beans","steam_id":76561198119851931,"connected_time":2106000000000,"state":"active","ping":73},{"user_id":731,"name":"RipHunter77","steam_id":76561198272973014,"connected_time":3952000000000,"state":"active","ping":74}]},{"server_id":38,"name":"Uncletopia | Chicago | 7 | Stopwatch Beta","name_short":"chi-7","host":"chi-2.us.uncletopia.com","port":27035,"enabled":true,"region":"us-central","cc":"us","latitude":41.881832,"longitude":-87.62318,"reserved":0,"last_update":"0001-01-01T00:00:00Z","name_a2s":"Uncletopia | Chicago | 7 | Stopwatch Beta","protocol":17,"map":"workshop/koth_product_final.ugc454272353","folder":"tf","game":"Team Fortress","app_id":440,"player_count":0,"max_players":24,"Bots":0,"server_type":"Dedicated","server_os":"Linux","password":true,"vac":true,"version":"7742253","steam_id":85568392924866364,"keywords":["cp","nocrits","nodmgspread","uncletopia"],"game_id":440,"stv_port":27036,"stv_name":"Uncletopia | Chicago | 7 | Stopwatch Beta | STV","players":null},{"server_id":39,"name":"Uncletopia | Chicago | 8 | Community","name_short":"chi-8","host":"chi-2.us.uncletopia.com","port":27045,"enabled":true,"region":"us-central","cc":"us","latitude":41.881832,"longitude":-87.62318,"reserved":0,"last_update":"0001-01-01T00:00:00Z","name_a2s":"Uncletopia | Chicago | 8 | Community","protocol":17,"map":"workshop/koth_slaughter_rc1.ugc1712845210","folder":"tf","game":"Team Fortress","app_id":440,"player_count":24,"max_players":24,"Bots":0,"server_type":"Dedicated","server_os":"Linux","password":true,"vac":true,"version":"7742253","steam_id":85568392924866365,"keywords":["cp","nocrits","nodmgspread","uncletopia"],"game_id":440,"stv_port":27046,"stv_name":"Uncletopia | Chicago | 8 | Community | STV","players":[{"user_id":316,"name":"ME GUSTA BERSERK SOY GUTS!!!","steam_id":76561198039909187,"connected_time":1846000000000,"state":"active","ping":48},{"user_id":233,"name":"Nightfall","steam_id":76561198169718867,"connected_time":5883000000000,"state":"active","ping":117},{"user_id":338,"name":"[S]Mr. X [No Monitor]","steam_id":76561197963746035,"connected_time":436000000000,"state":"active","ping":156},{"user_id":326,"name":"Architect","steam_id":76561198015242016,"connected_time":1074000000000,"state":"active","ping":51},{"user_id":337,"name":"Jazz2T","steam_id":76561198154418867,"connected_time":665000000000,"state":"active","ping":105},{"user_id":339,"name":"‚àûKirboChirbo‚àû","steam_id":76561199067795538,"connected_time":381000000000,"state":"active","ping":59},{"user_id":320,"name":"derdds","steam_id":76561198034339940,"connected_time":1715000000000,"state":"active","ping":59},{"user_id":311,"name":"Harold","steam_id":76561198057317770,"connected_time":1967000000000,"state":"active","ping":88},{"user_id":330,"name":"dr peppah chug!","steam_id":76561198068835693,"connected_time":814000000000,"state":"active","ping":84},{"user_id":329,"name":"Gram Tokers Count Doinkula","steam_id":76561198112811565,"connected_time":926000000000,"state":"active","ping":75},{"user_id":280,"name":"Cam","steam_id":76561198023380573,"connected_time":3248000000000,"state":"active","ping":52},{"user_id":270,"name":"Xx_PR3TTY_R4VE_G!R1_xX","steam_id":76561199059016425,"connected_time":4200000000000,"state":"active","ping":59},{"user_id":340,"name":"rudy","steam_id":76561198088712799,"connected_time":375000000000,"state":"active","ping":65},{"user_id":333,"name":"‚úø eefii","steam_id":76561198406252824,"connected_time":716000000000,"state":"active","ping":97},{"user_id":334,"name":"moonage72","steam_id":76561199187008629,"connected_time":714000000000,"state":"active","ping":64},{"user_id":251,"name":"G‡∂ûMER","steam_id":76561198340389876,"connected_time":5308000000000,"state":"active","ping":120},{"user_id":342,"name":"SenzuLean","steam_id":76561199105814562,"connected_time":179000000000,"state":"active","ping":94},{"user_id":341,"name":"IWishIWasZaynMalik","steam_id":76561198107347516,"connected_time":350000000000,"state":"active","ping":84},{"user_id":263,"name":"defcon","steam_id":76561198100656328,"connected_time":4762000000000,"state":"active","ping":75},{"user_id":312,"name":"DAS SCHNITZELSTIEN","steam_id":76561198051137159,"connected_time":1958000000000,"state":"active","ping":96},{"user_id":325,"name":"Freewave","steam_id":76561198156282541,"connected_time":1173000000000,"state":"active","ping":50},{"user_id":299,"name":"KingEgamer_03","steam_id":76561199283258364,"connected_time":2713000000000,"state":"active","ping":55},{"user_id":336,"name":"Uppercut Enjoyer","steam_id":76561198097432114,"connected_time":706000000000,"state":"active","ping":70},{"user_id":344,"name":"Sous-Chef","steam_id":76561198075705827,"connected_time":21000000000,"state":"spawning","ping":183}]},{"server_id":8,"name":"Uncletopia | Dallas | 1 | All Maps","name_short":"dal-1","host":"dal-1.us.uncletopia.com","port":27015,"enabled":true,"region":"us-central","cc":"us","latitude":32.779167,"longitude":-96.80889,"reserved":0,"last_update":"0001-01-01T00:00:00Z","name_a2s":"Uncletopia | Dallas | 1 | All Maps","protocol":17,"map":"pl_upward","folder":"tf","game":"Team Fortress","app_id":440,"player_count":24,"max_players":24,"Bots":0,"server_type":"Dedicated","server_os":"Linux","password":true,"vac":true,"version":"7742253","steam_id":85568392924469986,"keywords":["nocrits","nodmgspread","payload","uncletopia"],"game_id":440,"stv_port":27016,"stv_name":"Uncletopia | Dallas | 1 | All Maps | STV","players":[{"user_id":478,"name":"coffee bagel","steam_id":76561198141198352,"connected_time":9431000000000,"state":"active","ping":69},{"user_id":550,"name":"basil","steam_id":76561198075758026,"connected_time":2820000000000,"state":"active","ping":92},{"user_id":572,"name":"BatJet","steam_id":76561198147738441,"connected_time":247000000000,"state":"active","ping":83},{"user_id":575,"name":"yvngbvshvvookie","steam_id":76561198054354674,"connected_time":21000000000,"state":"spawning","ping":135},{"user_id":535,"name":"Pi Guy","steam_id":76561199071784224,"connected_time":3738000000000,"state":"active","ping":92},{"user_id":573,"name":"Yukon Cornelius","steam_id":76561198261512781,"connected_time":225000000000,"state":"active","ping":71},{"user_id":563,"name":"GLG MUTT","steam_id":76561198147785541,"connected_time":825000000000,"state":"active","ping":51},{"user_id":574,"name":"MF JERM","steam_id":76561199082395493,"connected_time":44000000000,"state":"spawning","ping":47},{"user_id":556,"name":"‚ù§Graphite Muncher‚ù§","steam_id":76561199200969139,"connected_time":1986000000000,"state":"active","ping":114},{"user_id":567,"name":"jubattz","steam_id":76561198044874072,"connected_time":485000000000,"state":"active","ping":78},{"user_id":565,"name":"AlphaTwo3","steam_id":76561198034696854,"connected_time":628000000000,"state":"active","ping":76},{"user_id":545,"name":"Marc Antony","steam_id":76561198011366517,"connected_time":3242000000000,"state":"active","ping":75},{"user_id":480,"name":"little hog","steam_id":76561199230929836,"connected_time":9414000000000,"state":"active","ping":60},{"user_id":554,"name":"Bigfoot ate my ass","steam_id":76561198071605190,"connected_time":2545000000000,"state":"active","ping":64},{"user_id":484,"name":"$3.99 Shrimps","steam_id":76561198077272494,"connected_time":9299000000000,"state":"active","ping":61},{"user_id":561,"name":"chips","steam_id":76561198046650995,"connected_time":1697000000000,"state":"active","ping":54},{"user_id":551,"name":"WillieMakit","steam_id":76561197985391684,"connected_time":2742000000000,"state":"active","ping":72},{"user_id":568,"name":"Puggle","steam_id":76561198144864264,"connected_time":482000000000,"state":"active","ping":104},{"user_id":548,"name":"GarretGood","steam_id":76561198071881495,"connected_time":2859000000000,"state":"active","ping":72},{"user_id":524,"name":"Fermenting Kiwi","steam_id":76561198253303497,"connected_time":6362000000000,"state":"active","ping":70},{"user_id":544,"name":"spot","steam_id":76561198151135298,"connected_time":3399000000000,"state":"active","ping":68},{"user_id":559,"name":"Addy \u003c3","steam_id":76561198045819723,"connected_time":1963000000000,"state":"active","ping":106},{"user_id":497,"name":"Mr.Pan","steam_id":76561198069030613,"connected_time":7954000000000,"state":"active","ping":63},{"user_id":570,"name":"GLG.Liz","steam_id":76561198021957956,"connected_time":482000000000,"state":"active","ping":56}]},{"server_id":108,"name":"Uncletopia | Dallas | 2 | All Maps","name_short":"dal-2","host":"dal-1.us.uncletopia.com","port":27025,"enabled":true,"region":"us-central","cc":"us","latitude":32.779167,"longitude":-96.80889,"reserved":0,"last_update":"0001-01-01T00:00:00Z","name_a2s":"Uncletopia | Dallas | 2 | All Maps","protocol":17,"map":"pl_pier","folder":"tf","game":"Team Fortress","app_id":440,"player_count":24,"max_players":24,"Bots":0,"server_type":"Dedicated","server_os":"Linux","password":true,"vac":true,"version":"7742253","steam_id":85568392924469988,"keywords":["nocrits","nodmgspread","payload","uncletopia"],"game_id":440,"stv_port":27026,"stv_name":"Uncletopia | Dallas | 2 | All Maps | STV","players":[{"user_id":353,"name":"gugcat","steam_id":76561198129822860,"connected_time":3074000000000,"state":"active","ping":69},{"user_id":370,"name":"aurdog","steam_id":76561198129361808,"connected_time":2124000000000,"state":"active","ping":83},{"user_id":388,"name":"Chauckles","steam_id":76561197993151595,"connected_time":233000000000,"state":"active","ping":96},{"user_id":371,"name":"medic enthusiast","steam_id":76561198323031964,"connected_time":2098000000000,"state":"active","ping":90},{"user_id":386,"name":"TTamaki","steam_id":76561197993671200,"connected_time":589000000000,"state":"active","ping":75},{"user_id":385,"name":"wezeer","steam_id":76561198407577922,"connected_time":1004000000000,"state":"active","ping":87},{"user_id":389,"name":"Shwal","steam_id":76561198138840448,"connected_time":221000000000,"state":"active","ping":89},{"user_id":383,"name":"miner","steam_id":76561198073035221,"connected_time":1067000000000,"state":"active","ping":85},{"user_id":367,"name":"Drez47","steam_id":76561198380714058,"connected_time":2239000000000,"state":"active","ping":51},{"user_id":376,"name":"ansoonii","steam_id":76561198092494136,"connected_time":1979000000000,"state":"active","ping":45},{"user_id":381,"name":"Super‚Ñ¢ Classic Edition","steam_id":76561198171655735,"connected_time":1231000000000,"state":"active","ping":59},{"user_id":390,"name":"crumbles","steam_id":76561198168707036,"connected_time":194000000000,"state":"active","ping":83},{"user_id":378,"name":"[DATS‚û°] Sugar Meowth","steam_id":76561197995251793,"connected_time":1812000000000,"state":"active","ping":95},{"user_id":387,"name":"Charles","steam_id":76561198155322277,"connected_time":482000000000,"state":"active","ping":96},{"user_id":275,"name":"scruffer","steam_id":76561198044095460,"connected_time":9234000000000,"state":"active","ping":110},{"user_id":358,"name":"nnobi","steam_id":76561198878729277,"connected_time":2986000000000,"state":"active","ping":75},{"user_id":350,"name":"plink","steam_id":76561198057829889,"connected_time":3277000000000,"state":"active","ping":112},{"user_id":320,"name":"Doinnoid","steam_id":76561198262276139,"connected_time":6388000000000,"state":"active","ping":61},{"user_id":336,"name":"jeremy","steam_id":76561198081332766,"connected_time":4238000000000,"state":"active","ping":73},{"user_id":379,"name":"Geight","steam_id":76561197991645292,"connected_time":1719000000000,"state":"active","ping":109},{"user_id":391,"name":"hoboholden","steam_id":76561198799370303,"connected_time":190000000000,"state":"active","ping":93},{"user_id":392,"name":"minion from minions","steam_id":76561199001464827,"connected_time":119000000000,"state":"active","ping":65},{"user_id":380,"name":"Queen Frau the Round","steam_id":76561197999942134,"connected_time":1375000000000,"state":"active","ping":74},{"user_id":338,"name":"trooper","steam_id":76561198191364589,"connected_time":4186000000000,"state":"active","ping":74}]},{"server_id":5,"name":"Uncletopia | Frankfurt | 1 | All Maps","name_short":"frk-1","host":"frk-1.de.uncletopia.com","port":27015,"enabled":true,"region":"eu","cc":"de","latitude":50.110924,"longitude":8.682127,"reserved":0,"last_update":"0001-01-01T00:00:00Z","name_a2s":"Uncletopia | Frankfurt | 1 | All Maps","protocol":17,"map":"koth_cascade","folder":"tf","game":"Team Fortress","app_id":440,"player_count":0,"max_players":24,"Bots":0,"server_type":"Dedicated","server_os":"Linux","password":true,"vac":true,"version":"7742253","steam_id":85568392924469989,"keywords":["cp","nocrits","nodmgspread","uncletopia"],"game_id":440,"stv_port":27016,"stv_name":"Uncletopia | Frankfurt | 1 | All Maps | STV","players":null},{"server_id":110,"name":"Uncletopia | Frankfurt | 2 | All Maps","name_short":"frk-2","host":"frk-1.de.uncletopia.com","port":27025,"enabled":true,"region":"eu","cc":"de","latitude":50.110924,"longitude":8.682127,"reserved":0,"last_update":"0001-01-01T00:00:00Z","name_a2s":"Uncletopia | Frankfurt | 2 | All Maps","protocol":17,"map":"koth_cascade","folder":"tf","game":"Team Fortress","app_id":440,"player_count":0,"max_players":24,"Bots":0,"server_type":"Dedicated","server_os":"Linux","password":true,"vac":true,"version":"7742253","steam_id":85568392924469990,"keywords":["cp","nocrits","nodmgspread","uncletopia"],"game_id":440,"stv_port":27026,"stv_name":"Uncletopia | Frankfurt | 2 | All Maps | STV","players":null},{"server_id":308,"name":"Uncletopia | Frankfurt | 3 | All Maps","name_short":"frk-3","host":"frk-1.de.uncletopia.com","port":27035,"enabled":true,"region":"eu","cc":"de","latitude":50.110924,"longitude":8.682127,"reserved":0,"last_update":"0001-01-01T00:00:00Z","name_a2s":"Uncletopia | Frankfurt | 3 | All Maps","protocol":17,"map":"cp_altitude","folder":"tf","game":"Team Fortress","app_id":440,"player_count":0,"max_players":24,"Bots":0,"server_type":"Dedicated","server_os":"Linux","password":true,"vac":true,"version":"7742253","steam_id":85568392924504274,"keywords":["cp","nocrits","nodmgspread","uncletopia"],"game_id":440,"stv_port":27036,"stv_name":"Uncletopia | Frankfurt | 3 | All Maps | STV","players":null},{"server_id":309,"name":"Uncletopia | Frankfurt | 4 | All Maps","name_short":"frk-4","host":"frk-1.de.uncletopia.com","port":27045,"enabled":true,"region":"eu","cc":"de","latitude":50.110924,"longitude":8.682127,"reserved":0,"last_update":"0001-01-01T00:00:00Z","name_a2s":"Uncletopia | Frankfurt | 4 | All Maps","protocol":17,"map":"koth_viaduct","folder":"tf","game":"Team Fortress","app_id":440,"player_count":0,"max_players":24,"Bots":0,"server_type":"Dedicated","server_os":"Linux","password":true,"vac":true,"version":"7742253","steam_id":85568392924504275,"keywords":["cp","nocrits","nodmgspread","uncletopia"],"game_id":440,"stv_port":27046,"stv_name":"Uncletopia | Frankfurt | 4 | All Maps | STV","players":null},{"server_id":310,"name":"Uncletopia | Frankfurt | 5 | All Maps","name_short":"frk-5","host":"frk-1.de.uncletopia.com","port":27055,"enabled":true,"region":"eu","cc":"de","latitude":50.110924,"longitude":8.682127,"reserved":0,"last_update":"0001-01-01T00:00:00Z","name_a2s":"Uncletopia | Frankfurt | 5 | All Maps","protocol":17,"map":"pl_pier","folder":"tf","game":"Team Fortress","app_id":440,"player_count":24,"max_players":24,"Bots":0,"server_type":"Dedicated","server_os":"Linux","password":true,"vac":true,"version":"7742253","steam_id":85568392924504277,"keywords":["nocrits","nodmgspread","payload","uncletopia"],"game_id":440,"stv_port":27056,"stv_name":"Uncletopia | Frankfurt | 5 | All Maps | STV","players":[{"user_id":904,"name":"Mega Man Legends 3","steam_id":76561198014110199,"connected_time":1411000000000,"state":"active","ping":59},{"user_id":918,"name":"Shynii","steam_id":76561198194682105,"connected_time":575000000000,"state":"active","ping":70},{"user_id":819,"name":"taiyaki","steam_id":76561198096189399,"connected_time":6897000000000,"state":"active","ping":48},{"user_id":883,"name":"ErakTheBrave","steam_id":76561198041198994,"connected_time":2310000000000,"state":"active","ping":65},{"user_id":913,"name":"The.Convoy","steam_id":76561198206525464,"connected_time":1161000000000,"state":"active","ping":55},{"user_id":916,"name":"-makina","steam_id":76561198273042780,"connected_time":706000000000,"state":"active","ping":74},{"user_id":914,"name":"wicc","steam_id":76561198893915644,"connected_time":1119000000000,"state":"active","ping":85},{"user_id":893,"name":"ƒéœª√É≈ò–å·É¶","steam_id":76561198274678500,"connected_time":1940000000000,"state":"active","ping":68},{"user_id":920,"name":"snowi","steam_id":76561198006502679,"connected_time":309000000000,"state":"active","ping":74},{"user_id":877,"name":"i have a firework up my ass","steam_id":76561199065469246,"connected_time":3209000000000,"state":"active","ping":58},{"user_id":892,"name":"I Need A Medic Bag!","steam_id":76561198098267117,"connected_time":1989000000000,"state":"active","ping":74},{"user_id":878,"name":"Simon Fung","steam_id":76561198104015837,"connected_time":3196000000000,"state":"active","ping":63},{"user_id":902,"name":"GortÀö‚úß‚Çä","steam_id":76561198085248515,"connected_time":1636000000000,"state":"active","ping":120},{"user_id":839,"name":"Carl's Marx","steam_id":76561198059700045,"connected_time":5850000000000,"state":"active","ping":77},{"user_id":845,"name":"ÔΩÉÔΩà_ÔΩåÔΩÖÔΩéÔΩâÔΩé 1","steam_id":76561198327978002,"connected_time":5521000000000,"state":"active","ping":94},{"user_id":922,"name":"Nooblington","steam_id":76561198053695699,"connected_time":60000000000,"state":"active","ping":52},{"user_id":923,"name":"poczuj Zbyszka","steam_id":76561198169261982,"connected_time":24000000000,"state":"active","ping":88},{"user_id":919,"name":"BlueBlueFox","steam_id":76561198053817230,"connected_time":571000000000,"state":"active","ping":65},{"user_id":917,"name":"duster cat","steam_id":76561198832231975,"connected_time":594000000000,"state":"active","ping":88},{"user_id":890,"name":"b","steam_id":76561198074160877,"connected_time":2100000000000,"state":"active","ping":71},{"user_id":895,"name":"engie?","steam_id":76561198331852832,"connected_time":1922000000000,"state":"active","ping":87},{"user_id":900,"name":"God¬¥s Cock","steam_id":76561198058947923,"connected_time":1746000000000,"state":"active","ping":59},{"user_id":901,"name":"Puf","steam_id":76561198307369964,"connected_time":1719000000000,"state":"active","ping":93},{"user_id":921,"name":"MathiasCZR01","steam_id":76561197991711202,"connected_time":292000000000,"state":"active","ping":75}]},{"server_id":311,"name":"Uncletopia | Frankfurt | 6 | All Maps","name_short":"frk-6","host":"frk-1.de.uncletopia.com","port":27065,"enabled":true,"region":"eu","cc":"de","latitude":50.110924,"longitude":8.682127,"reserved":0,"last_update":"0001-01-01T00:00:00Z","name_a2s":"Uncletopia | Frankfurt | 6 | All Maps","protocol":17,"map":"pl_badwater","folder":"tf","game":"Team Fortress","app_id":440,"player_count":0,"max_players":24,"Bots":0,"server_type":"Dedicated","server_os":"Linux","password":true,"vac":true,"version":"7742253","steam_id":85568392924504278,"keywords":["nocrits","nodmgspread","payload","uncletopia"],"game_id":440,"stv_port":27066,"stv_name":"Uncletopia | Frankfurt | 6 | All Maps | STV","players":null},{"server_id":23,"name":"Uncletopia | Frankfurt | 7 | Stopwatch Beta","name_short":"frk-7","host":"frk-1.de.uncletopia.com","port":27075,"enabled":true,"region":"eu","cc":"de","latitude":50.110924,"longitude":8.682127,"reserved":0,"last_update":"0001-01-01T00:00:00Z","name_a2s":"Uncletopia | Frankfurt | 7 | Stopwatch Beta","protocol":17,"map":"koth_highpass","folder":"tf","game":"Team Fortress","app_id":440,"player_count":0,"max_players":24,"Bots":0,"server_type":"Dedicated","server_os":"Linux","password":true,"vac":true,"version":"7742253","steam_id":85568392924742827,"keywords":["cp","nocrits","nodmgspread","uncletopia"],"game_id":440,"stv_port":27076,"stv_name":"Uncletopia | Frankfurt | 7 | Stopwatch Beta | STV","players":null},{"server_id":24,"name":"Uncletopia | Frankfurt | 8 | Community","name_short":"frk-8","host":"frk-1.de.uncletopia.com","port":27085,"enabled":true,"region":"eu","cc":"de","latitude":50.110924,"longitude":8.682127,"reserved":0,"last_update":"0001-01-01T00:00:00Z","name_a2s":"Uncletopia | Frankfurt | 8 | Community","protocol":17,"map":"workshop/koth_bagel_rc5.ugc2514036946","folder":"tf","game":"Team Fortress","app_id":440,"player_count":0,"max_players":24,"Bots":0,"server_type":"Dedicated","server_os":"Linux","password":true,"vac":true,"version":"7742253","steam_id":85568392924742828,"keywords":["cp","nocrits","nodmgspread","uncletopia"],"game_id":440,"stv_port":27086,"stv_name":"Uncletopia | Frankfurt | 8 | Community | STV","players":null},{"server_id":202,"name":"Uncletopia | Hong Kong | 1 | All Maps","name_short":"hgk-1","host":"hgk-1.hk.uncletopia.com","port":27015,"enabled":true,"region":"asia","cc":"hk","latitude":22.302711,"longitude":114.177216,"reserved":0,"last_update":"0001-01-01T00:00:00Z","name_a2s":"Uncletopia | Hong Kong | 1 | All Maps","protocol":17,"map":"plr_hightower","folder":"tf","game":"Team Fortress","app_id":440,"player_count":18,"max_players":24,"Bots":0,"server_type":"Dedicated","server_os":"Linux","password":true,"vac":true,"version":"7742253","steam_id":85568392924494504,"keywords":["nocrits","nodmgspread","payload","uncletopia"],"game_id":440,"stv_port":27016,"stv_name":"Uncletopia | Hong Kong | 1 | All Maps | STV","players":[{"user_id":45,"name":"redmond :D","steam_id":76561198056390902,"connected_time":1692000000000,"state":"active","ping":51},{"user_id":49,"name":"Simoframe","steam_id":76561199111778304,"connected_time":1317000000000,"state":"active","ping":120},{"user_id":26,"name":"Caberknight TF2","steam_id":76561199446773766,"connected_time":2076000000000,"state":"active","ping":209},{"user_id":53,"name":"uptriste","steam_id":76561198158666692,"connected_time":832000000000,"state":"active","ping":37},{"user_id":60,"name":"dxcls","steam_id":76561198240627872,"connected_time":437000000000,"state":"active","ping":49},{"user_id":41,"name":"cjjakeypaul","steam_id":76561199126245431,"connected_time":1762000000000,"state":"active","ping":126},{"user_id":43,"name":"Milk‚ù§ (currently banned in ut","steam_id":76561198163911560,"connected_time":1757000000000,"state":"active","ping":131},{"user_id":47,"name":"Gefin","steam_id":76561198944317181,"connected_time":1490000000000,"state":"active","ping":74},{"user_id":51,"name":"dan","steam_id":76561198404718200,"connected_time":1005000000000,"state":"active","ping":107},{"user_id":54,"name":"Miles Per'Hour","steam_id":76561199000630075,"connected_time":811000000000,"state":"active","ping":117},{"user_id":55,"name":"UZ","steam_id":76561198179320563,"connected_time":780000000000,"state":"active","ping":113},{"user_id":57,"name":"saltA","steam_id":76561198188248645,"connected_time":739000000000,"state":"active","ping":53},{"user_id":58,"name":"Skyrim59","steam_id":76561199022143412,"connected_time":538000000000,"state":"active","ping":79},{"user_id":59,"name":"Zacy","steam_id":76561198114841670,"connected_time":454000000000,"state":"active","ping":62},{"user_id":61,"name":"Cod0fDuty","steam_id":76561198958062892,"connected_time":324000000000,"state":"active","ping":41},{"user_id":65,"name":"RandomWorks","steam_id":76561199006117899,"connected_time":61000000000,"state":"active","ping":35},{"user_id":63,"name":"worndelight","steam_id":76561199056960214,"connected_time":157000000000,"state":"active","ping":139},{"user_id":64,"name":"Dunce","steam_id":76561198097350308,"connected_time":145000000000,"state":"active","ping":65}]},{"server_id":1,"name":"Uncletopia | Los Angeles | 1 | All Maps","name_short":"lax-1","host":"lax-1.us.uncletopia.com","port":27015,"enabled":true,"region":"us-west","cc":"us","latitude":33.94279,"longitude":-118.41004,"reserved":0,"last_update":"0001-01-01T00:00:00Z","name_a2s":"Uncletopia | Los Angeles | 1 | All Maps","protocol":17,"map":"pl_snowycoast","folder":"tf","game":"Team Fortress","app_id":440,"player_count":24,"max_players":24,"Bots":0,"server_type":"Dedicated","server_os":"Linux","password":true,"vac":true,"version":"7742253","steam_id":85568392924469991,"keywords":["nocrits","nodmgspread","payload","uncletopia"],"game_id":440,"stv_port":27016,"stv_name":"Uncletopia | Los Angeles | 1 | All Maps | STV","players":[{"user_id":355,"name":"Local","steam_id":76561198069537437,"connected_time":3373000000000,"state":"active","ping":55},{"user_id":403,"name":"Chris P. Wiener","steam_id":76561198168808551,"connected_time":45000000000,"state":"active","ping":91},{"user_id":376,"name":"HOG RIDER","steam_id":76561198298589502,"connected_time":1912000000000,"state":"active","ping":56},{"user_id":335,"name":"Reyloko","steam_id":76561198172480913,"connected_time":5056000000000,"state":"active","ping":100},{"user_id":387,"name":"Rock Kickass","steam_id":76561198450510841,"connected_time":1252000000000,"state":"active","ping":64},{"user_id":394,"name":"8core","steam_id":76561198131163454,"connected_time":387000000000,"state":"active","ping":80},{"user_id":401,"name":"Trollage","steam_id":76561198165396407,"connected_time":138000000000,"state":"active","ping":94},{"user_id":363,"name":"car gas is yummy","steam_id":76561199045901994,"connected_time":2820000000000,"state":"active","ping":46},{"user_id":373,"name":"Sad Sapling","steam_id":76561198075612150,"connected_time":2169000000000,"state":"active","ping":61},{"user_id":346,"name":"QueeQuee","steam_id":76561198070804012,"connected_time":4140000000000,"state":"active","ping":59},{"user_id":396,"name":"Void","steam_id":76561198308290211,"connected_time":233000000000,"state":"active","ping":64},{"user_id":397,"name":"Ludicolo","steam_id":76561198432166686,"connected_time":186000000000,"state":"active","ping":59},{"user_id":358,"name":"SQbuilder","steam_id":76561198076473375,"connected_time":2977000000000,"state":"active","ping":50},{"user_id":400,"name":"ICEcold","steam_id":76561198154646418,"connected_time":156000000000,"state":"active","ping":78},{"user_id":345,"name":"master_minion","steam_id":76561198170693990,"connected_time":4171000000000,"state":"active","ping":53},{"user_id":381,"name":"11235","steam_id":76561198025609938,"connected_time":1483000000000,"state":"active","ping":59},{"user_id":398,"name":"Dr. Livesey","steam_id":76561198260799901,"connected_time":184000000000,"state":"active","ping":69},{"user_id":399,"name":"Gregory Davidson","steam_id":76561198085260603,"connected_time":157000000000,"state":"active","ping":59},{"user_id":356,"name":"Lemonade Juice","steam_id":76561198402892608,"connected_time":3370000000000,"state":"active","ping":49},{"user_id":389,"name":"26O3 Ê•µÂÖâÈù¢Á¥ó","steam_id":76561198964074985,"connected_time":1228000000000,"state":"active","ping":92},{"user_id":402,"name":"Delta","steam_id":76561198021957971,"connected_time":84000000000,"state":"active","ping":59},{"user_id":368,"name":"MyMonkeyBaby","steam_id":76561198046896670,"connected_time":2510000000000,"state":"active","ping":91},{"user_id":390,"name":"darkness.danny3481","steam_id":76561198132808002,"connected_time":1199000000000,"state":"active","ping":45},{"user_id":393,"name":"Gamehero637","steam_id":76561198880355236,"connected_time":701000000000,"state":"active","ping":54}]},{"server_id":112,"name":"Uncletopia | Los Angeles | 2 | All Maps","name_short":"lax-2","host":"lax-1.us.uncletopia.com","port":27025,"enabled":true,"region":"us-west","cc":"us","latitude":33.94279,"longitude":-118.41004,"reserved":0,"last_update":"0001-01-01T00:00:00Z","name_a2s":"Uncletopia | Los Angeles | 2 | All Maps","protocol":17,"map":"koth_cascade","folder":"tf","game":"Team Fortress","app_id":440,"player_count":0,"max_players":24,"Bots":0,"server_type":"Dedicated","server_os":"Linux","password":true,"vac":true,"version":"7742253","steam_id":85568392924469992,"keywords":["cp","nocrits","nodmgspread","uncletopia"],"game_id":440,"stv_port":27026,"stv_name":"Uncletopia | Los Angeles | 2 | All Maps | STV","players":null},{"server_id":324,"name":"Uncletopia | Los Angeles | 3 | All Maps","name_short":"lax-3","host":"lax-1.us.uncletopia.com","port":27035,"enabled":true,"region":"us-west","cc":"us","latitude":33.94279,"longitude":-118.41004,"reserved":0,"last_update":"0001-01-01T00:00:00Z","name_a2s":"Uncletopia | Los Angeles | 3 | All Maps","protocol":17,"map":"koth_highpass","folder":"tf","game":"Team Fortress","app_id":440,"player_count":2,"max_players":24,"Bots":0,"server_type":"Dedicated","server_os":"Linux","password":true,"vac":true,"version":"7742253","steam_id":85568392924510198,"keywords":["cp","nocrits","nodmgspread","uncletopia"],"game_id":440,"stv_port":27036,"stv_name":"Uncletopia | Los Angeles | 3 | All Maps | STV","players":[{"user_id":16,"name":"the12xu","steam_id":76561198197086561,"connected_time":1389000000000,"state":"active","ping":113},{"user_id":17,"name":"CurtisRemnant","steam_id":76561198188655358,"connected_time":1317000000000,"state":"active","ping":122}]},{"server_id":25,"name":"Uncletopia | Los Angeles | 4 | Stopwatch Beta","name_short":"lax-4","host":"lax-1.us.uncletopia.com","port":27045,"enabled":true,"region":"us-west","cc":"us","latitude":33.94279,"longitude":-118.41004,"reserved":0,"last_update":"0001-01-01T00:00:00Z","name_a2s":"Uncletopia | Los Angeles | 4 | Stopwatch Beta","protocol":17,"map":"pl_borneo","folder":"tf","game":"Team Fortress","app_id":440,"player_count":0,"max_players":24,"Bots":0,"server_type":"Dedicated","server_os":"Linux","password":true,"vac":true,"version":"7742253","steam_id":85568392924510199,"keywords":["nocrits","nodmgspread","payload","uncletopia"],"game_id":440,"stv_port":27046,"stv_name":"Uncletopia | Los Angeles | 4 | Stopwatch Beta | STV","players":null},{"server_id":11,"name":"Uncletopia | London | 1 | All Maps","name_short":"lon-1","host":"lon-1.uk.uncletopia.com","port":27015,"enabled":true,"region":"eu","cc":"gb","latitude":51.509865,"longitude":-0.118092,"reserved":0,"last_update":"0001-01-01T00:00:00Z","name_a2s":"Uncletopia | London | 1 | All Maps","protocol":17,"map":"pl_swiftwater_final1","folder":"tf","game":"Team Fortress","app_id":440,"player_count":24,"max_players":24,"Bots":0,"server_type":"Dedicated","server_os":"Linux","password":true,"vac":true,"version":"7742253","steam_id":85568392924367362,"keywords":["nocrits","nodmgspread","payload","uncletopia"],"game_id":440,"stv_port":27016,"stv_name":"Uncletopia | London | 1 | All Maps | STV","players":[{"user_id":846,"name":"BrainLacking","steam_id":76561198965574196,"connected_time":4191000000000,"state":"active","ping":56},{"user_id":877,"name":"Soloman","steam_id":76561199212054667,"connected_time":1312000000000,"state":"active","ping":44},{"user_id":882,"name":"when gaming","steam_id":76561198101120557,"connected_time":265000000000,"state":"active","ping":51},{"user_id":831,"name":"Logic Not Found","steam_id":76561198273025576,"connected_time":4687000000000,"state":"active","ping":54},{"user_id":865,"name":"Fulfu (O·¥•O)","steam_id":76561198211867499,"connected_time":2403000000000,"state":"active","ping":57},{"user_id":840,"name":"I am on the tf2 scoreboard...","steam_id":76561198043850884,"connected_time":4352000000000,"state":"active","ping":54},{"user_id":867,"name":"Ducky[WADZ]üê§","steam_id":76561198060341245,"connected_time":2002000000000,"state":"active","ping":48},{"user_id":792,"name":"SuperBob103","steam_id":76561199175360012,"connected_time":7933000000000,"state":"active","ping":52},{"user_id":859,"name":"oddity.JPG","steam_id":76561198094900874,"connected_time":2849000000000,"state":"active","ping":45},{"user_id":872,"name":"Immovable Gonzalez","steam_id":76561198072233046,"connected_time":1898000000000,"state":"active","ping":76},{"user_id":821,"name":"frosty","steam_id":76561198094560834,"connected_time":5298000000000,"state":"active","ping":45},{"user_id":883,"name":"Chorizo Joe","steam_id":76561199230035279,"connected_time":233000000000,"state":"active","ping":44},{"user_id":825,"name":"Danube501","steam_id":76561198143222686,"connected_time":4993000000000,"state":"active","ping":108},{"user_id":857,"name":"etc","steam_id":76561197998394797,"connected_time":2998000000000,"state":"active","ping":49},{"user_id":832,"name":"Ran33","steam_id":76561197991474499,"connected_time":4672000000000,"state":"active","ping":81},{"user_id":876,"name":"‚ôÇjeebsii‚ôÇ","steam_id":76561198163313435,"connected_time":1711000000000,"state":"active","ping":40},{"user_id":881,"name":"stun","steam_id":76561198276681691,"connected_time":563000000000,"state":"active","ping":39},{"user_id":880,"name":"zigg","steam_id":76561198149501776,"connected_time":697000000000,"state":"active","ping":40},{"user_id":835,"name":"joecalmatt","steam_id":76561198172552015,"connected_time":4629000000000,"state":"active","ping":43},{"user_id":854,"name":"Shlongulator","steam_id":76561198149779201,"connected_time":3048000000000,"state":"active","ping":54},{"user_id":856,"name":"sassy the sasquatch","steam_id":76561198844060342,"connected_time":3010000000000,"state":"active","ping":41},{"user_id":878,"name":"–î–µ–¥ –ú–æ—Ä–æ–∑","steam_id":76561198304902462,"connected_time":1142000000000,"state":"active","ping":57},{"user_id":864,"name":"SIR KNIGHT OF DOGE","steam_id":76561198175682134,"connected_time":2437000000000,"state":"active","ping":62},{"user_id":875,"name":"Johnny Cockroach","steam_id":76561198049648277,"connected_time":1821000000000,"state":"active","ping":99}]},{"server_id":114,"name":"Uncletopia | London | 2 | All Maps","name_short":"lon-2","host":"lon-1.uk.uncletopia.com","port":27025,"enabled":true,"region":"eu","cc":"gb","latitude":51.509865,"longitude":-0.118092,"reserved":0,"last_update":"0001-01-01T00:00:00Z","name_a2s":"Uncletopia | London | 2 | All Maps","protocol":17,"map":"cp_sunshine","folder":"tf","game":"Team Fortress","app_id":440,"player_count":0,"max_players":24,"Bots":0,"server_type":"Dedicated","server_os":"Linux","password":true,"vac":true,"version":"7742253","steam_id":85568392924470941,"keywords":["cp","nocrits","nodmgspread","uncletopia"],"game_id":440,"stv_port":27026,"stv_name":"Uncletopia | London | 2 | All Maps | STV","players":null},{"server_id":320,"name":"Uncletopia | London | 3 | All Maps","name_short":"lon-3","host":"lon-1.uk.uncletopia.com","port":27035,"enabled":true,"region":"eu","cc":"gb","latitude":51.509865,"longitude":-0.118092,"reserved":0,"last_update":"0001-01-01T00:00:00Z","name_a2s":"Uncletopia | London | 3 | All Maps","protocol":17,"map":"koth_cascade","folder":"tf","game":"Team Fortress","app_id":440,"player_count":0,"max_players":24,"Bots":0,"server_type":"Dedicated","server_os":"Linux","password":true,"vac":true,"version":"7742253","steam_id":85568392924510192,"keywords":["cp","nocrits","nodmgspread","uncletopia"],"game_id":440,"stv_port":27036,"stv_name":"Uncletopia | London | 3 | All Maps | STV","players":null},{"server_id":321,"name":"Uncletopia | London | 4 | All Maps","name_short":"lon-4","host":"lon-1.uk.uncletopia.com","port":27045,"enabled":true,"region":"eu","cc":"gb","latitude":51.509865,"longitude":-0.118092,"reserved":0,"last_update":"0001-01-01T00:00:00Z","name_a2s":"Uncletopia | London | 4 | All Maps","protocol":17,"map":"cp_mountainlab","folder":"tf","game":"Team Fortress","app_id":440,"player_count":0,"max_players":24,"Bots":0,"server_type":"Dedicated","server_os":"Linux","password":true,"vac":true,"version":"7742253","steam_id":85568392924510193,"keywords":["cp","nocrits","nodmgspread","uncletopia"],"game_id":440,"stv_port":27046,"stv_name":"Uncletopia | London | 4 | All Maps | STV","players":null},{"server_id":21,"name":"Uncletopia | London | 5 | All Maps","name_short":"lon-5","host":"lon-1.uk.uncletopia.com","port":27055,"enabled":true,"region":"eu","cc":"gb","latitude":51.509865,"longitude":-0.118092,"reserved":0,"last_update":"0001-01-01T00:00:00Z","name_a2s":"Uncletopia | London | 5 | All Maps","protocol":17,"map":"pl_barnblitz","folder":"tf","game":"Team Fortress","app_id":440,"player_count":0,"max_players":24,"Bots":0,"server_type":"Dedicated","server_os":"Linux","password":true,"vac":true,"version":"7742253","steam_id":85568392924742829,"keywords":["nocrits","nodmgspread","payload","uncletopia"],"game_id":440,"stv_port":27056,"stv_name":"Uncletopia | London | 5 | All Maps | STV","players":null},{"server_id":22,"name":"Uncletopia | London | 6 | All Maps","name_short":"lon-6","host":"lon-1.uk.uncletopia.com","port":27065,"enabled":true,"region":"eu","cc":"gb","latitude":51.509865,"longitude":-0.118092,"reserved":0,"last_update":"0001-01-01T00:00:00Z","name_a2s":"Uncletopia | London | 6 | All Maps","protocol":17,"map":"koth_cascade","folder":"tf","game":"Team Fortress","app_id":440,"player_count":0,"max_players":24,"Bots":0,"server_type":"Dedicated","server_os":"Linux","password":true,"vac":true,"version":"7742253","steam_id":85568392924742830,"keywords":["cp","nocrits","nodmgspread","uncletopia"],"game_id":440,"stv_port":27066,"stv_name":"Uncletopia | London | 6 | All Maps | STV","players":null},{"server_id":40,"name":"Uncletopia | London | 7 | No Payload","name_short":"lon-7","host":"lon-1.uk.uncletopia.com","port":27075,"enabled":true,"region":"eu","cc":"gb","latitude":51.509865,"longitude":-0.118092,"reserved":0,"last_update":"0001-01-01T00:00:00Z","name_a2s":"Uncletopia | London | 7 | No Payload","protocol":17,"map":"cp_fastlane","folder":"tf","game":"Team Fortress","app_id":440,"player_count":0,"max_players":24,"Bots":0,"server_type":"Dedicated","server_os":"Linux","password":true,"vac":true,"version":"7742253","steam_id":85568392924964314,"keywords":["cp","nocrits","nodmgspread","uncletopia"],"game_id":440,"stv_port":27076,"stv_name":"Uncletopia | London | 7 | No Payload | STV","players":null},{"server_id":41,"name":"Uncletopia | London | 8 | Community","name_short":"lon-8","host":"lon-1.uk.uncletopia.com","port":27085,"enabled":true,"region":"eu","cc":"gb","latitude":51.509865,"longitude":-0.118092,"reserved":0,"last_update":"0001-01-01T00:00:00Z","name_a2s":"Uncletopia | London | 8 | Community","protocol":17,"map":"workshop/pl_eruption_b9a.ugc2807898013","folder":"tf","game":"Team Fortress","app_id":440,"player_count":0,"max_players":24,"Bots":0,"server_type":"Dedicated","server_os":"Linux","password":true,"vac":true,"version":"7742253","steam_id":85568392924964315,"keywords":["nocrits","nodmgspread","payload","uncletopia"],"game_id":440,"stv_port":27086,"stv_name":"Uncletopia | London | 8 | Community | STV","players":null},{"server_id":300,"name":"Uncletopia | Montr√©al | 1 | All Maps","name_short":"mtl-1","host":"mtl-1.ca.uncletopia.com","port":27015,"enabled":true,"region":"us-east","cc":"ca","latitude":45.50889,"longitude":-73.56167,"reserved":0,"last_update":"0001-01-01T00:00:00Z","name_a2s":"Uncletopia | Montr√©al | 1 | All Maps","protocol":17,"map":"koth_cascade","folder":"tf","game":"Team Fortress","app_id":440,"player_count":0,"max_players":24,"Bots":0,"server_type":"Dedicated","server_os":"Linux","password":true,"vac":true,"version":"7742253","steam_id":85568392924500087,"keywords":["cp","nocrits","nodmgspread","uncletopia"],"game_id":440,"stv_port":27016,"stv_name":"Uncletopia | Montr√©al | 1 | All Maps | STV","players":null},{"server_id":301,"name":"Uncletopia | Montr√©al | 2 | All Maps","name_short":"mtl-2","host":"mtl-1.ca.uncletopia.com","port":27025,"enabled":true,"region":"us-east","cc":"ca","latitude":45.50889,"longitude":-73.56167,"reserved":0,"last_update":"0001-01-01T00:00:00Z","name_a2s":"Uncletopia | Montr√©al | 2 | All Maps","protocol":17,"map":"cp_gravelpit","folder":"tf","game":"Team Fortress","app_id":440,"player_count":11,"max_players":24,"Bots":0,"server_type":"Dedicated","server_os":"Linux","password":true,"vac":true,"version":"7742253","steam_id":85568392924500088,"keywords":["cp","nocrits","nodmgspread","uncletopia"],"game_id":440,"stv_port":27026,"stv_name":"Uncletopia | Montr√©al | 2 | All Maps | STV","players":[{"user_id":35,"name":"costanza gaming","steam_id":76561198272896181,"connected_time":606000000000,"state":"active","ping":83},{"user_id":28,"name":"Sapphireblitz","steam_id":76561198272635379,"connected_time":1404000000000,"state":"active","ping":55},{"user_id":29,"name":"Yoshimelon","steam_id":76561198253054325,"connected_time":1321000000000,"state":"active","ping":75},{"user_id":38,"name":"Creamysub","steam_id":76561199466877590,"connected_time":41000000000,"state":"active","ping":96},{"user_id":21,"name":"\u003e:3 Muiramme Œµ—ó–∑","steam_id":76561197994458543,"connected_time":2865000000000,"state":"active","ping":105},{"user_id":22,"name":"Munky","steam_id":76561197993491054,"connected_time":2812000000000,"state":"active","ping":93},{"user_id":23,"name":"Armpit!","steam_id":76561197978095727,"connected_time":2643000000000,"state":"active","ping":128},{"user_id":24,"name":"UNIT 220","steam_id":76561198042243497,"connected_time":2387000000000,"state":"active","ping":76},{"user_id":25,"name":"Importality","steam_id":76561198049943127,"connected_time":2368000000000,"state":"active","ping":93},{"user_id":31,"name":"mdharsy","steam_id":76561198065831053,"connected_time":747000000000,"state":"active","ping":92},{"user_id":36,"name":".pudn|Knifer","steam_id":76561197964517573,"connected_time":185000000000,"state":"active","ping":165}]},{"server_id":302,"name":"Uncletopia | Montr√©al | 3 | All Maps","name_short":"mtl-3","host":"mtl-1.ca.uncletopia.com","port":27035,"enabled":true,"region":"us-east","cc":"ca","latitude":45.50889,"longitude":-73.56167,"reserved":0,"last_update":"0001-01-01T00:00:00Z","name_a2s":"Uncletopia | Montr√©al | 3 | All Maps","protocol":17,"map":"pl_swiftwater_final1","folder":"tf","game":"Team Fortress","app_id":440,"player_count":0,"max_players":24,"Bots":0,"server_type":"Dedicated","server_os":"Linux","password":true,"vac":true,"version":"7742253","steam_id":85568392924500089,"keywords":["nocrits","nodmgspread","payload","uncletopia"],"game_id":440,"stv_port":27036,"stv_name":"Uncletopia | Montr√©al | 3 | All Maps | STV","players":null},{"server_id":303,"name":"Uncletopia | Montr√©al | 4 | No Payload","name_short":"mtl-4","host":"mtl-1.ca.uncletopia.com","port":27045,"enabled":true,"region":"us-east","cc":"ca","latitude":45.50889,"longitude":-73.56167,"reserved":0,"last_update":"0001-01-01T00:00:00Z","name_a2s":"Uncletopia | Montr√©al | 4 | No Payload","protocol":17,"map":"plr_pipeline","folder":"tf","game":"Team Fortress","app_id":440,"player_count":0,"max_players":24,"Bots":0,"server_type":"Dedicated","server_os":"Linux","password":true,"vac":true,"version":"7742253","steam_id":85568392924500090,"keywords":["nocrits","nodmgspread","payload","uncletopia"],"game_id":440,"stv_port":27046,"stv_name":"Uncletopia | Montr√©al | 4 | No Payload | STV","players":null},{"server_id":13,"name":"Uncletopia | New York City | 1 | All Maps","name_short":"nyc-1","host":"nyc-1.us.uncletopia.com","port":27015,"enabled":true,"region":"us-east","cc":"us","latitude":40.73061,"longitude":-73.93524,"reserved":0,"last_update":"0001-01-01T00:00:00Z","name_a2s":"Uncletopia | New York City | 1 | All Maps","protocol":17,"map":"pl_frontier_final","folder":"tf","game":"Team Fortress","app_id":440,"player_count":24,"max_players":24,"Bots":0,"server_type":"Dedicated","server_os":"Linux","password":true,"vac":true,"version":"7742253","steam_id":85568392924469993,"keywords":["nocrits","nodmgspread","payload","uncletopia"],"game_id":440,"stv_port":27016,"stv_name":"Uncletopia | New York City | 1 | All Maps | STV","players":[{"user_id":571,"name":"Uncle Majic the Hip Hop Magicia","steam_id":76561198107924303,"connected_time":1389000000000,"state":"active","ping":49},{"user_id":574,"name":"Lane","steam_id":76561197965828506,"connected_time":1212000000000,"state":"active","ping":59},{"user_id":555,"name":"GROKERDUL","steam_id":76561198004573649,"connected_time":2671000000000,"state":"active","ping":54},{"user_id":540,"name":"BADLANDS CHUGS","steam_id":76561198129028971,"connected_time":3434000000000,"state":"active","ping":58},{"user_id":593,"name":"Leviathan","steam_id":76561197997528907,"connected_time":168000000000,"state":"active","ping":45},{"user_id":589,"name":"Yonn","steam_id":76561198274242643,"connected_time":186000000000,"state":"active","ping":51},{"user_id":575,"name":"That Guy","steam_id":76561197997444126,"connected_time":695000000000,"state":"active","ping":112},{"user_id":590,"name":"Hydrostasis","steam_id":76561198412399283,"connected_time":183000000000,"state":"active","ping":73},{"user_id":577,"name":"Your Friends at Pfizer","steam_id":76561198008531707,"connected_time":683000000000,"state":"active","ping":56},{"user_id":544,"name":"primordialheath","steam_id":76561199386942638,"connected_time":3133000000000,"state":"active","ping":75},{"user_id":586,"name":"Leo","steam_id":76561198088304064,"connected_time":348000000000,"state":"active","ping":52},{"user_id":532,"name":"A Puppy","steam_id":76561198828184456,"connected_time":3810000000000,"state":"active","ping":35},{"user_id":549,"name":"Milk","steam_id":76561198175903221,"connected_time":3019000000000,"state":"active","ping":71},{"user_id":594,"name":"matchstick","steam_id":76561198190100027,"connected_time":165000000000,"state":"active","ping":57},{"user_id":596,"name":"Amogus The Sussy Baka ‡∂û","steam_id":76561198008577961,"connected_time":41000000000,"state":"active","ping":72},{"user_id":572,"name":"Chonky Wolf","steam_id":76561198077249707,"connected_time":1340000000000,"state":"active","ping":59},{"user_id":578,"name":"racoon(s)","steam_id":76561199275619337,"connected_time":666000000000,"state":"active","ping":79},{"user_id":584,"name":"HAPPY NOOB YEAR","steam_id":76561198014919412,"connected_time":480000000000,"state":"active","ping":41},{"user_id":551,"name":"Tok Hakaay","steam_id":76561199311828303,"connected_time":3014000000000,"state":"active","ping":72},{"user_id":562,"name":"Bulk","steam_id":76561199009814535,"connected_time":2267000000000,"state":"active","ping":45},{"user_id":582,"name":"N0T@TR@P","steam_id":76561198323432636,"connected_time":553000000000,"state":"active","ping":58},{"user_id":552,"name":"logg","steam_id":76561198179595013,"connected_time":2989000000000,"state":"active","ping":80},{"user_id":583,"name":"Magnet Dood","steam_id":76561198364178746,"connected_time":506000000000,"state":"active","ping":70},{"user_id":581,"name":"Transformouse","steam_id":76561198004669368,"connected_time":610000000000,"state":"active","ping":94}]},{"server_id":14,"name":"Uncletopia | New York City | 2 | All Maps","name_short":"nyc-2","host":"nyc-1.us.uncletopia.com","port":27025,"enabled":true,"region":"us-east","cc":"us","latitude":40.73061,"longitude":-73.93524,"reserved":0,"last_update":"0001-01-01T00:00:00Z","name_a2s":"Uncletopia | New York City | 2 | All Maps","protocol":17,"map":"cp_snakewater_final1","folder":"tf","game":"Team Fortress","app_id":440,"player_count":3,"max_players":24,"Bots":0,"server_type":"Dedicated","server_os":"Linux","password":true,"vac":true,"version":"7742253","steam_id":85568392924469994,"keywords":["cp","nocrits","nodmgspread","uncletopia"],"game_id":440,"stv_port":27026,"stv_name":"Uncletopia | New York City | 2 | All Maps | STV","players":[{"user_id":945,"name":"Bix","steam_id":76561198120265522,"connected_time":289000000000,"state":"active","ping":58},{"user_id":946,"name":"brettelibrooks","steam_id":76561199156563386,"connected_time":44000000000,"state":"active","ping":153},{"user_id":947,"name":"tioblox23","steam_id":76561199190554746,"connected_time":37000000000,"state":"active","ping":280}]},{"server_id":15,"name":"Uncletopia | New York City | 3 | Stopwatch Beta","name_short":"nyc-3","host":"nyc-1.us.uncletopia.com","port":27035,"enabled":true,"region":"us-east","cc":"us","latitude":40.73061,"longitude":-73.93524,"reserved":0,"last_update":"0001-01-01T00:00:00Z","name_a2s":"Uncletopia | New York City | 3 | Stopwatch Beta","protocol":17,"map":"cp_snakewater_final1","folder":"tf","game":"Team Fortress","app_id":440,"player_count":22,"max_players":24,"Bots":0,"server_type":"Dedicated","server_os":"Linux","password":true,"vac":true,"version":"7742253","steam_id":85568392924742820,"keywords":["cp","nocrits","nodmgspread","uncletopia"],"game_id":440,"stv_port":27036,"stv_name":"Uncletopia | New York City | 3 | Stopwatch Beta | STV","players":[{"user_id":459,"name":"Avizzo","steam_id":76561198127023219,"connected_time":2385000000000,"state":"active","ping":91},{"user_id":460,"name":"Wolfe","steam_id":76561197997350470,"connected_time":2289000000000,"state":"active","ping":89},{"user_id":499,"name":"Road to 1k Amby kills(by friday","steam_id":76561198851536991,"connected_time":210000000000,"state":"active","ping":123},{"user_id":462,"name":"Sprise","steam_id":76561198018054196,"connected_time":2095000000000,"state":"active","ping":88},{"user_id":493,"name":"Ed Santos","steam_id":76561198237997622,"connected_time":641000000000,"state":"active","ping":157},{"user_id":465,"name":"Wikked","steam_id":76561198196149207,"connected_time":1893000000000,"state":"active","ping":140},{"user_id":467,"name":"It's Weskin' Time","steam_id":76561198074314573,"connected_time":1832000000000,"state":"active","ping":65},{"user_id":482,"name":"JFK GAMING","steam_id":76561198025593142,"connected_time":1339000000000,"state":"active","ping":74},{"user_id":470,"name":"Zwendel787","steam_id":76561198353523396,"connected_time":1774000000000,"state":"active","ping":76},{"user_id":483,"name":"Pananananananananananananananan","steam_id":76561198018608667,"connected_time":1308000000000,"state":"active","ping":129},{"user_id":497,"name":"Rein","steam_id":76561198300340427,"connected_time":241000000000,"state":"active","ping":65},{"user_id":494,"name":"\"check oil light\"","steam_id":76561198292687800,"connected_time":638000000000,"state":"active","ping":44},{"user_id":500,"name":"DylanGuy","steam_id":76561198800767851,"connected_time":207000000000,"state":"active","ping":75},{"user_id":501,"name":"Flying Dutchman's Best Friend","steam_id":76561198246812566,"connected_time":110000000000,"state":"active","ping":88},{"user_id":502,"name":"Monsterjessy","steam_id":76561198035630985,"connected_time":110000000000,"state":"active","ping":57},{"user_id":476,"name":"Dog Goggles","steam_id":76561197995233692,"connected_time":1523000000000,"state":"active","ping":51},{"user_id":505,"name":"Bait","steam_id":76561198336489647,"connected_time":70000000000,"state":"active","ping":62},{"user_id":492,"name":"Fortune","steam_id":76561197998650760,"connected_time":858000000000,"state":"active","ping":110},{"user_id":506,"name":"Dakota Sutcliffe","steam_id":76561198170660959,"connected_time":45000000000,"state":"active","ping":67},{"user_id":479,"name":"Raincool","steam_id":76561198042953645,"connected_time":1480000000000,"state":"active","ping":50},{"user_id":504,"name":"new year, same me","steam_id":76561198138221795,"connected_time":94000000000,"state":"active","ping":104},{"user_id":480,"name":":)","steam_id":76561198005573741,"connected_time":1467000000000,"state":"active","ping":81}]},{"server_id":16,"name":"Uncletopia | New York City | 4 | Community","name_short":"nyc-4","host":"nyc-1.us.uncletopia.com","port":27045,"enabled":true,"region":"us-east","cc":"us","latitude":40.73061,"longitude":-73.93524,"reserved":0,"last_update":"0001-01-01T00:00:00Z","name_a2s":"Uncletopia | New York City | 4 | Community","protocol":17,"map":"workshop/koth_bagel_rc5.ugc2514036946","folder":"tf","game":"Team Fortress","app_id":440,"player_count":5,"max_players":24,"Bots":0,"server_type":"Dedicated","server_os":"Linux","password":true,"vac":true,"version":"7742253","steam_id":85568392924742821,"keywords":["cp","nocrits","nodmgspread","uncletopia"],"game_id":440,"stv_port":27046,"stv_name":"Uncletopia | New York City | 4 | Community | STV","players":[{"user_id":238,"name":"TASTE MY MILK #SaveTF2","steam_id":76561199191483997,"connected_time":1872000000000,"state":"active","ping":67},{"user_id":241,"name":"slimeydragon","steam_id":76561199447271206,"connected_time":1299000000000,"state":"active","ping":52},{"user_id":246,"name":"ricardo","steam_id":76561198278519600,"connected_time":198000000000,"state":"active","ping":132},{"user_id":243,"name":"MasterFr0stByte","steam_id":76561198996118485,"connected_time":1089000000000,"state":"active","ping":71},{"user_id":247,"name":"big tank","steam_id":76561198285264050,"connected_time":53000000000,"state":"active","ping":71}]},{"server_id":142,"name":"Uncletopia | S√£o Paulo | 1 | All Maps","name_short":"sao-1","host":"sao-1.br.uncletopia.com","port":27015,"enabled":true,"region":"sa","cc":"br","latitude":-23.533773,"longitude":-46.62529,"reserved":0,"last_update":"0001-01-01T00:00:00Z","name_a2s":"Uncletopia | S√£o Paulo | 1 | All Maps","protocol":17,"map":"pl_snowycoast","folder":"tf","game":"Team Fortress","app_id":440,"player_count":0,"max_players":24,"Bots":0,"server_type":"Dedicated","server_os":"Linux","password":true,"vac":true,"version":"7742253","steam_id":85568392924469996,"keywords":["nocrits","nodmgspread","payload","uncletopia"],"game_id":440,"stv_port":27016,"stv_name":"Uncletopia | S√£o Paulo | 1 | All Maps | STV","players":null},{"server_id":143,"name":"Uncletopia | S√£o Paulo | 2 | All Maps","name_short":"sao-2","host":"sao-2.br.uncletopia.com","port":27015,"enabled":true,"region":"sa","cc":"br","latitude":-23.533773,"longitude":-46.62529,"reserved":0,"last_update":"0001-01-01T00:00:00Z","name_a2s":"Uncletopia | S√£o Paulo | 2 | All Maps","protocol":17,"map":"koth_viaduct","folder":"tf","game":"Team Fortress","app_id":440,"player_count":0,"max_players":24,"Bots":0,"server_type":"Dedicated","server_os":"Linux","password":true,"vac":true,"version":"7742253","steam_id":85568392924485349,"keywords":["cp","nocrits","nodmgspread","uncletopia"],"game_id":440,"stv_port":27016,"stv_name":"Uncletopia | S√£o Paulo | 2 | All Maps | STV","players":null},{"server_id":7,"name":"Uncletopia | Seattle | 1 | All Maps","name_short":"sea-1","host":"sea-1.us.uncletopia.com","port":27015,"enabled":true,"region":"us-west","cc":"us","latitude":47.608013,"longitude":-122.33517,"reserved":0,"last_update":"0001-01-01T00:00:00Z","name_a2s":"Uncletopia | Seattle | 1 | All Maps","protocol":17,"map":"pl_badwater","folder":"tf","game":"Team Fortress","app_id":440,"player_count":24,"max_players":24,"Bots":0,"server_type":"Dedicated","server_os":"Linux","password":true,"vac":true,"version":"7742253","steam_id":85568392924469997,"keywords":["nocrits","nodmgspread","payload","uncletopia"],"game_id":440,"stv_port":27016,"stv_name":"Uncletopia | Seattle | 1 | All Maps | STV","players":[{"user_id":443,"name":"Mignyanne :3","steam_id":76561198048754056,"connected_time":4406000000000,"state":"active","ping":73},{"user_id":475,"name":"Mienfoo","steam_id":76561198393534917,"connected_time":2775000000000,"state":"active","ping":65},{"user_id":498,"name":"Dorte Voloxi","steam_id":76561198118620969,"connected_time":776000000000,"state":"active","ping":52},{"user_id":480,"name":"William P. Ennis","steam_id":76561198073464877,"connected_time":2414000000000,"state":"active","ping":90},{"user_id":477,"name":"KnotsAreUs","steam_id":76561198306522669,"connected_time":2734000000000,"state":"active","ping":98},{"user_id":454,"name":"PirateJet","steam_id":76561198050858744,"connected_time":4019000000000,"state":"active","ping":81},{"user_id":492,"name":"Roomsky","steam_id":76561198012827494,"connected_time":1310000000000,"state":"active","ping":45},{"user_id":457,"name":"jungus","steam_id":76561198129862008,"connected_time":3910000000000,"state":"active","ping":78},{"user_id":450,"name":"Leonard","steam_id":76561198276200628,"connected_time":4221000000000,"state":"active","ping":78},{"user_id":486,"name":"Potato_Patrick","steam_id":76561198126408165,"connected_time":2065000000000,"state":"active","ping":103},{"user_id":452,"name":"some velvet morning","steam_id":76561198325306660,"connected_time":4044000000000,"state":"active","ping":49},{"user_id":499,"name":"penguinlord30","steam_id":76561198437116566,"connected_time":635000000000,"state":"active","ping":56},{"user_id":494,"name":"Samiho","steam_id":76561198984374561,"connected_time":1281000000000,"state":"active","ping":48},{"user_id":490,"name":"rat gets the cheese","steam_id":76561198031234032,"connected_time":1805000000000,"state":"active","ping":94},{"user_id":479,"name":"BEASTxGODx420","steam_id":76561198184814466,"connected_time":2418000000000,"state":"active","ping":45},{"user_id":448,"name":"Zomen","steam_id":76561198134901918,"connected_time":4290000000000,"state":"active","ping":64},{"user_id":497,"name":"poage","steam_id":76561199067205225,"connected_time":874000000000,"state":"active","ping":65},{"user_id":483,"name":"The King of Piss World","steam_id":76561198082806956,"connected_time":2131000000000,"state":"active","ping":114},{"user_id":500,"name":"ORANGE","steam_id":76561198000401769,"connected_time":129000000000,"state":"active","ping":55},{"user_id":496,"name":"dougrocks421","steam_id":76561198165063918,"connected_time":945000000000,"state":"active","ping":41},{"user_id":491,"name":"Arsonist Goose","steam_id":76561198147441830,"connected_time":1431000000000,"state":"active","ping":75},{"user_id":471,"name":"Sir Nope (TSS)","steam_id":76561198035935649,"connected_time":3307000000000,"state":"active","ping":85},{"user_id":488,"name":"NASA PEEPO","steam_id":76561198024982267,"connected_time":1993000000000,"state":"active","ping":75},{"user_id":370,"name":"Wormy wants to RTV","steam_id":76561198054539200,"connected_time":8769000000000,"state":"active","ping":51}]},{"server_id":119,"name":"Uncletopia | Seattle | 2 | All Maps","name_short":"sea-2","host":"sea-1.us.uncletopia.com","port":27025,"enabled":true,"region":"us-west","cc":"us","latitude":47.608013,"longitude":-122.33517,"reserved":0,"last_update":"0001-01-01T00:00:00Z","name_a2s":"Uncletopia | Seattle | 2 | All Maps","protocol":17,"map":"cp_process_final","folder":"tf","game":"Team Fortress","app_id":440,"player_count":24,"max_players":24,"Bots":0,"server_type":"Dedicated","server_os":"Linux","password":true,"vac":true,"version":"7742253","steam_id":85568392924469998,"keywords":["cp","nocrits","nodmgspread","uncletopia"],"game_id":440,"stv_port":27026,"stv_name":"Uncletopia | Seattle | 2 | All Maps | STV","players":[{"user_id":322,"name":"ohkuuuuuurt","steam_id":76561198079474904,"connected_time":1907000000000,"state":"active","ping":61},{"user_id":348,"name":"epic.science.kid.2019","steam_id":76561198075510786,"connected_time":438000000000,"state":"active","ping":74},{"user_id":323,"name":"I_Want_A_Soft_Taco","steam_id":76561198225561352,"connected_time":1896000000000,"state":"active","ping":88},{"user_id":308,"name":"TurboRaspberry","steam_id":76561199215360629,"connected_time":3374000000000,"state":"active","ping":43},{"user_id":350,"name":"Morbea","steam_id":76561199071098451,"connected_time":234000000000,"state":"active","ping":102},{"user_id":272,"name":"EpicVenture","steam_id":76561198012475713,"connected_time":5110000000000,"state":"active","ping":138},{"user_id":351,"name":"makcmik2","steam_id":76561198242544518,"connected_time":194000000000,"state":"active","ping":60},{"user_id":342,"name":"Lightworker","steam_id":76561198063949642,"connected_time":1354000000000,"state":"active","ping":39},{"user_id":294,"name":"Frongus","steam_id":76561197979056451,"connected_time":4188000000000,"state":"active","ping":47},{"user_id":346,"name":"a crazy hobo","steam_id":76561198289650060,"connected_time":656000000000,"state":"active","ping":76},{"user_id":345,"name":"Kangarule","steam_id":76561198147171260,"connected_time":680000000000,"state":"active","ping":140},{"user_id":339,"name":"hapybratt","steam_id":76561198095799579,"connected_time":1443000000000,"state":"active","ping":115},{"user_id":314,"name":"Brynkiwi","steam_id":76561198052177917,"connected_time":2931000000000,"state":"active","ping":83},{"user_id":248,"name":"teh mummy","steam_id":76561198044123636,"connected_time":6407000000000,"state":"active","ping":83},{"user_id":328,"name":"Thembo","steam_id":76561199037594575,"connected_time":1802000000000,"state":"active","ping":62},{"user_id":320,"name":"Bl0ckM4n","steam_id":76561199016413171,"connected_time":2290000000000,"state":"active","ping":53},{"user_id":349,"name":"MrLeftTurn","steam_id":76561198856743969,"connected_time":321000000000,"state":"active","ping":78},{"user_id":302,"name":"god approaches","steam_id":76561198081617990,"connected_time":3728000000000,"state":"active","ping":129},{"user_id":295,"name":"self sufficient kitten","steam_id":76561197960592612,"connected_time":4167000000000,"state":"active","ping":50},{"user_id":329,"name":"oo","steam_id":76561198119626492,"connected_time":1788000000000,"state":"active","ping":89},{"user_id":340,"name":"Lakue","steam_id":76561198047993241,"connected_time":1437000000000,"state":"active","ping":58},{"user_id":301,"name":"KingTinkerer","steam_id":76561198226856548,"connected_time":3932000000000,"state":"active","ping":68},{"user_id":332,"name":"DJMasterFunkyFresh","steam_id":76561197993328842,"connected_time":1668000000000,"state":"active","ping":48},{"user_id":291,"name":"Coffeemelon","steam_id":76561198285891257,"connected_time":4370000000000,"state":"active","ping":73}]},{"server_id":406,"name":"Uncletopia | Seattle | 3 | Stopwatch Beta","name_short":"sea-3","host":"sea-1.us.uncletopia.com","port":27035,"enabled":true,"region":"us-west","cc":"us","latitude":47.608013,"longitude":-122.33517,"reserved":0,"last_update":"0001-01-01T00:00:00Z","name_a2s":"Uncletopia | Seattle | 3 | Stopwatch Beta","protocol":17,"map":"workshop/koth_ramjam_rc1.ugc459778887","folder":"tf","game":"Team Fortress","app_id":440,"player_count":0,"max_players":24,"Bots":0,"server_type":"Dedicated","server_os":"Linux","password":true,"vac":true,"version":"7742253","steam_id":85568392924515217,"keywords":["cp","nocrits","nodmgspread","uncletopia"],"game_id":440,"stv_port":27036,"stv_name":"Uncletopia | Seattle | 3 | Stopwatch Beta | STV","players":null},{"server_id":17,"name":"Uncletopia | San Francisco | 1 | All Maps","name_short":"sfo-1","host":"sfo-1.us.uncletopia.com","port":27015,"enabled":true,"region":"us-west","cc":"us","latitude":37.77397,"longitude":-122.4313,"reserved":0,"last_update":"0001-01-01T00:00:00Z","name_a2s":"Uncletopia | San Francisco | 1 | All Maps","protocol":17,"map":"pl_pier","folder":"tf","game":"Team Fortress","app_id":440,"player_count":23,"max_players":24,"Bots":0,"server_type":"Dedicated","server_os":"Linux","password":true,"vac":true,"version":"7742253","steam_id":85568392924469999,"keywords":["nocrits","nodmgspread","payload","uncletopia"],"game_id":440,"stv_port":27016,"stv_name":"Uncletopia | San Francisco | 1 | All Maps | STV","players":[{"user_id":133,"name":"Hernandez$","steam_id":76561198019324588,"connected_time":1566000000000,"state":"active","ping":64},{"user_id":142,"name":"Communist Party of Wutville","steam_id":76561198844003641,"connected_time":860000000000,"state":"active","ping":63},{"user_id":128,"name":"System","steam_id":76561198148087137,"connected_time":1715000000000,"state":"active","ping":80},{"user_id":123,"name":"Esther","steam_id":76561198163120788,"connected_time":1766000000000,"state":"active","ping":49},{"user_id":152,"name":"Deltaflame","steam_id":76561198060339773,"connected_time":76000000000,"state":"active","ping":104},{"user_id":150,"name":"Zenix","steam_id":76561198261817732,"connected_time":325000000000,"state":"active","ping":61},{"user_id":148,"name":"bansheerubber","steam_id":76561198042009362,"connected_time":382000000000,"state":"active","ping":70},{"user_id":134,"name":"spy 'player'","steam_id":76561198299290069,"connected_time":1555000000000,"state":"active","ping":73},{"user_id":117,"name":"Rusty","steam_id":76561198055585129,"connected_time":2479000000000,"state":"active","ping":73},{"user_id":83,"name":"Magikarp_Gamer","steam_id":76561198143910511,"connected_time":6792000000000,"state":"active","ping":61},{"user_id":111,"name":"Yokogaijin Jr.","steam_id":76561199124647094,"connected_time":3271000000000,"state":"active","ping":46},{"user_id":84,"name":"Ranger Lugi","steam_id":76561198143611016,"connected_time":6709000000000,"state":"active","ping":57},{"user_id":107,"name":"Crustiest_Bill","steam_id":76561198842722858,"connected_time":3786000000000,"state":"active","ping":59},{"user_id":125,"name":"xypage","steam_id":76561198050587775,"connected_time":1758000000000,"state":"active","ping":61},{"user_id":126,"name":"Cinnamae","steam_id":76561198182999801,"connected_time":1756000000000,"state":"active","ping":79},{"user_id":129,"name":"gulch","steam_id":76561199227946025,"connected_time":1705000000000,"state":"active","ping":91},{"user_id":149,"name":"Big Blue","steam_id":76561198084930108,"connected_time":337000000000,"state":"active","ping":52},{"user_id":140,"name":"reverie","steam_id":76561198168158637,"connected_time":992000000000,"state":"active","ping":59},{"user_id":143,"name":"Frank Accardi","steam_id":76561198017275707,"connected_time":860000000000,"state":"active","ping":75},{"user_id":95,"name":"crouton.net","steam_id":76561198068374646,"connected_time":5515000000000,"state":"active","ping":53},{"user_id":131,"name":"Dr. Harold coomer Phd","steam_id":76561197999158580,"connected_time":1681000000000,"state":"active","ping":75},{"user_id":145,"name":"Terribad","steam_id":76561198120844785,"connected_time":738000000000,"state":"active","ping":69},{"user_id":151,"name":"corbenis","steam_id":76561199012442511,"connected_time":288000000000,"state":"active","ping":61}]},{"server_id":18,"name":"Uncletopia | San Francisco | 2 | All Maps","name_short":"sfo-2","host":"sfo-1.us.uncletopia.com","port":27025,"enabled":true,"region":"us-west","cc":"us","latitude":37.77397,"longitude":-122.4313,"reserved":0,"last_update":"0001-01-01T00:00:00Z","name_a2s":"Uncletopia | San Francisco | 2 | All Maps","protocol":17,"map":"koth_viaduct","folder":"tf","game":"Team Fortress","app_id":440,"player_count":0,"max_players":24,"Bots":0,"server_type":"Dedicated","server_os":"Linux","password":true,"vac":true,"version":"7742253","steam_id":85568392924470000,"keywords":["cp","nocrits","nodmgspread","uncletopia"],"game_id":440,"stv_port":27026,"stv_name":"Uncletopia | San Francisco | 2 | All Maps | STV","players":null},{"server_id":19,"name":"Uncletopia | San Francisco | 3 | Stopwatch Beta","name_short":"sfo-3","host":"sfo-1.us.uncletopia.com","port":27035,"enabled":true,"region":"us-west","cc":"us","latitude":37.77397,"longitude":-122.4313,"reserved":0,"last_update":"0001-01-01T00:00:00Z","name_a2s":"Uncletopia | San Francisco | 3 | Stopwatch Beta","protocol":17,"map":"workshop/pl_badwater_pro_v12.ugc2142942074","folder":"tf","game":"Team Fortress","app_id":440,"player_count":0,"max_players":24,"Bots":0,"server_type":"Dedicated","server_os":"Linux","password":true,"vac":true,"version":"7742253","steam_id":85568392924742824,"keywords":["nocrits","nodmgspread","payload","uncletopia"],"game_id":440,"stv_port":27036,"stv_name":"Uncletopia | San Francisco | 3 | Stopwatch Beta | STV","players":null},{"server_id":20,"name":"Uncletopia | San Francisco | 4 | Community","name_short":"sfo-4","host":"sfo-1.us.uncletopia.com","port":27045,"enabled":true,"region":"us-west","cc":"us","latitude":37.77397,"longitude":-122.4313,"reserved":0,"last_update":"0001-01-01T00:00:00Z","name_a2s":"Uncletopia | San Francisco | 4 | Community","protocol":17,"map":"workshop/koth_slaughter_rc1.ugc1712845210","folder":"tf","game":"Team Fortress","app_id":440,"player_count":0,"max_players":24,"Bots":0,"server_type":"Dedicated","server_os":"Linux","password":true,"vac":true,"version":"7742253","steam_id":85568392924742826,"keywords":["cp","nocrits","nodmgspread","uncletopia"],"game_id":440,"stv_port":27046,"stv_name":"Uncletopia | San Francisco | 4 | Community | STV","players":null},{"server_id":141,"name":"Uncletopia | Sydney | 1 | All Maps","name_short":"syd-1","host":"syd-1.au.uncletopia.com","port":27015,"enabled":true,"region":"au","cc":"au","latitude":-33.865143,"longitude":151.2099,"reserved":0,"last_update":"0001-01-01T00:00:00Z","name_a2s":"Uncletopia | Sydney | 1 | All Maps","protocol":17,"map":"pl_pier","folder":"tf","game":"Team Fortress","app_id":440,"player_count":22,"max_players":24,"Bots":0,"server_type":"Dedicated","server_os":"Linux","password":true,"vac":true,"version":"7742253","steam_id":85568392924470001,"keywords":["nocrits","nodmgspread","payload","uncletopia"],"game_id":440,"stv_port":27016,"stv_name":"Uncletopia | Sydney | 1 | All Maps | STV","players":[{"user_id":284,"name":"Branko","steam_id":76561199262196710,"connected_time":3306000000000,"state":"active","ping":42},{"user_id":290,"name":"xX_sexhaver_Xx(real)","steam_id":76561199205171109,"connected_time":2812000000000,"state":"active","ping":58},{"user_id":334,"name":"hobo","steam_id":76561199046481213,"connected_time":293000000000,"state":"active","ping":60},{"user_id":318,"name":"Cockfight","steam_id":76561198160277649,"connected_time":1188000000000,"state":"active","ping":60},{"user_id":295,"name":"Sync","steam_id":76561198863099660,"connected_time":2460000000000,"state":"active","ping":59},{"user_id":333,"name":"skaka","steam_id":76561199048862575,"connected_time":324000000000,"state":"active","ping":60},{"user_id":335,"name":"daydreaming about ginger beer\u003c3","steam_id":76561198944594251,"connected_time":78000000000,"state":"active","ping":44},{"user_id":319,"name":"vivi and","steam_id":76561198026764350,"connected_time":1037000000000,"state":"active","ping":71},{"user_id":320,"name":"Jiffy360","steam_id":76561198149550772,"connected_time":1015000000000,"state":"active","ping":91},{"user_id":322,"name":"Radial","steam_id":76561198850076584,"connected_time":916000000000,"state":"active","ping":58},{"user_id":336,"name":"heather","steam_id":76561198145136439,"connected_time":77000000000,"state":"active","ping":50},{"user_id":337,"name":"Spicy Baguette","steam_id":76561198238030210,"connected_time":65000000000,"state":"active","ping":50},{"user_id":316,"name":"wombraider","steam_id":76561199375834537,"connected_time":1331000000000,"state":"active","ping":185},{"user_id":302,"name":"clout","steam_id":76561198073310502,"connected_time":1961000000000,"state":"active","ping":75},{"user_id":338,"name":"Wavy","steam_id":76561198879775635,"connected_time":25000000000,"state":"active","ping":307},{"user_id":254,"name":"FyreFeat","steam_id":76561198068428930,"connected_time":4896000000000,"state":"active","ping":50},{"user_id":332,"name":"jim :)","steam_id":76561198127508905,"connected_time":330000000000,"state":"active","ping":41},{"user_id":323,"name":"Big Boy Creams","steam_id":76561198141698062,"connected_time":768000000000,"state":"active","ping":80},{"user_id":312,"name":"ElectGibbon","steam_id":76561198379243449,"connected_time":1669000000000,"state":"active","ping":50},{"user_id":327,"name":"Barry Allen","steam_id":76561198152210509,"connected_time":673000000000,"state":"active","ping":39},{"user_id":328,"name":"Cup","steam_id":76561198038485845,"connected_time":628000000000,"state":"active","ping":30},{"user_id":330,"name":"a black slave","steam_id":76561199237694314,"connected_time":486000000000,"state":"active","ping":73}]},{"server_id":123,"name":"Uncletopia | Sydney | 2 | All Maps","name_short":"syd-2","host":"syd-1.au.uncletopia.com","port":27025,"enabled":true,"region":"au","cc":"au","latitude":-33.865143,"longitude":151.2099,"reserved":0,"last_update":"0001-01-01T00:00:00Z","name_a2s":"Uncletopia | Sydney | 2 | All Maps","protocol":17,"map":"cp_sunshine","folder":"tf","game":"Team Fortress","app_id":440,"player_count":16,"max_players":24,"Bots":0,"server_type":"Dedicated","server_os":"Linux","password":true,"vac":true,"version":"7742253","steam_id":85568392924470002,"keywords":["cp","nocrits","nodmgspread","uncletopia"],"game_id":440,"stv_port":27026,"stv_name":"Uncletopia | Sydney | 2 | All Maps | STV","players":[{"user_id":124,"name":"Lnivers","steam_id":76561198819557953,"connected_time":13000000000,"state":"active","ping":104},{"user_id":78,"name":"Emerald the Snake","steam_id":76561199013344853,"connected_time":3072000000000,"state":"active","ping":56},{"user_id":117,"name":"West","steam_id":76561198365996796,"connected_time":333000000000,"state":"active","ping":49},{"user_id":110,"name":"beth.cubitt","steam_id":76561198454733447,"connected_time":616000000000,"state":"active","ping":75},{"user_id":107,"name":"CypressFluff (She/Her)","steam_id":76561198174667818,"connected_time":750000000000,"state":"active","ping":42},{"user_id":112,"name":"filthy fintan","steam_id":76561198099334542,"connected_time":553000000000,"state":"active","ping":54},{"user_id":113,"name":"Oysenberry","steam_id":76561198125443335,"connected_time":544000000000,"state":"active","ping":42},{"user_id":120,"name":"ConntourEng","steam_id":76561198413229166,"connected_time":149000000000,"state":"active","ping":259},{"user_id":116,"name":"B o S s","steam_id":76561199201678715,"connected_time":472000000000,"state":"active","ping":61},{"user_id":121,"name":"McMatt","steam_id":76561199014496823,"connected_time":145000000000,"state":"active","ping":249},{"user_id":81,"name":"lem","steam_id":76561199119233603,"connected_time":2995000000000,"state":"active","ping":59},{"user_id":122,"name":"OwlzOwlzOwlz","steam_id":76561198110481249,"connected_time":143000000000,"state":"active","ping":272},{"user_id":95,"name":"Raypest","steam_id":76561197980678745,"connected_time":1557000000000,"state":"active","ping":44},{"user_id":75,"name":"Pug","steam_id":76561198136794372,"connected_time":3137000000000,"state":"active","ping":51},{"user_id":66,"name":"SoyBoy","steam_id":76561197992447102,"connected_time":3759000000000,"state":"active","ping":64},{"user_id":86,"name":"DiceKingRequiem","steam_id":76561199090665280,"connected_time":2705000000000,"state":"active","ping":60}]},{"server_id":395,"name":"Uncletopia | Sydney | 3 | All Maps","name_short":"syd-3","host":"syd-1.au.uncletopia.com","port":27035,"enabled":true,"region":"au","cc":"au","latitude":-33.865143,"longitude":151.2099,"reserved":0,"last_update":"0001-01-01T00:00:00Z","name_a2s":"Uncletopia | Sydney | 3 | All Maps","protocol":17,"map":"koth_viaduct","folder":"tf","game":"Team Fortress","app_id":440,"player_count":0,"max_players":24,"Bots":0,"server_type":"Dedicated","server_os":"Linux","password":true,"vac":true,"version":"7742253","steam_id":85568392925194467,"keywords":["cp","nocrits","nodmgspread","uncletopia"],"game_id":440,"stv_port":27036,"stv_name":"Uncletopia | Sydney | 3 | All Maps | STV","players":null},{"server_id":396,"name":"Uncletopia | Sydney | 4 | All Maps","name_short":"syd-4","host":"syd-1.au.uncletopia.com","port":27045,"enabled":true,"region":"au","cc":"au","latitude":-33.865143,"longitude":151.2099,"reserved":0,"last_update":"0001-01-01T00:00:00Z","name_a2s":"Uncletopia | Sydney | 4 | All Maps","protocol":17,"map":"pl_frontier_final","folder":"tf","game":"Team Fortress","app_id":440,"player_count":0,"max_players":24,"Bots":0,"server_type":"Dedicated","server_os":"Linux","password":true,"vac":true,"version":"7742253","steam_id":85568392925397958,"keywords":["nocrits","nodmgspread","payload","uncletopia"],"game_id":440,"stv_port":27046,"stv_name":"Uncletopia | Sydney | 4 | All Maps | STV","players":null},{"server_id":58,"name":"Uncletopia | Sydney | 5 | Stopwatch Beta","name_short":"syd-5","host":"syd-1.au.uncletopia.com","port":27055,"enabled":true,"region":"au","cc":"au","latitude":-33.865143,"longitude":151.2099,"reserved":0,"last_update":"0001-01-01T00:00:00Z","name_a2s":"Uncletopia | Sydney | 5 | Stopwatch Beta","protocol":17,"map":"workshop/koth_ashville_final.ugc2130459942","folder":"tf","game":"Team Fortress","app_id":440,"player_count":0,"max_players":24,"Bots":0,"server_type":"Dedicated","server_os":"Linux","password":true,"vac":true,"version":"7742253","steam_id":85568392925397959,"keywords":["cp","nocrits","nodmgspread","uncletopia"],"game_id":440,"stv_port":27056,"stv_name":"Uncletopia | Sydney | 5 | Stopwatch Beta | STV","players":null},{"server_id":59,"name":"Uncletopia | Sydney | 6 | Community","name_short":"syd-6","host":"syd-1.au.uncletopia.com","port":27065,"enabled":true,"region":"au","cc":"au","latitude":-33.865143,"longitude":151.2099,"reserved":0,"last_update":"0001-01-01T00:00:00Z","name_a2s":"Uncletopia | Sydney | 6 | Community","protocol":17,"map":"workshop/pl_fifthcurve_rc1.ugc648227046","folder":"tf","game":"Team Fortress","app_id":440,"player_count":0,"max_players":24,"Bots":0,"server_type":"Dedicated","server_os":"Linux","password":true,"vac":true,"version":"7742253","steam_id":85568392925397960,"keywords":["nocrits","nodmgspread","payload","uncletopia"],"game_id":440,"stv_port":27066,"stv_name":"Uncletopia | Sydney | 6 | Community | STV","players":null},{"server_id":49,"name":"Uncletopia | Warsaw | 1 | All Maps","name_short":"waw-1","host":"waw-1.pl.uncletopia.com","port":27015,"enabled":true,"region":"eu","cc":"pl","latitude":52.2297,"longitude":21.017532,"reserved":0,"last_update":"0001-01-01T00:00:00Z","name_a2s":"","protocol":0,"map":"","folder":"","game":"","app_id":0,"player_count":0,"max_players":0,"Bots":0,"server_type":"","server_os":"","password":false,"vac":false,"version":"","steam_id":0,"keywords":null,"game_id":0,"stv_port":0,"stv_name":"","players":null},{"server_id":50,"name":"Uncletopia | Warsaw | 2 | All Maps","name_short":"waw-2","host":"waw-1.pl.uncletopia.com","port":27025,"enabled":true,"region":"eu","cc":"pl","latitude":52.2297,"longitude":21.017532,"reserved":0,"last_update":"0001-01-01T00:00:00Z","name_a2s":"Uncletopia | Warsaw | 2 | All Maps","protocol":17,"map":"pl_snowycoast","folder":"tf","game":"Team Fortress","app_id":440,"player_count":0,"max_players":24,"Bots":0,"server_type":"Dedicated","server_os":"Linux","password":true,"vac":true,"version":"7742253","steam_id":85568392925397851,"keywords":["nocrits","nodmgspread","payload","uncletopia"],"game_id":440,"stv_port":27026,"stv_name":"Uncletopia | Warsaw | 2 | All Maps | STV","players":null},{"server_id":51,"name":"Uncletopia | Warsaw | 3 | All Maps","name_short":"waw-3","host":"waw-1.pl.uncletopia.com","port":27035,"enabled":true,"region":"eu","cc":"pl","latitude":52.2297,"longitude":21.017532,"reserved":0,"last_update":"0001-01-01T00:00:00Z","name_a2s":"Uncletopia | Warsaw | 3 | All Maps","protocol":17,"map":"cp_process_final","folder":"tf","game":"Team Fortress","app_id":440,"player_count":0,"max_players":24,"Bots":0,"server_type":"Dedicated","server_os":"Linux","password":true,"vac":true,"version":"7742253","steam_id":85568392925397852,"keywords":["cp","nocrits","nodmgspread","uncletopia"],"game_id":440,"stv_port":27036,"stv_name":"Uncletopia | Warsaw | 3 | All Maps | STV","players":null},{"server_id":52,"name":"Uncletopia | Warsaw | 4 | All Maps","name_short":"waw-4","host":"waw-1.pl.uncletopia.com","port":27045,"enabled":true,"region":"eu","cc":"pl","latitude":52.2297,"longitude":21.017532,"reserved":0,"last_update":"0001-01-01T00:00:00Z","name_a2s":"Uncletopia | Warsaw | 4 | All Maps","protocol":17,"map":"koth_highpass","folder":"tf","game":"Team Fortress","app_id":440,"player_count":0,"max_players":24,"Bots":0,"server_type":"Dedicated","server_os":"Linux","password":true,"vac":true,"version":"7742253","steam_id":85568392925397853,"keywords":["cp","nocrits","nodmgspread","uncletopia"],"game_id":440,"stv_port":27046,"stv_name":"Uncletopia | Warsaw | 4 | All Maps | STV","players":null},{"server_id":53,"name":"Uncletopia | Warsaw | 5 | Stopwatch Beta","name_short":"waw-5","host":"waw-1.pl.uncletopia.com","port":27055,"enabled":true,"region":"eu","cc":"pl","latitude":52.2297,"longitude":21.017532,"reserved":0,"last_update":"0001-01-01T00:00:00Z","name_a2s":"Uncletopia | Warsaw | 5 | Stopwatch Beta","protocol":17,"map":"koth_lakeside_final","folder":"tf","game":"Team Fortress","app_id":440,"player_count":0,"max_players":24,"Bots":0,"server_type":"Dedicated","server_os":"Linux","password":true,"vac":true,"version":"7742253","steam_id":85568392925397854,"keywords":["cp","nocrits","nodmgspread","uncletopia"],"game_id":440,"stv_port":27056,"stv_name":"Uncletopia | Warsaw | 5 | Stopwatch Beta | STV","players":null},{"server_id":54,"name":"Uncletopia | Warsaw | 6 | Community","name_short":"waw-6","host":"waw-1.pl.uncletopia.com","port":27065,"enabled":true,"region":"eu","cc":"pl","latitude":52.2297,"longitude":21.017532,"reserved":0,"last_update":"0001-01-01T00:00:00Z","name_a2s":"Uncletopia | Warsaw | 6 | Community","protocol":17,"map":"koth_highpass","folder":"tf","game":"Team Fortress","app_id":440,"player_count":0,"max_players":24,"Bots":0,"server_type":"Dedicated","server_os":"Linux","password":true,"vac":true,"version":"7742253","steam_id":85568392925397856,"keywords":["cp","nocrits","nodmgspread","uncletopia"],"game_id":440,"stv_port":27066,"stv_name":"Uncletopia | Warsaw | 6 | Community | STV","players":null}]}