{"status":true,"message":"","result":[{"server_id":9,"name":"Uncletopia | Atlanta | 1 | All Maps","name_short":"atl-1","host":"atl-1.us.uncletopia.com","port":27015,"enabled":true,"region":"us-east","cc":"us","latitude":33.753746,"longitude":-84.38633,"reserved":0,"last_update":"0001-01-01T00:00:00Z","name_a2s":"Uncletopia | Atlanta | 1 | All Maps","protocol":17,"map":"pl_badwater","folder":"tf","game":"Team Fortress","app_id":440,"player_count":23,"max_players":24,"Bots":0,"server_type":"Dedicated","server_os":"Linux","password":true,"vac":true,"version":"7757534","steam_id":85568392924469982,"keywords":["nocrits","nodmgspread","payload","uncletopia"],"game_id":440,"stv_port":27016,"stv_name":"Uncletopia | Atlanta | 1 | All Maps | STV","players":[{"user_id":384,"name":"frank","steam_id":76561198045436159,"connected_time":390000000000,"state":"active","ping":94},{"user_id":376,"name":"blazzeh","steam_id":76561198053407069,"connected_time":1067000000000,"state":"active","ping":85},{"user_id":398,"name":"pigswill","steam_id":76561197999081865,"connected_time":97000000000,"state":"active","ping":75},{"user_id":387,"name":"gettysburg","steam_id":76561198016157051,"connected_time":348000000000,"state":"active","ping":59},{"user_id":388,"name":"guess i'll die...virtually","steam_id":76561199112291386,"connected_time":321000000000,"state":"active","ping":117},{"user_id":389,"name":"9:02","steam_id":76561198795862574,"connected_time":317000000000,"state":"active","ping":69},{"user_id":346,"name":"ash","steam_id":76561198127890645,"connected_time":4212000000000,"state":"active","ping":74},{"user_id":390,"name":"Cool Guy Mcgee","steam_id":76561198353638422,"connected_time":301000000000,"state":"active","ping":103},{"user_id":391,"name":"Open Mailbox","steam_id":76561198051933580,"connected_time":300000000000,"state":"active","ping":151},{"user_id":378,"name":"SeaBass","steam_id":76561198278914206,"connected_time":889000000000,"state":"active","ping":66},{"user_id":399,"name":"zero","steam_id":76561198113096772,"connected_time":94000000000,"state":"active","ping":121},{"user_id":397,"name":"Mr.Pan","steam_id":76561198069030613,"connected_time":108000000000,"state":"active","ping":83},{"user_id":394,"name":"Rue","steam_id":76561198013135993,"connected_time":227000000000,"state":"active","ping":61},{"user_id":395,"name":"Summer","steam_id":76561198121692871,"connected_time":201000000000,"state":"active","ping":73},{"user_id":372,"name":"BLU1 | Flint","steam_id":76561198066547582,"connected_time":1327000000000,"state":"active","ping":112},{"user_id":396,"name":"Addy \u003c3","steam_id":76561198045819723,"connected_time":183000000000,"state":"active","ping":88},{"user_id":358,"name":"QubicaAMF Bowling Systems LLC","steam_id":76561199134895220,"connected_time":3428000000000,"state":"active","ping":77},{"user_id":400,"name":"A Fucking Degenerate","steam_id":76561198093261788,"connected_time":74000000000,"state":"active","ping":71},{"user_id":401,"name":"☼ kevin \"berserker\" hall","steam_id":76561198074180953,"connected_time":18000000000,"state":"active","ping":83},{"user_id":382,"name":"Rockhead","steam_id":76561197995196535,"connected_time":795000000000,"state":"active","ping":90},{"user_id":402,"name":"Peter Griffin (the Boss Baby)","steam_id":76561199051283848,"connected_time":9000000000,"state":"spawning","ping":68},{"user_id":383,"name":"RED1 | Pharaxer™","steam_id":76561198051236069,"connected_time":491000000000,"state":"active","ping":149},{"user_id":324,"name":"lil hog","steam_id":76561199230929836,"connected_time":5743000000000,"state":"active","ping":78}]},{"server_id":400,"name":"Uncletopia | Atlanta | 3 | Stopwatch Beta","name_short":"atl-3","host":"atl-1.us.uncletopia.com","port":27035,"enabled":true,"region":"us-east","cc":"us","latitude":33.753746,"longitude":-84.38633,"reserved":0,"last_update":"0001-01-01T00:00:00Z","name_a2s":"Uncletopia | Atlanta | 3 | Stopwatch Beta","protocol":17,"map":"pl_upward","folder":"tf","game":"Team Fortress","app_id":440,"player_count":0,"max_players":24,"Bots":0,"server_type":"Dedicated","server_os":"Linux","password":true,"vac":true,"version":"7757534","steam_id":85568392924515187,"keywords":["nocrits","nodmgspread","payload","uncletopia"],"game_id":440,"stv_port":27036,"stv_name":"Uncletopia | Atlanta | 3 | Stopwatch Beta | STV","players":null},{"server_id":401,"name":"Uncletopia | Atlanta | 4 | No Payload","name_short":"atl-4","host":"atl-1.us.uncletopia.com","port":27045,"enabled":true,"region":"us-east","cc":"us","latitude":33.753746,"longitude":-84.38633,"reserved":0,"last_update":"0001-01-01T00:00:00Z","name_a2s":"Uncletopia | Atlanta | 4 | No Payload","protocol":17,"map":"pl_pier","folder":"tf","game":"Team Fortress","app_id":440,"player_count":0,"max_players":24,"Bots":0,"server_type":"Dedicated","server_os":"Linux","password":true,"vac":true,"version":"7723704","steam_id":85568392924515188,"keywords":["nocrits","nodmgspread","payload","uncletopia"],"game_id":440,"stv_port":27046,"stv_name":"Uncletopia | Atlanta | 4 | No Payload | STV","players":null},{"server_id":2,"name":"Uncletopia | Chicago | 1 | All Maps","name_short":"chi-1","host":"chi-1.us.uncletopia.com","port":27015,"enabled":true,"region":"us-central","cc":"us","latitude":41.881832,"longitude":-87.62318,"reserved":0,"last_update":"0001-01-01T00:00:00Z","name_a2s":"Uncletopia | Chicago | 1 | All Maps","protocol":17,"map":"pl_goldrush","folder":"tf","game":"Team Fortress","app_id":440,"player_count":5,"max_players":24,"Bots":0,"server_type":"Dedicated","server_os":"Linux","password":true,"vac":true,"version":"7757534","steam_id":85568392924469984,"keywords":["nocrits","nodmgspread","payload","uncletopia"],"game_id":440,"stv_port":27016,"stv_name":"Uncletopia | Chicago | 1 | All Maps | STV","players":[{"user_id":340,"name":"aimee","steam_id":76561198834309212,"connected_time":281000000000,"state":"active","ping":71},{"user_id":343,"name":"xiphoidar","steam_id":76561198146044049,"connected_time":79000000000,"state":"active","ping":63},{"user_id":342,"name":"suicide bomber","steam_id":76561199236667251,"connected_time":264000000000,"state":"active","ping":101},{"user_id":344,"name":"the deadliest pyroshark","steam_id":76561198374227766,"connected_time":76000000000,"state":"active","ping":105},{"user_id":338,"name":"mepng","steam_id":76561199018758598,"connected_time":709000000000,"state":"active","ping":94}]},{"server_id":106,"name":"Uncletopia | Chicago | 2 | All Maps","name_short":"chi-2","host":"chi-1.us.uncletopia.com","port":27025,"enabled":true,"region":"us-central","cc":"us","latitude":41.881832,"longitude":-87.62318,"reserved":0,"last_update":"0001-01-01T00:00:00Z","name_a2s":"Uncletopia | Chicago | 2 | All Maps","protocol":17,"map":"pl_frontier_final","folder":"tf","game":"Team Fortress","app_id":440,"player_count":24,"max_players":24,"Bots":0,"server_type":"Dedicated","server_os":"Linux","password":true,"vac":true,"version":"7757534","steam_id":85568392924469985,"keywords":["nocrits","nodmgspread","payload","uncletopia"],"game_id":440,"stv_port":27026,"stv_name":"Uncletopia | Chicago | 2 | All Maps | STV","players":[{"user_id":461,"name":"Ghettomunchies™","steam_id":76561198070261020,"connected_time":1378000000000,"state":"active","ping":66},{"user_id":424,"name":"howtobepker","steam_id":76561198115053865,"connected_time":4529000000000,"state":"active","ping":86},{"user_id":473,"name":"Dokki","steam_id":76561198355935693,"connected_time":447000000000,"state":"active","ping":49},{"user_id":456,"name":"Snowberry Kush(nosound)","steam_id":76561198392280580,"connected_time":2012000000000,"state":"active","ping":75},{"user_id":357,"name":"Mrcheesey","steam_id":76561199078252493,"connected_time":9063000000000,"state":"active","ping":97},{"user_id":471,"name":"Mikael_01","steam_id":76561199080253129,"connected_time":760000000000,"state":"active","ping":185},{"user_id":470,"name":"rekt","steam_id":76561198832786919,"connected_time":820000000000,"state":"active","ping":199},{"user_id":476,"name":"Pebbled","steam_id":76561199390347605,"connected_time":220000000000,"state":"active","ping":79},{"user_id":459,"name":"juhg, koop","steam_id":76561198388955908,"connected_time":1842000000000,"state":"active","ping":69},{"user_id":354,"name":"Awildrock","steam_id":76561198040401086,"connected_time":9146000000000,"state":"active","ping":81},{"user_id":474,"name":"jrdoran","steam_id":76561197984753094,"connected_time":431000000000,"state":"active","ping":54},{"user_id":348,"name":"Iroquois Pliskin","steam_id":76561198056704533,"connected_time":10310000000000,"state":"active","ping":99},{"user_id":477,"name":"Quatts","steam_id":76561198051482153,"connected_time":205000000000,"state":"active","ping":57},{"user_id":468,"name":"Sheppy","steam_id":76561198295126940,"connected_time":858000000000,"state":"active","ping":63},{"user_id":464,"name":"Pancetta's vore window","steam_id":76561198428086758,"connected_time":1164000000000,"state":"active","ping":85},{"user_id":433,"name":"dtnk","steam_id":76561199007189876,"connected_time":3385000000000,"state":"active","ping":53},{"user_id":439,"name":"BeKnown","steam_id":76561198344338970,"connected_time":3244000000000,"state":"active","ping":96},{"user_id":453,"name":"Antifa Alligator","steam_id":76561197988170816,"connected_time":2178000000000,"state":"active","ping":61},{"user_id":454,"name":"Aribari","steam_id":76561198117327938,"connected_time":2173000000000,"state":"active","ping":60},{"user_id":465,"name":"Coffee with a Stranger","steam_id":76561198307422313,"connected_time":1028000000000,"state":"active","ping":71},{"user_id":398,"name":"Diesel","steam_id":76561198448815852,"connected_time":6213000000000,"state":"active","ping":91},{"user_id":410,"name":"Candy Sparkles","steam_id":76561198126871264,"connected_time":4859000000000,"state":"active","ping":99},{"user_id":387,"name":"McGangBang","steam_id":76561198862379865,"connected_time":6444000000000,"state":"active","ping":54},{"user_id":466,"name":"Glory","steam_id":76561198013975080,"connected_time":1027000000000,"state":"active","ping":78}]},{"server_id":402,"name":"Uncletopia | Chicago | 3 | All Maps","name_short":"chi-3","host":"chi-1.us.uncletopia.com","port":27035,"enabled":true,"region":"us-central","cc":"us","latitude":41.881832,"longitude":-87.62318,"reserved":0,"last_update":"0001-01-01T00:00:00Z","name_a2s":"Uncletopia | Chicago | 3 | All Maps","protocol":17,"map":"ctf_2fort","folder":"tf","game":"Team Fortress","app_id":440,"player_count":22,"max_players":24,"Bots":0,"server_type":"Dedicated","server_os":"Linux","password":true,"vac":true,"version":"7757534","steam_id":85568392924515191,"keywords":["ctf","nocrits","nodmgspread","uncletopia"],"game_id":440,"stv_port":27036,"stv_name":"Uncletopia | Chicago | 3 | All Maps | STV","players":[{"user_id":252,"name":"The Power","steam_id":76561198060566884,"connected_time":918000000000,"state":"active","ping":162},{"user_id":257,"name":"CrazyMush","steam_id":76561198141783855,"connected_time":563000000000,"state":"active","ping":60},{"user_id":261,"name":"Trilobite.jpg","steam_id":76561198138749357,"connected_time":263000000000,"state":"active","ping":55},{"user_id":236,"name":"Mario2109","steam_id":76561198431842219,"connected_time":1443000000000,"state":"active","ping":55},{"user_id":233,"name":"NUt","steam_id":76561198031007966,"connected_time":1767000000000,"state":"active","ping":74},{"user_id":237,"name":"Dr. Dick","steam_id":76561198138011922,"connected_time":1427000000000,"state":"active","ping":82},{"user_id":264,"name":"Mechwarrior_Marauder","steam_id":76561198800368606,"connected_time":65000000000,"state":"active","ping":187},{"user_id":241,"name":"extinct111","steam_id":76561199013696367,"connected_time":1283000000000,"state":"active","ping":65},{"user_id":210,"name":"Dad Rock Deluxe","steam_id":76561198051224819,"connected_time":3891000000000,"state":"active","ping":56},{"user_id":186,"name":"AureateAura","steam_id":76561198046902265,"connected_time":5097000000000,"state":"active","ping":69},{"user_id":260,"name":"Turtlin'","steam_id":76561198885096042,"connected_time":313000000000,"state":"active","ping":63},{"user_id":263,"name":"SPEAKERS","steam_id":76561198138221795,"connected_time":163000000000,"state":"active","ping":73},{"user_id":213,"name":"Bagaboned","steam_id":76561198043761335,"connected_time":3592000000000,"state":"active","ping":96},{"user_id":262,"name":"King Kinyon","steam_id":76561198080525234,"connected_time":239000000000,"state":"active","ping":78},{"user_id":253,"name":"AER0.exe","steam_id":76561198062940197,"connected_time":892000000000,"state":"active","ping":58},{"user_id":248,"name":"DiamondEpsilon","steam_id":76561198203883311,"connected_time":1083000000000,"state":"active","ping":74},{"user_id":225,"name":"Hey You Mewtwo","steam_id":76561198862404673,"connected_time":3064000000000,"state":"active","ping":107},{"user_id":230,"name":"rabscootle","steam_id":76561198045619076,"connected_time":2650000000000,"state":"active","ping":45},{"user_id":139,"name":"THE GOD KING","steam_id":76561198300349976,"connected_time":9549000000000,"state":"active","ping":79},{"user_id":251,"name":"Poison Ivy","steam_id":76561198072384574,"connected_time":1007000000000,"state":"active","ping":53},{"user_id":255,"name":"Redkiller","steam_id":76561199453655288,"connected_time":833000000000,"state":"active","ping":74}]},{"server_id":403,"name":"Uncletopia | Chicago | 4 | All Maps","name_short":"chi-4","host":"chi-1.us.uncletopia.com","port":27045,"enabled":true,"region":"us-central","cc":"us","latitude":41.881832,"longitude":-87.62318,"reserved":0,"last_update":"0001-01-01T00:00:00Z","name_a2s":"Uncletopia | Chicago | 4 | All Maps","protocol":17,"map":"pl_badwater","folder":"tf","game":"Team Fortress","app_id":440,"player_count":25,"max_players":24,"Bots":0,"server_type":"Dedicated","server_os":"Linux","password":true,"vac":true,"version":"7757534","steam_id":85568392924515193,"keywords":["nocrits","nodmgspread","payload","uncletopia"],"game_id":440,"stv_port":27046,"stv_name":"Uncletopia | Chicago | 4 | All Maps | STV","players":[{"user_id":256,"name":"Skrt.","steam_id":76561197970654243,"connected_time":889000000000,"state":"active","ping":68},{"user_id":227,"name":"TheTruthOfTheCessationOfDukkha","steam_id":76561198214370515,"connected_time":2859000000000,"state":"active","ping":58},{"user_id":259,"name":"goron","steam_id":76561198051089144,"connected_time":692000000000,"state":"active","ping":90},{"user_id":263,"name":"Bob Bing Swagger","steam_id":76561198070133031,"connected_time":282000000000,"state":"active","ping":55},{"user_id":228,"name":"Ghoulish in Nature","steam_id":76561198058840585,"connected_time":2842000000000,"state":"active","ping":67},{"user_id":246,"name":"Furry Saul Goodman","steam_id":76561198069580305,"connected_time":1607000000000,"state":"active","ping":49},{"user_id":251,"name":"Quark","steam_id":76561198328155605,"connected_time":1044000000000,"state":"active","ping":58},{"user_id":248,"name":"Jeromius","steam_id":76561198051865275,"connected_time":1377000000000,"state":"active","ping":78},{"user_id":253,"name":"magicbeetle","steam_id":76561199160422863,"connected_time":928000000000,"state":"active","ping":134},{"user_id":254,"name":"Huge","steam_id":76561199030987614,"connected_time":908000000000,"state":"active","ping":79},{"user_id":245,"name":"Tallyden","steam_id":76561197998572962,"connected_time":1758000000000,"state":"active","ping":60},{"user_id":209,"name":"Jayden","steam_id":76561198039459992,"connected_time":4146000000000,"state":"active","ping":79},{"user_id":267,"name":"mow","steam_id":76561198125947844,"connected_time":14000000000,"state":"spawning","ping":98},{"user_id":240,"name":"Tony Bologna","steam_id":76561198147454271,"connected_time":2262000000000,"state":"active","ping":99},{"user_id":258,"name":"fire","steam_id":76561198127149121,"connected_time":785000000000,"state":"active","ping":80},{"user_id":262,"name":"Pepsiman","steam_id":76561198436946165,"connected_time":628000000000,"state":"active","ping":59},{"user_id":132,"name":"b2023afy","steam_id":76561198084208649,"connected_time":8861000000000,"state":"active","ping":100},{"user_id":257,"name":"Piechu","steam_id":76561198116275075,"connected_time":882000000000,"state":"active","ping":63},{"user_id":215,"name":"Romo","steam_id":76561198243101572,"connected_time":4055000000000,"state":"active","ping":89},{"user_id":264,"name":"YouShallNotSapp","steam_id":76561198057905024,"connected_time":265000000000,"state":"connecting","ping":0},{"user_id":255,"name":"Snarkel","steam_id":76561198070688550,"connected_time":906000000000,"state":"active","ping":54},{"user_id":204,"name":"Magnus Rex","steam_id":76561197987091236,"connected_time":4879000000000,"state":"active","ping":94},{"user_id":203,"name":"Dr Smeggman","steam_id":76561197966614845,"connected_time":5086000000000,"state":"active","ping":143},{"user_id":266,"name":"AAAAAAAAAAAAAAAAAAAAAAAAAAAAAAA","steam_id":76561198817866879,"connected_time":109000000000,"state":"active","ping":80},{"user_id":265,"name":"beetroot powder","steam_id":76561198035730098,"connected_time":262000000000,"state":"active","ping":52}]},{"server_id":36,"name":"Uncletopia | Chicago | 5 | All Maps","name_short":"chi-5","host":"chi-2.us.uncletopia.com","port":27015,"enabled":true,"region":"us-central","cc":"us","latitude":41.881832,"longitude":-87.62318,"reserved":0,"last_update":"0001-01-01T00:00:00Z","name_a2s":"Uncletopia | Chicago | 5 | All Maps","protocol":17,"map":"pl_pier","folder":"tf","game":"Team Fortress","app_id":440,"player_count":0,"max_players":24,"Bots":0,"server_type":"Dedicated","server_os":"Linux","password":true,"vac":true,"version":"7757534","steam_id":85568392924866362,"keywords":["nocrits","nodmgspread","payload","uncletopia"],"game_id":440,"stv_port":27016,"stv_name":"Uncletopia | Chicago | 5 | All Maps | STV","players":null},{"server_id":37,"name":"Uncletopia | Chicago | 6 | All Maps","name_short":"chi-6","host":"chi-2.us.uncletopia.com","port":27025,"enabled":true,"region":"us-central","cc":"us","latitude":41.881832,"longitude":-87.62318,"reserved":0,"last_update":"0001-01-01T00:00:00Z","name_a2s":"Uncletopia | Chicago | 6 | All Maps","protocol":17,"map":"pl_badwater","folder":"tf","game":"Team Fortress","app_id":440,"player_count":23,"max_players":24,"Bots":0,"server_type":"Dedicated","server_os":"Linux","password":true,"vac":true,"version":"7757534","steam_id":85568392924866363,"keywords":["nocrits","nodmgspread","payload","uncletopia"],"game_id":440,"stv_port":27026,"stv_name":"Uncletopia | Chicago | 6 | All Maps | STV","players":[{"user_id":20,"name":"AmirKhaan","steam_id":76561198992403254,"connected_time":2311000000000,"state":"active","ping":76},{"user_id":21,"name":"using vpn to get better ping","steam_id":76561198975527343,"connected_time":2090000000000,"state":"active","ping":45},{"user_id":15,"name":"silly little girl ♥","steam_id":76561198054925421,"connected_time":2506000000000,"state":"active","ping":56},{"user_id":38,"name":"Skuntle Bingoid","steam_id":76561198046942778,"connected_time":1017000000000,"state":"active","ping":78},{"user_id":26,"name":"4+1MyriadFuturesCosMo@BousouFC","steam_id":76561198181929019,"connected_time":1568000000000,"state":"active","ping":51},{"user_id":30,"name":"Cthulhu","steam_id":76561198326381898,"connected_time":1348000000000,"state":"active","ping":144},{"user_id":39,"name":"lite","steam_id":76561198300633951,"connected_time":960000000000,"state":"active","ping":106},{"user_id":25,"name":"MrPoopy","steam_id":76561199456009540,"connected_time":1623000000000,"state":"active","ping":94},{"user_id":37,"name":"theRainyMute","steam_id":76561198127625760,"connected_time":1134000000000,"state":"active","ping":61},{"user_id":61,"name":"pudl","steam_id":76561198043726592,"connected_time":238000000000,"state":"active","ping":60},{"user_id":32,"name":"Flaminghornet","steam_id":76561198247559882,"connected_time":1305000000000,"state":"active","ping":144},{"user_id":48,"name":"Dispenser (Twan)","steam_id":76561197991064908,"connected_time":575000000000,"state":"active","ping":71},{"user_id":62,"name":"Xriu™","steam_id":76561198084927714,"connected_time":204000000000,"state":"active","ping":87},{"user_id":43,"name":"failing pre algebra type beat","steam_id":76561198005806915,"connected_time":809000000000,"state":"active","ping":59},{"user_id":44,"name":"begolds8","steam_id":76561198841069098,"connected_time":713000000000,"state":"active","ping":94},{"user_id":45,"name":"nicolas the mercenary","steam_id":76561199077641644,"connected_time":678000000000,"state":"active","ping":64},{"user_id":59,"name":"GREASY","steam_id":76561199060542851,"connected_time":309000000000,"state":"active","ping":74},{"user_id":53,"name":"white ray","steam_id":76561198026664629,"connected_time":456000000000,"state":"active","ping":59},{"user_id":63,"name":"Redbows22","steam_id":76561199452479390,"connected_time":180000000000,"state":"active","ping":88},{"user_id":52,"name":"Anhkrehg","steam_id":76561197963201684,"connected_time":467000000000,"state":"active","ping":92},{"user_id":54,"name":"Interrobang","steam_id":76561198385044529,"connected_time":399000000000,"state":"active","ping":150},{"user_id":56,"name":"Wingz","steam_id":76561198135885865,"connected_time":385000000000,"state":"active","ping":63},{"user_id":60,"name":"cookui","steam_id":76561199088402122,"connected_time":307000000000,"state":"active","ping":90}]},{"server_id":38,"name":"Uncletopia | Chicago | 7 | Stopwatch Beta","name_short":"chi-7","host":"chi-2.us.uncletopia.com","port":27035,"enabled":true,"region":"us-central","cc":"us","latitude":41.881832,"longitude":-87.62318,"reserved":0,"last_update":"0001-01-01T00:00:00Z","name_a2s":"Uncletopia | Chicago | 7 | Stopwatch Beta","protocol":17,"map":"workshop/koth_ramjam_rc1.ugc459778887","folder":"tf","game":"Team Fortress","app_id":440,"player_count":0,"max_players":24,"Bots":0,"server_type":"Dedicated","server_os":"Linux","password":true,"vac":true,"version":"7757534","steam_id":85568392924866364,"keywords":["cp","nocrits","nodmgspread","uncletopia"],"game_id":440,"stv_port":27036,"stv_name":"Uncletopia | Chicago | 7 | Stopwatch Beta | STV","players":null},{"server_id":39,"name":"Uncletopia | Chicago | 8 | Community","name_short":"chi-8","host":"chi-2.us.uncletopia.com","port":27045,"enabled":true,"region":"us-central","cc":"us","latitude":41.881832,"longitude":-87.62318,"reserved":0,"last_update":"0001-01-01T00:00:00Z","name_a2s":"Uncletopia | Chicago | 8 | Community","protocol":17,"map":"pl_pier","folder":"tf","game":"Team Fortress","app_id":440,"player_count":0,"max_players":24,"Bots":0,"server_type":"Dedicated","server_os":"Linux","password":true,"vac":true,"version":"7757534","steam_id":85568392924866365,"keywords":["nocrits","nodmgspread","payload","uncletopia"],"game_id":440,"stv_port":27046,"stv_name":"Uncletopia | Chicago | 8 | Community | STV","players":null},{"server_id":8,"name":"Uncletopia | Dallas | 1 | All Maps","name_short":"dal-1","host":"dal-1.us.uncletopia.com","port":27015,"enabled":true,"region":"us-central","cc":"us","latitude":32.779167,"longitude":-96.80889,"reserved":0,"last_update":"0001-01-01T00:00:00Z","name_a2s":"Uncletopia | Dallas | 1 | All Maps","protocol":17,"map":"pl_frontier_final","folder":"tf","game":"Team Fortress","app_id":440,"player_count":17,"max_players":24,"Bots":0,"server_type":"Dedicated","server_os":"Linux","password":true,"vac":true,"version":"7757534","steam_id":85568392924469986,"keywords":["nocrits","nodmgspread","payload","uncletopia"],"game_id":440,"stv_port":27016,"stv_name":"Uncletopia | Dallas | 1 | All Maps | STV","players":[{"user_id":362,"name":"lamadre07","steam_id":76561198067337453,"connected_time":895000000000,"state":"active","ping":74},{"user_id":358,"name":"Octo","steam_id":76561199064758232,"connected_time":1039000000000,"state":"active","ping":50},{"user_id":296,"name":"miraakz420","steam_id":76561199013850154,"connected_time":4025000000000,"state":"active","ping":78},{"user_id":365,"name":"SPOOKY HOTDOG","steam_id":76561197964599698,"connected_time":646000000000,"state":"active","ping":45},{"user_id":357,"name":"The creator(made twitter)","steam_id":76561198870900265,"connected_time":1360000000000,"state":"active","ping":114},{"user_id":347,"name":"Rakk","steam_id":76561198855176174,"connected_time":2068000000000,"state":"active","ping":72},{"user_id":356,"name":"',:^)","steam_id":76561198038123509,"connected_time":1486000000000,"state":"active","ping":89},{"user_id":361,"name":"Dr.Phil","steam_id":76561198047885355,"connected_time":958000000000,"state":"active","ping":78},{"user_id":338,"name":"Wolverine Fingerblaster","steam_id":76561198095394582,"connected_time":2245000000000,"state":"active","ping":55},{"user_id":353,"name":"FEESH EGG","steam_id":76561198164699517,"connected_time":1556000000000,"state":"active","ping":72},{"user_id":366,"name":"macironi and chesse","steam_id":76561199098060805,"connected_time":643000000000,"state":"active","ping":81},{"user_id":352,"name":"Can You Feel It Mr.Krabs","steam_id":76561198128302414,"connected_time":1562000000000,"state":"active","ping":67},{"user_id":301,"name":"Jello","steam_id":76561198890633732,"connected_time":3678000000000,"state":"active","ping":61},{"user_id":364,"name":"Alexx","steam_id":76561199075218334,"connected_time":855000000000,"state":"active","ping":55},{"user_id":328,"name":"Pussy Slambasket","steam_id":76561198093694322,"connected_time":2601000000000,"state":"active","ping":69},{"user_id":346,"name":"conscripted monk","steam_id":76561199029246232,"connected_time":2125000000000,"state":"active","ping":45}]},{"server_id":108,"name":"Uncletopia | Dallas | 2 | All Maps","name_short":"dal-2","host":"dal-1.us.uncletopia.com","port":27025,"enabled":true,"region":"us-central","cc":"us","latitude":32.779167,"longitude":-96.80889,"reserved":0,"last_update":"0001-01-01T00:00:00Z","name_a2s":"Uncletopia | Dallas | 2 | All Maps","protocol":17,"map":"pl_borneo","folder":"tf","game":"Team Fortress","app_id":440,"player_count":25,"max_players":24,"Bots":0,"server_type":"Dedicated","server_os":"Linux","password":true,"vac":true,"version":"7757534","steam_id":85568392924469988,"keywords":["nocrits","nodmgspread","payload","uncletopia"],"game_id":440,"stv_port":27026,"stv_name":"Uncletopia | Dallas | 2 | All Maps | STV","players":[{"user_id":252,"name":"Pleiades, the Sorceror","steam_id":76561198079590693,"connected_time":2327000000000,"state":"active","ping":78},{"user_id":283,"name":"Dagsdaf","steam_id":76561198055317112,"connected_time":311000000000,"state":"active","ping":95},{"user_id":274,"name":"Ricelover","steam_id":76561198064631164,"connected_time":742000000000,"state":"active","ping":79},{"user_id":255,"name":"Mallard","steam_id":76561198030597818,"connected_time":2015000000000,"state":"active","ping":97},{"user_id":282,"name":"scrapheap","steam_id":76561198202407087,"connected_time":390000000000,"state":"active","ping":84},{"user_id":284,"name":"Banana Patrick","steam_id":76561198258067237,"connected_time":308000000000,"state":"active","ping":103},{"user_id":285,"name":"грустный","steam_id":76561198274550638,"connected_time":302000000000,"state":"active","ping":46},{"user_id":281,"name":"cup","steam_id":76561198121245586,"connected_time":606000000000,"state":"active","ping":94},{"user_id":260,"name":"META.exe","steam_id":76561199067098696,"connected_time":1955000000000,"state":"active","ping":91},{"user_id":237,"name":"Johnny Lawrence #JohnnyMaxxing","steam_id":76561199367141671,"connected_time":3040000000000,"state":"active","ping":79},{"user_id":286,"name":"Alltrex","steam_id":76561198202254225,"connected_time":288000000000,"state":"active","ping":90},{"user_id":275,"name":"footoftheday","steam_id":76561198052712449,"connected_time":722000000000,"state":"active","ping":82},{"user_id":280,"name":"thegrinreaper22","steam_id":76561198946488952,"connected_time":645000000000,"state":"active","ping":143},{"user_id":258,"name":"Daddy","steam_id":76561198093028567,"connected_time":1982000000000,"state":"active","ping":82},{"user_id":287,"name":"Marshall","steam_id":76561198042570322,"connected_time":287000000000,"state":"active","ping":74},{"user_id":288,"name":"Master-e","steam_id":76561198173044685,"connected_time":283000000000,"state":"active","ping":101},{"user_id":277,"name":"Iron","steam_id":76561198247918478,"connected_time":671000000000,"state":"active","ping":70},{"user_id":241,"name":"GamingGal","steam_id":76561198254849212,"connected_time":2954000000000,"state":"active","ping":106},{"user_id":278,"name":"Eeshton","steam_id":76561198018309077,"connected_time":660000000000,"state":"active","ping":59},{"user_id":289,"name":"bloard","steam_id":76561198083206034,"connected_time":247000000000,"state":"connecting","ping":0},{"user_id":249,"name":"littengamer1112","steam_id":76561198992690060,"connected_time":2451000000000,"state":"active","ping":71},{"user_id":208,"name":"AlaNo","steam_id":76561198133099582,"connected_time":5396000000000,"state":"active","ping":75},{"user_id":279,"name":"evan_is_sauce","steam_id":76561199086802383,"connected_time":657000000000,"state":"active","ping":75},{"user_id":290,"name":"jumbo shrimp","steam_id":76561199085931379,"connected_time":235000000000,"state":"active","ping":64},{"user_id":222,"name":"webaline","steam_id":76561199052450127,"connected_time":4029000000000,"state":"active","ping":77}]},{"server_id":5,"name":"Uncletopia | Frankfurt | 1 | All Maps","name_short":"frk-1","host":"frk-1.de.uncletopia.com","port":27015,"enabled":true,"region":"eu","cc":"de","latitude":50.110924,"longitude":8.682127,"reserved":0,"last_update":"0001-01-01T00:00:00Z","name_a2s":"Uncletopia | Frankfurt | 1 | All Maps","protocol":17,"map":"cp_sunshine","folder":"tf","game":"Team Fortress","app_id":440,"player_count":10,"max_players":24,"Bots":0,"server_type":"Dedicated","server_os":"Linux","password":true,"vac":true,"version":"7757534","steam_id":85568392924469989,"keywords":["cp","nocrits","nodmgspread","uncletopia"],"game_id":440,"stv_port":27016,"stv_name":"Uncletopia | Frankfurt | 1 | All Maps | STV","players":[{"user_id":245,"name":"Kati","steam_id":76561198007231088,"connected_time":2382000000000,"state":"active","ping":55},{"user_id":269,"name":"TidB","steam_id":76561198055342304,"connected_time":172000000000,"state":"active","ping":53},{"user_id":271,"name":"Washed up medic main","steam_id":76561198347336086,"connected_time":139000000000,"state":"active","ping":53},{"user_id":268,"name":"Magiccomplex","steam_id":76561199203555188,"connected_time":197000000000,"state":"active","ping":42},{"user_id":266,"name":"Joel","steam_id":76561198430050570,"connected_time":342000000000,"state":"active","ping":82},{"user_id":263,"name":"Mike Kerman","steam_id":76561198038257570,"connected_time":1168000000000,"state":"active","ping":78},{"user_id":261,"name":"etc","steam_id":76561197998394797,"connected_time":1640000000000,"state":"active","ping":52},{"user_id":215,"name":"Poeka","steam_id":76561198031180960,"connected_time":3987000000000,"state":"active","ping":83},{"user_id":210,"name":"Volcyy","steam_id":76561198063979124,"connected_time":4656000000000,"state":"active","ping":38},{"user_id":222,"name":"FlameTheGame","steam_id":76561198841108519,"connected_time":3713000000000,"state":"active","ping":89}]},{"server_id":110,"name":"Uncletopia | Frankfurt | 2 | All Maps","name_short":"frk-2","host":"frk-1.de.uncletopia.com","port":27025,"enabled":true,"region":"eu","cc":"de","latitude":50.110924,"longitude":8.682127,"reserved":0,"last_update":"0001-01-01T00:00:00Z","name_a2s":"Uncletopia | Frankfurt | 2 | All Maps","protocol":17,"map":"cp_snakewater_final1","folder":"tf","game":"Team Fortress","app_id":440,"player_count":19,"max_players":24,"Bots":0,"server_type":"Dedicated","server_os":"Linux","password":true,"vac":true,"version":"7757534","steam_id":85568392924469990,"keywords":["cp","nocrits","nodmgspread","uncletopia"],"game_id":440,"stv_port":27026,"stv_name":"Uncletopia | Frankfurt | 2 | All Maps | STV","players":[{"user_id":496,"name":"frbuz","steam_id":76561198327135462,"connected_time":126000000000,"state":"active","ping":175},{"user_id":497,"name":"spillr-.-","steam_id":76561198031330889,"connected_time":113000000000,"state":"active","ping":72},{"user_id":498,"name":"Roe Jogan","steam_id":76561198871991529,"connected_time":66000000000,"state":"active","ping":75},{"user_id":379,"name":"Shift","steam_id":76561198028296732,"connected_time":8997000000000,"state":"active","ping":52},{"user_id":495,"name":"obliteratedthenaho","steam_id":76561198127441800,"connected_time":209000000000,"state":"active","ping":60},{"user_id":362,"name":"PlasticVoid","steam_id":76561197997870306,"connected_time":10614000000000,"state":"active","ping":45},{"user_id":494,"name":"tobs","steam_id":76561197987616937,"connected_time":231000000000,"state":"active","ping":60},{"user_id":467,"name":"Tomex999","steam_id":76561198049587675,"connected_time":1717000000000,"state":"active","ping":75},{"user_id":480,"name":"Kirvis","steam_id":76561198027831643,"connected_time":1065000000000,"state":"active","ping":101},{"user_id":453,"name":"Nexosert","steam_id":76561198941142018,"connected_time":3529000000000,"state":"active","ping":76},{"user_id":440,"name":"Rose-Marie","steam_id":76561198055611092,"connected_time":4512000000000,"state":"active","ping":65},{"user_id":491,"name":"XavierSweet","steam_id":76561198091781913,"connected_time":376000000000,"state":"active","ping":67},{"user_id":486,"name":"darkwater","steam_id":76561197986978738,"connected_time":618000000000,"state":"active","ping":60},{"user_id":485,"name":"ralek","steam_id":76561198337027746,"connected_time":748000000000,"state":"active","ping":89},{"user_id":474,"name":"Posture Check","steam_id":76561198053897197,"connected_time":1483000000000,"state":"active","ping":44},{"user_id":484,"name":"nytronytronytro","steam_id":76561198080496833,"connected_time":802000000000,"state":"active","ping":60},{"user_id":433,"name":"meriones","steam_id":76561198034234373,"connected_time":5036000000000,"state":"active","ping":54},{"user_id":492,"name":"zak","steam_id":76561197998895428,"connected_time":367000000000,"state":"active","ping":59},{"user_id":475,"name":"Cu713","steam_id":76561198175463442,"connected_time":1462000000000,"state":"active","ping":62}]},{"server_id":308,"name":"Uncletopia | Frankfurt | 3 | All Maps","name_short":"frk-3","host":"frk-1.de.uncletopia.com","port":27035,"enabled":true,"region":"eu","cc":"de","latitude":50.110924,"longitude":8.682127,"reserved":0,"last_update":"0001-01-01T00:00:00Z","name_a2s":"Uncletopia | Frankfurt | 3 | All Maps","protocol":17,"map":"pl_frontier_final","folder":"tf","game":"Team Fortress","app_id":440,"player_count":24,"max_players":24,"Bots":0,"server_type":"Dedicated","server_os":"Linux","password":true,"vac":true,"version":"7757534","steam_id":85568392924504274,"keywords":["nocrits","nodmgspread","payload","uncletopia"],"game_id":440,"stv_port":27036,"stv_name":"Uncletopia | Frankfurt | 3 | All Maps | STV","players":[{"user_id":205,"name":"Fox","steam_id":76561198052541711,"connected_time":5270000000000,"state":"active","ping":63},{"user_id":269,"name":"ムGeRmAn |×UA×ム","steam_id":76561199044754898,"connected_time":1343000000000,"state":"active","ping":62},{"user_id":207,"name":"Scottish Fox","steam_id":76561198052990270,"connected_time":5234000000000,"state":"active","ping":67},{"user_id":215,"name":"Fit Crow mark","steam_id":76561198309246388,"connected_time":4653000000000,"state":"active","ping":45},{"user_id":177,"name":"Piteras","steam_id":76561198858532207,"connected_time":7864000000000,"state":"active","ping":78},{"user_id":209,"name":"fogings","steam_id":76561198044165284,"connected_time":5208000000000,"state":"active","ping":42},{"user_id":254,"name":"Bosnian Ketamine Mafia","steam_id":76561198163571788,"connected_time":3601000000000,"state":"active","ping":96},{"user_id":217,"name":"Fat Pigeon","steam_id":76561198817940142,"connected_time":4621000000000,"state":"active","ping":52},{"user_id":267,"name":"Senator Armstrong","steam_id":76561198984346408,"connected_time":1897000000000,"state":"active","ping":70},{"user_id":270,"name":"Finn","steam_id":76561198112456809,"connected_time":1306000000000,"state":"active","ping":64},{"user_id":275,"name":"Kvicha Kvaratskhelia","steam_id":76561198179339326,"connected_time":133000000000,"state":"active","ping":76},{"user_id":259,"name":"the joy of recycling","steam_id":76561198415564349,"connected_time":2770000000000,"state":"active","ping":73},{"user_id":272,"name":"Cocoa","steam_id":76561198078438879,"connected_time":167000000000,"state":"active","ping":56},{"user_id":262,"name":"Tree baited","steam_id":76561199078162032,"connected_time":2075000000000,"state":"active","ping":69},{"user_id":271,"name":"Cheyaoshi","steam_id":76561198141121996,"connected_time":631000000000,"state":"active","ping":52},{"user_id":260,"name":"edgar","steam_id":76561198212862423,"connected_time":2111000000000,"state":"active","ping":58},{"user_id":235,"name":"Rarky","steam_id":76561198054398642,"connected_time":4281000000000,"state":"active","ping":56},{"user_id":252,"name":"Doctor__Mobius","steam_id":76561197971281806,"connected_time":3705000000000,"state":"active","ping":66},{"user_id":237,"name":"Hilldog","steam_id":76561198082209322,"connected_time":4242000000000,"state":"active","ping":95},{"user_id":258,"name":"Yangus","steam_id":76561198147796010,"connected_time":3130000000000,"state":"active","ping":68},{"user_id":264,"name":"Vershal Smershal","steam_id":76561198116223995,"connected_time":2027000000000,"state":"active","ping":64},{"user_id":274,"name":"Lignis","steam_id":76561198363052240,"connected_time":143000000000,"state":"active","ping":72},{"user_id":261,"name":"Gen","steam_id":76561198021775885,"connected_time":2110000000000,"state":"active","ping":56},{"user_id":266,"name":"\"Crucified\"","steam_id":76561198131471207,"connected_time":1997000000000,"state":"active","ping":68}]},{"server_id":309,"name":"Uncletopia | Frankfurt | 4 | All Maps","name_short":"frk-4","host":"frk-1.de.uncletopia.com","port":27045,"enabled":true,"region":"eu","cc":"de","latitude":50.110924,"longitude":8.682127,"reserved":0,"last_update":"0001-01-01T00:00:00Z","name_a2s":"Uncletopia | Frankfurt | 4 | All Maps","protocol":17,"map":"pl_badwater","folder":"tf","game":"Team Fortress","app_id":440,"player_count":24,"max_players":24,"Bots":0,"server_type":"Dedicated","server_os":"Linux","password":true,"vac":true,"version":"7757534","steam_id":85568392924504275,"keywords":["nocrits","nodmgspread","payload","uncletopia"],"game_id":440,"stv_port":27046,"stv_name":"Uncletopia | Frankfurt | 4 | All Maps | STV","players":[{"user_id":629,"name":"0xdeadbeef | riegls","steam_id":76561198845572553,"connected_time":1450000000000,"state":"active","ping":70},{"user_id":613,"name":"kpn.","steam_id":76561198072916231,"connected_time":2305000000000,"state":"active","ping":76},{"user_id":616,"name":"Russenluster","steam_id":76561198118016220,"connected_time":2226000000000,"state":"active","ping":55},{"user_id":581,"name":"shinji crank that soulja boy","steam_id":76561198099696876,"connected_time":4361000000000,"state":"active","ping":61},{"user_id":622,"name":"♱⛧ Zealy ⛧♱","steam_id":76561198137499463,"connected_time":1560000000000,"state":"active","ping":47},{"user_id":635,"name":"Taharial","steam_id":76561198269295016,"connected_time":505000000000,"state":"active","ping":113},{"user_id":619,"name":"Paulo","steam_id":76561198001386978,"connected_time":1585000000000,"state":"active","ping":54},{"user_id":630,"name":"MorVill","steam_id":76561198809859945,"connected_time":1304000000000,"state":"active","ping":69},{"user_id":624,"name":"TylowStar","steam_id":76561198357107806,"connected_time":1539000000000,"state":"active","ping":76},{"user_id":584,"name":"galaxy","steam_id":76561198164819022,"connected_time":4299000000000,"state":"active","ping":69},{"user_id":612,"name":"WolFFinE","steam_id":76561198125790408,"connected_time":2438000000000,"state":"active","ping":73},{"user_id":631,"name":"Blobbaz","steam_id":76561198031076278,"connected_time":1242000000000,"state":"active","ping":70},{"user_id":639,"name":"Enforcer02","steam_id":76561197966045944,"connected_time":395000000000,"state":"active","ping":52},{"user_id":604,"name":"Sir William Mephistopheles","steam_id":76561198275733396,"connected_time":2674000000000,"state":"active","ping":60},{"user_id":641,"name":"Joro","steam_id":76561197960425543,"connected_time":276000000000,"state":"active","ping":63},{"user_id":586,"name":"gpupdate","steam_id":76561198154677956,"connected_time":4278000000000,"state":"active","ping":71},{"user_id":638,"name":"Swedish Vegan","steam_id":76561198042775020,"connected_time":408000000000,"state":"active","ping":76},{"user_id":558,"name":"Videogamer","steam_id":76561198106012909,"connected_time":5954000000000,"state":"active","ping":67},{"user_id":627,"name":"JeezNo","steam_id":76561198346195644,"connected_time":1503000000000,"state":"active","ping":65},{"user_id":628,"name":"help","steam_id":76561198085206684,"connected_time":1490000000000,"state":"active","ping":163},{"user_id":593,"name":"Fish 'n' Chips","steam_id":76561198033476886,"connected_time":4003000000000,"state":"active","ping":45},{"user_id":634,"name":"ff:ff:ff:ff:ff:ff","steam_id":76561198072122983,"connected_time":510000000000,"state":"active","ping":68},{"user_id":407,"name":"ScarredPixel123","steam_id":76561199165112703,"connected_time":15196000000000,"state":"active","ping":83},{"user_id":640,"name":"Daniele Antox","steam_id":76561198323879930,"connected_time":392000000000,"state":"active","ping":60}]},{"server_id":310,"name":"Uncletopia | Frankfurt | 5 | All Maps","name_short":"frk-5","host":"frk-1.de.uncletopia.com","port":27055,"enabled":true,"region":"eu","cc":"de","latitude":50.110924,"longitude":8.682127,"reserved":0,"last_update":"0001-01-01T00:00:00Z","name_a2s":"Uncletopia | Frankfurt | 5 | All Maps","protocol":17,"map":"pl_swiftwater_final1","folder":"tf","game":"Team Fortress","app_id":440,"player_count":24,"max_players":24,"Bots":0,"server_type":"Dedicated","server_os":"Linux","password":true,"vac":true,"version":"7757534","steam_id":85568392924504277,"keywords":["nocrits","nodmgspread","payload","uncletopia"],"game_id":440,"stv_port":27056,"stv_name":"Uncletopia | Frankfurt | 5 | All Maps | STV","players":[{"user_id":441,"name":"yaba","steam_id":76561198853501108,"connected_time":1852000000000,"state":"active","ping":63},{"user_id":451,"name":"New","steam_id":76561198402195911,"connected_time":1004000000000,"state":"active","ping":115},{"user_id":445,"name":"27 Club member","steam_id":76561198363595603,"connected_time":1666000000000,"state":"active","ping":73},{"user_id":460,"name":"Star in a pond","steam_id":76561198205501279,"connected_time":209000000000,"state":"active","ping":89},{"user_id":452,"name":"e36 1.8","steam_id":76561198134203031,"connected_time":1002000000000,"state":"active","ping":57},{"user_id":449,"name":"b_a1Ln","steam_id":76561198135213739,"connected_time":1179000000000,"state":"active","ping":99},{"user_id":453,"name":"Pablo","steam_id":76561198160394046,"connected_time":995000000000,"state":"active","ping":108},{"user_id":454,"name":"dotdotdot","steam_id":76561198057628751,"connected_time":983000000000,"state":"active","ping":61},{"user_id":442,"name":"Pirateer","steam_id":76561198017114970,"connected_time":1842000000000,"state":"active","ping":58},{"user_id":447,"name":"stół z powyłamywanymi nogami","steam_id":76561198095134889,"connected_time":1544000000000,"state":"active","ping":75},{"user_id":336,"name":"s a i","steam_id":76561197970379754,"connected_time":9069000000000,"state":"active","ping":54},{"user_id":432,"name":"punchmypotatoes","steam_id":76561198091255731,"connected_time":2149000000000,"state":"active","ping":69},{"user_id":443,"name":"bun","steam_id":76561199384813153,"connected_time":1837000000000,"state":"active","ping":62},{"user_id":434,"name":"Demo-Ktosiu","steam_id":76561198890628396,"connected_time":2136000000000,"state":"active","ping":77},{"user_id":405,"name":"!!!!!!!!!!!!!!!!!!!!!!!!!!!!!!!","steam_id":76561198069649097,"connected_time":3360000000000,"state":"active","ping":59},{"user_id":455,"name":"Cobb Salads","steam_id":76561197971140507,"connected_time":971000000000,"state":"active","ping":77},{"user_id":408,"name":"gosi","steam_id":76561198084111532,"connected_time":3352000000000,"state":"active","ping":60},{"user_id":440,"name":"rmz.ssj","steam_id":76561198329613930,"connected_time":1888000000000,"state":"active","ping":61},{"user_id":448,"name":"DM_Tiz","steam_id":76561198061478257,"connected_time":1362000000000,"state":"active","ping":45},{"user_id":458,"name":"Kron Krian","steam_id":76561198122541754,"connected_time":294000000000,"state":"active","ping":73},{"user_id":456,"name":"Brothu","steam_id":76561198095120859,"connected_time":955000000000,"state":"active","ping":59},{"user_id":459,"name":"Steen","steam_id":76561198122992510,"connected_time":269000000000,"state":"active","ping":47},{"user_id":371,"name":"Spanish Shy Cat","steam_id":76561198808819694,"connected_time":7278000000000,"state":"active","ping":47},{"user_id":457,"name":"KlevukaS™","steam_id":76561198312867604,"connected_time":949000000000,"state":"active","ping":82}]},{"server_id":311,"name":"Uncletopia | Frankfurt | 6 | All Maps","name_short":"frk-6","host":"frk-1.de.uncletopia.com","port":27065,"enabled":true,"region":"eu","cc":"de","latitude":50.110924,"longitude":8.682127,"reserved":0,"last_update":"0001-01-01T00:00:00Z","name_a2s":"Uncletopia | Frankfurt | 6 | All Maps","protocol":17,"map":"koth_harvest_final","folder":"tf","game":"Team Fortress","app_id":440,"player_count":23,"max_players":24,"Bots":0,"server_type":"Dedicated","server_os":"Linux","password":true,"vac":true,"version":"7757534","steam_id":85568392924504278,"keywords":["cp","nocrits","nodmgspread","uncletopia"],"game_id":440,"stv_port":27066,"stv_name":"Uncletopia | Frankfurt | 6 | All Maps | STV","players":[{"user_id":301,"name":"Evidence In The Furnace","steam_id":76561198099296029,"connected_time":1170000000000,"state":"active","ping":163},{"user_id":315,"name":":)","steam_id":76561198977420882,"connected_time":525000000000,"state":"active","ping":51},{"user_id":271,"name":"Mohutniy_Did","steam_id":76561198361438340,"connected_time":2428000000000,"state":"active","ping":76},{"user_id":310,"name":"kelsey","steam_id":76561198426604784,"connected_time":694000000000,"state":"active","ping":63},{"user_id":285,"name":"Mishaswy","steam_id":76561198156848144,"connected_time":2016000000000,"state":"active","ping":101},{"user_id":316,"name":"Marquis de Hoto","steam_id":76561198080687708,"connected_time":523000000000,"state":"active","ping":62},{"user_id":268,"name":"el eve","steam_id":76561197973182789,"connected_time":2606000000000,"state":"active","ping":62},{"user_id":311,"name":"ToniGAM3S","steam_id":76561198128605351,"connected_time":693000000000,"state":"active","ping":58},{"user_id":312,"name":"M'lauren","steam_id":76561198238195568,"connected_time":688000000000,"state":"active","ping":127},{"user_id":217,"name":"Your dad","steam_id":76561199046215821,"connected_time":8055000000000,"state":"active","ping":53},{"user_id":269,"name":"hot cup of leaf tea","steam_id":76561198854720925,"connected_time":2602000000000,"state":"active","ping":85},{"user_id":295,"name":"Hooggers","steam_id":76561198120447741,"connected_time":1429000000000,"state":"active","ping":90},{"user_id":276,"name":"SPONGE","steam_id":76561198040933472,"connected_time":2270000000000,"state":"active","ping":85},{"user_id":289,"name":"heykikidom","steam_id":76561198267574417,"connected_time":1688000000000,"state":"active","ping":101},{"user_id":291,"name":"Zero (Orbital Gear Mastermind)","steam_id":76561198017416816,"connected_time":1597000000000,"state":"active","ping":56},{"user_id":318,"name":"циклоп","steam_id":76561198099757669,"connected_time":349000000000,"state":"active","ping":102},{"user_id":278,"name":"podcast","steam_id":76561198531978435,"connected_time":2213000000000,"state":"active","ping":79},{"user_id":303,"name":"Dragon","steam_id":76561198163255365,"connected_time":899000000000,"state":"active","ping":95},{"user_id":313,"name":"Vilkki","steam_id":76561198044792333,"connected_time":681000000000,"state":"active","ping":134},{"user_id":298,"name":"Gr8gy","steam_id":76561198801350782,"connected_time":1346000000000,"state":"active","ping":88},{"user_id":317,"name":"Yarrak","steam_id":76561199446292493,"connected_time":391000000000,"state":"active","ping":66},{"user_id":299,"name":"AFerociousTeddyBearSlayer","steam_id":76561198247447256,"connected_time":1339000000000,"state":"active","ping":58},{"user_id":283,"name":"Fezlex","steam_id":76561198042511188,"connected_time":2163000000000,"state":"active","ping":103}]},{"server_id":23,"name":"Uncletopia | Frankfurt | 7 | Stopwatch Beta","name_short":"frk-7","host":"frk-1.de.uncletopia.com","port":27075,"enabled":true,"region":"eu","cc":"de","latitude":50.110924,"longitude":8.682127,"reserved":0,"last_update":"0001-01-01T00:00:00Z","name_a2s":"Uncletopia | Frankfurt | 7 | Stopwatch Beta","protocol":17,"map":"pl_borneo","folder":"tf","game":"Team Fortress","app_id":440,"player_count":0,"max_players":24,"Bots":0,"server_type":"Dedicated","server_os":"Linux","password":true,"vac":true,"version":"7757534","steam_id":85568392924742827,"keywords":["nocrits","nodmgspread","payload","uncletopia"],"game_id":440,"stv_port":27076,"stv_name":"Uncletopia | Frankfurt | 7 | Stopwatch Beta | STV","players":null},{"server_id":24,"name":"Uncletopia | Frankfurt | 8 | Community","name_short":"frk-8","host":"frk-1.de.uncletopia.com","port":27085,"enabled":true,"region":"eu","cc":"de","latitude":50.110924,"longitude":8.682127,"reserved":0,"last_update":"0001-01-01T00:00:00Z","name_a2s":"Uncletopia | Frankfurt | 8 | Community","protocol":17,"map":"workshop/cp_logjam_rc12.ugc454812035","folder":"tf","game":"Team Fortress","app_id":440,"player_count":0,"max_players":24,"Bots":0,"server_type":"Dedicated","server_os":"Linux","password":true,"vac":true,"version":"7757534","steam_id":85568392924742828,"keywords":["cp","nocrits","nodmgspread","uncletopia"],"game_id":440,"stv_port":27086,"stv_name":"Uncletopia | Frankfurt | 8 | Community | STV","players":null},{"server_id":202,"name":"Uncletopia | Hong Kong | 1 | All Maps","name_short":"hgk-1","host":"hgk-1.hk.uncletopia.com","port":27015,"enabled":true,"region":"asia","cc":"hk","latitude":22.302711,"longitude":114.177216,"reserved":0,"last_update":"0001-01-01T00:00:00Z","name_a2s":"Uncletopia | Hong Kong | 1 | All Maps","protocol":17,"map":"pl_frontier_final","folder":"tf","game":"Team Fortress","app_id":440,"player_count":0,"max_players":24,"Bots":0,"server_type":"Dedicated","server_os":"Linux","password":true,"vac":true,"version":"7757534","steam_id":85568392924494504,"keywords":["nocrits","nodmgspread","payload","uncletopia"],"game_id":440,"stv_port":27016,"stv_name":"Uncletopia | Hong Kong | 1 | All Maps | STV","players":null},{"server_id":1,"name":"Uncletopia | Los Angeles | 1 | All Maps","name_short":"lax-1","host":"lax-1.us.uncletopia.com","port":27015,"enabled":true,"region":"us-west","cc":"us","latitude":33.94279,"longitude":-118.41004,"reserved":0,"last_update":"0001-01-01T00:00:00Z","name_a2s":"Uncletopia | Los Angeles | 1 | All Maps","protocol":17,"map":"cp_dustbowl","folder":"tf","game":"Team Fortress","app_id":440,"player_count":21,"max_players":24,"Bots":0,"server_type":"Dedicated","server_os":"Linux","password":true,"vac":true,"version":"7757534","steam_id":85568392924469991,"keywords":["cp","nocrits","nodmgspread","uncletopia"],"game_id":440,"stv_port":27016,"stv_name":"Uncletopia | Los Angeles | 1 | All Maps | STV","players":[{"user_id":74,"name":"Carls Jr","steam_id":76561198047221624,"connected_time":2167000000000,"state":"active","ping":55},{"user_id":102,"name":"The Flesh Lives","steam_id":76561198038832034,"connected_time":97000000000,"state":"active","ping":77},{"user_id":84,"name":"○","steam_id":76561198034560063,"connected_time":1343000000000,"state":"active","ping":123},{"user_id":76,"name":"Fremond Games","steam_id":76561198847910046,"connected_time":2028000000000,"state":"active","ping":65},{"user_id":85,"name":"Avem","steam_id":76561198058763710,"connected_time":1302000000000,"state":"active","ping":43},{"user_id":37,"name":"Mousemoon","steam_id":76561198170220290,"connected_time":4523000000000,"state":"active","ping":41},{"user_id":99,"name":"They could be starlings","steam_id":76561198441020995,"connected_time":694000000000,"state":"active","ping":66},{"user_id":98,"name":"TheBrocklobster","steam_id":76561198039682984,"connected_time":725000000000,"state":"active","ping":61},{"user_id":103,"name":"NooBHatteR","steam_id":76561198077662703,"connected_time":80000000000,"state":"active","ping":55},{"user_id":86,"name":"☠Pirate Speedguy20☠✨","steam_id":76561198038745044,"connected_time":1292000000000,"state":"active","ping":52},{"user_id":75,"name":"thebigjay762","steam_id":76561199469055293,"connected_time":2150000000000,"state":"active","ping":111},{"user_id":94,"name":"ThunderGunner","steam_id":76561198097721532,"connected_time":1073000000000,"state":"active","ping":46},{"user_id":55,"name":"Uprightmoss7528","steam_id":76561199200138486,"connected_time":3776000000000,"state":"active","ping":62},{"user_id":62,"name":"Painkiller","steam_id":76561198049787400,"connected_time":3538000000000,"state":"active","ping":49},{"user_id":87,"name":"Fungus","steam_id":76561198390297486,"connected_time":1275000000000,"state":"active","ping":33},{"user_id":38,"name":"Bond","steam_id":76561198089262776,"connected_time":4504000000000,"state":"active","ping":90},{"user_id":90,"name":"Mom","steam_id":76561198207936000,"connected_time":1200000000000,"state":"active","ping":60},{"user_id":70,"name":"matto1120","steam_id":76561198201321499,"connected_time":2417000000000,"state":"active","ping":62},{"user_id":104,"name":"PersonMan","steam_id":76561198153426326,"connected_time":4000000000,"state":"spawning","ping":74},{"user_id":100,"name":"MinusSoup918","steam_id":76561198060902773,"connected_time":391000000000,"state":"active","ping":68},{"user_id":83,"name":"Sir Galahad","steam_id":76561198195999859,"connected_time":1687000000000,"state":"active","ping":86}]},{"server_id":112,"name":"Uncletopia | Los Angeles | 2 | All Maps","name_short":"lax-2","host":"lax-1.us.uncletopia.com","port":27025,"enabled":true,"region":"us-west","cc":"us","latitude":33.94279,"longitude":-118.41004,"reserved":0,"last_update":"0001-01-01T00:00:00Z","name_a2s":"Uncletopia | Los Angeles | 2 | All Maps","protocol":17,"map":"koth_highpass","folder":"tf","game":"Team Fortress","app_id":440,"player_count":0,"max_players":24,"Bots":0,"server_type":"Dedicated","server_os":"Linux","password":true,"vac":true,"version":"7757534","steam_id":85568392924469992,"keywords":["cp","nocrits","nodmgspread","uncletopia"],"game_id":440,"stv_port":27026,"stv_name":"Uncletopia | Los Angeles | 2 | All Maps | STV","players":null},{"server_id":324,"name":"Uncletopia | Los Angeles | 3 | All Maps","name_short":"lax-3","host":"lax-1.us.uncletopia.com","port":27035,"enabled":true,"region":"us-west","cc":"us","latitude":33.94279,"longitude":-118.41004,"reserved":0,"last_update":"0001-01-01T00:00:00Z","name_a2s":"Uncletopia | Los Angeles | 3 | All Maps","protocol":17,"map":"koth_lakeside_final","folder":"tf","game":"Team Fortress","app_id":440,"player_count":0,"max_players":24,"Bots":0,"server_type":"Dedicated","server_os":"Linux","password":true,"vac":true,"version":"7757534","steam_id":85568392924510198,"keywords":["cp","nocrits","nodmgspread","uncletopia"],"game_id":440,"stv_port":27036,"stv_name":"Uncletopia | Los Angeles | 3 | All Maps | STV","players":null},{"server_id":25,"name":"Uncletopia | Los Angeles | 4 | Stopwatch Beta","name_short":"lax-4","host":"lax-1.us.uncletopia.com","port":27045,"enabled":true,"region":"us-west","cc":"us","latitude":33.94279,"longitude":-118.41004,"reserved":0,"last_update":"0001-01-01T00:00:00Z","name_a2s":"Uncletopia | Los Angeles | 4 | Stopwatch Beta","protocol":17,"map":"koth_viaduct","folder":"tf","game":"Team Fortress","app_id":440,"player_count":0,"max_players":24,"Bots":0,"server_type":"Dedicated","server_os":"Linux","password":true,"vac":true,"version":"7757534","steam_id":85568392924510199,"keywords":["cp","nocrits","nodmgspread","uncletopia"],"game_id":440,"stv_port":27046,"stv_name":"Uncletopia | Los Angeles | 4 | Stopwatch Beta | STV","players":null},{"server_id":11,"name":"Uncletopia | London | 1 | All Maps","name_short":"lon-1","host":"lon-1.uk.uncletopia.com","port":27015,"enabled":true,"region":"eu","cc":"gb","latitude":51.509865,"longitude":-0.118092,"reserved":0,"last_update":"0001-01-01T00:00:00Z","name_a2s":"Uncletopia | London | 1 | All Maps","protocol":17,"map":"cp_dustbowl","folder":"tf","game":"Team Fortress","app_id":440,"player_count":24,"max_players":24,"Bots":0,"server_type":"Dedicated","server_os":"Linux","password":true,"vac":true,"version":"7757534","steam_id":85568392924367362,"keywords":["cp","nocrits","nodmgspread","uncletopia"],"game_id":440,"stv_port":27016,"stv_name":"Uncletopia | London | 1 | All Maps | STV","players":[{"user_id":842,"name":"eeeeee","steam_id":76561198017786875,"connected_time":6418000000000,"state":"active","ping":75},{"user_id":881,"name":"SOPHIIEE","steam_id":76561198443798981,"connected_time":3432000000000,"state":"active","ping":57},{"user_id":909,"name":"Shamaシ","steam_id":76561198804364989,"connected_time":775000000000,"state":"active","ping":68},{"user_id":913,"name":"medick","steam_id":76561199380849468,"connected_time":397000000000,"state":"active","ping":63},{"user_id":903,"name":"Wedgeridoo","steam_id":76561198082813907,"connected_time":1097000000000,"state":"active","ping":97},{"user_id":910,"name":"(_ _).｡o○","steam_id":76561198298576765,"connected_time":774000000000,"state":"active","ping":73},{"user_id":914,"name":"(^_^♪)3★reo#SCUNTY","steam_id":76561198031325797,"connected_time":346000000000,"state":"active","ping":50},{"user_id":871,"name":"Nickbro101","steam_id":76561198044271692,"connected_time":4517000000000,"state":"active","ping":48},{"user_id":900,"name":"BreadBubbles","steam_id":76561198174332826,"connected_time":1765000000000,"state":"active","ping":56},{"user_id":897,"name":"♥ඞlilyඞ♥","steam_id":76561198049840460,"connected_time":1783000000000,"state":"active","ping":59},{"user_id":901,"name":"The Ginger","steam_id":76561198306862332,"connected_time":1599000000000,"state":"active","ping":71},{"user_id":846,"name":"Carrotcracker","steam_id":76561198034862396,"connected_time":6373000000000,"state":"active","ping":90},{"user_id":904,"name":"tmac","steam_id":76561198047685716,"connected_time":807000000000,"state":"active","ping":47},{"user_id":916,"name":"shr1mple","steam_id":76561198173537027,"connected_time":336000000000,"state":"active","ping":47},{"user_id":858,"name":"󠀡󠀡󠀡󠀡Felix","steam_id":76561198147553398,"connected_time":5137000000000,"state":"active","ping":60},{"user_id":889,"name":"Danube501","steam_id":76561198143222686,"connected_time":2353000000000,"state":"active","ping":107},{"user_id":906,"name":"sent from my iphone","steam_id":76561198259668029,"connected_time":795000000000,"state":"active","ping":100},{"user_id":885,"name":"dec","steam_id":76561198009660168,"connected_time":3216000000000,"state":"active","ping":59},{"user_id":864,"name":"zigg","steam_id":76561198149501776,"connected_time":5054000000000,"state":"active","ping":51},{"user_id":895,"name":"Dom.","steam_id":76561199065917088,"connected_time":1797000000000,"state":"active","ping":63},{"user_id":907,"name":"bruhemian","steam_id":76561198191854931,"connected_time":794000000000,"state":"active","ping":55},{"user_id":870,"name":"Arturias","steam_id":76561198188720263,"connected_time":4654000000000,"state":"active","ping":54},{"user_id":785,"name":"Presten","steam_id":76561198116395897,"connected_time":10759000000000,"state":"active","ping":86},{"user_id":896,"name":"fox^","steam_id":76561198173355995,"connected_time":1796000000000,"state":"active","ping":81}]},{"server_id":114,"name":"Uncletopia | London | 2 | All Maps","name_short":"lon-2","host":"lon-1.uk.uncletopia.com","port":27025,"enabled":true,"region":"eu","cc":"gb","latitude":51.509865,"longitude":-0.118092,"reserved":0,"last_update":"0001-01-01T00:00:00Z","name_a2s":"Uncletopia | London | 2 | All Maps","protocol":17,"map":"pl_swiftwater_final1","folder":"tf","game":"Team Fortress","app_id":440,"player_count":24,"max_players":24,"Bots":0,"server_type":"Dedicated","server_os":"Linux","password":true,"vac":true,"version":"7757534","steam_id":85568392924470941,"keywords":["nocrits","nodmgspread","payload","uncletopia"],"game_id":440,"stv_port":27026,"stv_name":"Uncletopia | London | 2 | All Maps | STV","players":[{"user_id":791,"name":"DocTwoEight","steam_id":76561198153488940,"connected_time":2498000000000,"state":"active","ping":73},{"user_id":792,"name":"shawproductions","steam_id":76561198288932878,"connected_time":2476000000000,"state":"active","ping":56},{"user_id":790,"name":"joecalmatt","steam_id":76561198172552015,"connected_time":2510000000000,"state":"active","ping":42},{"user_id":819,"name":"Sneaky boi","steam_id":76561199195985387,"connected_time":592000000000,"state":"active","ping":94},{"user_id":821,"name":"mhhhmmm mhhhmh mmmmmmmmhm mhhm","steam_id":76561199445584278,"connected_time":160000000000,"state":"active","ping":69},{"user_id":815,"name":"Bottle Flip rory","steam_id":76561198133691426,"connected_time":1137000000000,"state":"active","ping":58},{"user_id":820,"name":"big butter and egg man","steam_id":76561198839985039,"connected_time":283000000000,"state":"active","ping":158},{"user_id":801,"name":"Marsdudes","steam_id":76561198065755365,"connected_time":1864000000000,"state":"active","ping":131},{"user_id":752,"name":"Alibi","steam_id":76561198061845595,"connected_time":5386000000000,"state":"active","ping":49},{"user_id":809,"name":"Asfreild","steam_id":76561198055901120,"connected_time":1336000000000,"state":"active","ping":74},{"user_id":818,"name":"Saul Goodman","steam_id":76561199436999523,"connected_time":635000000000,"state":"active","ping":67},{"user_id":811,"name":"Poor Fucking Infantry","steam_id":76561198055978522,"connected_time":1304000000000,"state":"active","ping":46},{"user_id":800,"name":"flange","steam_id":76561198040182692,"connected_time":2139000000000,"state":"active","ping":34},{"user_id":812,"name":"i am FREND","steam_id":76561197962534841,"connected_time":1257000000000,"state":"active","ping":76},{"user_id":762,"name":"blue mean-eyes","steam_id":76561198060105180,"connected_time":4455000000000,"state":"active","ping":66},{"user_id":806,"name":"sork","steam_id":76561198082446459,"connected_time":1418000000000,"state":"active","ping":75},{"user_id":813,"name":"𝓑 :)","steam_id":76561198072809789,"connected_time":1255000000000,"state":"active","ping":53},{"user_id":803,"name":"Christmas Ham","steam_id":76561198119601623,"connected_time":1684000000000,"state":"active","ping":53},{"user_id":816,"name":"Georman Forge","steam_id":76561198256504605,"connected_time":758000000000,"state":"active","ping":56},{"user_id":805,"name":"иван","steam_id":76561198072730591,"connected_time":1441000000000,"state":"active","ping":64},{"user_id":798,"name":"Koda","steam_id":76561198142696299,"connected_time":2327000000000,"state":"active","ping":55},{"user_id":814,"name":"Choruptian","steam_id":76561198017686366,"connected_time":1254000000000,"state":"active","ping":66},{"user_id":822,"name":"Shlongulator","steam_id":76561198149779201,"connected_time":57000000000,"state":"active","ping":55},{"user_id":761,"name":"す LightFlight し","steam_id":76561198079007530,"connected_time":4679000000000,"state":"active","ping":49}]},{"server_id":320,"name":"Uncletopia | London | 3 | All Maps","name_short":"lon-3","host":"lon-1.uk.uncletopia.com","port":27035,"enabled":true,"region":"eu","cc":"gb","latitude":51.509865,"longitude":-0.118092,"reserved":0,"last_update":"0001-01-01T00:00:00Z","name_a2s":"Uncletopia | London | 3 | All Maps","protocol":17,"map":"pl_badwater","folder":"tf","game":"Team Fortress","app_id":440,"player_count":24,"max_players":24,"Bots":0,"server_type":"Dedicated","server_os":"Linux","password":true,"vac":true,"version":"7757534","steam_id":85568392924510192,"keywords":["nocrits","nodmgspread","payload","uncletopia"],"game_id":440,"stv_port":27036,"stv_name":"Uncletopia | London | 3 | All Maps | STV","players":[{"user_id":703,"name":"JumJim","steam_id":76561198038099760,"connected_time":558000000000,"state":"active","ping":84},{"user_id":665,"name":"Owl","steam_id":76561198248266580,"connected_time":2577000000000,"state":"active","ping":68},{"user_id":673,"name":"gouvie1","steam_id":76561198346584425,"connected_time":2373000000000,"state":"active","ping":75},{"user_id":691,"name":"Varminty","steam_id":76561198069477612,"connected_time":878000000000,"state":"active","ping":59},{"user_id":711,"name":"♉ LEIGULAS ♉","steam_id":76561198006815007,"connected_time":95000000000,"state":"active","ping":85},{"user_id":688,"name":"silly keyboard guy","steam_id":76561198801246799,"connected_time":921000000000,"state":"active","ping":59},{"user_id":689,"name":"Hexahedron","steam_id":76561198155232484,"connected_time":906000000000,"state":"active","ping":74},{"user_id":662,"name":"CapraLibaneza","steam_id":76561198384321543,"connected_time":2851000000000,"state":"active","ping":73},{"user_id":700,"name":"c2b","steam_id":76561197998883653,"connected_time":615000000000,"state":"active","ping":69},{"user_id":690,"name":"Psyke89","steam_id":76561197980474407,"connected_time":897000000000,"state":"active","ping":75},{"user_id":707,"name":"PluNgBe #SaveTF2","steam_id":76561198131100420,"connected_time":234000000000,"state":"active","ping":57},{"user_id":657,"name":"Trugon Gamriel","steam_id":76561198009763826,"connected_time":3620000000000,"state":"active","ping":98},{"user_id":701,"name":"isha","steam_id":76561199041566425,"connected_time":613000000000,"state":"active","ping":66},{"user_id":692,"name":"Joona","steam_id":76561198156305446,"connected_time":878000000000,"state":"active","ping":101},{"user_id":694,"name":"porridge","steam_id":76561198044585737,"connected_time":816000000000,"state":"active","ping":45},{"user_id":709,"name":"Joulu Vaari-Markkainen","steam_id":76561198004364672,"connected_time":171000000000,"state":"active","ping":95},{"user_id":708,"name":"Rasmusson [29th ID]","steam_id":76561198191451713,"connected_time":230000000000,"state":"active","ping":97},{"user_id":597,"name":"WMW","steam_id":76561198837706438,"connected_time":7234000000000,"state":"active","ping":60},{"user_id":693,"name":"Guantanamo Bae","steam_id":76561198052084495,"connected_time":872000000000,"state":"active","ping":62},{"user_id":677,"name":"Jimbob3s1","steam_id":76561198984209965,"connected_time":2027000000000,"state":"active","ping":53},{"user_id":696,"name":"doggoeatswindex21","steam_id":76561199065303184,"connected_time":720000000000,"state":"active","ping":131},{"user_id":652,"name":"knyazF","steam_id":76561198163278585,"connected_time":4079000000000,"state":"active","ping":80},{"user_id":620,"name":"R A S M U S","steam_id":76561198279799226,"connected_time":5924000000000,"state":"active","ping":86},{"user_id":712,"name":"Derp","steam_id":76561198197901062,"connected_time":83000000000,"state":"active","ping":499}]},{"server_id":321,"name":"Uncletopia | London | 4 | All Maps","name_short":"lon-4","host":"lon-1.uk.uncletopia.com","port":27045,"enabled":true,"region":"eu","cc":"gb","latitude":51.509865,"longitude":-0.118092,"reserved":0,"last_update":"0001-01-01T00:00:00Z","name_a2s":"Uncletopia | London | 4 | All Maps","protocol":17,"map":"pl_upward","folder":"tf","game":"Team Fortress","app_id":440,"player_count":23,"max_players":24,"Bots":0,"server_type":"Dedicated","server_os":"Linux","password":true,"vac":true,"version":"7757534","steam_id":85568392924510193,"keywords":["nocrits","nodmgspread","payload","uncletopia"],"game_id":440,"stv_port":27046,"stv_name":"Uncletopia | London | 4 | All Maps | STV","players":[{"user_id":246,"name":"ashley","steam_id":76561198448551449,"connected_time":355000000000,"state":"active","ping":31},{"user_id":244,"name":"Mauricio™","steam_id":76561198058727934,"connected_time":808000000000,"state":"active","ping":54},{"user_id":174,"name":"BΣNZOIC","steam_id":76561198875665995,"connected_time":4913000000000,"state":"active","ping":84},{"user_id":232,"name":"manKe","steam_id":76561198008564860,"connected_time":1426000000000,"state":"active","ping":53},{"user_id":223,"name":"Papi","steam_id":76561198082036744,"connected_time":2052000000000,"state":"active","ping":44},{"user_id":235,"name":"arcSolver","steam_id":76561198212013944,"connected_time":1383000000000,"state":"active","ping":44},{"user_id":222,"name":"Male gamer (derogatory)","steam_id":76561198074097655,"connected_time":2107000000000,"state":"active","ping":43},{"user_id":234,"name":"Cheshireycat","steam_id":76561198067204908,"connected_time":1407000000000,"state":"active","ping":59},{"user_id":177,"name":"glyph","steam_id":76561197980736364,"connected_time":4634000000000,"state":"active","ping":78},{"user_id":187,"name":"The Fellow Feller","steam_id":76561198188864306,"connected_time":4324000000000,"state":"active","ping":82},{"user_id":198,"name":"FELHEEE","steam_id":76561197987151150,"connected_time":3246000000000,"state":"active","ping":77},{"user_id":204,"name":"Johnny Cockroach","steam_id":76561198049648277,"connected_time":3175000000000,"state":"active","ping":103},{"user_id":243,"name":"Juiceydough","steam_id":76561197997323419,"connected_time":848000000000,"state":"active","ping":84},{"user_id":206,"name":"Chespia chda","steam_id":76561198097507847,"connected_time":3151000000000,"state":"active","ping":79},{"user_id":226,"name":"Dr Ludwig","steam_id":76561198426522902,"connected_time":1724000000000,"state":"active","ping":56},{"user_id":171,"name":"Shoiber","steam_id":76561199124377794,"connected_time":5906000000000,"state":"active","ping":174},{"user_id":245,"name":"Kahvi","steam_id":76561198723244199,"connected_time":472000000000,"state":"active","ping":88},{"user_id":247,"name":"Vezage","steam_id":76561198064916164,"connected_time":178000000000,"state":"active","ping":66},{"user_id":182,"name":"Executor Odrin","steam_id":76561198125252876,"connected_time":4573000000000,"state":"active","ping":92},{"user_id":183,"name":"Economic crisis","steam_id":76561198063562843,"connected_time":4568000000000,"state":"active","ping":66},{"user_id":224,"name":"maclin","steam_id":76561198105468121,"connected_time":2047000000000,"state":"active","ping":45},{"user_id":237,"name":"Tesco Clubcard","steam_id":76561197968575924,"connected_time":1371000000000,"state":"active","ping":58},{"user_id":239,"name":"logo in the foam","steam_id":76561198188642265,"connected_time":1368000000000,"state":"active","ping":50}]},{"server_id":21,"name":"Uncletopia | London | 5 | All Maps","name_short":"lon-5","host":"lon-1.uk.uncletopia.com","port":27055,"enabled":true,"region":"eu","cc":"gb","latitude":51.509865,"longitude":-0.118092,"reserved":0,"last_update":"0001-01-01T00:00:00Z","name_a2s":"Uncletopia | London | 5 | All Maps","protocol":17,"map":"pl_snowycoast","folder":"tf","game":"Team Fortress","app_id":440,"player_count":24,"max_players":24,"Bots":0,"server_type":"Dedicated","server_os":"Linux","password":true,"vac":true,"version":"7757534","steam_id":85568392924742829,"keywords":["nocrits","nodmgspread","payload","uncletopia"],"game_id":440,"stv_port":27056,"stv_name":"Uncletopia | London | 5 | All Maps | STV","players":[{"user_id":392,"name":"decriminalise goblins","steam_id":76561198048257605,"connected_time":3687000000000,"state":"active","ping":52},{"user_id":412,"name":"marty","steam_id":76561198082934864,"connected_time":1703000000000,"state":"active","ping":65},{"user_id":428,"name":"RoXeUr-KaMiKaZe","steam_id":76561197998204782,"connected_time":76000000000,"state":"active","ping":555},{"user_id":424,"name":"Dave The Sloth","steam_id":76561199135831355,"connected_time":204000000000,"state":"active","ping":57},{"user_id":375,"name":"Some Idiot Artist","steam_id":76561198200537311,"connected_time":4948000000000,"state":"active","ping":38},{"user_id":393,"name":"scharque","steam_id":76561198071227039,"connected_time":3654000000000,"state":"active","ping":71},{"user_id":394,"name":"smell_my_cheese","steam_id":76561198008517427,"connected_time":3615000000000,"state":"active","ping":53},{"user_id":423,"name":"dd","steam_id":76561198254771749,"connected_time":335000000000,"state":"active","ping":107},{"user_id":405,"name":"I jazzed myself","steam_id":76561198203016603,"connected_time":2014000000000,"state":"active","ping":57},{"user_id":396,"name":"Spetse","steam_id":76561197990649972,"connected_time":3602000000000,"state":"active","ping":94},{"user_id":427,"name":"Kyo","steam_id":76561198019959517,"connected_time":94000000000,"state":"active","ping":84},{"user_id":406,"name":"Demonstrate","steam_id":76561198198581079,"connected_time":2002000000000,"state":"active","ping":64},{"user_id":399,"name":"Cuthbert","steam_id":76561198204649481,"connected_time":3492000000000,"state":"active","ping":114},{"user_id":415,"name":"Hyperek","steam_id":76561198130797464,"connected_time":1236000000000,"state":"active","ping":81},{"user_id":414,"name":"X45Y","steam_id":76561198112534025,"connected_time":1633000000000,"state":"active","ping":50},{"user_id":410,"name":"Emil420m","steam_id":76561198241894374,"connected_time":1944000000000,"state":"active","ping":71},{"user_id":418,"name":"Bob_Tostas","steam_id":76561198249006560,"connected_time":811000000000,"state":"active","ping":86},{"user_id":419,"name":"Popbob (notorious griefer)","steam_id":76561198100730234,"connected_time":807000000000,"state":"active","ping":88},{"user_id":413,"name":"Craig Crusade","steam_id":76561199225918086,"connected_time":1668000000000,"state":"active","ping":63},{"user_id":426,"name":"Spieller","steam_id":76561198057197847,"connected_time":161000000000,"state":"active","ping":82},{"user_id":398,"name":"Lubrsi","steam_id":76561198040208195,"connected_time":3550000000000,"state":"active","ping":51},{"user_id":421,"name":"hananamanna","steam_id":76561198006570285,"connected_time":641000000000,"state":"active","ping":114},{"user_id":420,"name":"nedilya","steam_id":76561198039692077,"connected_time":769000000000,"state":"active","ping":62},{"user_id":417,"name":"Tuga inglesa","steam_id":76561198442803577,"connected_time":848000000000,"state":"active","ping":85}]},{"server_id":22,"name":"Uncletopia | London | 6 | All Maps","name_short":"lon-6","host":"lon-1.uk.uncletopia.com","port":27065,"enabled":true,"region":"eu","cc":"gb","latitude":51.509865,"longitude":-0.118092,"reserved":0,"last_update":"0001-01-01T00:00:00Z","name_a2s":"Uncletopia | London | 6 | All Maps","protocol":17,"map":"pl_frontier_final","folder":"tf","game":"Team Fortress","app_id":440,"player_count":24,"max_players":24,"Bots":0,"server_type":"Dedicated","server_os":"Linux","password":true,"vac":true,"version":"7757534","steam_id":85568392924742830,"keywords":["nocrits","nodmgspread","payload","uncletopia"],"game_id":440,"stv_port":27066,"stv_name":"Uncletopia | London | 6 | All Maps | STV","players":[{"user_id":307,"name":"102ping","steam_id":76561199000963772,"connected_time":493000000000,"state":"active","ping":65},{"user_id":268,"name":"Doctor Štef","steam_id":76561198053401704,"connected_time":2324000000000,"state":"active","ping":62},{"user_id":294,"name":"Nikey","steam_id":76561198054811841,"connected_time":1334000000000,"state":"active","ping":71},{"user_id":303,"name":"Rayskiy_gomes","steam_id":76561198839511486,"connected_time":1010000000000,"state":"active","ping":87},{"user_id":290,"name":"PixelHyde","steam_id":76561198040878617,"connected_time":1399000000000,"state":"active","ping":67},{"user_id":311,"name":"AshHousewares","steam_id":76561197985639246,"connected_time":63000000000,"state":"active","ping":132},{"user_id":295,"name":"BunyBunyBoi","steam_id":76561198153289418,"connected_time":1331000000000,"state":"active","ping":75},{"user_id":300,"name":"Tsar Bombastic","steam_id":76561198185444307,"connected_time":1123000000000,"state":"active","ping":47},{"user_id":304,"name":"Matomatic","steam_id":76561198063013603,"connected_time":838000000000,"state":"active","ping":60},{"user_id":310,"name":"Záporák","steam_id":76561198207175503,"connected_time":88000000000,"state":"active","ping":69},{"user_id":245,"name":"baruku","steam_id":76561199030306982,"connected_time":3348000000000,"state":"active","ping":74},{"user_id":301,"name":"10th dimension resident","steam_id":76561198103660553,"connected_time":1115000000000,"state":"active","ping":94},{"user_id":196,"name":"zoinks!","steam_id":76561198068645362,"connected_time":6111000000000,"state":"active","ping":41},{"user_id":291,"name":"X-tis","steam_id":76561198043837480,"connected_time":1389000000000,"state":"active","ping":61},{"user_id":281,"name":"Joey Lemons","steam_id":76561198068104187,"connected_time":1954000000000,"state":"active","ping":131},{"user_id":308,"name":"Insain Bolt!","steam_id":76561198025687726,"connected_time":130000000000,"state":"active","ping":71},{"user_id":282,"name":"Tiger Woods","steam_id":76561198030956814,"connected_time":1914000000000,"state":"active","ping":83},{"user_id":278,"name":"Old Man Winter","steam_id":76561198007653168,"connected_time":2077000000000,"state":"active","ping":49},{"user_id":293,"name":"McStesh","steam_id":76561198078095097,"connected_time":1359000000000,"state":"active","ping":59},{"user_id":305,"name":"Lord Maldimort","steam_id":76561198063150039,"connected_time":789000000000,"state":"active","ping":58},{"user_id":296,"name":"Dork Bum","steam_id":76561198245238334,"connected_time":1318000000000,"state":"active","ping":85},{"user_id":243,"name":"uncle from jackie chan adventur","steam_id":76561198034955422,"connected_time":3437000000000,"state":"active","ping":48},{"user_id":306,"name":"Mantis Toboggan, M.D","steam_id":76561197963562704,"connected_time":507000000000,"state":"active","ping":69},{"user_id":312,"name":"gVulture","steam_id":76561198034100354,"connected_time":35000000000,"state":"active","ping":48}]},{"server_id":40,"name":"Uncletopia | London | 7 | No Payload","name_short":"lon-7","host":"lon-1.uk.uncletopia.com","port":27075,"enabled":true,"region":"eu","cc":"gb","latitude":51.509865,"longitude":-0.118092,"reserved":0,"last_update":"0001-01-01T00:00:00Z","name_a2s":"Uncletopia | London | 7 | No Payload","protocol":17,"map":"koth_suijin","folder":"tf","game":"Team Fortress","app_id":440,"player_count":3,"max_players":24,"Bots":0,"server_type":"Dedicated","server_os":"Linux","password":true,"vac":true,"version":"7757534","steam_id":85568392924964314,"keywords":["cp","nocrits","nodmgspread","uncletopia"],"game_id":440,"stv_port":27076,"stv_name":"Uncletopia | London | 7 | No Payload | STV","players":[{"user_id":524,"name":"Ander","steam_id":76561199219017011,"connected_time":2459000000000,"state":"active","ping":75},{"user_id":525,"name":"Alxdusty","steam_id":76561199128401768,"connected_time":1827000000000,"state":"active","ping":67},{"user_id":535,"name":"tree__dude","steam_id":76561198975762241,"connected_time":208000000000,"state":"active","ping":116}]},{"server_id":41,"name":"Uncletopia | London | 8 | Community","name_short":"lon-8","host":"lon-1.uk.uncletopia.com","port":27085,"enabled":true,"region":"eu","cc":"gb","latitude":51.509865,"longitude":-0.118092,"reserved":0,"last_update":"0001-01-01T00:00:00Z","name_a2s":"Uncletopia | London | 8 | Community","protocol":17,"map":"workshop/pl_vigil_rc9.ugc1266210012","folder":"tf","game":"Team Fortress","app_id":440,"player_count":0,"max_players":24,"Bots":0,"server_type":"Dedicated","server_os":"Linux","password":true,"vac":true,"version":"7757534","steam_id":85568392924964315,"keywords":["nocrits","nodmgspread","payload","uncletopia"],"game_id":440,"stv_port":27086,"stv_name":"Uncletopia | London | 8 | Community | STV","players":null},{"server_id":300,"name":"Uncletopia | Montréal | 1 | All Maps","name_short":"mtl-1","host":"mtl-1.ca.uncletopia.com","port":27015,"enabled":true,"region":"us-east","cc":"ca","latitude":45.50889,"longitude":-73.56167,"reserved":0,"last_update":"0001-01-01T00:00:00Z","name_a2s":"Uncletopia | Montréal | 1 | All Maps","protocol":17,"map":"cp_sunshine","folder":"tf","game":"Team Fortress","app_id":440,"player_count":4,"max_players":24,"Bots":0,"server_type":"Dedicated","server_os":"Linux","password":true,"vac":true,"version":"7757534","steam_id":85568392924500087,"keywords":["cp","nocrits","nodmgspread","uncletopia"],"game_id":440,"stv_port":27016,"stv_name":"Uncletopia | Montréal | 1 | All Maps | STV","players":[{"user_id":7,"name":"ButtLand5000","steam_id":76561199094392792,"connected_time":2663000000000,"state":"active","ping":102},{"user_id":16,"name":"grape","steam_id":76561199228600578,"connected_time":548000000000,"state":"active","ping":96},{"user_id":12,"name":"DeadEd","steam_id":76561199032365501,"connected_time":2184000000000,"state":"active","ping":83},{"user_id":17,"name":"elementskindasuck","steam_id":76561199209255738,"connected_time":506000000000,"state":"active","ping":88}]},{"server_id":301,"name":"Uncletopia | Montréal | 2 | All Maps","name_short":"mtl-2","host":"mtl-1.ca.uncletopia.com","port":27025,"enabled":true,"region":"us-east","cc":"ca","latitude":45.50889,"longitude":-73.56167,"reserved":0,"last_update":"0001-01-01T00:00:00Z","name_a2s":"Uncletopia | Montréal | 2 | All Maps","protocol":17,"map":"pl_borneo","folder":"tf","game":"Team Fortress","app_id":440,"player_count":0,"max_players":24,"Bots":0,"server_type":"Dedicated","server_os":"Linux","password":true,"vac":true,"version":"7757534","steam_id":85568392924500088,"keywords":["nocrits","nodmgspread","payload","uncletopia"],"game_id":440,"stv_port":27026,"stv_name":"Uncletopia | Montréal | 2 | All Maps | STV","players":null},{"server_id":302,"name":"Uncletopia | Montréal | 3 | All Maps","name_short":"mtl-3","host":"mtl-1.ca.uncletopia.com","port":27035,"enabled":true,"region":"us-east","cc":"ca","latitude":45.50889,"longitude":-73.56167,"reserved":0,"last_update":"0001-01-01T00:00:00Z","name_a2s":"Uncletopia | Montréal | 3 | All Maps","protocol":17,"map":"koth_cascade","folder":"tf","game":"Team Fortress","app_id":440,"player_count":0,"max_players":24,"Bots":0,"server_type":"Dedicated","server_os":"Linux","password":true,"vac":true,"version":"7757534","steam_id":85568392924500089,"keywords":["cp","nocrits","nodmgspread","uncletopia"],"game_id":440,"stv_port":27036,"stv_name":"Uncletopia | Montréal | 3 | All Maps | STV","players":null},{"server_id":303,"name":"Uncletopia | Montréal | 4 | No Payload","name_short":"mtl-4","host":"mtl-1.ca.uncletopia.com","port":27045,"enabled":true,"region":"us-east","cc":"ca","latitude":45.50889,"longitude":-73.56167,"reserved":0,"last_update":"0001-01-01T00:00:00Z","name_a2s":"Uncletopia | Montréal | 4 | No Payload","protocol":17,"map":"koth_lakeside_final","folder":"tf","game":"Team Fortress","app_id":440,"player_count":0,"max_players":24,"Bots":0,"server_type":"Dedicated","server_os":"Linux","password":true,"vac":true,"version":"7757534","steam_id":85568392924500090,"keywords":["cp","nocrits","nodmgspread","uncletopia"],"game_id":440,"stv_port":27046,"stv_name":"Uncletopia | Montréal | 4 | No Payload | STV","players":null},{"server_id":13,"name":"Uncletopia | New York City | 1 | All Maps","name_short":"nyc-1","host":"nyc-1.us.uncletopia.com","port":27015,"enabled":true,"region":"us-east","cc":"us","latitude":40.73061,"longitude":-73.93524,"reserved":0,"last_update":"0001-01-01T00:00:00Z","name_a2s":"Uncletopia | New York City | 1 | All Maps","protocol":17,"map":"cp_altitude","folder":"tf","game":"Team Fortress","app_id":440,"player_count":24,"max_players":24,"Bots":0,"server_type":"Dedicated","server_os":"Linux","password":true,"vac":true,"version":"7757534","steam_id":85568392924469993,"keywords":["cp","nocrits","nodmgspread","uncletopia"],"game_id":440,"stv_port":27016,"stv_name":"Uncletopia | New York City | 1 | All Maps | STV","players":[{"user_id":220,"name":"The Land Admiral","steam_id":76561198159356609,"connected_time":2049000000000,"state":"active","ping":55},{"user_id":260,"name":"Joshy","steam_id":76561198065488506,"connected_time":257000000000,"state":"active","ping":71},{"user_id":253,"name":"grunch","steam_id":76561198354292689,"connected_time":415000000000,"state":"active","ping":90},{"user_id":222,"name":"Ghost Lord","steam_id":76561198088956723,"connected_time":1736000000000,"state":"active","ping":100},{"user_id":255,"name":"Walter Motrin","steam_id":76561198139095697,"connected_time":400000000000,"state":"active","ping":54},{"user_id":231,"name":"Walmart Employee","steam_id":76561198840373909,"connected_time":1437000000000,"state":"active","ping":99},{"user_id":256,"name":"Toygar","steam_id":76561198023679830,"connected_time":373000000000,"state":"active","ping":64},{"user_id":247,"name":"JetFire☭⊱ジェット","steam_id":76561198315253928,"connected_time":1042000000000,"state":"active","ping":160},{"user_id":235,"name":"All 24 Pokémon movies at once","steam_id":76561198164738311,"connected_time":1378000000000,"state":"active","ping":82},{"user_id":254,"name":"Draconic Ballad","steam_id":76561198027191515,"connected_time":412000000000,"state":"active","ping":61},{"user_id":257,"name":"_SniP_","steam_id":76561199188398280,"connected_time":362000000000,"state":"active","ping":146},{"user_id":233,"name":"Mr Toxic","steam_id":76561198040057167,"connected_time":1420000000000,"state":"active","ping":126},{"user_id":234,"name":"Mask","steam_id":76561198877649728,"connected_time":1399000000000,"state":"active","ping":142},{"user_id":259,"name":"The Prankster™","steam_id":76561199123285878,"connected_time":310000000000,"state":"active","ping":54},{"user_id":237,"name":"mocolata","steam_id":76561198023757872,"connected_time":1334000000000,"state":"active","ping":77},{"user_id":239,"name":"THRILLHO","steam_id":76561198371663047,"connected_time":1313000000000,"state":"active","ping":44},{"user_id":240,"name":"bingle","steam_id":76561198359413453,"connected_time":1308000000000,"state":"active","ping":67},{"user_id":251,"name":"A Puppy","steam_id":76561198828184456,"connected_time":527000000000,"state":"active","ping":47},{"user_id":216,"name":"Cpapi","steam_id":76561198027779564,"connected_time":2635000000000,"state":"active","ping":58},{"user_id":198,"name":"Dark_Eagle","steam_id":76561198397908108,"connected_time":3852000000000,"state":"active","ping":100},{"user_id":205,"name":"ndvr","steam_id":76561199379200102,"connected_time":3096000000000,"state":"active","ping":55},{"user_id":165,"name":"Baron von Whoopsie","steam_id":76561197996691013,"connected_time":6601000000000,"state":"active","ping":58},{"user_id":241,"name":"g00bur","steam_id":76561197993622520,"connected_time":1302000000000,"state":"active","ping":58},{"user_id":204,"name":"Thurricane","steam_id":76561198410724666,"connected_time":3187000000000,"state":"active","ping":53}]},{"server_id":14,"name":"Uncletopia | New York City | 2 | All Maps","name_short":"nyc-2","host":"nyc-1.us.uncletopia.com","port":27025,"enabled":true,"region":"us-east","cc":"us","latitude":40.73061,"longitude":-73.93524,"reserved":0,"last_update":"0001-01-01T00:00:00Z","name_a2s":"Uncletopia | New York City | 2 | All Maps","protocol":17,"map":"cp_snakewater_final1","folder":"tf","game":"Team Fortress","app_id":440,"player_count":24,"max_players":24,"Bots":0,"server_type":"Dedicated","server_os":"Linux","password":true,"vac":true,"version":"7757534","steam_id":85568392924469994,"keywords":["cp","nocrits","nodmgspread","uncletopia"],"game_id":440,"stv_port":27026,"stv_name":"Uncletopia | New York City | 2 | All Maps | STV","players":[{"user_id":128,"name":"acer","steam_id":76561198826005248,"connected_time":2568000000000,"state":"active","ping":173},{"user_id":153,"name":"Snorty","steam_id":76561198114304454,"connected_time":462000000000,"state":"active","ping":75},{"user_id":142,"name":"pignot","steam_id":76561198188193023,"connected_time":1751000000000,"state":"active","ping":53},{"user_id":123,"name":"Dracoza_","steam_id":76561199177611911,"connected_time":2689000000000,"state":"active","ping":71},{"user_id":136,"name":"otter","steam_id":76561198180787351,"connected_time":2396000000000,"state":"active","ping":57},{"user_id":150,"name":"[OC2TM] CF-TF2","steam_id":76561198145893044,"connected_time":528000000000,"state":"active","ping":63},{"user_id":151,"name":"Mr. Foxtrot","steam_id":76561198936033602,"connected_time":519000000000,"state":"active","ping":104},{"user_id":157,"name":"Myn","steam_id":76561198055438857,"connected_time":202000000000,"state":"active","ping":69},{"user_id":135,"name":"Nerdy Nerd","steam_id":76561198403942723,"connected_time":2426000000000,"state":"active","ping":47},{"user_id":139,"name":"Bee","steam_id":76561198074681324,"connected_time":2079000000000,"state":"active","ping":51},{"user_id":155,"name":"lost in spaaaaace","steam_id":76561199085974120,"connected_time":366000000000,"state":"active","ping":56},{"user_id":132,"name":"Sully","steam_id":76561198310784589,"connected_time":2496000000000,"state":"active","ping":55},{"user_id":133,"name":"Penis but it rhymes with Venice","steam_id":76561197986420836,"connected_time":2489000000000,"state":"active","ping":54},{"user_id":143,"name":"Ninten","steam_id":76561198131409710,"connected_time":1745000000000,"state":"active","ping":69},{"user_id":152,"name":"neo :)","steam_id":76561199092954930,"connected_time":516000000000,"state":"active","ping":63},{"user_id":149,"name":"Ubadiah","steam_id":76561198329996885,"connected_time":535000000000,"state":"active","ping":56},{"user_id":116,"name":"nicci","steam_id":76561197995961445,"connected_time":2781000000000,"state":"active","ping":83},{"user_id":158,"name":"The Rat King","steam_id":76561198913754180,"connected_time":158000000000,"state":"active","ping":59},{"user_id":161,"name":"choi","steam_id":76561198053669887,"connected_time":31000000000,"state":"active","ping":121},{"user_id":120,"name":"leonardo doujinshi","steam_id":76561198025810326,"connected_time":2726000000000,"state":"active","ping":73},{"user_id":148,"name":"to be a constellation","steam_id":76561198048992536,"connected_time":756000000000,"state":"active","ping":92},{"user_id":156,"name":"bhop","steam_id":76561198064885639,"connected_time":292000000000,"state":"active","ping":69},{"user_id":159,"name":"TheWallaby","steam_id":76561198948037546,"connected_time":117000000000,"state":"active","ping":47},{"user_id":122,"name":"Striyex","steam_id":76561199121972402,"connected_time":2720000000000,"state":"active","ping":48}]},{"server_id":15,"name":"Uncletopia | New York City | 3 | Stopwatch Beta","name_short":"nyc-3","host":"nyc-1.us.uncletopia.com","port":27035,"enabled":true,"region":"us-east","cc":"us","latitude":40.73061,"longitude":-73.93524,"reserved":0,"last_update":"0001-01-01T00:00:00Z","name_a2s":"Uncletopia | New York City | 3 | Stopwatch Beta","protocol":17,"map":"workshop/cp_process_f11.ugc2302948105","folder":"tf","game":"Team Fortress","app_id":440,"player_count":0,"max_players":24,"Bots":0,"server_type":"Dedicated","server_os":"Linux","password":true,"vac":true,"version":"7757534","steam_id":85568392924742820,"keywords":["cp","nocrits","nodmgspread","uncletopia"],"game_id":440,"stv_port":27036,"stv_name":"Uncletopia | New York City | 3 | Stopwatch Beta | STV","players":null},{"server_id":16,"name":"Uncletopia | New York City | 4 | Community","name_short":"nyc-4","host":"nyc-1.us.uncletopia.com","port":27045,"enabled":true,"region":"us-east","cc":"us","latitude":40.73061,"longitude":-73.93524,"reserved":0,"last_update":"0001-01-01T00:00:00Z","name_a2s":"Uncletopia | New York City | 4 | Community","protocol":17,"map":"workshop/koth_bagel_rc5.ugc2514036946","folder":"tf","game":"Team Fortress","app_id":440,"player_count":5,"max_players":24,"Bots":0,"server_type":"Dedicated","server_os":"Linux","password":true,"vac":true,"version":"7757534","steam_id":85568392924742821,"keywords":["cp","nocrits","nodmgspread","uncletopia"],"game_id":440,"stv_port":27046,"stv_name":"Uncletopia | New York City | 4 | Community | STV","players":[{"user_id":7,"name":"The Pope","steam_id":76561198805375543,"connected_time":3309000000000,"state":"active","ping":133},{"user_id":9,"name":"The Gremlin","steam_id":76561198419066993,"connected_time":3281000000000,"state":"active","ping":128},{"user_id":14,"name":"Vero","steam_id":76561198183369559,"connected_time":2476000000000,"state":"active","ping":117},{"user_id":28,"name":"DaRealDogLegendYT","steam_id":76561199186656902,"connected_time":839000000000,"state":"active","ping":115},{"user_id":23,"name":"Militant Pacifist","steam_id":76561198290691432,"connected_time":1506000000000,"state":"active","ping":112}]},{"server_id":142,"name":"Uncletopia | São Paulo | 1 | All Maps","name_short":"sao-1","host":"sao-1.br.uncletopia.com","port":27015,"enabled":true,"region":"sa","cc":"br","latitude":-23.533773,"longitude":-46.62529,"reserved":0,"last_update":"0001-01-01T00:00:00Z","name_a2s":"Uncletopia | São Paulo | 1 | All Maps","protocol":17,"map":"plr_pipeline","folder":"tf","game":"Team Fortress","app_id":440,"player_count":1,"max_players":24,"Bots":0,"server_type":"Dedicated","server_os":"Linux","password":true,"vac":true,"version":"7757534","steam_id":85568392924469996,"keywords":["nocrits","nodmgspread","payload","uncletopia"],"game_id":440,"stv_port":27016,"stv_name":"Uncletopia | São Paulo | 1 | All Maps | STV","players":[{"user_id":18,"name":"kaikematosfarias","steam_id":76561199469479535,"connected_time":421000000000,"state":"active","ping":69}]},{"server_id":143,"name":"Uncletopia | São Paulo | 2 | All Maps","name_short":"sao-2","host":"sao-2.br.uncletopia.com","port":27015,"enabled":true,"region":"sa","cc":"br","latitude":-23.533773,"longitude":-46.62529,"reserved":0,"last_update":"0001-01-01T00:00:00Z","name_a2s":"Uncletopia | São Paulo | 2 | All Maps","protocol":17,"map":"koth_cascade","folder":"tf","game":"Team Fortress","app_id":440,"player_count":0,"max_players":24,"Bots":0,"server_type":"Dedicated","server_os":"Linux","password":true,"vac":true,"version":"7757534","steam_id":85568392924485349,"keywords":["cp","nocrits","nodmgspread","uncletopia"],"game_id":440,"stv_port":27016,"stv_name":"Uncletopia | São Paulo | 2 | All Maps | STV","players":null},{"server_id":7,"name":"Uncletopia | Seattle | 1 | All Maps","name_short":"sea-1","host":"sea-1.us.uncletopia.com","port":27015,"enabled":true,"region":"us-west","cc":"us","latitude":47.608013,"longitude":-122.33517,"reserved":0,"last_update":"0001-01-01T00:00:00Z","name_a2s":"Uncletopia | Seattle | 1 | All Maps","protocol":17,"map":"cp_steel","folder":"tf","game":"Team Fortress","app_id":440,"player_count":21,"max_players":24,"Bots":0,"server_type":"Dedicated","server_os":"Linux","password":true,"vac":true,"version":"7757534","steam_id":85568392924469997,"keywords":["cp","nocrits","nodmgspread","uncletopia"],"game_id":440,"stv_port":27016,"stv_name":"Uncletopia | Seattle | 1 | All Maps | STV","players":[{"user_id":364,"name":"rE_d0","steam_id":76561198975450630,"connected_time":53000000000,"state":"active","ping":46},{"user_id":356,"name":"AmudPuddle","steam_id":76561198017041618,"connected_time":339000000000,"state":"active","ping":129},{"user_id":296,"name":"AmiableNebula","steam_id":76561198094306627,"connected_time":6145000000000,"state":"active","ping":75},{"user_id":353,"name":"Truffles","steam_id":76561198095868800,"connected_time":444000000000,"state":"active","ping":114},{"user_id":357,"name":"Greskrendtregk","steam_id":76561197969553142,"connected_time":324000000000,"state":"active","ping":54},{"user_id":323,"name":"Kuma","steam_id":76561199100813140,"connected_time":2035000000000,"state":"active","ping":86},{"user_id":358,"name":"Tromboner","steam_id":76561198101850500,"connected_time":284000000000,"state":"active","ping":45},{"user_id":359,"name":"sexypringle","steam_id":76561198401282091,"connected_time":278000000000,"state":"active","ping":64},{"user_id":340,"name":"thinkin inside the box","steam_id":76561199001307670,"connected_time":955000000000,"state":"active","ping":53},{"user_id":328,"name":"Fh","steam_id":76561198000903511,"connected_time":1782000000000,"state":"active","ping":64},{"user_id":315,"name":"bronk","steam_id":76561198181109553,"connected_time":3713000000000,"state":"active","ping":68},{"user_id":337,"name":"Freddie Benson","steam_id":76561198012741266,"connected_time":1315000000000,"state":"active","ping":46},{"user_id":330,"name":"Quick-Fix Fan","steam_id":76561198872845740,"connected_time":1709000000000,"state":"active","ping":130},{"user_id":360,"name":"Jun","steam_id":76561198006299609,"connected_time":201000000000,"state":"active","ping":103},{"user_id":355,"name":"craftkid2011","steam_id":76561198122043365,"connected_time":386000000000,"state":"active","ping":177},{"user_id":351,"name":"Syn_Contamino5311","steam_id":76561199454661432,"connected_time":581000000000,"state":"active","ping":69},{"user_id":313,"name":"hi i have a new mouse","steam_id":76561198424248616,"connected_time":3872000000000,"state":"active","ping":74},{"user_id":350,"name":"the them","steam_id":76561198082922382,"connected_time":583000000000,"state":"active","ping":77},{"user_id":354,"name":"usedhalfcart","steam_id":76561198072621852,"connected_time":433000000000,"state":"active","ping":115},{"user_id":361,"name":"Qrowniniee","steam_id":76561198273028245,"connected_time":134000000000,"state":"active","ping":91},{"user_id":282,"name":"Sewer","steam_id":76561198803732690,"connected_time":7794000000000,"state":"active","ping":81}]},{"server_id":119,"name":"Uncletopia | Seattle | 2 | All Maps","name_short":"sea-2","host":"sea-1.us.uncletopia.com","port":27025,"enabled":true,"region":"us-west","cc":"us","latitude":47.608013,"longitude":-122.33517,"reserved":0,"last_update":"0001-01-01T00:00:00Z","name_a2s":"Uncletopia | Seattle | 2 | All Maps","protocol":17,"map":"cp_altitude","folder":"tf","game":"Team Fortress","app_id":440,"player_count":24,"max_players":24,"Bots":0,"server_type":"Dedicated","server_os":"Linux","password":true,"vac":true,"version":"7757534","steam_id":85568392924469998,"keywords":["cp","nocrits","nodmgspread","uncletopia"],"game_id":440,"stv_port":27026,"stv_name":"Uncletopia | Seattle | 2 | All Maps | STV","players":[{"user_id":13,"name":"dearender","steam_id":76561199427644498,"connected_time":4479000000000,"state":"active","ping":63},{"user_id":72,"name":"Ecliptica","steam_id":76561198171951333,"connected_time":314000000000,"state":"active","ping":149},{"user_id":59,"name":"Jailbreak","steam_id":76561198802085218,"connected_time":759000000000,"state":"active","ping":100},{"user_id":25,"name":"Small Man (is in your area)","steam_id":76561198146228439,"connected_time":2449000000000,"state":"active","ping":46},{"user_id":26,"name":"Battery_Included","steam_id":76561198067164431,"connected_time":2438000000000,"state":"active","ping":65},{"user_id":50,"name":"Vinchâu","steam_id":76561198169289662,"connected_time":1071000000000,"state":"active","ping":61},{"user_id":69,"name":"ScoutMoment420","steam_id":76561199316368867,"connected_time":373000000000,"state":"active","ping":131},{"user_id":49,"name":"a crazy hobo","steam_id":76561198289650060,"connected_time":1124000000000,"state":"active","ping":71},{"user_id":56,"name":"pablo.gonzales.2007","steam_id":76561199088646500,"connected_time":837000000000,"state":"active","ping":127},{"user_id":32,"name":"perc 10","steam_id":76561198116471653,"connected_time":2000000000000,"state":"active","ping":578},{"user_id":34,"name":"SquidGhost","steam_id":76561198014433809,"connected_time":1806000000000,"state":"active","ping":86},{"user_id":35,"name":"Dismas","steam_id":76561198076193409,"connected_time":1806000000000,"state":"active","ping":104},{"user_id":36,"name":"Devil's Dozen","steam_id":76561198272114523,"connected_time":1776000000000,"state":"active","ping":102},{"user_id":57,"name":"Senor_Taco","steam_id":76561198053862164,"connected_time":812000000000,"state":"active","ping":75},{"user_id":75,"name":"QuesaDiaz","steam_id":76561198355667850,"connected_time":119000000000,"state":"active","ping":76},{"user_id":67,"name":"iloveusername","steam_id":76561198168667094,"connected_time":531000000000,"state":"active","ping":63},{"user_id":47,"name":"Ignignokt","steam_id":76561198162207470,"connected_time":1201000000000,"state":"active","ping":62},{"user_id":48,"name":"Matte :)","steam_id":76561198070631073,"connected_time":1188000000000,"state":"active","ping":64},{"user_id":42,"name":"STrong Bomber","steam_id":76561198805051139,"connected_time":1620000000000,"state":"active","ping":47},{"user_id":60,"name":"Grim1438","steam_id":76561199218478092,"connected_time":706000000000,"state":"active","ping":61},{"user_id":63,"name":"GreenApples","steam_id":76561198120559543,"connected_time":659000000000,"state":"active","ping":72},{"user_id":61,"name":"FANG","steam_id":76561199094739690,"connected_time":689000000000,"state":"active","ping":88},{"user_id":71,"name":"Harland","steam_id":76561198177908823,"connected_time":342000000000,"state":"active","ping":92},{"user_id":65,"name":"The CEO of cement","steam_id":76561199107177460,"connected_time":597000000000,"state":"active","ping":102}]},{"server_id":406,"name":"Uncletopia | Seattle | 3 | Stopwatch Beta","name_short":"sea-3","host":"sea-1.us.uncletopia.com","port":27035,"enabled":true,"region":"us-west","cc":"us","latitude":47.608013,"longitude":-122.33517,"reserved":0,"last_update":"0001-01-01T00:00:00Z","name_a2s":"Uncletopia | Seattle | 3 | Stopwatch Beta","protocol":17,"map":"pl_upward","folder":"tf","game":"Team Fortress","app_id":440,"player_count":0,"max_players":24,"Bots":0,"server_type":"Dedicated","server_os":"Linux","password":true,"vac":true,"version":"7757534","steam_id":85568392924515217,"keywords":["nocrits","nodmgspread","payload","uncletopia"],"game_id":440,"stv_port":27036,"stv_name":"Uncletopia | Seattle | 3 | Stopwatch Beta | STV","players":null},{"server_id":17,"name":"Uncletopia | San Francisco | 1 | All Maps","name_short":"sfo-1","host":"sfo-1.us.uncletopia.com","port":27015,"enabled":true,"region":"us-west","cc":"us","latitude":37.77397,"longitude":-122.4313,"reserved":0,"last_update":"0001-01-01T00:00:00Z","name_a2s":"Uncletopia | San Francisco | 1 | All Maps","protocol":17,"map":"pl_badwater","folder":"tf","game":"Team Fortress","app_id":440,"player_count":0,"max_players":24,"Bots":0,"server_type":"Dedicated","server_os":"Linux","password":true,"vac":true,"version":"7757534","steam_id":85568392924469999,"keywords":["nocrits","nodmgspread","payload","uncletopia"],"game_id":440,"stv_port":27016,"stv_name":"Uncletopia | San Francisco | 1 | All Maps | STV","players":null},{"server_id":18,"name":"Uncletopia | San Francisco | 2 | All Maps","name_short":"sfo-2","host":"sfo-1.us.uncletopia.com","port":27025,"enabled":true,"region":"us-west","cc":"us","latitude":37.77397,"longitude":-122.4313,"reserved":0,"last_update":"0001-01-01T00:00:00Z","name_a2s":"Uncletopia | San Francisco | 2 | All Maps","protocol":17,"map":"koth_highpass","folder":"tf","game":"Team Fortress","app_id":440,"player_count":0,"max_players":24,"Bots":0,"server_type":"Dedicated","server_os":"Linux","password":true,"vac":true,"version":"7757534","steam_id":85568392924470000,"keywords":["cp","nocrits","nodmgspread","uncletopia"],"game_id":440,"stv_port":27026,"stv_name":"Uncletopia | San Francisco | 2 | All Maps | STV","players":null},{"server_id":19,"name":"Uncletopia | San Francisco | 3 | Stopwatch Beta","name_short":"sfo-3","host":"sfo-1.us.uncletopia.com","port":27035,"enabled":true,"region":"us-west","cc":"us","latitude":37.77397,"longitude":-122.4313,"reserved":0,"last_update":"0001-01-01T00:00:00Z","name_a2s":"Uncletopia | San Francisco | 3 | Stopwatch Beta","protocol":17,"map":"koth_viaduct","folder":"tf","game":"Team Fortress","app_id":440,"player_count":0,"max_players":24,"Bots":0,"server_type":"Dedicated","server_os":"Linux","password":true,"vac":true,"version":"7757534","steam_id":85568392924742824,"keywords":["cp","nocrits","nodmgspread","uncletopia"],"game_id":440,"stv_port":27036,"stv_name":"Uncletopia | San Francisco | 3 | Stopwatch Beta | STV","players":null},{"server_id":20,"name":"Uncletopia | San Francisco | 4 | Community","name_short":"sfo-4","host":"sfo-1.us.uncletopia.com","port":27045,"enabled":true,"region":"us-west","cc":"us","latitude":37.77397,"longitude":-122.4313,"reserved":0,"last_update":"0001-01-01T00:00:00Z","name_a2s":"Uncletopia | San Francisco | 4 | Community","protocol":17,"map":"pl_borneo","folder":"tf","game":"Team Fortress","app_id":440,"player_count":0,"max_players":24,"Bots":0,"server_type":"Dedicated","server_os":"Linux","password":true,"vac":true,"version":"7757534","steam_id":85568392924742826,"keywords":["nocrits","nodmgspread","payload","uncletopia"],"game_id":440,"stv_port":27046,"stv_name":"Uncletopia | San Francisco | 4 | Community | STV","players":null},{"server_id":141,"name":"Uncletopia | Sydney | 1 | All Maps","name_short":"syd-1","host":"syd-1.au.uncletopia.com","port":27015,"enabled":true,"region":"au","cc":"au","latitude":-33.865143,"longitude":151.2099,"reserved":0,"last_update":"0001-01-01T00:00:00Z","name_a2s":"Uncletopia | Sydney | 1 | All Maps","protocol":17,"map":"koth_lakeside_final","folder":"tf","game":"Team Fortress","app_id":440,"player_count":0,"max_players":24,"Bots":0,"server_type":"Dedicated","server_os":"Linux","password":true,"vac":true,"version":"7757534","steam_id":85568392924470001,"keywords":["cp","nocrits","nodmgspread","uncletopia"],"game_id":440,"stv_port":27016,"stv_name":"Uncletopia | Sydney | 1 | All Maps | STV","players":null},{"server_id":123,"name":"Uncletopia | Sydney | 2 | All Maps","name_short":"syd-2","host":"syd-1.au.uncletopia.com","port":27025,"enabled":true,"region":"au","cc":"au","latitude":-33.865143,"longitude":151.2099,"reserved":0,"last_update":"0001-01-01T00:00:00Z","name_a2s":"Uncletopia | Sydney | 2 | All Maps","protocol":17,"map":"cp_dustbowl","folder":"tf","game":"Team Fortress","app_id":440,"player_count":8,"max_players":24,"Bots":0,"server_type":"Dedicated","server_os":"Linux","password":true,"vac":true,"version":"7757534","steam_id":85568392924470002,"keywords":["cp","nocrits","nodmgspread","uncletopia"],"game_id":440,"stv_port":27026,"stv_name":"Uncletopia | Sydney | 2 | All Maps | STV","players":[{"user_id":26,"name":"megascatterbomb","steam_id":76561198022053157,"connected_time":37000000000,"state":"active","ping":58},{"user_id":15,"name":"kfc","steam_id":76561198310550094,"connected_time":1846000000000,"state":"active","ping":50},{"user_id":7,"name":"cakey","steam_id":76561198173746761,"connected_time":3549000000000,"state":"active","ping":44},{"user_id":8,"name":"Combine hl2 real","steam_id":76561199060614128,"connected_time":3427000000000,"state":"active","ping":44},{"user_id":10,"name":"savkid","steam_id":76561199094167693,"connected_time":3161000000000,"state":"active","ping":85},{"user_id":12,"name":"Glockenspe (She/Her)","steam_id":76561199184115241,"connected_time":2929000000000,"state":"active","ping":51},{"user_id":22,"name":"ziah","steam_id":76561198159375596,"connected_time":1014000000000,"state":"active","ping":57},{"user_id":24,"name":"goofy ahh dustbowl player","steam_id":76561198018963938,"connected_time":847000000000,"state":"active","ping":48}]},{"server_id":395,"name":"Uncletopia | Sydney | 3 | All Maps","name_short":"syd-3","host":"syd-1.au.uncletopia.com","port":27035,"enabled":true,"region":"au","cc":"au","latitude":-33.865143,"longitude":151.2099,"reserved":0,"last_update":"0001-01-01T00:00:00Z","name_a2s":"Uncletopia | Sydney | 3 | All Maps","protocol":17,"map":"koth_viaduct","folder":"tf","game":"Team Fortress","app_id":440,"player_count":0,"max_players":24,"Bots":0,"server_type":"Dedicated","server_os":"Linux","password":true,"vac":true,"version":"7757534","steam_id":85568392925194467,"keywords":["cp","nocrits","nodmgspread","uncletopia"],"game_id":440,"stv_port":27036,"stv_name":"Uncletopia | Sydney | 3 | All Maps | STV","players":null},{"server_id":396,"name":"Uncletopia | Sydney | 4 | All Maps","name_short":"syd-4","host":"syd-1.au.uncletopia.com","port":27045,"enabled":true,"region":"au","cc":"au","latitude":-33.865143,"longitude":151.2099,"reserved":0,"last_update":"0001-01-01T00:00:00Z","name_a2s":"Uncletopia | Sydney | 4 | All Maps","protocol":17,"map":"cp_snakewater_final1","folder":"tf","game":"Team Fortress","app_id":440,"player_count":0,"max_players":24,"Bots":0,"server_type":"Dedicated","server_os":"Linux","password":true,"vac":true,"version":"7757534","steam_id":85568392925397958,"keywords":["cp","nocrits","nodmgspread","uncletopia"],"game_id":440,"stv_port":27046,"stv_name":"Uncletopia | Sydney | 4 | All Maps | STV","players":null},{"server_id":58,"name":"Uncletopia | Sydney | 5 | Stopwatch Beta","name_short":"syd-5","host":"syd-1.au.uncletopia.com","port":27055,"enabled":true,"region":"au","cc":"au","latitude":-33.865143,"longitude":151.2099,"reserved":0,"last_update":"0001-01-01T00:00:00Z","name_a2s":"Uncletopia | Sydney | 5 | Stopwatch Beta","protocol":17,"map":"pl_barnblitz","folder":"tf","game":"Team Fortress","app_id":440,"player_count":0,"max_players":24,"Bots":0,"server_type":"Dedicated","server_os":"Linux","password":true,"vac":true,"version":"7757534","steam_id":85568392925397959,"keywords":["nocrits","nodmgspread","payload","uncletopia"],"game_id":440,"stv_port":27056,"stv_name":"Uncletopia | Sydney | 5 | Stopwatch Beta | STV","players":null},{"server_id":59,"name":"Uncletopia | Sydney | 6 | Community","name_short":"syd-6","host":"syd-1.au.uncletopia.com","port":27065,"enabled":true,"region":"au","cc":"au","latitude":-33.865143,"longitude":151.2099,"reserved":0,"last_update":"0001-01-01T00:00:00Z","name_a2s":"Uncletopia | Sydney | 6 | Community","protocol":17,"map":"workshop/koth_synthetic_rc6a.ugc1549817316","folder":"tf","game":"Team Fortress","app_id":440,"player_count":3,"max_players":24,"Bots":0,"server_type":"Dedicated","server_os":"Linux","password":true,"vac":true,"version":"7757534","steam_id":85568392925397960,"keywords":["cp","nocrits","nodmgspread","uncletopia"],"game_id":440,"stv_port":27066,"stv_name":"Uncletopia | Sydney | 6 | Community | STV","players":[{"user_id":5,"name":"jchthm12","steam_id":76561199376385352,"connected_time":1081000000000,"state":"active","ping":64},{"user_id":6,"name":"not a giant eyeball","steam_id":76561198879150611,"connected_time":1077000000000,"state":"active","ping":71},{"user_id":7,"name":"The engineer","steam_id":76561199234860030,"connected_time":301000000000,"state":"active","ping":266}]},{"server_id":49,"name":"Uncletopia | Warsaw | 1 | All Maps","name_short":"waw-1","host":"waw-1.pl.uncletopia.com","port":27015,"enabled":true,"region":"eu","cc":"pl","latitude":52.2297,"longitude":21.017532,"reserved":0,"last_update":"0001-01-01T00:00:00Z","name_a2s":"","protocol":0,"map":"","folder":"","game":"","app_id":0,"player_count":0,"max_players":0,"Bots":0,"server_type":"","server_os":"","password":false,"vac":false,"version":"","steam_id":0,"keywords":null,"game_id":0,"stv_port":0,"stv_name":"","players":null},{"server_id":50,"name":"Uncletopia | Warsaw | 2 | All Maps","name_short":"waw-2","host":"waw-1.pl.uncletopia.com","port":27025,"enabled":true,"region":"eu","cc":"pl","latitude":52.2297,"longitude":21.017532,"reserved":0,"last_update":"0001-01-01T00:00:00Z","name_a2s":"Uncletopia | Warsaw | 2 | All Maps","protocol":17,"map":"cp_mountainlab","folder":"tf","game":"Team Fortress","app_id":440,"player_count":0,"max_players":24,"Bots":0,"server_type":"Dedicated","server_os":"Linux","password":true,"vac":true,"version":"7757534","steam_id":85568392925397851,"keywords":["cp","nocrits","nodmgspread","uncletopia"],"game_id":440,"stv_port":27026,"stv_name":"Uncletopia | Warsaw | 2 | All Maps | STV","players":null},{"server_id":51,"name":"Uncletopia | Warsaw | 3 | All Maps","name_short":"waw-3","host":"waw-1.pl.uncletopia.com","port":27035,"enabled":true,"region":"eu","cc":"pl","latitude":52.2297,"longitude":21.017532,"reserved":0,"last_update":"0001-01-01T00:00:00Z","name_a2s":"Uncletopia | Warsaw | 3 | All Maps","protocol":17,"map":"koth_highpass","folder":"tf","game":"Team Fortress","app_id":440,"player_count":4,"max_players":24,"Bots":0,"server_type":"Dedicated","server_os":"Linux","password":true,"vac":true,"version":"7757534","steam_id":85568392925397852,"keywords":["cp","nocrits","nodmgspread","uncletopia"],"game_id":440,"stv_port":27036,"stv_name":"Uncletopia | Warsaw | 3 | All Maps | STV","players":[{"user_id":27,"name":"random dude","steam_id":76561199312009998,"connected_time":228000000000,"state":"active","ping":48},{"user_id":15,"name":"spiderfat","steam_id":76561198957917221,"connected_time":3344000000000,"state":"active","ping":229},{"user_id":20,"name":"Truegr","steam_id":76561198811912339,"connected_time":1214000000000,"state":"active","ping":70},{"user_id":26,"name":"RoboticPyroRobo","steam_id":76561198355732200,"connected_time":241000000000,"state":"active","ping":180}]},{"server_id":52,"name":"Uncletopia | Warsaw | 4 | All Maps","name_short":"waw-4","host":"waw-1.pl.uncletopia.com","port":27045,"enabled":true,"region":"eu","cc":"pl","latitude":52.2297,"longitude":21.017532,"reserved":0,"last_update":"0001-01-01T00:00:00Z","name_a2s":"Uncletopia | Warsaw | 4 | All Maps","protocol":17,"map":"koth_highpass","folder":"tf","game":"Team Fortress","app_id":440,"player_count":0,"max_players":24,"Bots":0,"server_type":"Dedicated","server_os":"Linux","password":true,"vac":true,"version":"7757534","steam_id":85568392925397853,"keywords":["cp","nocrits","nodmgspread","uncletopia"],"game_id":440,"stv_port":27046,"stv_name":"Uncletopia | Warsaw | 4 | All Maps | STV","players":null},{"server_id":53,"name":"Uncletopia | Warsaw | 5 | Stopwatch Beta","name_short":"waw-5","host":"waw-1.pl.uncletopia.com","port":27055,"enabled":true,"region":"eu","cc":"pl","latitude":52.2297,"longitude":21.017532,"reserved":0,"last_update":"0001-01-01T00:00:00Z","name_a2s":"Uncletopia | Warsaw | 5 | Stopwatch Beta","protocol":17,"map":"workshop/koth_product_final.ugc454272353","folder":"tf","game":"Team Fortress","app_id":440,"player_count":0,"max_players":24,"Bots":0,"server_type":"Dedicated","server_os":"Linux","password":true,"vac":true,"version":"7757534","steam_id":85568392925397854,"keywords":["cp","nocrits","nodmgspread","uncletopia"],"game_id":440,"stv_port":27056,"stv_name":"Uncletopia | Warsaw | 5 | Stopwatch Beta | STV","players":null},{"server_id":54,"name":"Uncletopia | Warsaw | 6 | Community","name_short":"waw-6","host":"waw-1.pl.uncletopia.com","port":27065,"enabled":true,"region":"eu","cc":"pl","latitude":52.2297,"longitude":21.017532,"reserved":0,"last_update":"0001-01-01T00:00:00Z","name_a2s":"Uncletopia | Warsaw | 6 | Community","protocol":17,"map":"workshop/cp_logjam_rc12.ugc454812035","folder":"tf","game":"Team Fortress","app_id":440,"player_count":0,"max_players":24,"Bots":0,"server_type":"Dedicated","server_os":"Linux","password":true,"vac":true,"version":"7757534","steam_id":85568392925397856,"keywords":["cp","nocrits","nodmgspread","uncletopia"],"game_id":440,"stv_port":27066,"stv_name":"Uncletopia | Warsaw | 6 | Community | STV","players":null}]}