{"status":true,"message":"","result":[{"server_id":9,"name":"Uncletopia | Atlanta | 1 | All Maps","name_short":"atl-1","host":"atl-1.us.uncletopia.com","port":27015,"enabled":true,"region":"us-east","cc":"us","latitude":33.753746,"longitude":-84.38633,"reserved":0,"last_update":"0001-01-01T00:00:00Z","name_a2s":"Uncletopia | Atlanta | 1 | All Maps","protocol":17,"map":"pl_barnblitz","folder":"tf","game":"Team Fortress","app_id":440,"player_count":0,"max_players":24,"Bots":0,"server_type":"Dedicated","server_os":"Linux","password":true,"vac":true,"version":"7932396","steam_id":85568392924469982,"keywords":["nocrits","nodmgspread","payload","uncletopia"],"game_id":440,"stv_port":27016,"stv_name":"Uncletopia | Atlanta | 1 | All Maps | STV","players":null},{"server_id":104,"name":"Uncletopia | Atlanta | 2 | All Maps","name_short":"atl-2","host":"atl-1.us.uncletopia.com","port":27025,"enabled":true,"region":"us-east","cc":"us","latitude":33.753746,"longitude":-84.38633,"reserved":0,"last_update":"0001-01-01T00:00:00Z","name_a2s":"Uncletopia | Atlanta | 2 | All Maps","protocol":17,"map":"cp_process_final","folder":"tf","game":"Team Fortress","app_id":440,"player_count":0,"max_players":24,"Bots":0,"server_type":"Dedicated","server_os":"Linux","password":true,"vac":true,"version":"7932396","steam_id":85568392924469983,"keywords":["cp","nocrits","nodmgspread","uncletopia"],"game_id":440,"stv_port":27026,"stv_name":"Uncletopia | Atlanta | 2 | All Maps | STV","players":null},{"server_id":400,"name":"Uncletopia | Atlanta | 3 | Community","name_short":"atl-3","host":"atl-1.us.uncletopia.com","port":27035,"enabled":true,"region":"us-east","cc":"us","latitude":33.753746,"longitude":-84.38633,"reserved":0,"last_update":"0001-01-01T00:00:00Z","name_a2s":"Uncletopia | Atlanta | 3 | Community","protocol":17,"map":"pl_borneo","folder":"tf","game":"Team Fortress","app_id":440,"player_count":0,"max_players":24,"Bots":0,"server_type":"Dedicated","server_os":"Linux","password":true,"vac":true,"version":"7932396","steam_id":85568392924515187,"keywords":["nocrits","nodmgspread","payload","uncletopia"],"game_id":440,"stv_port":27036,"stv_name":"Uncletopia | Atlanta | 3 | Community | STV","players":null},{"server_id":401,"name":"Uncletopia | Atlanta | 4 | No Payload","name_short":"atl-4","host":"atl-1.us.uncletopia.com","port":27045,"enabled":true,"region":"us-east","cc":"us","latitude":33.753746,"longitude":-84.38633,"reserved":0,"last_update":"0001-01-01T00:00:00Z","name_a2s":"","protocol":0,"map":"","folder":"","game":"","app_id":0,"player_count":0,"max_players":0,"Bots":0,"server_type":"","server_os":"","password":false,"vac":false,"version":"","steam_id":0,"keywords":null,"game_id":0,"stv_port":0,"stv_name":"","players":null},{"server_id":2,"name":"Uncletopia | Chicago | 1 | All Maps","name_short":"chi-1","host":"chi-1.us.uncletopia.com","port":27015,"enabled":true,"region":"us-central","cc":"us","latitude":41.881832,"longitude":-87.62318,"reserved":0,"last_update":"0001-01-01T00:00:00Z","name_a2s":"Uncletopia | Chicago | 1 | All Maps","protocol":17,"map":"pl_pier","folder":"tf","game":"Team Fortress","app_id":440,"player_count":24,"max_players":24,"Bots":0,"server_type":"Dedicated","server_os":"Linux","password":true,"vac":true,"version":"7932396","steam_id":85568392924469984,"keywords":["nocrits","nodmgspread","payload","uncletopia"],"game_id":440,"stv_port":27016,"stv_name":"Uncletopia | Chicago | 1 | All Maps | STV","players":[{"user_id":97,"name":"sweaterfan","steam_id":76561199389567214,"connected_time":406000000000,"state":"active","ping":66},{"user_id":49,"name":"social distance warrior","steam_id":76561198128992994,"connected_time":4602000000000,"state":"active","ping":87},{"user_id":84,"name":"put my hand in the cashregister","steam_id":76561198062991744,"connected_time":1825000000000,"state":"active","ping":61},{"user_id":6,"name":"DragonFalcon™","steam_id":76561198044559930,"connected_time":6251000000000,"state":"active","ping":80},{"user_id":71,"name":"Rainy","steam_id":76561198025609304,"connected_time":2128000000000,"state":"active","ping":71},{"user_id":72,"name":"Cliffigriff","steam_id":76561198121924499,"connected_time":2096000000000,"state":"active","ping":80},{"user_id":11,"name":"Wolf Hat","steam_id":76561198099996051,"connected_time":6239000000000,"state":"active","ping":66},{"user_id":94,"name":"Sychke","steam_id":76561198067144055,"connected_time":477000000000,"state":"active","ping":45},{"user_id":73,"name":"nickels and limes","steam_id":76561198080067715,"connected_time":2096000000000,"state":"active","ping":48},{"user_id":95,"name":"uwuziel","steam_id":76561198143355561,"connected_time":468000000000,"state":"active","ping":64},{"user_id":100,"name":"PaidProgramming","steam_id":76561198329193255,"connected_time":335000000000,"state":"active","ping":91},{"user_id":96,"name":"-iG. chungy -IWNL-私はダム\ufffd","steam_id":76561198215559840,"connected_time":443000000000,"state":"active","ping":67},{"user_id":101,"name":"lolstar64","steam_id":76561198048565155,"connected_time":234000000000,"state":"active","ping":73},{"user_id":55,"name":"gerg","steam_id":76561197997127387,"connected_time":4445000000000,"state":"active","ping":97},{"user_id":102,"name":"come to butthead","steam_id":76561198020322241,"connected_time":209000000000,"state":"active","ping":75},{"user_id":90,"name":"Drapph","steam_id":76561199384213314,"connected_time":1200000000000,"state":"active","ping":55},{"user_id":85,"name":"Chiaki Nanami","steam_id":76561198164782653,"connected_time":1786000000000,"state":"active","ping":61},{"user_id":91,"name":"Admiral Crumbs","steam_id":76561198108791583,"connected_time":959000000000,"state":"active","ping":68},{"user_id":88,"name":"Totally not CIA","steam_id":76561198237827742,"connected_time":1605000000000,"state":"active","ping":62},{"user_id":31,"name":"Walrusto","steam_id":76561198829644616,"connected_time":6142000000000,"state":"active","ping":81},{"user_id":47,"name":"how to fly?","steam_id":76561198064255155,"connected_time":4834000000000,"state":"active","ping":66},{"user_id":99,"name":"Rockinbacon","steam_id":76561198047159811,"connected_time":391000000000,"state":"active","ping":69},{"user_id":30,"name":"TheRealMud","steam_id":76561198138312993,"connected_time":6197000000000,"state":"active","ping":71},{"user_id":39,"name":"Castroy","steam_id":76561198108160099,"connected_time":5094000000000,"state":"active","ping":68}]},{"server_id":106,"name":"Uncletopia | Chicago | 2 | All Maps","name_short":"chi-2","host":"chi-1.us.uncletopia.com","port":27025,"enabled":true,"region":"us-central","cc":"us","latitude":41.881832,"longitude":-87.62318,"reserved":0,"last_update":"0001-01-01T00:00:00Z","name_a2s":"Uncletopia | Chicago | 2 | All Maps","protocol":17,"map":"pl_upward","folder":"tf","game":"Team Fortress","app_id":440,"player_count":0,"max_players":24,"Bots":0,"server_type":"Dedicated","server_os":"Linux","password":true,"vac":true,"version":"7932396","steam_id":85568392924469985,"keywords":["nocrits","nodmgspread","payload","uncletopia"],"game_id":440,"stv_port":27026,"stv_name":"Uncletopia | Chicago | 2 | All Maps | STV","players":null},{"server_id":402,"name":"Uncletopia | Chicago | 3 | All Maps","name_short":"chi-3","host":"chi-1.us.uncletopia.com","port":27035,"enabled":true,"region":"us-central","cc":"us","latitude":41.881832,"longitude":-87.62318,"reserved":0,"last_update":"0001-01-01T00:00:00Z","name_a2s":"Uncletopia | Chicago | 3 | All Maps","protocol":17,"map":"pl_swiftwater_final1","folder":"tf","game":"Team Fortress","app_id":440,"player_count":0,"max_players":24,"Bots":0,"server_type":"Dedicated","server_os":"Linux","password":true,"vac":true,"version":"7932396","steam_id":85568392924515191,"keywords":["nocrits","nodmgspread","payload","uncletopia"],"game_id":440,"stv_port":27036,"stv_name":"Uncletopia | Chicago | 3 | All Maps | STV","players":null},{"server_id":403,"name":"Uncletopia | Chicago | 4 | All Maps","name_short":"chi-4","host":"chi-1.us.uncletopia.com","port":27045,"enabled":true,"region":"us-central","cc":"us","latitude":41.881832,"longitude":-87.62318,"reserved":0,"last_update":"0001-01-01T00:00:00Z","name_a2s":"Uncletopia | Chicago | 4 | All Maps","protocol":17,"map":"cp_sunshine","folder":"tf","game":"Team Fortress","app_id":440,"player_count":24,"max_players":24,"Bots":0,"server_type":"Dedicated","server_os":"Linux","password":true,"vac":true,"version":"7932396","steam_id":85568392924515193,"keywords":["cp","nocrits","nodmgspread","uncletopia"],"game_id":440,"stv_port":27046,"stv_name":"Uncletopia | Chicago | 4 | All Maps | STV","players":[{"user_id":3,"name":"Grassman (Cc)","steam_id":76561198026488532,"connected_time":6227000000000,"state":"active","ping":91},{"user_id":70,"name":"A Cranky Cassowary","steam_id":76561198037372342,"connected_time":2402000000000,"state":"active","ping":57},{"user_id":56,"name":"Where The F**K I Am?","steam_id":76561197986530028,"connected_time":2690000000000,"state":"active","ping":101},{"user_id":45,"name":"daemon","steam_id":76561198001541433,"connected_time":4329000000000,"state":"active","ping":46},{"user_id":7,"name":"postgres","steam_id":76561198011204750,"connected_time":6217000000000,"state":"active","ping":91},{"user_id":60,"name":"duskyfox","steam_id":76561198285915478,"connected_time":2625000000000,"state":"active","ping":45},{"user_id":71,"name":"Freddie Mercury's Ghost","steam_id":76561198140320704,"connected_time":2297000000000,"state":"active","ping":72},{"user_id":50,"name":"Season Veteran","steam_id":76561198088619665,"connected_time":3394000000000,"state":"active","ping":81},{"user_id":46,"name":"Doctor Bad Dragon","steam_id":76561198058773212,"connected_time":4194000000000,"state":"active","ping":93},{"user_id":12,"name":"who ate the cheese","steam_id":76561198275408467,"connected_time":6142000000000,"state":"active","ping":50},{"user_id":93,"name":"One Guy","steam_id":76561198120421485,"connected_time":61000000000,"state":"active","ping":66},{"user_id":80,"name":"SuckMaster","steam_id":76561199195407368,"connected_time":1551000000000,"state":"active","ping":152},{"user_id":40,"name":"LtK","steam_id":76561197993180943,"connected_time":4456000000000,"state":"active","ping":60},{"user_id":64,"name":"Great Lord Fazzie","steam_id":76561198073628559,"connected_time":2560000000000,"state":"active","ping":107},{"user_id":59,"name":"Kenny","steam_id":76561198031540741,"connected_time":2644000000000,"state":"active","ping":96},{"user_id":77,"name":"kys (keep yourself safe)","steam_id":76561198871023660,"connected_time":1598000000000,"state":"active","ping":60},{"user_id":90,"name":"Kuyumiester","steam_id":76561198126835302,"connected_time":722000000000,"state":"active","ping":61},{"user_id":63,"name":"如願","steam_id":76561198038486613,"connected_time":2586000000000,"state":"active","ping":63},{"user_id":78,"name":"viedoamges","steam_id":76561198025295263,"connected_time":1590000000000,"state":"active","ping":76},{"user_id":74,"name":"SkyFlyWhite","steam_id":76561198241383126,"connected_time":1680000000000,"state":"active","ping":76},{"user_id":76,"name":"local shower shitter","steam_id":76561198140627349,"connected_time":1661000000000,"state":"active","ping":86},{"user_id":91,"name":"totally not a pile of beans","steam_id":76561198119851931,"connected_time":376000000000,"state":"active","ping":83},{"user_id":69,"name":"A Fool","steam_id":76561198029853893,"connected_time":2441000000000,"state":"active","ping":59},{"user_id":95,"name":"pharmacist","steam_id":76561198274424248,"connected_time":35000000000,"state":"active","ping":181}]},{"server_id":36,"name":"Uncletopia | Chicago | 5 | All Maps","name_short":"chi-5","host":"chi-2.us.uncletopia.com","port":27015,"enabled":true,"region":"us-central","cc":"us","latitude":41.881832,"longitude":-87.62318,"reserved":0,"last_update":"0001-01-01T00:00:00Z","name_a2s":"Uncletopia | Chicago | 5 | All Maps","protocol":17,"map":"koth_nucleus","folder":"tf","game":"Team Fortress","app_id":440,"player_count":24,"max_players":24,"Bots":0,"server_type":"Dedicated","server_os":"Linux","password":true,"vac":true,"version":"7932396","steam_id":85568392924866362,"keywords":["cp","nocrits","nodmgspread","uncletopia"],"game_id":440,"stv_port":27016,"stv_name":"Uncletopia | Chicago | 5 | All Maps | STV","players":[{"user_id":84,"name":"jooby","steam_id":76561198131065492,"connected_time":195000000000,"state":"active","ping":60},{"user_id":63,"name":"Warginabox","steam_id":76561198855255818,"connected_time":1806000000000,"state":"active","ping":65},{"user_id":5,"name":"Periculosum PhD in Funny","steam_id":76561198123370914,"connected_time":6221000000000,"state":"active","ping":72},{"user_id":81,"name":"Yoshimelon","steam_id":76561198253054325,"connected_time":551000000000,"state":"active","ping":60},{"user_id":45,"name":"Tanuki with a gun.","steam_id":76561198027487285,"connected_time":2885000000000,"state":"active","ping":109},{"user_id":56,"name":"motherfucker 2.0","steam_id":76561198141189209,"connected_time":2698000000000,"state":"active","ping":63},{"user_id":64,"name":"Thelonious Prime, King of Jazz","steam_id":76561198077785482,"connected_time":1792000000000,"state":"active","ping":63},{"user_id":82,"name":"Born_In_Xixax","steam_id":76561197960464479,"connected_time":544000000000,"state":"active","ping":60},{"user_id":77,"name":"Everywhere at the End of Online","steam_id":76561197971352904,"connected_time":812000000000,"state":"active","ping":74},{"user_id":70,"name":"Deathbear56","steam_id":76561198233300700,"connected_time":1657000000000,"state":"active","ping":47},{"user_id":78,"name":"Inceptsern","steam_id":76561198154270401,"connected_time":790000000000,"state":"active","ping":85},{"user_id":37,"name":"ben","steam_id":76561198355118155,"connected_time":4437000000000,"state":"active","ping":117},{"user_id":53,"name":"a 1930","steam_id":76561198320639814,"connected_time":2744000000000,"state":"active","ping":117},{"user_id":32,"name":"Frog","steam_id":76561198170199881,"connected_time":4823000000000,"state":"active","ping":71},{"user_id":85,"name":"Zaza Merchant","steam_id":76561198189330642,"connected_time":14000000000,"state":"active","ping":101},{"user_id":67,"name":"CallMeWampus","steam_id":76561198903103023,"connected_time":1752000000000,"state":"active","ping":66},{"user_id":22,"name":"I AM Malik","steam_id":76561198322021485,"connected_time":5122000000000,"state":"active","ping":60},{"user_id":55,"name":"Silver Spoon's Canon Husband","steam_id":76561198101505695,"connected_time":2742000000000,"state":"active","ping":90},{"user_id":80,"name":"DigitalSwitchBlade™","steam_id":76561198191366642,"connected_time":772000000000,"state":"active","ping":78},{"user_id":58,"name":"Punished Shitster","steam_id":76561198150452857,"connected_time":2628000000000,"state":"active","ping":71},{"user_id":66,"name":"FoxMasterCity","steam_id":76561199074452754,"connected_time":1772000000000,"state":"active","ping":71},{"user_id":68,"name":"Evillou","steam_id":76561198010395648,"connected_time":1744000000000,"state":"active","ping":76},{"user_id":69,"name":"CrazYgAmeR","steam_id":76561198083634919,"connected_time":1731000000000,"state":"active","ping":106},{"user_id":73,"name":"roast pig with apple in mouth","steam_id":76561198051353647,"connected_time":1456000000000,"state":"active","ping":63}]},{"server_id":37,"name":"Uncletopia | Chicago | 6 | All Maps","name_short":"chi-6","host":"chi-2.us.uncletopia.com","port":27025,"enabled":true,"region":"us-central","cc":"us","latitude":41.881832,"longitude":-87.62318,"reserved":0,"last_update":"0001-01-01T00:00:00Z","name_a2s":"Uncletopia | Chicago | 6 | All Maps","protocol":17,"map":"koth_viaduct","folder":"tf","game":"Team Fortress","app_id":440,"player_count":0,"max_players":24,"Bots":0,"server_type":"Dedicated","server_os":"Linux","password":true,"vac":true,"version":"7932396","steam_id":85568392924866363,"keywords":["cp","nocrits","nodmgspread","uncletopia"],"game_id":440,"stv_port":27026,"stv_name":"Uncletopia | Chicago | 6 | All Maps | STV","players":null},{"server_id":38,"name":"Uncletopia | Chicago | 7 | Stopwatch Beta","name_short":"chi-7","host":"chi-2.us.uncletopia.com","port":27035,"enabled":true,"region":"us-central","cc":"us","latitude":41.881832,"longitude":-87.62318,"reserved":0,"last_update":"0001-01-01T00:00:00Z","name_a2s":"Uncletopia | Chicago | 7 | Stopwatch Beta","protocol":17,"map":"pl_borneo","folder":"tf","game":"Team Fortress","app_id":440,"player_count":0,"max_players":24,"Bots":0,"server_type":"Dedicated","server_os":"Linux","password":true,"vac":true,"version":"7932396","steam_id":85568392924866364,"keywords":["nocrits","nodmgspread","payload","uncletopia"],"game_id":440,"stv_port":27036,"stv_name":"Uncletopia | Chicago | 7 | Stopwatch Beta | STV","players":null},{"server_id":39,"name":"Uncletopia | Chicago | 8 | Community","name_short":"chi-8","host":"chi-2.us.uncletopia.com","port":27045,"enabled":true,"region":"us-central","cc":"us","latitude":41.881832,"longitude":-87.62318,"reserved":0,"last_update":"0001-01-01T00:00:00Z","name_a2s":"Uncletopia | Chicago | 8 | Community","protocol":17,"map":"koth_viaduct","folder":"tf","game":"Team Fortress","app_id":440,"player_count":0,"max_players":24,"Bots":0,"server_type":"Dedicated","server_os":"Linux","password":true,"vac":true,"version":"7932396","steam_id":85568392924866365,"keywords":["cp","nocrits","nodmgspread","uncletopia"],"game_id":440,"stv_port":27046,"stv_name":"Uncletopia | Chicago | 8 | Community | STV","players":null},{"server_id":8,"name":"Uncletopia | Dallas | 1 | All Maps","name_short":"dal-1","host":"dal-1.us.uncletopia.com","port":27015,"enabled":true,"region":"us-central","cc":"us","latitude":32.779167,"longitude":-96.80889,"reserved":0,"last_update":"0001-01-01T00:00:00Z","name_a2s":"Uncletopia | Dallas | 1 | All Maps","protocol":17,"map":"pl_frontier_final","folder":"tf","game":"Team Fortress","app_id":440,"player_count":21,"max_players":24,"Bots":0,"server_type":"Dedicated","server_os":"Linux","password":true,"vac":true,"version":"7932396","steam_id":85568392924469986,"keywords":["nocrits","nodmgspread","payload","uncletopia"],"game_id":440,"stv_port":27016,"stv_name":"Uncletopia | Dallas | 1 | All Maps | STV","players":[{"user_id":70,"name":"Sahbi","steam_id":76561199196292242,"connected_time":1598000000000,"state":"active","ping":62},{"user_id":100,"name":"JimPlatinum","steam_id":76561198950714198,"connected_time":74000000000,"state":"active","ping":74},{"user_id":42,"name":"cypherzero","steam_id":76561199182960322,"connected_time":4644000000000,"state":"active","ping":50},{"user_id":94,"name":"AzuriousAlex","steam_id":76561198158026405,"connected_time":268000000000,"state":"active","ping":69},{"user_id":88,"name":"Moop","steam_id":76561198096984681,"connected_time":459000000000,"state":"active","ping":62},{"user_id":97,"name":"storyboard","steam_id":76561199088496817,"connected_time":181000000000,"state":"active","ping":59},{"user_id":91,"name":"Femboy Pirate","steam_id":76561198170209689,"connected_time":383000000000,"state":"active","ping":46},{"user_id":82,"name":"geg hafly","steam_id":76561198123679124,"connected_time":1048000000000,"state":"active","ping":90},{"user_id":87,"name":"Pinto","steam_id":76561199105386998,"connected_time":486000000000,"state":"active","ping":48},{"user_id":76,"name":"Pancakes","steam_id":76561198097983190,"connected_time":1386000000000,"state":"active","ping":55},{"user_id":54,"name":"pyonpyon","steam_id":76561198402500100,"connected_time":3630000000000,"state":"active","ping":61},{"user_id":92,"name":"Jib","steam_id":76561198328210524,"connected_time":366000000000,"state":"active","ping":80},{"user_id":56,"name":"Lilac Kitsune","steam_id":76561198236980648,"connected_time":3592000000000,"state":"active","ping":94},{"user_id":98,"name":"Daisy Le Nerd","steam_id":76561198149350087,"connected_time":140000000000,"state":"active","ping":178},{"user_id":78,"name":"crits","steam_id":76561199044356107,"connected_time":1364000000000,"state":"active","ping":50},{"user_id":99,"name":"Sharky Smooth","steam_id":76561198094759458,"connected_time":132000000000,"state":"active","ping":76},{"user_id":62,"name":"Fake21","steam_id":76561198282065071,"connected_time":3198000000000,"state":"active","ping":52},{"user_id":49,"name":"skegeton","steam_id":76561198095581099,"connected_time":3978000000000,"state":"active","ping":62},{"user_id":24,"name":"line","steam_id":76561198086222096,"connected_time":6032000000000,"state":"active","ping":45},{"user_id":67,"name":"Whimsic","steam_id":76561198055517911,"connected_time":1882000000000,"state":"active","ping":63},{"user_id":68,"name":"ElZeto","steam_id":76561198252322622,"connected_time":1871000000000,"state":"active","ping":100}]},{"server_id":108,"name":"Uncletopia | Dallas | 2 | All Maps","name_short":"dal-2","host":"dal-1.us.uncletopia.com","port":27025,"enabled":true,"region":"us-central","cc":"us","latitude":32.779167,"longitude":-96.80889,"reserved":0,"last_update":"0001-01-01T00:00:00Z","name_a2s":"Uncletopia | Dallas | 2 | All Maps","protocol":17,"map":"pl_badwater","folder":"tf","game":"Team Fortress","app_id":440,"player_count":0,"max_players":24,"Bots":0,"server_type":"Dedicated","server_os":"Linux","password":true,"vac":true,"version":"7932396","steam_id":85568392924469988,"keywords":["nocrits","nodmgspread","payload","uncletopia"],"game_id":440,"stv_port":27026,"stv_name":"Uncletopia | Dallas | 2 | All Maps | STV","players":null},{"server_id":5,"name":"Uncletopia | Frankfurt | 1 | All Maps","name_short":"frk-1","host":"frk-1.de.uncletopia.com","port":27015,"enabled":true,"region":"eu","cc":"de","latitude":50.110924,"longitude":8.682127,"reserved":0,"last_update":"0001-01-01T00:00:00Z","name_a2s":"Uncletopia | Frankfurt | 1 | All Maps","protocol":17,"map":"pl_badwater","folder":"tf","game":"Team Fortress","app_id":440,"player_count":0,"max_players":24,"Bots":0,"server_type":"Dedicated","server_os":"Linux","password":true,"vac":true,"version":"7932396","steam_id":85568392924469989,"keywords":["nocrits","nodmgspread","payload","uncletopia"],"game_id":440,"stv_port":27016,"stv_name":"Uncletopia | Frankfurt | 1 | All Maps | STV","players":null},{"server_id":110,"name":"Uncletopia | Frankfurt | 2 | All Maps","name_short":"frk-2","host":"frk-1.de.uncletopia.com","port":27025,"enabled":true,"region":"eu","cc":"de","latitude":50.110924,"longitude":8.682127,"reserved":0,"last_update":"0001-01-01T00:00:00Z","name_a2s":"Uncletopia | Frankfurt | 2 | All Maps","protocol":17,"map":"pl_borneo","folder":"tf","game":"Team Fortress","app_id":440,"player_count":0,"max_players":24,"Bots":0,"server_type":"Dedicated","server_os":"Linux","password":true,"vac":true,"version":"7932396","steam_id":85568392924469990,"keywords":["nocrits","nodmgspread","payload","uncletopia"],"game_id":440,"stv_port":27026,"stv_name":"Uncletopia | Frankfurt | 2 | All Maps | STV","players":null},{"server_id":308,"name":"Uncletopia | Frankfurt | 3 | All Maps","name_short":"frk-3","host":"frk-1.de.uncletopia.com","port":27035,"enabled":true,"region":"eu","cc":"de","latitude":50.110924,"longitude":8.682127,"reserved":0,"last_update":"0001-01-01T00:00:00Z","name_a2s":"Uncletopia | Frankfurt | 3 | All Maps","protocol":17,"map":"pl_badwater","folder":"tf","game":"Team Fortress","app_id":440,"player_count":0,"max_players":24,"Bots":0,"server_type":"Dedicated","server_os":"Linux","password":true,"vac":true,"version":"7932396","steam_id":85568392924504274,"keywords":["nocrits","nodmgspread","payload","uncletopia"],"game_id":440,"stv_port":27036,"stv_name":"Uncletopia | Frankfurt | 3 | All Maps | STV","players":null},{"server_id":309,"name":"Uncletopia | Frankfurt | 4 | All Maps","name_short":"frk-4","host":"frk-1.de.uncletopia.com","port":27045,"enabled":true,"region":"eu","cc":"de","latitude":50.110924,"longitude":8.682127,"reserved":0,"last_update":"0001-01-01T00:00:00Z","name_a2s":"Uncletopia | Frankfurt | 4 | All Maps","protocol":17,"map":"pl_frontier_final","folder":"tf","game":"Team Fortress","app_id":440,"player_count":0,"max_players":24,"Bots":0,"server_type":"Dedicated","server_os":"Linux","password":true,"vac":true,"version":"7932396","steam_id":85568392924504275,"keywords":["nocrits","nodmgspread","payload","uncletopia"],"game_id":440,"stv_port":27046,"stv_name":"Uncletopia | Frankfurt | 4 | All Maps | STV","players":null},{"server_id":310,"name":"Uncletopia | Frankfurt | 5 | All Maps","name_short":"frk-5","host":"frk-1.de.uncletopia.com","port":27055,"enabled":true,"region":"eu","cc":"de","latitude":50.110924,"longitude":8.682127,"reserved":0,"last_update":"0001-01-01T00:00:00Z","name_a2s":"Uncletopia | Frankfurt | 5 | All Maps","protocol":17,"map":"pl_borneo","folder":"tf","game":"Team Fortress","app_id":440,"player_count":0,"max_players":24,"Bots":0,"server_type":"Dedicated","server_os":"Linux","password":true,"vac":true,"version":"7932396","steam_id":85568392924504277,"keywords":["nocrits","nodmgspread","payload","uncletopia"],"game_id":440,"stv_port":27056,"stv_name":"Uncletopia | Frankfurt | 5 | All Maps | STV","players":null},{"server_id":311,"name":"Uncletopia | Frankfurt | 6 | All Maps","name_short":"frk-6","host":"frk-1.de.uncletopia.com","port":27065,"enabled":true,"region":"eu","cc":"de","latitude":50.110924,"longitude":8.682127,"reserved":0,"last_update":"0001-01-01T00:00:00Z","name_a2s":"Uncletopia | Frankfurt | 6 | All Maps","protocol":17,"map":"koth_viaduct","folder":"tf","game":"Team Fortress","app_id":440,"player_count":0,"max_players":24,"Bots":0,"server_type":"Dedicated","server_os":"Linux","password":true,"vac":true,"version":"7932396","steam_id":85568392924504278,"keywords":["cp","nocrits","nodmgspread","uncletopia"],"game_id":440,"stv_port":27066,"stv_name":"Uncletopia | Frankfurt | 6 | All Maps | STV","players":null},{"server_id":23,"name":"Uncletopia | Frankfurt | 7 | Stopwatch Beta","name_short":"frk-7","host":"frk-1.de.uncletopia.com","port":27075,"enabled":true,"region":"eu","cc":"de","latitude":50.110924,"longitude":8.682127,"reserved":0,"last_update":"0001-01-01T00:00:00Z","name_a2s":"Uncletopia | Frankfurt | 7 | Stopwatch Beta","protocol":17,"map":"pl_snowycoast","folder":"tf","game":"Team Fortress","app_id":440,"player_count":0,"max_players":24,"Bots":0,"server_type":"Dedicated","server_os":"Linux","password":true,"vac":true,"version":"7932396","steam_id":85568392924742827,"keywords":["nocrits","nodmgspread","payload","uncletopia"],"game_id":440,"stv_port":27076,"stv_name":"Uncletopia | Frankfurt | 7 | Stopwatch Beta | STV","players":null},{"server_id":24,"name":"Uncletopia | Frankfurt | 8 | Community","name_short":"frk-8","host":"frk-1.de.uncletopia.com","port":27085,"enabled":true,"region":"eu","cc":"de","latitude":50.110924,"longitude":8.682127,"reserved":0,"last_update":"0001-01-01T00:00:00Z","name_a2s":"Uncletopia | Frankfurt | 8 | Community","protocol":17,"map":"pl_barnblitz","folder":"tf","game":"Team Fortress","app_id":440,"player_count":0,"max_players":24,"Bots":0,"server_type":"Dedicated","server_os":"Linux","password":true,"vac":true,"version":"7932396","steam_id":85568392924742828,"keywords":["nocrits","nodmgspread","payload","uncletopia"],"game_id":440,"stv_port":27086,"stv_name":"Uncletopia | Frankfurt | 8 | Community | STV","players":null},{"server_id":202,"name":"Uncletopia | Hong Kong | 1 | All Maps","name_short":"hgk-1","host":"hgk-1.hk.uncletopia.com","port":27015,"enabled":true,"region":"asia","cc":"hk","latitude":22.302711,"longitude":114.177216,"reserved":0,"last_update":"0001-01-01T00:00:00Z","name_a2s":"Uncletopia | Hong Kong | 1 | All Maps","protocol":17,"map":"cp_sunshine","folder":"tf","game":"Team Fortress","app_id":440,"player_count":3,"max_players":24,"Bots":0,"server_type":"Dedicated","server_os":"Linux","password":true,"vac":true,"version":"7932396","steam_id":85568392924494504,"keywords":["cp","nocrits","nodmgspread","uncletopia"],"game_id":440,"stv_port":27016,"stv_name":"Uncletopia | Hong Kong | 1 | All Maps | STV","players":[{"user_id":6,"name":"PapaFranku69","steam_id":76561199446266814,"connected_time":452000000000,"state":"active","ping":84},{"user_id":8,"name":"Sonicfanman19383727278169","steam_id":76561199387907037,"connected_time":265000000000,"state":"active","ping":51},{"user_id":10,"name":"Dude guy","steam_id":76561199422959034,"connected_time":96000000000,"state":"active","ping":277}]},{"server_id":1,"name":"Uncletopia | Los Angeles | 1 | All Maps","name_short":"lax-1","host":"lax-1.us.uncletopia.com","port":27015,"enabled":true,"region":"us-west","cc":"us","latitude":33.94279,"longitude":-118.41004,"reserved":0,"last_update":"0001-01-01T00:00:00Z","name_a2s":"Uncletopia | Los Angeles | 1 | All Maps","protocol":17,"map":"cp_process_final","folder":"tf","game":"Team Fortress","app_id":440,"player_count":0,"max_players":24,"Bots":0,"server_type":"Dedicated","server_os":"Linux","password":true,"vac":true,"version":"7932396","steam_id":85568392924469991,"keywords":["cp","nocrits","nodmgspread","uncletopia"],"game_id":440,"stv_port":27016,"stv_name":"Uncletopia | Los Angeles | 1 | All Maps | STV","players":null},{"server_id":112,"name":"Uncletopia | Los Angeles | 2 | All Maps","name_short":"lax-2","host":"lax-1.us.uncletopia.com","port":27025,"enabled":true,"region":"us-west","cc":"us","latitude":33.94279,"longitude":-118.41004,"reserved":0,"last_update":"0001-01-01T00:00:00Z","name_a2s":"Uncletopia | Los Angeles | 2 | All Maps","protocol":17,"map":"cp_mountainlab","folder":"tf","game":"Team Fortress","app_id":440,"player_count":0,"max_players":24,"Bots":0,"server_type":"Dedicated","server_os":"Linux","password":true,"vac":true,"version":"7932396","steam_id":85568392924469992,"keywords":["cp","nocrits","nodmgspread","uncletopia"],"game_id":440,"stv_port":27026,"stv_name":"Uncletopia | Los Angeles | 2 | All Maps | STV","players":null},{"server_id":324,"name":"Uncletopia | Los Angeles | 3 | All Maps","name_short":"lax-3","host":"lax-1.us.uncletopia.com","port":27035,"enabled":true,"region":"us-west","cc":"us","latitude":33.94279,"longitude":-118.41004,"reserved":0,"last_update":"0001-01-01T00:00:00Z","name_a2s":"Uncletopia | Los Angeles | 3 | All Maps","protocol":17,"map":"pl_swiftwater_final1","folder":"tf","game":"Team Fortress","app_id":440,"player_count":19,"max_players":24,"Bots":0,"server_type":"Dedicated","server_os":"Linux","password":true,"vac":true,"version":"7932396","steam_id":85568392924510198,"keywords":["nocrits","nodmgspread","payload","uncletopia"],"game_id":440,"stv_port":27036,"stv_name":"Uncletopia | Los Angeles | 3 | All Maps | STV","players":[{"user_id":107,"name":"iKickBabies","steam_id":76561199337400258,"connected_time":336000000000,"state":"active","ping":76},{"user_id":10,"name":"Baggage","steam_id":76561198215128080,"connected_time":6187000000000,"state":"active","ping":63},{"user_id":68,"name":"NaxRat","steam_id":76561198992710128,"connected_time":2890000000000,"state":"active","ping":66},{"user_id":6,"name":"Painkiller","steam_id":76561198049787400,"connected_time":6198000000000,"state":"active","ping":48},{"user_id":108,"name":"JonBoy","steam_id":76561198082052480,"connected_time":273000000000,"state":"active","ping":93},{"user_id":41,"name":"Plain Toast","steam_id":76561198451580251,"connected_time":4414000000000,"state":"active","ping":130},{"user_id":84,"name":"Mang","steam_id":76561198074322048,"connected_time":2311000000000,"state":"active","ping":123},{"user_id":109,"name":"Mr. Fart","steam_id":76561198097290717,"connected_time":161000000000,"state":"active","ping":60},{"user_id":106,"name":"Skeptical","steam_id":76561198038261789,"connected_time":486000000000,"state":"active","ping":62},{"user_id":91,"name":"Whisper!","steam_id":76561198119609795,"connected_time":1926000000000,"state":"active","ping":48},{"user_id":54,"name":"FortniteLover2009","steam_id":76561198161229261,"connected_time":3435000000000,"state":"active","ping":87},{"user_id":50,"name":"usedhalfcart","steam_id":76561198072621852,"connected_time":3751000000000,"state":"active","ping":78},{"user_id":102,"name":"Dunkin' Ponuts","steam_id":76561198082382465,"connected_time":773000000000,"state":"active","ping":95},{"user_id":103,"name":"ShadowsStride","steam_id":76561198436041700,"connected_time":657000000000,"state":"active","ping":74},{"user_id":40,"name":"Dcoyotzi","steam_id":76561199124707627,"connected_time":4434000000000,"state":"active","ping":74},{"user_id":104,"name":"Zom_Named_Zam","steam_id":76561198328066203,"connected_time":573000000000,"state":"active","ping":62},{"user_id":95,"name":"Dragoninventor (He/Him)","steam_id":76561198956224948,"connected_time":1214000000000,"state":"active","ping":90},{"user_id":26,"name":"california jew","steam_id":76561198914032112,"connected_time":6145000000000,"state":"active","ping":46},{"user_id":33,"name":"steve","steam_id":76561198207881077,"connected_time":4785000000000,"state":"active","ping":111}]},{"server_id":25,"name":"Uncletopia | Los Angeles | 4 | Stopwatch Beta","name_short":"lax-4","host":"lax-1.us.uncletopia.com","port":27045,"enabled":true,"region":"us-west","cc":"us","latitude":33.94279,"longitude":-118.41004,"reserved":0,"last_update":"0001-01-01T00:00:00Z","name_a2s":"Uncletopia | Los Angeles | 4 | Stopwatch Beta","protocol":17,"map":"koth_highpass","folder":"tf","game":"Team Fortress","app_id":440,"player_count":0,"max_players":24,"Bots":0,"server_type":"Dedicated","server_os":"Linux","password":true,"vac":true,"version":"7932396","steam_id":85568392924510199,"keywords":["cp","nocrits","nodmgspread","uncletopia"],"game_id":440,"stv_port":27046,"stv_name":"Uncletopia | Los Angeles | 4 | Stopwatch Beta | STV","players":null},{"server_id":11,"name":"Uncletopia | London | 1 | All Maps","name_short":"lon-1","host":"lon-1.uk.uncletopia.com","port":27015,"enabled":true,"region":"eu","cc":"gb","latitude":51.509865,"longitude":-0.118092,"reserved":0,"last_update":"0001-01-01T00:00:00Z","name_a2s":"Uncletopia | London | 1 | All Maps","protocol":17,"map":"pl_swiftwater_final1","folder":"tf","game":"Team Fortress","app_id":440,"player_count":24,"max_players":24,"Bots":0,"server_type":"Dedicated","server_os":"Linux","password":true,"vac":true,"version":"7932396","steam_id":85568392924367362,"keywords":["nocrits","nodmgspread","payload","uncletopia"],"game_id":440,"stv_port":27016,"stv_name":"Uncletopia | London | 1 | All Maps | STV","players":[{"user_id":80,"name":"Bonduelle#Savetf2","steam_id":76561199041992422,"connected_time":125000000000,"state":"active","ping":163},{"user_id":46,"name":"Xeno","steam_id":76561198975556646,"connected_time":3007000000000,"state":"active","ping":57},{"user_id":5,"name":"Worm","steam_id":76561198296497176,"connected_time":5233000000000,"state":"active","ping":44},{"user_id":6,"name":"S_ApplePie","steam_id":76561198106947669,"connected_time":5232000000000,"state":"active","ping":81},{"user_id":66,"name":"0","steam_id":76561199084809092,"connected_time":1426000000000,"state":"active","ping":100},{"user_id":22,"name":"Eidolon","steam_id":76561198043919565,"connected_time":5109000000000,"state":"active","ping":76},{"user_id":61,"name":"Noodle","steam_id":76561198306486695,"connected_time":1799000000000,"state":"active","ping":74},{"user_id":10,"name":"noided","steam_id":76561199480942903,"connected_time":5229000000000,"state":"active","ping":74},{"user_id":38,"name":"Porridge Moisturizer","steam_id":76561198336523288,"connected_time":3821000000000,"state":"active","ping":128},{"user_id":13,"name":"superpx1","steam_id":76561198112530280,"connected_time":5209000000000,"state":"active","ping":76},{"user_id":68,"name":"Bun","steam_id":76561197989239999,"connected_time":1132000000000,"state":"active","ping":60},{"user_id":74,"name":"on1on (scrambled)","steam_id":76561197995304137,"connected_time":471000000000,"state":"active","ping":70},{"user_id":79,"name":"$t@lker_Tim","steam_id":76561198963658042,"connected_time":231000000000,"state":"active","ping":116},{"user_id":72,"name":"World Master Sex Haver Champion","steam_id":76561199109194825,"connected_time":791000000000,"state":"active","ping":91},{"user_id":75,"name":"Der Geist des Hans Rosling","steam_id":76561198049231109,"connected_time":449000000000,"state":"active","ping":69},{"user_id":19,"name":"Xx_EpicGaymer_xX","steam_id":76561198846784757,"connected_time":5199000000000,"state":"active","ping":57},{"user_id":60,"name":"Kruzma","steam_id":76561198998875641,"connected_time":1909000000000,"state":"active","ping":84},{"user_id":69,"name":"Fish","steam_id":76561198152128484,"connected_time":1025000000000,"state":"active","ping":55},{"user_id":51,"name":"Charles Darwin","steam_id":76561197973496139,"connected_time":2563000000000,"state":"active","ping":61},{"user_id":24,"name":"Mr. Cobbweb","steam_id":76561198215079953,"connected_time":5080000000000,"state":"active","ping":60},{"user_id":71,"name":"Ander Escobar","steam_id":76561198335366902,"connected_time":858000000000,"state":"active","ping":90},{"user_id":32,"name":"KiT","steam_id":76561198043770371,"connected_time":4829000000000,"state":"active","ping":75},{"user_id":76,"name":"Shouiji","steam_id":76561198944703735,"connected_time":419000000000,"state":"active","ping":66},{"user_id":78,"name":"deloreg (playing soldier)","steam_id":76561199487318962,"connected_time":329000000000,"state":"active","ping":75}]},{"server_id":114,"name":"Uncletopia | London | 2 | All Maps","name_short":"lon-2","host":"lon-1.uk.uncletopia.com","port":27025,"enabled":true,"region":"eu","cc":"gb","latitude":51.509865,"longitude":-0.118092,"reserved":0,"last_update":"0001-01-01T00:00:00Z","name_a2s":"Uncletopia | London | 2 | All Maps","protocol":17,"map":"koth_highpass","folder":"tf","game":"Team Fortress","app_id":440,"player_count":0,"max_players":24,"Bots":0,"server_type":"Dedicated","server_os":"Linux","password":true,"vac":true,"version":"7932396","steam_id":85568392924470941,"keywords":["cp","nocrits","nodmgspread","uncletopia"],"game_id":440,"stv_port":27026,"stv_name":"Uncletopia | London | 2 | All Maps | STV","players":null},{"server_id":320,"name":"Uncletopia | London | 3 | All Maps","name_short":"lon-3","host":"lon-1.uk.uncletopia.com","port":27035,"enabled":true,"region":"eu","cc":"gb","latitude":51.509865,"longitude":-0.118092,"reserved":0,"last_update":"0001-01-01T00:00:00Z","name_a2s":"Uncletopia | London | 3 | All Maps","protocol":17,"map":"cp_altitude","folder":"tf","game":"Team Fortress","app_id":440,"player_count":0,"max_players":24,"Bots":0,"server_type":"Dedicated","server_os":"Linux","password":true,"vac":true,"version":"7932396","steam_id":85568392924510192,"keywords":["cp","nocrits","nodmgspread","uncletopia"],"game_id":440,"stv_port":27036,"stv_name":"Uncletopia | London | 3 | All Maps | STV","players":null},{"server_id":321,"name":"Uncletopia | London | 4 | All Maps","name_short":"lon-4","host":"lon-1.uk.uncletopia.com","port":27045,"enabled":true,"region":"eu","cc":"gb","latitude":51.509865,"longitude":-0.118092,"reserved":0,"last_update":"0001-01-01T00:00:00Z","name_a2s":"Uncletopia | London | 4 | All Maps","protocol":17,"map":"cp_snakewater_final1","folder":"tf","game":"Team Fortress","app_id":440,"player_count":0,"max_players":24,"Bots":0,"server_type":"Dedicated","server_os":"Linux","password":true,"vac":true,"version":"7932396","steam_id":85568392924510193,"keywords":["cp","nocrits","nodmgspread","uncletopia"],"game_id":440,"stv_port":27046,"stv_name":"Uncletopia | London | 4 | All Maps | STV","players":null},{"server_id":21,"name":"Uncletopia | London | 5 | All Maps","name_short":"lon-5","host":"lon-1.uk.uncletopia.com","port":27055,"enabled":true,"region":"eu","cc":"gb","latitude":51.509865,"longitude":-0.118092,"reserved":0,"last_update":"0001-01-01T00:00:00Z","name_a2s":"Uncletopia | London | 5 | All Maps","protocol":17,"map":"pl_borneo","folder":"tf","game":"Team Fortress","app_id":440,"player_count":0,"max_players":24,"Bots":0,"server_type":"Dedicated","server_os":"Linux","password":true,"vac":true,"version":"7932396","steam_id":85568392924742829,"keywords":["nocrits","nodmgspread","payload","uncletopia"],"game_id":440,"stv_port":27056,"stv_name":"Uncletopia | London | 5 | All Maps | STV","players":null},{"server_id":22,"name":"Uncletopia | London | 6 | All Maps","name_short":"lon-6","host":"lon-1.uk.uncletopia.com","port":27065,"enabled":true,"region":"eu","cc":"gb","latitude":51.509865,"longitude":-0.118092,"reserved":0,"last_update":"0001-01-01T00:00:00Z","name_a2s":"Uncletopia | London | 6 | All Maps","protocol":17,"map":"cp_mountainlab","folder":"tf","game":"Team Fortress","app_id":440,"player_count":0,"max_players":24,"Bots":0,"server_type":"Dedicated","server_os":"Linux","password":true,"vac":true,"version":"7932396","steam_id":85568392924742830,"keywords":["cp","nocrits","nodmgspread","uncletopia"],"game_id":440,"stv_port":27066,"stv_name":"Uncletopia | London | 6 | All Maps | STV","players":null},{"server_id":40,"name":"Uncletopia | London | 7 | No Payload","name_short":"lon-7","host":"lon-1.uk.uncletopia.com","port":27075,"enabled":true,"region":"eu","cc":"gb","latitude":51.509865,"longitude":-0.118092,"reserved":0,"last_update":"0001-01-01T00:00:00Z","name_a2s":"Uncletopia | London | 7 | No Payload","protocol":17,"map":"pl_snowycoast","folder":"tf","game":"Team Fortress","app_id":440,"player_count":0,"max_players":24,"Bots":0,"server_type":"Dedicated","server_os":"Linux","password":true,"vac":true,"version":"7932396","steam_id":85568392924964314,"keywords":["nocrits","nodmgspread","payload","uncletopia"],"game_id":440,"stv_port":27076,"stv_name":"Uncletopia | London | 7 | No Payload | STV","players":null},{"server_id":41,"name":"Uncletopia | London | 8 | Community","name_short":"lon-8","host":"lon-1.uk.uncletopia.com","port":27085,"enabled":true,"region":"eu","cc":"gb","latitude":51.509865,"longitude":-0.118092,"reserved":0,"last_update":"0001-01-01T00:00:00Z","name_a2s":"Uncletopia | London | 8 | Community","protocol":17,"map":"pl_barnblitz","folder":"tf","game":"Team Fortress","app_id":440,"player_count":0,"max_players":24,"Bots":0,"server_type":"Dedicated","server_os":"Linux","password":true,"vac":true,"version":"7932396","steam_id":85568392924964315,"keywords":["nocrits","nodmgspread","payload","uncletopia"],"game_id":440,"stv_port":27086,"stv_name":"Uncletopia | London | 8 | Community | STV","players":null},{"server_id":300,"name":"Uncletopia | Montréal | 1 | All Maps","name_short":"mtl-1","host":"mtl-1.ca.uncletopia.com","port":27015,"enabled":true,"region":"us-east","cc":"ca","latitude":45.50889,"longitude":-73.56167,"reserved":0,"last_update":"0001-01-01T00:00:00Z","name_a2s":"Uncletopia | Montréal | 1 | All Maps","protocol":17,"map":"cp_altitude","folder":"tf","game":"Team Fortress","app_id":440,"player_count":0,"max_players":24,"Bots":0,"server_type":"Dedicated","server_os":"Linux","password":true,"vac":true,"version":"7932396","steam_id":85568392924500087,"keywords":["cp","nocrits","nodmgspread","uncletopia"],"game_id":440,"stv_port":27016,"stv_name":"Uncletopia | Montréal | 1 | All Maps | STV","players":null},{"server_id":301,"name":"Uncletopia | Montréal | 2 | All Maps","name_short":"mtl-2","host":"mtl-1.ca.uncletopia.com","port":27025,"enabled":true,"region":"us-east","cc":"ca","latitude":45.50889,"longitude":-73.56167,"reserved":0,"last_update":"0001-01-01T00:00:00Z","name_a2s":"Uncletopia | Montréal | 2 | All Maps","protocol":17,"map":"koth_lakeside_final","folder":"tf","game":"Team Fortress","app_id":440,"player_count":0,"max_players":24,"Bots":0,"server_type":"Dedicated","server_os":"Linux","password":true,"vac":true,"version":"7932396","steam_id":85568392924500088,"keywords":["cp","nocrits","nodmgspread","uncletopia"],"game_id":440,"stv_port":27026,"stv_name":"Uncletopia | Montréal | 2 | All Maps | STV","players":null},{"server_id":302,"name":"Uncletopia | Montréal | 3 | All Maps","name_short":"mtl-3","host":"mtl-1.ca.uncletopia.com","port":27035,"enabled":true,"region":"us-east","cc":"ca","latitude":45.50889,"longitude":-73.56167,"reserved":0,"last_update":"0001-01-01T00:00:00Z","name_a2s":"Uncletopia | Montréal | 3 | All Maps","protocol":17,"map":"cp_process_final","folder":"tf","game":"Team Fortress","app_id":440,"player_count":0,"max_players":24,"Bots":0,"server_type":"Dedicated","server_os":"Linux","password":true,"vac":true,"version":"7932396","steam_id":85568392924500089,"keywords":["cp","nocrits","nodmgspread","uncletopia"],"game_id":440,"stv_port":27036,"stv_name":"Uncletopia | Montréal | 3 | All Maps | STV","players":null},{"server_id":303,"name":"Uncletopia | Montréal | 4 | No Payload","name_short":"mtl-4","host":"mtl-1.ca.uncletopia.com","port":27045,"enabled":true,"region":"us-east","cc":"ca","latitude":45.50889,"longitude":-73.56167,"reserved":0,"last_update":"0001-01-01T00:00:00Z","name_a2s":"Uncletopia | Montréal | 4 | No Payload","protocol":17,"map":"cp_snakewater_final1","folder":"tf","game":"Team Fortress","app_id":440,"player_count":0,"max_players":24,"Bots":0,"server_type":"Dedicated","server_os":"Linux","password":true,"vac":true,"version":"7932396","steam_id":85568392924500090,"keywords":["cp","nocrits","nodmgspread","uncletopia"],"game_id":440,"stv_port":27046,"stv_name":"Uncletopia | Montréal | 4 | No Payload | STV","players":null},{"server_id":13,"name":"Uncletopia | New York City | 1 | All Maps","name_short":"nyc-1","host":"nyc-1.us.uncletopia.com","port":27015,"enabled":true,"region":"us-east","cc":"us","latitude":40.73061,"longitude":-73.93524,"reserved":0,"last_update":"0001-01-01T00:00:00Z","name_a2s":"Uncletopia | New York City | 1 | All Maps","protocol":17,"map":"cp_dustbowl","folder":"tf","game":"Team Fortress","app_id":440,"player_count":0,"max_players":24,"Bots":0,"server_type":"Dedicated","server_os":"Linux","password":true,"vac":true,"version":"7932396","steam_id":85568392924469993,"keywords":["cp","nocrits","nodmgspread","uncletopia"],"game_id":440,"stv_port":27016,"stv_name":"Uncletopia | New York City | 1 | All Maps | STV","players":null},{"server_id":14,"name":"Uncletopia | New York City | 2 | All Maps","name_short":"nyc-2","host":"nyc-1.us.uncletopia.com","port":27025,"enabled":true,"region":"us-east","cc":"us","latitude":40.73061,"longitude":-73.93524,"reserved":0,"last_update":"0001-01-01T00:00:00Z","name_a2s":"Uncletopia | New York City | 2 | All Maps","protocol":17,"map":"koth_viaduct","folder":"tf","game":"Team Fortress","app_id":440,"player_count":0,"max_players":24,"Bots":0,"server_type":"Dedicated","server_os":"Linux","password":true,"vac":true,"version":"7932396","steam_id":85568392924469994,"keywords":["cp","nocrits","nodmgspread","uncletopia"],"game_id":440,"stv_port":27026,"stv_name":"Uncletopia | New York City | 2 | All Maps | STV","players":null},{"server_id":15,"name":"Uncletopia | New York City | 3 | Stopwatch Beta","name_short":"nyc-3","host":"nyc-1.us.uncletopia.com","port":27035,"enabled":true,"region":"us-east","cc":"us","latitude":40.73061,"longitude":-73.93524,"reserved":0,"last_update":"0001-01-01T00:00:00Z","name_a2s":"Uncletopia | New York City | 3 | Stopwatch Beta","protocol":17,"map":"cp_sunshine","folder":"tf","game":"Team Fortress","app_id":440,"player_count":0,"max_players":24,"Bots":0,"server_type":"Dedicated","server_os":"Linux","password":true,"vac":true,"version":"7932396","steam_id":85568392924742820,"keywords":["cp","nocrits","nodmgspread","uncletopia"],"game_id":440,"stv_port":27036,"stv_name":"Uncletopia | New York City | 3 | Stopwatch Beta | STV","players":null},{"server_id":16,"name":"Uncletopia | New York City | 4 | Community","name_short":"nyc-4","host":"nyc-1.us.uncletopia.com","port":27045,"enabled":true,"region":"us-east","cc":"us","latitude":40.73061,"longitude":-73.93524,"reserved":0,"last_update":"0001-01-01T00:00:00Z","name_a2s":"Uncletopia | New York City | 4 | Community","protocol":17,"map":"workshop/cp_snowbase_b18.ugc2081770490","folder":"tf","game":"Team Fortress","app_id":440,"player_count":0,"max_players":24,"Bots":0,"server_type":"Dedicated","server_os":"Linux","password":true,"vac":true,"version":"7932396","steam_id":85568392924742821,"keywords":["cp","nocrits","nodmgspread","uncletopia"],"game_id":440,"stv_port":27046,"stv_name":"Uncletopia | New York City | 4 | Community | STV","players":null},{"server_id":142,"name":"Uncletopia | São Paulo | 1 | All Maps","name_short":"sao-1","host":"sao-1.br.uncletopia.com","port":27015,"enabled":true,"region":"sa","cc":"br","latitude":-23.533773,"longitude":-46.62529,"reserved":0,"last_update":"0001-01-01T00:00:00Z","name_a2s":"Uncletopia | São Paulo | 1 | All Maps","protocol":17,"map":"cp_mountainlab","folder":"tf","game":"Team Fortress","app_id":440,"player_count":0,"max_players":24,"Bots":0,"server_type":"Dedicated","server_os":"Linux","password":true,"vac":true,"version":"7932396","steam_id":85568392924469996,"keywords":["cp","nocrits","nodmgspread","uncletopia"],"game_id":440,"stv_port":27016,"stv_name":"Uncletopia | São Paulo | 1 | All Maps | STV","players":null},{"server_id":143,"name":"Uncletopia | São Paulo | 2 | All Maps","name_short":"sao-2","host":"sao-2.br.uncletopia.com","port":27015,"enabled":true,"region":"sa","cc":"br","latitude":-23.533773,"longitude":-46.62529,"reserved":0,"last_update":"0001-01-01T00:00:00Z","name_a2s":"Uncletopia | São Paulo | 2 | All Maps","protocol":17,"map":"pl_swiftwater_final1","folder":"tf","game":"Team Fortress","app_id":440,"player_count":0,"max_players":24,"Bots":0,"server_type":"Dedicated","server_os":"Linux","password":true,"vac":true,"version":"7932396","steam_id":85568392924485349,"keywords":["nocrits","nodmgspread","payload","uncletopia"],"game_id":440,"stv_port":27016,"stv_name":"Uncletopia | São Paulo | 2 | All Maps | STV","players":null},{"server_id":7,"name":"Uncletopia | Seattle | 1 | All Maps","name_short":"sea-1","host":"sea-1.us.uncletopia.com","port":27015,"enabled":true,"region":"us-west","cc":"us","latitude":47.608013,"longitude":-122.33517,"reserved":0,"last_update":"0001-01-01T00:00:00Z","name_a2s":"Uncletopia | Seattle | 1 | All Maps","protocol":17,"map":"pl_swiftwater_final1","folder":"tf","game":"Team Fortress","app_id":440,"player_count":24,"max_players":24,"Bots":0,"server_type":"Dedicated","server_os":"Linux","password":true,"vac":true,"version":"7932396","steam_id":85568392924469997,"keywords":["nocrits","nodmgspread","payload","uncletopia"],"game_id":440,"stv_port":27016,"stv_name":"Uncletopia | Seattle | 1 | All Maps | STV","players":[{"user_id":3,"name":"rat gets the cheese","steam_id":76561198031234032,"connected_time":6213000000000,"state":"active","ping":99},{"user_id":4,"name":"goldhed","steam_id":76561198051751133,"connected_time":6213000000000,"state":"active","ping":56},{"user_id":91,"name":"kyepka yobane","steam_id":76561198078626283,"connected_time":1697000000000,"state":"active","ping":123},{"user_id":94,"name":":Closed.","steam_id":76561198212598967,"connected_time":1598000000000,"state":"active","ping":71},{"user_id":95,"name":"Grill Skills","steam_id":76561198053575147,"connected_time":1546000000000,"state":"active","ping":65},{"user_id":99,"name":"Bald Rice","steam_id":76561199019142767,"connected_time":366000000000,"state":"active","ping":57},{"user_id":96,"name":"toes","steam_id":76561198221151676,"connected_time":1341000000000,"state":"active","ping":53},{"user_id":105,"name":"The Quickster","steam_id":76561198087463787,"connected_time":194000000000,"state":"active","ping":55},{"user_id":60,"name":"VerminKing","steam_id":76561198060887391,"connected_time":4199000000000,"state":"active","ping":59},{"user_id":102,"name":"Bishuhp","steam_id":76561198015062850,"connected_time":353000000000,"state":"active","ping":54},{"user_id":101,"name":"NEЯO","steam_id":76561197965450216,"connected_time":364000000000,"state":"active","ping":55},{"user_id":51,"name":"Doctor™","steam_id":76561198134309750,"connected_time":4453000000000,"state":"active","ping":111},{"user_id":67,"name":"Arsonist Goose","steam_id":76561198147441830,"connected_time":3860000000000,"state":"active","ping":70},{"user_id":16,"name":"delight","steam_id":76561197980280272,"connected_time":6202000000000,"state":"active","ping":46},{"user_id":90,"name":"gorlab","steam_id":76561198025089694,"connected_time":1792000000000,"state":"active","ping":60},{"user_id":75,"name":"sissy fuckdoll $","steam_id":76561199064932372,"connected_time":2976000000000,"state":"active","ping":73},{"user_id":19,"name":"oil","steam_id":76561198099980149,"connected_time":6199000000000,"state":"active","ping":76},{"user_id":87,"name":"Col. RizzCheese","steam_id":76561198269459945,"connected_time":1808000000000,"state":"active","ping":55},{"user_id":103,"name":"Short King","steam_id":76561199106732473,"connected_time":350000000000,"state":"active","ping":57},{"user_id":106,"name":"♥ President Shitfart ♥","steam_id":76561198141819053,"connected_time":178000000000,"state":"active","ping":67},{"user_id":104,"name":"NEBULA","steam_id":76561198086878595,"connected_time":281000000000,"state":"active","ping":78},{"user_id":79,"name":"lili","steam_id":76561199391478575,"connected_time":2525000000000,"state":"active","ping":69},{"user_id":80,"name":"Democracy Hamburger","steam_id":76561199019675078,"connected_time":2470000000000,"state":"active","ping":101},{"user_id":98,"name":"colespudzo","steam_id":76561198051127147,"connected_time":864000000000,"state":"active","ping":49}]},{"server_id":119,"name":"Uncletopia | Seattle | 2 | All Maps","name_short":"sea-2","host":"sea-1.us.uncletopia.com","port":27025,"enabled":true,"region":"us-west","cc":"us","latitude":47.608013,"longitude":-122.33517,"reserved":0,"last_update":"0001-01-01T00:00:00Z","name_a2s":"Uncletopia | Seattle | 2 | All Maps","protocol":17,"map":"pl_upward","folder":"tf","game":"Team Fortress","app_id":440,"player_count":16,"max_players":24,"Bots":0,"server_type":"Dedicated","server_os":"Linux","password":true,"vac":true,"version":"7932396","steam_id":85568392924469998,"keywords":["nocrits","nodmgspread","payload","uncletopia"],"game_id":440,"stv_port":27026,"stv_name":"Uncletopia | Seattle | 2 | All Maps | STV","players":[{"user_id":82,"name":"Mokaaaa","steam_id":76561198043659301,"connected_time":2607000000000,"state":"active","ping":87},{"user_id":71,"name":"Arima","steam_id":76561198093711854,"connected_time":3236000000000,"state":"active","ping":126},{"user_id":99,"name":"MayaBon","steam_id":76561198797968261,"connected_time":320000000000,"state":"active","ping":50},{"user_id":95,"name":"Ermine","steam_id":76561198072831312,"connected_time":1004000000000,"state":"active","ping":106},{"user_id":100,"name":"Coowil","steam_id":76561198070985437,"connected_time":306000000000,"state":"active","ping":31},{"user_id":65,"name":"EPicat","steam_id":76561198107166028,"connected_time":3628000000000,"state":"active","ping":72},{"user_id":66,"name":"Based Dysphoria","steam_id":76561198034111862,"connected_time":3627000000000,"state":"active","ping":64},{"user_id":70,"name":"Marc G","steam_id":76561198062650363,"connected_time":3286000000000,"state":"active","ping":104},{"user_id":101,"name":"kenZino","steam_id":76561197967971192,"connected_time":179000000000,"state":"active","ping":44},{"user_id":17,"name":"wmjledger","steam_id":76561198443046861,"connected_time":5978000000000,"state":"active","ping":56},{"user_id":48,"name":"Cheesed Burger","steam_id":76561198066425198,"connected_time":4819000000000,"state":"active","ping":79},{"user_id":74,"name":"The King of Piss World","steam_id":76561198082806956,"connected_time":3046000000000,"state":"active","ping":152},{"user_id":91,"name":"souljaboytellem.com","steam_id":76561198095824426,"connected_time":1593000000000,"state":"active","ping":72},{"user_id":54,"name":"Nolan","steam_id":76561198169648081,"connected_time":4318000000000,"state":"active","ping":68},{"user_id":97,"name":"MyMonkeyBaby","steam_id":76561198046896670,"connected_time":970000000000,"state":"active","ping":60},{"user_id":89,"name":"Clit Yeastwood","steam_id":76561199042672094,"connected_time":1643000000000,"state":"active","ping":61}]},{"server_id":406,"name":"Uncletopia | Seattle | 3 | Stopwatch Beta","name_short":"sea-3","host":"sea-1.us.uncletopia.com","port":27035,"enabled":true,"region":"us-west","cc":"us","latitude":47.608013,"longitude":-122.33517,"reserved":0,"last_update":"0001-01-01T00:00:00Z","name_a2s":"Uncletopia | Seattle | 3 | Stopwatch Beta","protocol":17,"map":"cp_mountainlab","folder":"tf","game":"Team Fortress","app_id":440,"player_count":0,"max_players":24,"Bots":0,"server_type":"Dedicated","server_os":"Linux","password":true,"vac":true,"version":"7932396","steam_id":85568392924515217,"keywords":["cp","nocrits","nodmgspread","uncletopia"],"game_id":440,"stv_port":27036,"stv_name":"Uncletopia | Seattle | 3 | Stopwatch Beta | STV","players":null},{"server_id":17,"name":"Uncletopia | San Francisco | 1 | All Maps","name_short":"sfo-1","host":"sfo-1.us.uncletopia.com","port":27015,"enabled":true,"region":"us-west","cc":"us","latitude":37.77397,"longitude":-122.4313,"reserved":0,"last_update":"0001-01-01T00:00:00Z","name_a2s":"Uncletopia | San Francisco | 1 | All Maps","protocol":17,"map":"pl_badwater","folder":"tf","game":"Team Fortress","app_id":440,"player_count":24,"max_players":24,"Bots":0,"server_type":"Dedicated","server_os":"Linux","password":true,"vac":true,"version":"7932396","steam_id":85568392924469999,"keywords":["nocrits","nodmgspread","payload","uncletopia"],"game_id":440,"stv_port":27016,"stv_name":"Uncletopia | San Francisco | 1 | All Maps | STV","players":[{"user_id":15,"name":"Big Oz","steam_id":76561198970897660,"connected_time":5306000000000,"state":"active","ping":85},{"user_id":43,"name":"human trafficking","steam_id":76561198309823950,"connected_time":3409000000000,"state":"active","ping":57},{"user_id":66,"name":"lil uzi squirt","steam_id":76561198045926594,"connected_time":1298000000000,"state":"active","ping":59},{"user_id":21,"name":"Coyote Bongwater","steam_id":76561198022905122,"connected_time":4306000000000,"state":"active","ping":45},{"user_id":68,"name":"That wasn't milk","steam_id":76561198155294045,"connected_time":1215000000000,"state":"active","ping":87},{"user_id":84,"name":"Monty","steam_id":76561197993567253,"connected_time":32000000000,"state":"active","ping":49},{"user_id":81,"name":"Five","steam_id":76561198026640473,"connected_time":326000000000,"state":"active","ping":63},{"user_id":22,"name":"O D J","steam_id":76561198071254599,"connected_time":4306000000000,"state":"active","ping":45},{"user_id":65,"name":"PerKnuckleChuckle","steam_id":76561198023221596,"connected_time":1371000000000,"state":"active","ping":62},{"user_id":47,"name":"halo","steam_id":76561198144909435,"connected_time":3178000000000,"state":"active","ping":61},{"user_id":69,"name":"Gay Cake","steam_id":76561198004388831,"connected_time":1211000000000,"state":"active","ping":114},{"user_id":70,"name":"Holiday Fartcruise","steam_id":76561198043851584,"connected_time":1187000000000,"state":"active","ping":183},{"user_id":45,"name":"jim awesome","steam_id":76561198337486020,"connected_time":3339000000000,"state":"active","ping":58},{"user_id":80,"name":"..flop","steam_id":76561197989058876,"connected_time":336000000000,"state":"active","ping":64},{"user_id":71,"name":"CatyushaTheGreat","steam_id":76561198295878299,"connected_time":1182000000000,"state":"active","ping":76},{"user_id":57,"name":"Vegan Veal","steam_id":76561198123607452,"connected_time":2011000000000,"state":"active","ping":72},{"user_id":64,"name":"Flex Pexico","steam_id":76561198041838930,"connected_time":1509000000000,"state":"active","ping":66},{"user_id":72,"name":"porksoda","steam_id":76561198021451377,"connected_time":1176000000000,"state":"active","ping":63},{"user_id":78,"name":"ඞ#savetf2","steam_id":76561198432226673,"connected_time":842000000000,"state":"active","ping":81},{"user_id":79,"name":"shakoiwa","steam_id":76561199059441773,"connected_time":697000000000,"state":"active","ping":68},{"user_id":74,"name":"Kylek1133","steam_id":76561198277595899,"connected_time":1132000000000,"state":"active","ping":69},{"user_id":39,"name":"primordial","steam_id":76561198058836750,"connected_time":3811000000000,"state":"active","ping":69},{"user_id":51,"name":"framp down","steam_id":76561198006316527,"connected_time":2423000000000,"state":"active","ping":69},{"user_id":83,"name":"Scorpianswag","steam_id":76561198260651036,"connected_time":216000000000,"state":"active","ping":44}]},{"server_id":18,"name":"Uncletopia | San Francisco | 2 | All Maps","name_short":"sfo-2","host":"sfo-1.us.uncletopia.com","port":27025,"enabled":true,"region":"us-west","cc":"us","latitude":37.77397,"longitude":-122.4313,"reserved":0,"last_update":"0001-01-01T00:00:00Z","name_a2s":"Uncletopia | San Francisco | 2 | All Maps","protocol":17,"map":"pl_snowycoast","folder":"tf","game":"Team Fortress","app_id":440,"player_count":21,"max_players":24,"Bots":0,"server_type":"Dedicated","server_os":"Linux","password":true,"vac":true,"version":"7932396","steam_id":85568392924470000,"keywords":["nocrits","nodmgspread","payload","uncletopia"],"game_id":440,"stv_port":27026,"stv_name":"Uncletopia | San Francisco | 2 | All Maps | STV","players":[{"user_id":54,"name":"blobmasterer","steam_id":76561198001131403,"connected_time":3105000000000,"state":"active","ping":62},{"user_id":10,"name":"Mapachito Lindo","steam_id":76561198031359995,"connected_time":6068000000000,"state":"active","ping":61},{"user_id":7,"name":"SolarusD","steam_id":76561198029279861,"connected_time":6114000000000,"state":"active","ping":45},{"user_id":95,"name":"Vortiger","steam_id":76561198275813176,"connected_time":203000000000,"state":"active","ping":56},{"user_id":8,"name":"Lambchop","steam_id":76561198043900363,"connected_time":6087000000000,"state":"active","ping":59},{"user_id":96,"name":"dweamy","steam_id":76561198119181880,"connected_time":104000000000,"state":"active","ping":74},{"user_id":97,"name":"sunny","steam_id":76561198069380992,"connected_time":53000000000,"state":"active","ping":89},{"user_id":79,"name":"alleeop43","steam_id":76561199029390266,"connected_time":1588000000000,"state":"active","ping":80},{"user_id":50,"name":"1stLemonAid","steam_id":76561198281567539,"connected_time":3683000000000,"state":"active","ping":122},{"user_id":65,"name":"noodlemonkey00","steam_id":76561198056892045,"connected_time":2622000000000,"state":"active","ping":71},{"user_id":89,"name":"AudaCD","steam_id":76561198202775853,"connected_time":779000000000,"state":"active","ping":76},{"user_id":81,"name":"PsyKe","steam_id":76561198055486345,"connected_time":1536000000000,"state":"active","ping":81},{"user_id":20,"name":"goob","steam_id":76561198057017027,"connected_time":5773000000000,"state":"active","ping":76},{"user_id":90,"name":"JPM岩","steam_id":76561198043967997,"connected_time":716000000000,"state":"active","ping":50},{"user_id":22,"name":"Chewychew","steam_id":76561198046562804,"connected_time":5768000000000,"state":"active","ping":98},{"user_id":87,"name":"ungr8t","steam_id":76561198063521721,"connected_time":1259000000000,"state":"active","ping":91},{"user_id":93,"name":"bcizzo","steam_id":76561197994399953,"connected_time":414000000000,"state":"active","ping":51},{"user_id":85,"name":"STAROID","steam_id":76561198069740897,"connected_time":1472000000000,"state":"active","ping":87},{"user_id":86,"name":"Full Moon","steam_id":76561198089898720,"connected_time":1405000000000,"state":"active","ping":66},{"user_id":31,"name":"Saucy Boy","steam_id":76561198178332031,"connected_time":5582000000000,"state":"active","ping":110},{"user_id":62,"name":"Tech Deck","steam_id":76561199070437675,"connected_time":2770000000000,"state":"active","ping":60}]},{"server_id":19,"name":"Uncletopia | San Francisco | 3 | Stopwatch Beta","name_short":"sfo-3","host":"sfo-1.us.uncletopia.com","port":27035,"enabled":true,"region":"us-west","cc":"us","latitude":37.77397,"longitude":-122.4313,"reserved":0,"last_update":"0001-01-01T00:00:00Z","name_a2s":"Uncletopia | San Francisco | 3 | Stopwatch Beta","protocol":17,"map":"koth_lakeside_final","folder":"tf","game":"Team Fortress","app_id":440,"player_count":0,"max_players":24,"Bots":0,"server_type":"Dedicated","server_os":"Linux","password":true,"vac":true,"version":"7932396","steam_id":85568392924742824,"keywords":["cp","nocrits","nodmgspread","uncletopia"],"game_id":440,"stv_port":27036,"stv_name":"Uncletopia | San Francisco | 3 | Stopwatch Beta | STV","players":null},{"server_id":20,"name":"Uncletopia | San Francisco | 4 | Community","name_short":"sfo-4","host":"sfo-1.us.uncletopia.com","port":27045,"enabled":true,"region":"us-west","cc":"us","latitude":37.77397,"longitude":-122.4313,"reserved":0,"last_update":"0001-01-01T00:00:00Z","name_a2s":"Uncletopia | San Francisco | 4 | Community","protocol":17,"map":"pl_borneo","folder":"tf","game":"Team Fortress","app_id":440,"player_count":0,"max_players":24,"Bots":0,"server_type":"Dedicated","server_os":"Linux","password":true,"vac":true,"version":"7932396","steam_id":85568392924742826,"keywords":["nocrits","nodmgspread","payload","uncletopia"],"game_id":440,"stv_port":27046,"stv_name":"Uncletopia | San Francisco | 4 | Community | STV","players":null},{"server_id":141,"name":"Uncletopia | Sydney | 1 | All Maps","name_short":"syd-1","host":"syd-1.au.uncletopia.com","port":27015,"enabled":true,"region":"au","cc":"au","latitude":-33.865143,"longitude":151.2099,"reserved":0,"last_update":"0001-01-01T00:00:00Z","name_a2s":"Uncletopia | Sydney | 1 | All Maps","protocol":17,"map":"plr_bananabay","folder":"tf","game":"Team Fortress","app_id":440,"player_count":21,"max_players":24,"Bots":0,"server_type":"Dedicated","server_os":"Linux","password":true,"vac":true,"version":"7932396","steam_id":85568392924470001,"keywords":["nocrits","nodmgspread","payload","uncletopia"],"game_id":440,"stv_port":27016,"stv_name":"Uncletopia | Sydney | 1 | All Maps | STV","players":[{"user_id":3,"name":"whatsapp","steam_id":76561199099744527,"connected_time":6285000000000,"state":"active","ping":46},{"user_id":5,"name":"Gnat","steam_id":76561198109747863,"connected_time":6276000000000,"state":"active","ping":102},{"user_id":99,"name":"adammagee","steam_id":76561197972653972,"connected_time":815000000000,"state":"active","ping":53},{"user_id":7,"name":"Aquila","steam_id":76561198042520637,"connected_time":6273000000000,"state":"active","ping":41},{"user_id":80,"name":"SheZow Unleashed","steam_id":76561199440190709,"connected_time":2031000000000,"state":"active","ping":60},{"user_id":106,"name":"Cozza","steam_id":76561198090069548,"connected_time":184000000000,"state":"active","ping":72},{"user_id":10,"name":"Meat","steam_id":76561198021812511,"connected_time":6268000000000,"state":"active","ping":52},{"user_id":84,"name":"Sexy Turtle","steam_id":76561198256865969,"connected_time":1965000000000,"state":"active","ping":43},{"user_id":101,"name":"pancakelover","steam_id":76561198885258799,"connected_time":792000000000,"state":"active","ping":91},{"user_id":105,"name":"你好吗","steam_id":76561198117378884,"connected_time":256000000000,"state":"active","ping":34},{"user_id":103,"name":"Lotuses","steam_id":76561199045059964,"connected_time":536000000000,"state":"active","ping":108},{"user_id":91,"name":"ravioli","steam_id":76561198001765827,"connected_time":1452000000000,"state":"active","ping":57},{"user_id":92,"name":"soupy","steam_id":76561198073734936,"connected_time":1270000000000,"state":"active","ping":85},{"user_id":94,"name":"what_happy","steam_id":76561198971334734,"connected_time":1204000000000,"state":"active","ping":67},{"user_id":37,"name":"jim :)","steam_id":76561198127508905,"connected_time":5242000000000,"state":"active","ping":33},{"user_id":79,"name":"lavanderpumpernickle","steam_id":76561199093611800,"connected_time":2036000000000,"state":"active","ping":58},{"user_id":78,"name":"76561198096906754","steam_id":76561198096906754,"connected_time":2038000000000,"state":"active","ping":57},{"user_id":56,"name":"Fyre Rose","steam_id":76561198000527551,"connected_time":4513000000000,"state":"active","ping":76},{"user_id":98,"name":"Psalm 118:10-17","steam_id":76561198305904806,"connected_time":862000000000,"state":"active","ping":58},{"user_id":90,"name":"Curie","steam_id":76561198132928417,"connected_time":1538000000000,"state":"active","ping":57},{"user_id":102,"name":"Cup","steam_id":76561198038485845,"connected_time":777000000000,"state":"active","ping":38}]},{"server_id":123,"name":"Uncletopia | Sydney | 2 | All Maps","name_short":"syd-2","host":"syd-1.au.uncletopia.com","port":27025,"enabled":true,"region":"au","cc":"au","latitude":-33.865143,"longitude":151.2099,"reserved":0,"last_update":"0001-01-01T00:00:00Z","name_a2s":"Uncletopia | Sydney | 2 | All Maps","protocol":17,"map":"koth_lakeside_final","folder":"tf","game":"Team Fortress","app_id":440,"player_count":0,"max_players":24,"Bots":0,"server_type":"Dedicated","server_os":"Linux","password":true,"vac":true,"version":"7932396","steam_id":85568392924470002,"keywords":["cp","nocrits","nodmgspread","uncletopia"],"game_id":440,"stv_port":27026,"stv_name":"Uncletopia | Sydney | 2 | All Maps | STV","players":null},{"server_id":395,"name":"Uncletopia | Sydney | 3 | All Maps","name_short":"syd-3","host":"syd-1.au.uncletopia.com","port":27035,"enabled":true,"region":"au","cc":"au","latitude":-33.865143,"longitude":151.2099,"reserved":0,"last_update":"0001-01-01T00:00:00Z","name_a2s":"Uncletopia | Sydney | 3 | All Maps","protocol":17,"map":"cp_snakewater_final1","folder":"tf","game":"Team Fortress","app_id":440,"player_count":24,"max_players":24,"Bots":0,"server_type":"Dedicated","server_os":"Linux","password":true,"vac":true,"version":"7932396","steam_id":85568392925194467,"keywords":["cp","nocrits","nodmgspread","uncletopia"],"game_id":440,"stv_port":27036,"stv_name":"Uncletopia | Sydney | 3 | All Maps | STV","players":[{"user_id":40,"name":"Some Asshole with a Bat","steam_id":76561198413132575,"connected_time":1589000000000,"state":"active","ping":52},{"user_id":6,"name":"Empolé","steam_id":76561198363939040,"connected_time":3457000000000,"state":"active","ping":97},{"user_id":7,"name":"potmonger377","steam_id":76561199217407346,"connected_time":3362000000000,"state":"active","ping":70},{"user_id":9,"name":"Ace of Space","steam_id":76561198379554422,"connected_time":3296000000000,"state":"active","ping":60},{"user_id":10,"name":"Denszeal","steam_id":76561198313718095,"connected_time":3068000000000,"state":"active","ping":75},{"user_id":27,"name":"ArcticDolphin","steam_id":76561198203626319,"connected_time":2133000000000,"state":"active","ping":173},{"user_id":41,"name":"Original Glazed (Krispy/Kreme)","steam_id":76561197997362731,"connected_time":1519000000000,"state":"active","ping":48},{"user_id":54,"name":"Rashid Of The Dank Memes","steam_id":76561198281398078,"connected_time":1194000000000,"state":"active","ping":60},{"user_id":56,"name":"Blu Scout","steam_id":76561199229466711,"connected_time":882000000000,"state":"active","ping":153},{"user_id":28,"name":"A N X I E T Y","steam_id":76561198241303512,"connected_time":2131000000000,"state":"active","ping":59},{"user_id":63,"name":"WussPoppinJimbo","steam_id":76561199111828033,"connected_time":243000000000,"state":"active","ping":135},{"user_id":62,"name":"Axeace","steam_id":76561198170665741,"connected_time":262000000000,"state":"active","ping":83},{"user_id":50,"name":"miyamoto is daddy","steam_id":76561199483818230,"connected_time":1328000000000,"state":"active","ping":74},{"user_id":44,"name":"Mitch","steam_id":76561198337763800,"connected_time":1451000000000,"state":"active","ping":53},{"user_id":47,"name":"squrrel","steam_id":76561198083429611,"connected_time":1406000000000,"state":"active","ping":31},{"user_id":31,"name":"Lumalee ❤","steam_id":76561198157613299,"connected_time":2045000000000,"state":"active","ping":63},{"user_id":45,"name":"ivoangelozocca","steam_id":76561199419790359,"connected_time":1445000000000,"state":"active","ping":161},{"user_id":66,"name":"james16","steam_id":76561198362678073,"connected_time":45000000000,"state":"active","ping":36},{"user_id":60,"name":"NiceName","steam_id":76561198398046309,"connected_time":410000000000,"state":"active","ping":52},{"user_id":37,"name":"Breadnought","steam_id":76561198116436923,"connected_time":1870000000000,"state":"active","ping":99},{"user_id":64,"name":"uwotm8","steam_id":76561198152215695,"connected_time":199000000000,"state":"active","ping":70},{"user_id":65,"name":"FascismSalad","steam_id":76561198262410973,"connected_time":191000000000,"state":"active","ping":49},{"user_id":48,"name":"The Rumpled Foreskin™©","steam_id":76561198026823397,"connected_time":1406000000000,"state":"active","ping":49},{"user_id":53,"name":"RAINY","steam_id":76561198009848533,"connected_time":1231000000000,"state":"active","ping":53}]},{"server_id":396,"name":"Uncletopia | Sydney | 4 | All Maps","name_short":"syd-4","host":"syd-1.au.uncletopia.com","port":27045,"enabled":true,"region":"au","cc":"au","latitude":-33.865143,"longitude":151.2099,"reserved":0,"last_update":"0001-01-01T00:00:00Z","name_a2s":"Uncletopia | Sydney | 4 | All Maps","protocol":17,"map":"pl_pier","folder":"tf","game":"Team Fortress","app_id":440,"player_count":0,"max_players":24,"Bots":0,"server_type":"Dedicated","server_os":"Linux","password":true,"vac":true,"version":"7932396","steam_id":85568392925397958,"keywords":["nocrits","nodmgspread","payload","uncletopia"],"game_id":440,"stv_port":27046,"stv_name":"Uncletopia | Sydney | 4 | All Maps | STV","players":null},{"server_id":58,"name":"Uncletopia | Sydney | 5 | Stopwatch Beta","name_short":"syd-5","host":"syd-1.au.uncletopia.com","port":27055,"enabled":true,"region":"au","cc":"au","latitude":-33.865143,"longitude":151.2099,"reserved":0,"last_update":"0001-01-01T00:00:00Z","name_a2s":"Uncletopia | Sydney | 5 | Stopwatch Beta","protocol":17,"map":"pl_borneo","folder":"tf","game":"Team Fortress","app_id":440,"player_count":0,"max_players":24,"Bots":0,"server_type":"Dedicated","server_os":"Linux","password":true,"vac":true,"version":"7932396","steam_id":85568392925397959,"keywords":["nocrits","nodmgspread","payload","uncletopia"],"game_id":440,"stv_port":27056,"stv_name":"Uncletopia | Sydney | 5 | Stopwatch Beta | STV","players":null},{"server_id":59,"name":"Uncletopia | Sydney | 6 | Community","name_short":"syd-6","host":"syd-1.au.uncletopia.com","port":27065,"enabled":true,"region":"au","cc":"au","latitude":-33.865143,"longitude":151.2099,"reserved":0,"last_update":"0001-01-01T00:00:00Z","name_a2s":"Uncletopia | Sydney | 6 | Community","protocol":17,"map":"pl_badwater","folder":"tf","game":"Team Fortress","app_id":440,"player_count":0,"max_players":24,"Bots":0,"server_type":"Dedicated","server_os":"Linux","password":true,"vac":true,"version":"7932396","steam_id":85568392925397960,"keywords":["nocrits","nodmgspread","payload","uncletopia"],"game_id":440,"stv_port":27066,"stv_name":"Uncletopia | Sydney | 6 | Community | STV","players":null},{"server_id":49,"name":"Uncletopia | Warsaw | 1 | All Maps","name_short":"waw-1","host":"waw-1.pl.uncletopia.com","port":27015,"enabled":true,"region":"eu","cc":"pl","latitude":52.2297,"longitude":21.017532,"reserved":0,"last_update":"0001-01-01T00:00:00Z","name_a2s":"","protocol":0,"map":"","folder":"","game":"","app_id":0,"player_count":0,"max_players":0,"Bots":0,"server_type":"","server_os":"","password":false,"vac":false,"version":"","steam_id":0,"keywords":null,"game_id":0,"stv_port":0,"stv_name":"","players":null},{"server_id":50,"name":"Uncletopia | Warsaw | 2 | All Maps","name_short":"waw-2","host":"waw-1.pl.uncletopia.com","port":27025,"enabled":true,"region":"eu","cc":"pl","latitude":52.2297,"longitude":21.017532,"reserved":0,"last_update":"0001-01-01T00:00:00Z","name_a2s":"Uncletopia | Warsaw | 2 | All Maps","protocol":17,"map":"cp_sunshine","folder":"tf","game":"Team Fortress","app_id":440,"player_count":0,"max_players":24,"Bots":0,"server_type":"Dedicated","server_os":"Linux","password":true,"vac":true,"version":"7932396","steam_id":85568392925397851,"keywords":["cp","nocrits","nodmgspread","uncletopia"],"game_id":440,"stv_port":27026,"stv_name":"Uncletopia | Warsaw | 2 | All Maps | STV","players":null},{"server_id":51,"name":"Uncletopia | Warsaw | 3 | All Maps","name_short":"waw-3","host":"waw-1.pl.uncletopia.com","port":27035,"enabled":true,"region":"eu","cc":"pl","latitude":52.2297,"longitude":21.017532,"reserved":0,"last_update":"0001-01-01T00:00:00Z","name_a2s":"Uncletopia | Warsaw | 3 | All Maps","protocol":17,"map":"koth_lakeside_final","folder":"tf","game":"Team Fortress","app_id":440,"player_count":0,"max_players":24,"Bots":0,"server_type":"Dedicated","server_os":"Linux","password":true,"vac":true,"version":"7932396","steam_id":85568392925397852,"keywords":["cp","nocrits","nodmgspread","uncletopia"],"game_id":440,"stv_port":27036,"stv_name":"Uncletopia | Warsaw | 3 | All Maps | STV","players":null},{"server_id":52,"name":"Uncletopia | Warsaw | 4 | All Maps","name_short":"waw-4","host":"waw-1.pl.uncletopia.com","port":27045,"enabled":true,"region":"eu","cc":"pl","latitude":52.2297,"longitude":21.017532,"reserved":0,"last_update":"0001-01-01T00:00:00Z","name_a2s":"Uncletopia | Warsaw | 4 | All Maps","protocol":17,"map":"pl_swiftwater_final1","folder":"tf","game":"Team Fortress","app_id":440,"player_count":0,"max_players":24,"Bots":0,"server_type":"Dedicated","server_os":"Linux","password":true,"vac":true,"version":"7932396","steam_id":85568392925397853,"keywords":["nocrits","nodmgspread","payload","uncletopia"],"game_id":440,"stv_port":27046,"stv_name":"Uncletopia | Warsaw | 4 | All Maps | STV","players":null},{"server_id":53,"name":"Uncletopia | Warsaw | 5 | Stopwatch Beta","name_short":"waw-5","host":"waw-1.pl.uncletopia.com","port":27055,"enabled":true,"region":"eu","cc":"pl","latitude":52.2297,"longitude":21.017532,"reserved":0,"last_update":"0001-01-01T00:00:00Z","name_a2s":"Uncletopia | Warsaw | 5 | Stopwatch Beta","protocol":17,"map":"koth_highpass","folder":"tf","game":"Team Fortress","app_id":440,"player_count":0,"max_players":24,"Bots":0,"server_type":"Dedicated","server_os":"Linux","password":true,"vac":true,"version":"7932396","steam_id":85568392925397854,"keywords":["cp","nocrits","nodmgspread","uncletopia"],"game_id":440,"stv_port":27056,"stv_name":"Uncletopia | Warsaw | 5 | Stopwatch Beta | STV","players":null},{"server_id":54,"name":"Uncletopia | Warsaw | 6 | Community","name_short":"waw-6","host":"waw-1.pl.uncletopia.com","port":27065,"enabled":true,"region":"eu","cc":"pl","latitude":52.2297,"longitude":21.017532,"reserved":0,"last_update":"0001-01-01T00:00:00Z","name_a2s":"Uncletopia | Warsaw | 6 | Community","protocol":17,"map":"pl_upward","folder":"tf","game":"Team Fortress","app_id":440,"player_count":0,"max_players":24,"Bots":0,"server_type":"Dedicated","server_os":"Linux","password":true,"vac":true,"version":"7932396","steam_id":85568392925397856,"keywords":["nocrits","nodmgspread","payload","uncletopia"],"game_id":440,"stv_port":27066,"stv_name":"Uncletopia | Warsaw | 6 | Community | STV","players":null}]}