{"status":true,"message":"","result":[{"server_id":2,"name":"Uncletopia | Chicago | 1 | All Maps","name_short":"chi-1","host":"chi-1.us.uncletopia.com","port":27015,"enabled":true,"region":"us-central","cc":"us","latitude":41.881832,"longitude":-87.62318,"reserved":0,"last_update":"0001-01-01T00:00:00Z","name_a2s":"Uncletopia | Chicago | 1 | All Maps","protocol":17,"map":"pl_borneo","folder":"tf","game":"Team Fortress","app_id":440,"player_count":23,"max_players":24,"Bots":0,"server_type":"Dedicated","server_os":"Linux","password":true,"vac":true,"version":"7961495","steam_id":85568392924469984,"keywords":["nocrits","nodmgspread","payload","uncletopia"],"game_id":440,"stv_port":27016,"stv_name":"Uncletopia | Chicago | 1 | All Maps | STV","players":[{"user_id":598,"name":"seldom","steam_id":76561198166193756,"connected_time":2264000000000,"state":"active","ping":47},{"user_id":619,"name":"Rudy","steam_id":76561198013456828,"connected_time":1032000000000,"state":"active","ping":60},{"user_id":584,"name":"Moss","steam_id":76561199122200727,"connected_time":2969000000000,"state":"active","ping":63},{"user_id":620,"name":"Ojen","steam_id":76561197998414482,"connected_time":847000000000,"state":"active","ping":60},{"user_id":623,"name":"DinoGoof","steam_id":76561198998427283,"connected_time":607000000000,"state":"active","ping":64},{"user_id":592,"name":"d","steam_id":76561198066114874,"connected_time":2606000000000,"state":"active","ping":101},{"user_id":593,"name":"Exo","steam_id":76561198076645019,"connected_time":2593000000000,"state":"active","ping":61},{"user_id":618,"name":"MaDeuce","steam_id":76561198110732835,"connected_time":1110000000000,"state":"active","ping":126},{"user_id":611,"name":"zero two","steam_id":76561199058650117,"connected_time":1556000000000,"state":"active","ping":100},{"user_id":580,"name":"big bertha","steam_id":76561198441032143,"connected_time":3080000000000,"state":"active","ping":102},{"user_id":553,"name":"TÖZI","steam_id":76561198045268695,"connected_time":4926000000000,"state":"active","ping":87},{"user_id":614,"name":"earthless","steam_id":76561199244039465,"connected_time":1382000000000,"state":"active","ping":66},{"user_id":629,"name":"envy","steam_id":76561198099470277,"connected_time":99000000000,"state":"active","ping":82},{"user_id":522,"name":"Wizard Raccoon","steam_id":76561198072562591,"connected_time":7915000000000,"state":"active","ping":85},{"user_id":559,"name":"JDD4LIFE","steam_id":76561199026646159,"connected_time":4691000000000,"state":"active","ping":56},{"user_id":581,"name":"Menace","steam_id":76561199208701350,"connected_time":3064000000000,"state":"active","ping":171},{"user_id":624,"name":"ARegularJohnDoe","steam_id":76561198015020139,"connected_time":501000000000,"state":"active","ping":55},{"user_id":556,"name":"Jeff","steam_id":76561199003107869,"connected_time":4881000000000,"state":"active","ping":87},{"user_id":625,"name":"Distraction","steam_id":76561199445895882,"connected_time":344000000000,"state":"active","ping":136},{"user_id":622,"name":"Aniz","steam_id":76561199226665024,"connected_time":761000000000,"state":"active","ping":135},{"user_id":582,"name":"beth Rogan","steam_id":76561198060059257,"connected_time":3058000000000,"state":"active","ping":110},{"user_id":601,"name":"Storm the Snep","steam_id":76561198129214232,"connected_time":2199000000000,"state":"active","ping":89},{"user_id":587,"name":"pan","steam_id":76561198093968095,"connected_time":2882000000000,"state":"active","ping":90}]},{"server_id":106,"name":"Uncletopia | Chicago | 2 | All Maps","name_short":"chi-2","host":"chi-1.us.uncletopia.com","port":27025,"enabled":true,"region":"us-central","cc":"us","latitude":41.881832,"longitude":-87.62318,"reserved":0,"last_update":"0001-01-01T00:00:00Z","name_a2s":"Uncletopia | Chicago | 2 | All Maps","protocol":17,"map":"koth_viaduct","folder":"tf","game":"Team Fortress","app_id":440,"player_count":0,"max_players":24,"Bots":0,"server_type":"Dedicated","server_os":"Linux","password":true,"vac":true,"version":"7961495","steam_id":85568392924469985,"keywords":["cp","nocrits","nodmgspread","uncletopia"],"game_id":440,"stv_port":27026,"stv_name":"Uncletopia | Chicago | 2 | All Maps | STV","players":null},{"server_id":402,"name":"Uncletopia | Chicago | 3 | All Maps","name_short":"chi-3","host":"chi-1.us.uncletopia.com","port":27035,"enabled":true,"region":"us-central","cc":"us","latitude":41.881832,"longitude":-87.62318,"reserved":0,"last_update":"0001-01-01T00:00:00Z","name_a2s":"Uncletopia | Chicago | 3 | All Maps","protocol":17,"map":"pl_snowycoast","folder":"tf","game":"Team Fortress","app_id":440,"player_count":21,"max_players":24,"Bots":0,"server_type":"Dedicated","server_os":"Linux","password":true,"vac":true,"version":"7961495","steam_id":85568392924515191,"keywords":["nocrits","nodmgspread","payload","uncletopia"],"game_id":440,"stv_port":27036,"stv_name":"Uncletopia | Chicago | 3 | All Maps | STV","players":[{"user_id":651,"name":"ntjohn","steam_id":76561198043367011,"connected_time":15000000000,"state":"spawning","ping":69},{"user_id":642,"name":"Fostrel","steam_id":76561198152160601,"connected_time":689000000000,"state":"active","ping":77},{"user_id":650,"name":"honk","steam_id":76561198050398028,"connected_time":57000000000,"state":"active","ping":45},{"user_id":625,"name":"One Shot and A Miss","steam_id":76561198124269698,"connected_time":1906000000000,"state":"active","ping":60},{"user_id":618,"name":"Joe Nathan","steam_id":76561198041030399,"connected_time":2162000000000,"state":"active","ping":78},{"user_id":623,"name":"only a spoonful","steam_id":76561198113180616,"connected_time":2005000000000,"state":"active","ping":62},{"user_id":652,"name":"western bacon cheeseburger","steam_id":76561198145320480,"connected_time":13000000000,"state":"active","ping":93},{"user_id":621,"name":"Six Piece Chicken McNobody","steam_id":76561198129848222,"connected_time":2149000000000,"state":"active","ping":59},{"user_id":627,"name":"Slipsy","steam_id":76561198341574668,"connected_time":1788000000000,"state":"active","ping":161},{"user_id":628,"name":"Draco","steam_id":76561198031226933,"connected_time":1760000000000,"state":"active","ping":135},{"user_id":645,"name":"mytoyo2k2","steam_id":76561199486326945,"connected_time":648000000000,"state":"active","ping":74},{"user_id":629,"name":"JayReplay","steam_id":76561197996665856,"connected_time":1751000000000,"state":"active","ping":80},{"user_id":630,"name":"Vix The Nickit","steam_id":76561198292181452,"connected_time":1750000000000,"state":"active","ping":64},{"user_id":539,"name":"Predicta","steam_id":76561198017630616,"connected_time":7023000000000,"state":"active","ping":46},{"user_id":632,"name":"Odd Life","steam_id":76561198244979998,"connected_time":1452000000000,"state":"active","ping":106},{"user_id":634,"name":"Meerkat","steam_id":76561199245435539,"connected_time":1369000000000,"state":"active","ping":143},{"user_id":635,"name":"Phantom","steam_id":76561199200400404,"connected_time":1286000000000,"state":"active","ping":110},{"user_id":636,"name":"Mile S","steam_id":76561198163238434,"connected_time":1210000000000,"state":"active","ping":69},{"user_id":640,"name":"Torensz64(But weezer)","steam_id":76561198239036482,"connected_time":1078000000000,"state":"active","ping":61},{"user_id":638,"name":"vulcan nightclub pon farr night","steam_id":76561197974283797,"connected_time":1155000000000,"state":"active","ping":42},{"user_id":647,"name":"the whale (2022)","steam_id":76561198095313463,"connected_time":594000000000,"state":"active","ping":91}]},{"server_id":403,"name":"Uncletopia | Chicago | 4 | All Maps","name_short":"chi-4","host":"chi-1.us.uncletopia.com","port":27045,"enabled":true,"region":"us-central","cc":"us","latitude":41.881832,"longitude":-87.62318,"reserved":0,"last_update":"0001-01-01T00:00:00Z","name_a2s":"Uncletopia | Chicago | 4 | All Maps","protocol":17,"map":"pl_upward","folder":"tf","game":"Team Fortress","app_id":440,"player_count":23,"max_players":24,"Bots":0,"server_type":"Dedicated","server_os":"Linux","password":true,"vac":true,"version":"7961495","steam_id":85568392924515193,"keywords":["nocrits","nodmgspread","payload","uncletopia"],"game_id":440,"stv_port":27046,"stv_name":"Uncletopia | Chicago | 4 | All Maps | STV","players":[{"user_id":1019,"name":"Galaxy 767","steam_id":76561198143214992,"connected_time":41000000000,"state":"active","ping":61},{"user_id":993,"name":"孫子","steam_id":76561198083112681,"connected_time":2128000000000,"state":"active","ping":75},{"user_id":956,"name":"Danmar33","steam_id":76561198056453091,"connected_time":5705000000000,"state":"active","ping":46},{"user_id":958,"name":"Rez LeRoux","steam_id":76561198451503538,"connected_time":5686000000000,"state":"active","ping":69},{"user_id":933,"name":"Elon Tusk","steam_id":76561198977359400,"connected_time":6761000000000,"state":"active","ping":68},{"user_id":930,"name":"GruntRule","steam_id":76561198039987143,"connected_time":6827000000000,"state":"active","ping":81},{"user_id":1013,"name":"Ferguson","steam_id":76561198121349387,"connected_time":213000000000,"state":"active","ping":76},{"user_id":986,"name":"honor in defeat","steam_id":76561198013735714,"connected_time":2607000000000,"state":"active","ping":71},{"user_id":1010,"name":"Clone#67","steam_id":76561198010238457,"connected_time":901000000000,"state":"active","ping":67},{"user_id":1005,"name":"Honorless Fellow","steam_id":76561198017367763,"connected_time":1066000000000,"state":"active","ping":97},{"user_id":1014,"name":"Bopp Bipp","steam_id":76561198073741432,"connected_time":184000000000,"state":"active","ping":54},{"user_id":979,"name":"Vapeinhand","steam_id":76561198134439943,"connected_time":3659000000000,"state":"active","ping":59},{"user_id":955,"name":"MoistyS0ck","steam_id":76561198978135009,"connected_time":5742000000000,"state":"active","ping":69},{"user_id":937,"name":"bald man on a plane to turkey","steam_id":76561198060296782,"connected_time":6686000000000,"state":"active","ping":102},{"user_id":938,"name":"lp","steam_id":76561198058469527,"connected_time":6684000000000,"state":"active","ping":69},{"user_id":984,"name":"GreekGoat_Coffee","steam_id":76561198129331088,"connected_time":3038000000000,"state":"active","ping":44},{"user_id":1016,"name":"Monsieur Pequeño","steam_id":76561198327271041,"connected_time":144000000000,"state":"active","ping":87},{"user_id":1007,"name":"s s $","steam_id":76561199064932372,"connected_time":1051000000000,"state":"active","ping":96},{"user_id":980,"name":"Super Bullshit Man","steam_id":76561198102416507,"connected_time":3592000000000,"state":"active","ping":71},{"user_id":1008,"name":"Doofenshmirtz Evil Inc.","steam_id":76561198439793697,"connected_time":1042000000000,"state":"active","ping":75},{"user_id":1009,"name":"Huntiairi","steam_id":76561198065935917,"connected_time":1041000000000,"state":"active","ping":70},{"user_id":1015,"name":"Falcor","steam_id":76561198088330242,"connected_time":172000000000,"state":"active","ping":43},{"user_id":998,"name":"Nobody","steam_id":76561198286486517,"connected_time":1901000000000,"state":"active","ping":57}]},{"server_id":36,"name":"Uncletopia | Chicago | 5 | All Maps","name_short":"chi-5","host":"chi-2.us.uncletopia.com","port":27015,"enabled":true,"region":"us-central","cc":"us","latitude":41.881832,"longitude":-87.62318,"reserved":0,"last_update":"0001-01-01T00:00:00Z","name_a2s":"Uncletopia | Chicago | 5 | All Maps","protocol":17,"map":"cp_gorge","folder":"tf","game":"Team Fortress","app_id":440,"player_count":17,"max_players":24,"Bots":0,"server_type":"Dedicated","server_os":"Linux","password":true,"vac":true,"version":"7961495","steam_id":85568392924866362,"keywords":["cp","nocrits","nodmgspread","uncletopia"],"game_id":440,"stv_port":27016,"stv_name":"Uncletopia | Chicago | 5 | All Maps | STV","players":[{"user_id":535,"name":"motherfucker 2.0","steam_id":76561198141189209,"connected_time":895000000000,"state":"active","ping":56},{"user_id":509,"name":"RagingRoosevelt","steam_id":76561197985483153,"connected_time":2726000000000,"state":"active","ping":98},{"user_id":497,"name":"troutsupply.net Ozbulu","steam_id":76561198067176829,"connected_time":3198000000000,"state":"active","ping":105},{"user_id":498,"name":"FanGirl Troutsupply.net","steam_id":76561199140940650,"connected_time":3192000000000,"state":"active","ping":60},{"user_id":544,"name":"huscarl124","steam_id":76561198089639813,"connected_time":60000000000,"state":"active","ping":56},{"user_id":545,"name":"Willy","steam_id":76561198046508940,"connected_time":47000000000,"state":"active","ping":60},{"user_id":500,"name":"shitass | troutsupply.net","steam_id":76561198210572481,"connected_time":3181000000000,"state":"active","ping":75},{"user_id":531,"name":"Your Alcoholic Dad","steam_id":76561198214494745,"connected_time":1690000000000,"state":"active","ping":47},{"user_id":538,"name":"Major_Pippy","steam_id":76561198004482878,"connected_time":720000000000,"state":"active","ping":98},{"user_id":489,"name":"Makina","steam_id":76561198057475567,"connected_time":5085000000000,"state":"active","ping":69},{"user_id":504,"name":"buppy troutsupply.net","steam_id":76561199157846537,"connected_time":3020000000000,"state":"active","ping":50},{"user_id":524,"name":"The milkman (milks you)","steam_id":76561199155456102,"connected_time":1971000000000,"state":"active","ping":78},{"user_id":518,"name":"Enron Hubbard","steam_id":76561198012951411,"connected_time":2400000000000,"state":"active","ping":57},{"user_id":534,"name":"Happy TDOV","steam_id":76561198085813708,"connected_time":1237000000000,"state":"active","ping":57},{"user_id":342,"name":"Pizza","steam_id":76561198118748364,"connected_time":18988000000000,"state":"active","ping":75},{"user_id":542,"name":"Blargh","steam_id":76561198044095816,"connected_time":416000000000,"state":"active","ping":60},{"user_id":540,"name":"StealthyZeroTwo","steam_id":76561198942692649,"connected_time":609000000000,"state":"active","ping":73}]},{"server_id":37,"name":"Uncletopia | Chicago | 6 | All Maps","name_short":"chi-6","host":"chi-2.us.uncletopia.com","port":27025,"enabled":true,"region":"us-central","cc":"us","latitude":41.881832,"longitude":-87.62318,"reserved":0,"last_update":"0001-01-01T00:00:00Z","name_a2s":"Uncletopia | Chicago | 6 | All Maps","protocol":17,"map":"pl_upward","folder":"tf","game":"Team Fortress","app_id":440,"player_count":24,"max_players":24,"Bots":0,"server_type":"Dedicated","server_os":"Linux","password":true,"vac":true,"version":"7961495","steam_id":85568392924866363,"keywords":["nocrits","nodmgspread","payload","uncletopia"],"game_id":440,"stv_port":27026,"stv_name":"Uncletopia | Chicago | 6 | All Maps | STV","players":[{"user_id":696,"name":"femtendo (puppygirl)","steam_id":76561198081181783,"connected_time":826000000000,"state":"active","ping":101},{"user_id":706,"name":"samantha","steam_id":76561198049258493,"connected_time":80000000000,"state":"active","ping":117},{"user_id":687,"name":"the men along the way","steam_id":76561198971285292,"connected_time":1060000000000,"state":"active","ping":62},{"user_id":688,"name":"SQbuilder","steam_id":76561198076473375,"connected_time":1052000000000,"state":"active","ping":102},{"user_id":684,"name":"sweaterfan","steam_id":76561199389567214,"connected_time":1593000000000,"state":"active","ping":58},{"user_id":665,"name":"The Law","steam_id":76561198202209948,"connected_time":2196000000000,"state":"active","ping":52},{"user_id":656,"name":"Fatpoob","steam_id":76561198056730096,"connected_time":4136000000000,"state":"active","ping":49},{"user_id":701,"name":"bungar","steam_id":76561198131703086,"connected_time":283000000000,"state":"active","ping":72},{"user_id":704,"name":"Mystamous","steam_id":76561198158658043,"connected_time":195000000000,"state":"active","ping":74},{"user_id":690,"name":"Kuddly Kay (She/Her)","steam_id":76561198353432576,"connected_time":1029000000000,"state":"active","ping":102},{"user_id":678,"name":"V","steam_id":76561198998082956,"connected_time":1837000000000,"state":"active","ping":57},{"user_id":691,"name":"WTB\u003eOrbiting Planets Herald Hel","steam_id":76561198016290546,"connected_time":990000000000,"state":"active","ping":71},{"user_id":553,"name":"workin for snapple","steam_id":76561198013732450,"connected_time":11510000000000,"state":"active","ping":48},{"user_id":692,"name":"bob_killed_you","steam_id":76561199049501312,"connected_time":985000000000,"state":"active","ping":67},{"user_id":699,"name":"Tabris","steam_id":76561198123608690,"connected_time":367000000000,"state":"active","ping":75},{"user_id":700,"name":"Antifa Supersoldier","steam_id":76561198141816516,"connected_time":313000000000,"state":"active","ping":71},{"user_id":702,"name":"Bing Soy","steam_id":76561199091381775,"connected_time":274000000000,"state":"active","ping":99},{"user_id":697,"name":"ultralisk52","steam_id":76561198051666604,"connected_time":823000000000,"state":"active","ping":61},{"user_id":703,"name":"wow120000000000000098","steam_id":76561198016826181,"connected_time":266000000000,"state":"active","ping":72},{"user_id":679,"name":"Ellis McGruber","steam_id":76561198060739536,"connected_time":1819000000000,"state":"active","ping":73},{"user_id":680,"name":"eat Pant","steam_id":76561197974965536,"connected_time":1805000000000,"state":"active","ping":63},{"user_id":682,"name":"John16Mark","steam_id":76561198119445407,"connected_time":1736000000000,"state":"active","ping":90},{"user_id":698,"name":"Khaicchi","steam_id":76561198104454754,"connected_time":652000000000,"state":"active","ping":173},{"user_id":695,"name":"Winn (Puppygirl)","steam_id":76561198993254428,"connected_time":915000000000,"state":"active","ping":77}]},{"server_id":38,"name":"Uncletopia | Chicago | 7 | Stopwatch Beta","name_short":"chi-7","host":"chi-2.us.uncletopia.com","port":27035,"enabled":true,"region":"us-central","cc":"us","latitude":41.881832,"longitude":-87.62318,"reserved":0,"last_update":"0001-01-01T00:00:00Z","name_a2s":"Uncletopia | Chicago | 7 | Stopwatch Beta","protocol":17,"map":"workshop/koth_product_final.ugc454272353","folder":"tf","game":"Team Fortress","app_id":440,"player_count":0,"max_players":24,"Bots":0,"server_type":"Dedicated","server_os":"Linux","password":true,"vac":true,"version":"7961495","steam_id":85568392924866364,"keywords":["cp","nocrits","nodmgspread","uncletopia"],"game_id":440,"stv_port":27036,"stv_name":"Uncletopia | Chicago | 7 | Stopwatch Beta | STV","players":null},{"server_id":39,"name":"Uncletopia | Chicago | 8 | Community","name_short":"chi-8","host":"chi-2.us.uncletopia.com","port":27045,"enabled":true,"region":"us-central","cc":"us","latitude":41.881832,"longitude":-87.62318,"reserved":0,"last_update":"0001-01-01T00:00:00Z","name_a2s":"Uncletopia | Chicago | 8 | Community","protocol":17,"map":"workshop/pl_highwood_b13.ugc1769496557","folder":"tf","game":"Team Fortress","app_id":440,"player_count":0,"max_players":24,"Bots":0,"server_type":"Dedicated","server_os":"Linux","password":true,"vac":true,"version":"7961495","steam_id":85568392924866365,"keywords":["nocrits","nodmgspread","payload","uncletopia"],"game_id":440,"stv_port":27046,"stv_name":"Uncletopia | Chicago | 8 | Community | STV","players":null},{"server_id":8,"name":"Uncletopia | Dallas | 1 | All Maps","name_short":"dal-1","host":"dal-1.us.uncletopia.com","port":27015,"enabled":true,"region":"us-central","cc":"us","latitude":32.779167,"longitude":-96.80889,"reserved":0,"last_update":"0001-01-01T00:00:00Z","name_a2s":"Uncletopia | Dallas | 1 | All Maps","protocol":17,"map":"cp_dustbowl","folder":"tf","game":"Team Fortress","app_id":440,"player_count":22,"max_players":24,"Bots":0,"server_type":"Dedicated","server_os":"Linux","password":true,"vac":true,"version":"7961495","steam_id":85568392924469986,"keywords":["cp","nocrits","nodmgspread","uncletopia"],"game_id":440,"stv_port":27016,"stv_name":"Uncletopia | Dallas | 1 | All Maps | STV","players":[{"user_id":867,"name":"banana gaming","steam_id":76561198334907218,"connected_time":591000000000,"state":"active","ping":57},{"user_id":854,"name":"fish fingers","steam_id":76561199078516567,"connected_time":2340000000000,"state":"active","ping":136},{"user_id":848,"name":"A Straw","steam_id":76561199367935846,"connected_time":2813000000000,"state":"active","ping":70},{"user_id":826,"name":"._.","steam_id":76561198064255155,"connected_time":4691000000000,"state":"active","ping":63},{"user_id":801,"name":"Bocchers From Bocchi The Rock","steam_id":76561198986388085,"connected_time":7115000000000,"state":"active","ping":106},{"user_id":866,"name":"Lane","steam_id":76561197965828506,"connected_time":609000000000,"state":"active","ping":54},{"user_id":787,"name":"The Benefactor","steam_id":76561198307247913,"connected_time":8068000000000,"state":"active","ping":77},{"user_id":874,"name":"the master of cats","steam_id":76561198819255576,"connected_time":330000000000,"state":"active","ping":86},{"user_id":879,"name":"Sam2411","steam_id":76561198977695657,"connected_time":274000000000,"state":"active","ping":56},{"user_id":871,"name":"Person Man","steam_id":76561198293857963,"connected_time":401000000000,"state":"active","ping":95},{"user_id":870,"name":"SafetyInstructor","steam_id":76561199195205705,"connected_time":526000000000,"state":"active","ping":56},{"user_id":830,"name":"Bird","steam_id":76561198231624620,"connected_time":3857000000000,"state":"active","ping":61},{"user_id":869,"name":"Socially Anxious Dragon","steam_id":76561198341821780,"connected_time":570000000000,"state":"active","ping":80},{"user_id":875,"name":"Dat1SpenceyBoi","steam_id":76561199446171976,"connected_time":319000000000,"state":"active","ping":85},{"user_id":876,"name":"Cagnus Marlsen","steam_id":76561198063341193,"connected_time":318000000000,"state":"active","ping":47},{"user_id":880,"name":"bladee tf2","steam_id":76561198402943433,"connected_time":241000000000,"state":"active","ping":86},{"user_id":881,"name":"Thrasher","steam_id":76561198133599977,"connected_time":138000000000,"state":"active","ping":71},{"user_id":872,"name":"MrKermit","steam_id":76561198987664887,"connected_time":381000000000,"state":"active","ping":130},{"user_id":859,"name":"Major Depression","steam_id":76561198018103878,"connected_time":1383000000000,"state":"active","ping":87},{"user_id":882,"name":"SadVeggie","steam_id":76561198163430099,"connected_time":136000000000,"state":"active","ping":98},{"user_id":883,"name":"effy","steam_id":76561198087137066,"connected_time":118000000000,"state":"active","ping":59},{"user_id":814,"name":"Michaelpc1","steam_id":76561198088365519,"connected_time":6649000000000,"state":"active","ping":79}]},{"server_id":108,"name":"Uncletopia | Dallas | 2 | All Maps","name_short":"dal-2","host":"dal-1.us.uncletopia.com","port":27025,"enabled":true,"region":"us-central","cc":"us","latitude":32.779167,"longitude":-96.80889,"reserved":0,"last_update":"0001-01-01T00:00:00Z","name_a2s":"Uncletopia | Dallas | 2 | All Maps","protocol":17,"map":"pl_goldrush","folder":"tf","game":"Team Fortress","app_id":440,"player_count":22,"max_players":24,"Bots":0,"server_type":"Dedicated","server_os":"Linux","password":true,"vac":true,"version":"7961495","steam_id":85568392924469988,"keywords":["nocrits","nodmgspread","payload","uncletopia"],"game_id":440,"stv_port":27026,"stv_name":"Uncletopia | Dallas | 2 | All Maps | STV","players":[{"user_id":807,"name":"Blink","steam_id":76561197986181277,"connected_time":1757000000000,"state":"active","ping":57},{"user_id":806,"name":"tsz","steam_id":76561199246231090,"connected_time":1801000000000,"state":"active","ping":81},{"user_id":813,"name":"usmnt==chokers","steam_id":76561198043456370,"connected_time":60000000000,"state":"active","ping":90},{"user_id":783,"name":"Rin \"Hindwing\" Redtail","steam_id":76561199074865638,"connected_time":3917000000000,"state":"active","ping":45},{"user_id":814,"name":"daniel L","steam_id":76561199160119650,"connected_time":51000000000,"state":"active","ping":128},{"user_id":815,"name":"HurricanePootis","steam_id":76561198152518803,"connected_time":47000000000,"state":"active","ping":45},{"user_id":793,"name":"♥ mastercoms ♥","steam_id":76561198046110893,"connected_time":2989000000000,"state":"active","ping":46},{"user_id":812,"name":"AffirmedDrip13","steam_id":76561198241951532,"connected_time":590000000000,"state":"active","ping":71},{"user_id":795,"name":"damiankiller1243","steam_id":76561198868885090,"connected_time":2985000000000,"state":"active","ping":68},{"user_id":803,"name":"spicy popeyes chicken sandwich","steam_id":76561198104086771,"connected_time":2318000000000,"state":"active","ping":75},{"user_id":743,"name":"Kng","steam_id":76561198993248203,"connected_time":7693000000000,"state":"active","ping":84},{"user_id":778,"name":"AzuriousAlex","steam_id":76561198158026405,"connected_time":4116000000000,"state":"active","ping":72},{"user_id":808,"name":"skegeton","steam_id":76561198095581099,"connected_time":1721000000000,"state":"active","ping":52},{"user_id":796,"name":"♥ alixei! ♥","steam_id":76561198014557455,"connected_time":2983000000000,"state":"active","ping":91},{"user_id":797,"name":"Fred","steam_id":76561197983870604,"connected_time":2979000000000,"state":"active","ping":61},{"user_id":798,"name":"Jean-François","steam_id":76561198193053881,"connected_time":2965000000000,"state":"active","ping":77},{"user_id":811,"name":"thedoud1201","steam_id":76561199007734851,"connected_time":789000000000,"state":"active","ping":80},{"user_id":773,"name":"ZirØhh","steam_id":76561198202286460,"connected_time":4664000000000,"state":"active","ping":59},{"user_id":732,"name":"RockMan","steam_id":76561199228684720,"connected_time":8462000000000,"state":"active","ping":59},{"user_id":802,"name":"Etomb","steam_id":76561198210017208,"connected_time":2388000000000,"state":"active","ping":75},{"user_id":742,"name":"Giselle","steam_id":76561198162593640,"connected_time":7715000000000,"state":"active","ping":110},{"user_id":810,"name":"Guy Baloney","steam_id":76561198064911344,"connected_time":826000000000,"state":"active","ping":53}]},{"server_id":5,"name":"Uncletopia | Frankfurt | 1 | All Maps","name_short":"frk-1","host":"frk-1.de.uncletopia.com","port":27015,"enabled":true,"region":"eu","cc":"de","latitude":50.110924,"longitude":8.682127,"reserved":0,"last_update":"0001-01-01T00:00:00Z","name_a2s":"Uncletopia | Frankfurt | 1 | All Maps","protocol":17,"map":"cp_altitude","folder":"tf","game":"Team Fortress","app_id":440,"player_count":0,"max_players":24,"Bots":0,"server_type":"Dedicated","server_os":"Linux","password":true,"vac":true,"version":"7961495","steam_id":85568392924469989,"keywords":["cp","nocrits","nodmgspread","uncletopia"],"game_id":440,"stv_port":27016,"stv_name":"Uncletopia | Frankfurt | 1 | All Maps | STV","players":null},{"server_id":110,"name":"Uncletopia | Frankfurt | 2 | All Maps","name_short":"frk-2","host":"frk-1.de.uncletopia.com","port":27025,"enabled":true,"region":"eu","cc":"de","latitude":50.110924,"longitude":8.682127,"reserved":0,"last_update":"0001-01-01T00:00:00Z","name_a2s":"Uncletopia | Frankfurt | 2 | All Maps","protocol":17,"map":"cp_sunshine","folder":"tf","game":"Team Fortress","app_id":440,"player_count":0,"max_players":24,"Bots":0,"server_type":"Dedicated","server_os":"Linux","password":true,"vac":true,"version":"7961495","steam_id":85568392924469990,"keywords":["cp","nocrits","nodmgspread","uncletopia"],"game_id":440,"stv_port":27026,"stv_name":"Uncletopia | Frankfurt | 2 | All Maps | STV","players":null},{"server_id":308,"name":"Uncletopia | Frankfurt | 3 | All Maps","name_short":"frk-3","host":"frk-1.de.uncletopia.com","port":27035,"enabled":true,"region":"eu","cc":"de","latitude":50.110924,"longitude":8.682127,"reserved":0,"last_update":"0001-01-01T00:00:00Z","name_a2s":"Uncletopia | Frankfurt | 3 | All Maps","protocol":17,"map":"cp_mountainlab","folder":"tf","game":"Team Fortress","app_id":440,"player_count":0,"max_players":24,"Bots":0,"server_type":"Dedicated","server_os":"Linux","password":true,"vac":true,"version":"7961495","steam_id":85568392924504274,"keywords":["cp","nocrits","nodmgspread","uncletopia"],"game_id":440,"stv_port":27036,"stv_name":"Uncletopia | Frankfurt | 3 | All Maps | STV","players":null},{"server_id":309,"name":"Uncletopia | Frankfurt | 4 | All Maps","name_short":"frk-4","host":"frk-1.de.uncletopia.com","port":27045,"enabled":true,"region":"eu","cc":"de","latitude":50.110924,"longitude":8.682127,"reserved":0,"last_update":"0001-01-01T00:00:00Z","name_a2s":"Uncletopia | Frankfurt | 4 | All Maps","protocol":17,"map":"cp_process_final","folder":"tf","game":"Team Fortress","app_id":440,"player_count":0,"max_players":24,"Bots":0,"server_type":"Dedicated","server_os":"Linux","password":true,"vac":true,"version":"7961495","steam_id":85568392924504275,"keywords":["cp","nocrits","nodmgspread","uncletopia"],"game_id":440,"stv_port":27046,"stv_name":"Uncletopia | Frankfurt | 4 | All Maps | STV","players":null},{"server_id":310,"name":"Uncletopia | Frankfurt | 5 | All Maps","name_short":"frk-5","host":"frk-1.de.uncletopia.com","port":27055,"enabled":true,"region":"eu","cc":"de","latitude":50.110924,"longitude":8.682127,"reserved":0,"last_update":"0001-01-01T00:00:00Z","name_a2s":"Uncletopia | Frankfurt | 5 | All Maps","protocol":17,"map":"koth_viaduct","folder":"tf","game":"Team Fortress","app_id":440,"player_count":0,"max_players":24,"Bots":0,"server_type":"Dedicated","server_os":"Linux","password":true,"vac":true,"version":"7961495","steam_id":85568392924504277,"keywords":["cp","nocrits","nodmgspread","uncletopia"],"game_id":440,"stv_port":27056,"stv_name":"Uncletopia | Frankfurt | 5 | All Maps | STV","players":null},{"server_id":311,"name":"Uncletopia | Frankfurt | 6 | All Maps","name_short":"frk-6","host":"frk-1.de.uncletopia.com","port":27065,"enabled":true,"region":"eu","cc":"de","latitude":50.110924,"longitude":8.682127,"reserved":0,"last_update":"0001-01-01T00:00:00Z","name_a2s":"Uncletopia | Frankfurt | 6 | All Maps","protocol":17,"map":"pl_pier","folder":"tf","game":"Team Fortress","app_id":440,"player_count":0,"max_players":24,"Bots":0,"server_type":"Dedicated","server_os":"Linux","password":true,"vac":true,"version":"7961495","steam_id":85568392924504278,"keywords":["nocrits","nodmgspread","payload","uncletopia"],"game_id":440,"stv_port":27066,"stv_name":"Uncletopia | Frankfurt | 6 | All Maps | STV","players":null},{"server_id":23,"name":"Uncletopia | Frankfurt | 7 | Stopwatch Beta","name_short":"frk-7","host":"frk-1.de.uncletopia.com","port":27075,"enabled":true,"region":"eu","cc":"de","latitude":50.110924,"longitude":8.682127,"reserved":0,"last_update":"0001-01-01T00:00:00Z","name_a2s":"Uncletopia | Frankfurt | 7 | Stopwatch Beta","protocol":17,"map":"koth_cascade","folder":"tf","game":"Team Fortress","app_id":440,"player_count":0,"max_players":24,"Bots":0,"server_type":"Dedicated","server_os":"Linux","password":true,"vac":true,"version":"7961495","steam_id":85568392924742827,"keywords":["cp","nocrits","nodmgspread","uncletopia"],"game_id":440,"stv_port":27076,"stv_name":"Uncletopia | Frankfurt | 7 | Stopwatch Beta | STV","players":null},{"server_id":24,"name":"Uncletopia | Frankfurt | 8 | Community","name_short":"frk-8","host":"frk-1.de.uncletopia.com","port":27085,"enabled":true,"region":"eu","cc":"de","latitude":50.110924,"longitude":8.682127,"reserved":0,"last_update":"0001-01-01T00:00:00Z","name_a2s":"Uncletopia | Frankfurt | 8 | Community","protocol":17,"map":"cp_process_final","folder":"tf","game":"Team Fortress","app_id":440,"player_count":0,"max_players":24,"Bots":0,"server_type":"Dedicated","server_os":"Linux","password":true,"vac":true,"version":"7961495","steam_id":85568392924742828,"keywords":["cp","nocrits","nodmgspread","uncletopia"],"game_id":440,"stv_port":27086,"stv_name":"Uncletopia | Frankfurt | 8 | Community | STV","players":null},{"server_id":202,"name":"Uncletopia | Hong Kong | 1 | All Maps","name_short":"hgk-1","host":"hgk-1.hk.uncletopia.com","port":27015,"enabled":true,"region":"asia","cc":"hk","latitude":22.302711,"longitude":114.177216,"reserved":0,"last_update":"0001-01-01T00:00:00Z","name_a2s":"Uncletopia | Hong Kong | 1 | All Maps","protocol":17,"map":"koth_highpass","folder":"tf","game":"Team Fortress","app_id":440,"player_count":0,"max_players":24,"Bots":0,"server_type":"Dedicated","server_os":"Linux","password":true,"vac":true,"version":"7961495","steam_id":85568392924494504,"keywords":["cp","nocrits","nodmgspread","uncletopia"],"game_id":440,"stv_port":27016,"stv_name":"Uncletopia | Hong Kong | 1 | All Maps | STV","players":null},{"server_id":1,"name":"Uncletopia | Los Angeles | 1 | All Maps","name_short":"lax-1","host":"lax-1.us.uncletopia.com","port":27015,"enabled":true,"region":"us-west","cc":"us","latitude":33.94279,"longitude":-118.41004,"reserved":0,"last_update":"0001-01-01T00:00:00Z","name_a2s":"Uncletopia | Los Angeles | 1 | All Maps","protocol":17,"map":"pl_badwater","folder":"tf","game":"Team Fortress","app_id":440,"player_count":19,"max_players":24,"Bots":0,"server_type":"Dedicated","server_os":"Linux","password":true,"vac":true,"version":"7961495","steam_id":85568392924469991,"keywords":["nocrits","nodmgspread","payload","uncletopia"],"game_id":440,"stv_port":27016,"stv_name":"Uncletopia | Los Angeles | 1 | All Maps | STV","players":[{"user_id":630,"name":"zoiboi","steam_id":76561198069598590,"connected_time":1008000000000,"state":"active","ping":74},{"user_id":613,"name":"Headmouth","steam_id":76561198019789855,"connected_time":1913000000000,"state":"spawning","ping":156},{"user_id":636,"name":"UrbudBenny","steam_id":76561198362317483,"connected_time":36000000000,"state":"active","ping":65},{"user_id":631,"name":"xbox record that","steam_id":76561198150117455,"connected_time":874000000000,"state":"active","ping":101},{"user_id":616,"name":"Akkawi","steam_id":76561198203159952,"connected_time":1904000000000,"state":"spawning","ping":240},{"user_id":617,"name":"Re:ZeroCultLeader","steam_id":76561198214899655,"connected_time":1903000000000,"state":"active","ping":65},{"user_id":609,"name":"pc15pdx","steam_id":76561198072638933,"connected_time":2837000000000,"state":"active","ping":61},{"user_id":618,"name":"SadChicken λ","steam_id":76561198082458968,"connected_time":1899000000000,"state":"active","ping":68},{"user_id":629,"name":"HAT-WEARING™ Maggot Gamer Cat","steam_id":76561197973992705,"connected_time":1202000000000,"state":"active","ping":96},{"user_id":623,"name":"WitheredBonnie14","steam_id":76561198435384451,"connected_time":1655000000000,"state":"active","ping":101},{"user_id":634,"name":"fried chicken please","steam_id":76561198210290615,"connected_time":341000000000,"state":"active","ping":40},{"user_id":608,"name":"MintyFreshMentos","steam_id":76561198839944799,"connected_time":2888000000000,"state":"active","ping":52},{"user_id":622,"name":"Lily Thorn","steam_id":76561198305488625,"connected_time":1730000000000,"state":"active","ping":86},{"user_id":606,"name":"Goobigan","steam_id":76561198072790366,"connected_time":3291000000000,"state":"active","ping":148},{"user_id":632,"name":"Maniac9","steam_id":76561197960530967,"connected_time":425000000000,"state":"active","ping":53},{"user_id":604,"name":"Lavender","steam_id":76561198142770666,"connected_time":3480000000000,"state":"active","ping":165},{"user_id":594,"name":"Pukei-Pukei","steam_id":76561197992722546,"connected_time":4242000000000,"state":"active","ping":65},{"user_id":605,"name":"Merci?","steam_id":76561198096823118,"connected_time":3470000000000,"state":"active","ping":146},{"user_id":635,"name":"Big Oil","steam_id":76561199238964574,"connected_time":256000000000,"state":"active","ping":92}]},{"server_id":112,"name":"Uncletopia | Los Angeles | 2 | All Maps","name_short":"lax-2","host":"lax-1.us.uncletopia.com","port":27025,"enabled":true,"region":"us-west","cc":"us","latitude":33.94279,"longitude":-118.41004,"reserved":0,"last_update":"0001-01-01T00:00:00Z","name_a2s":"Uncletopia | Los Angeles | 2 | All Maps","protocol":17,"map":"pl_upward","folder":"tf","game":"Team Fortress","app_id":440,"player_count":24,"max_players":24,"Bots":0,"server_type":"Dedicated","server_os":"Linux","password":true,"vac":true,"version":"7961495","steam_id":85568392924469992,"keywords":["nocrits","nodmgspread","payload","uncletopia"],"game_id":440,"stv_port":27026,"stv_name":"Uncletopia | Los Angeles | 2 | All Maps | STV","players":[{"user_id":363,"name":"CPTforever","steam_id":76561198237767198,"connected_time":1425000000000,"state":"active","ping":47},{"user_id":375,"name":"Abu Shoosh","steam_id":76561198094990358,"connected_time":209000000000,"state":"active","ping":45},{"user_id":343,"name":"lol","steam_id":76561198026491738,"connected_time":3334000000000,"state":"active","ping":58},{"user_id":340,"name":"stick","steam_id":76561198134334367,"connected_time":3902000000000,"state":"active","ping":71},{"user_id":272,"name":"Vriska","steam_id":76561198942104681,"connected_time":9399000000000,"state":"active","ping":65},{"user_id":329,"name":"xD","steam_id":76561198149683030,"connected_time":4555000000000,"state":"active","ping":60},{"user_id":261,"name":"UltraBron James","steam_id":76561198066091050,"connected_time":9878000000000,"state":"active","ping":73},{"user_id":370,"name":"Mushroom","steam_id":76561198045751043,"connected_time":1201000000000,"state":"active","ping":56},{"user_id":344,"name":"JanPinyon610","steam_id":76561199238454799,"connected_time":3332000000000,"state":"active","ping":71},{"user_id":351,"name":"_Ati","steam_id":76561198339777801,"connected_time":2717000000000,"state":"active","ping":71},{"user_id":318,"name":"puffer","steam_id":76561199049164456,"connected_time":6043000000000,"state":"active","ping":73},{"user_id":328,"name":"DarkMewMew","steam_id":76561199471715552,"connected_time":5010000000000,"state":"active","ping":65},{"user_id":352,"name":"Ralph Kramden (Slim Charles)","steam_id":76561197981687895,"connected_time":2687000000000,"state":"active","ping":57},{"user_id":374,"name":"sqnguine","steam_id":76561199481839224,"connected_time":234000000000,"state":"active","ping":67},{"user_id":359,"name":"Chin, Bruce Lee's Relative","steam_id":76561198240105522,"connected_time":2116000000000,"state":"active","ping":108},{"user_id":294,"name":"Zaiah","steam_id":76561198377588247,"connected_time":7243000000000,"state":"active","ping":79},{"user_id":368,"name":"AT✪MIC","steam_id":76561198100385184,"connected_time":1327000000000,"state":"active","ping":53},{"user_id":373,"name":"Ian","steam_id":76561198159334435,"connected_time":245000000000,"state":"active","ping":170},{"user_id":371,"name":"Chongo","steam_id":76561198017604393,"connected_time":1114000000000,"state":"active","ping":47},{"user_id":337,"name":"Gabe","steam_id":76561198081153719,"connected_time":4051000000000,"state":"active","ping":83},{"user_id":348,"name":"Marz","steam_id":76561198799364911,"connected_time":2897000000000,"state":"active","ping":85},{"user_id":369,"name":"Livin' Like Larry","steam_id":76561198313360974,"connected_time":1259000000000,"state":"active","ping":45},{"user_id":367,"name":"Soda Popinski","steam_id":76561198045209288,"connected_time":1348000000000,"state":"active","ping":44},{"user_id":356,"name":"Neophyte","steam_id":76561198027183394,"connected_time":2629000000000,"state":"active","ping":73}]},{"server_id":324,"name":"Uncletopia | Los Angeles | 3 | All Maps","name_short":"lax-3","host":"lax-1.us.uncletopia.com","port":27035,"enabled":true,"region":"us-west","cc":"us","latitude":33.94279,"longitude":-118.41004,"reserved":0,"last_update":"0001-01-01T00:00:00Z","name_a2s":"Uncletopia | Los Angeles | 3 | All Maps","protocol":17,"map":"koth_highpass","folder":"tf","game":"Team Fortress","app_id":440,"player_count":24,"max_players":24,"Bots":0,"server_type":"Dedicated","server_os":"Linux","password":true,"vac":true,"version":"7961495","steam_id":85568392924510198,"keywords":["cp","nocrits","nodmgspread","uncletopia"],"game_id":440,"stv_port":27036,"stv_name":"Uncletopia | Los Angeles | 3 | All Maps | STV","players":[{"user_id":336,"name":"The Assistant Regional Manager","steam_id":76561199221484936,"connected_time":1761000000000,"state":"active","ping":58},{"user_id":334,"name":"Pyrotek⁴","steam_id":76561198072747672,"connected_time":1803000000000,"state":"active","ping":44},{"user_id":321,"name":"Tele Co","steam_id":76561198041909269,"connected_time":3058000000000,"state":"active","ping":50},{"user_id":335,"name":"De Monki","steam_id":76561198964210411,"connected_time":1792000000000,"state":"active","ping":52},{"user_id":340,"name":"Alex","steam_id":76561198140423612,"connected_time":1638000000000,"state":"active","ping":66},{"user_id":337,"name":"El Gato Paranoico","steam_id":76561198116567116,"connected_time":1723000000000,"state":"active","ping":85},{"user_id":338,"name":"Lt Lushen","steam_id":76561198124083273,"connected_time":1714000000000,"state":"active","ping":69},{"user_id":301,"name":"Ice cream sandwich","steam_id":76561198172748357,"connected_time":4390000000000,"state":"active","ping":55},{"user_id":305,"name":"Haunted Astolfo Bean Plushie","steam_id":76561198158992615,"connected_time":4356000000000,"state":"active","ping":82},{"user_id":353,"name":"flop","steam_id":76561197989058876,"connected_time":544000000000,"state":"active","ping":84},{"user_id":352,"name":"2Fort Cactus","steam_id":76561199273395913,"connected_time":682000000000,"state":"active","ping":78},{"user_id":339,"name":"Snake600rr","steam_id":76561198272347474,"connected_time":1655000000000,"state":"active","ping":65},{"user_id":341,"name":"Veritox","steam_id":76561198075778026,"connected_time":1612000000000,"state":"active","ping":67},{"user_id":303,"name":"Gerbias","steam_id":76561198001002427,"connected_time":4389000000000,"state":"active","ping":68},{"user_id":293,"name":"Edwon","steam_id":76561198319902846,"connected_time":4740000000000,"state":"active","ping":59},{"user_id":277,"name":"phon","steam_id":76561198140659236,"connected_time":6028000000000,"state":"active","ping":38},{"user_id":292,"name":"Drive-By-Fish-Guy","steam_id":76561198105513652,"connected_time":4745000000000,"state":"active","ping":68},{"user_id":323,"name":"Disbicord","steam_id":76561198145228904,"connected_time":3001000000000,"state":"active","ping":101},{"user_id":315,"name":"Crazy Hungarian","steam_id":76561198025498172,"connected_time":3355000000000,"state":"active","ping":90},{"user_id":344,"name":"BuncusBeffer","steam_id":76561198285936616,"connected_time":1423000000000,"state":"active","ping":69},{"user_id":317,"name":"Lettuce Dog","steam_id":76561198083606792,"connected_time":3265000000000,"state":"active","ping":69},{"user_id":343,"name":"squid","steam_id":76561198070236972,"connected_time":1585000000000,"state":"active","ping":63},{"user_id":320,"name":"Degreaser pyros arent real peop","steam_id":76561199093733603,"connected_time":3170000000000,"state":"active","ping":48},{"user_id":351,"name":"adrymarker","steam_id":76561198316948699,"connected_time":1130000000000,"state":"active","ping":108}]},{"server_id":25,"name":"Uncletopia | Los Angeles | 4 | Stopwatch Beta","name_short":"lax-4","host":"lax-1.us.uncletopia.com","port":27045,"enabled":true,"region":"us-west","cc":"us","latitude":33.94279,"longitude":-118.41004,"reserved":0,"last_update":"0001-01-01T00:00:00Z","name_a2s":"Uncletopia | Los Angeles | 4 | Stopwatch Beta","protocol":17,"map":"koth_lakeside_final","folder":"tf","game":"Team Fortress","app_id":440,"player_count":0,"max_players":24,"Bots":0,"server_type":"Dedicated","server_os":"Linux","password":true,"vac":true,"version":"7961495","steam_id":85568392924510199,"keywords":["cp","nocrits","nodmgspread","uncletopia"],"game_id":440,"stv_port":27046,"stv_name":"Uncletopia | Los Angeles | 4 | Stopwatch Beta | STV","players":null},{"server_id":11,"name":"Uncletopia | London | 1 | All Maps","name_short":"lon-1","host":"lon-1.uk.uncletopia.com","port":27015,"enabled":true,"region":"eu","cc":"gb","latitude":51.509865,"longitude":-0.118092,"reserved":0,"last_update":"0001-01-01T00:00:00Z","name_a2s":"Uncletopia | London | 1 | All Maps","protocol":17,"map":"pl_snowycoast","folder":"tf","game":"Team Fortress","app_id":440,"player_count":0,"max_players":24,"Bots":0,"server_type":"Dedicated","server_os":"Linux","password":true,"vac":true,"version":"7961495","steam_id":85568392924367362,"keywords":["nocrits","nodmgspread","payload","uncletopia"],"game_id":440,"stv_port":27016,"stv_name":"Uncletopia | London | 1 | All Maps | STV","players":null},{"server_id":114,"name":"Uncletopia | London | 2 | All Maps","name_short":"lon-2","host":"lon-1.uk.uncletopia.com","port":27025,"enabled":true,"region":"eu","cc":"gb","latitude":51.509865,"longitude":-0.118092,"reserved":0,"last_update":"0001-01-01T00:00:00Z","name_a2s":"Uncletopia | London | 2 | All Maps","protocol":17,"map":"pl_barnblitz","folder":"tf","game":"Team Fortress","app_id":440,"player_count":23,"max_players":24,"Bots":0,"server_type":"Dedicated","server_os":"Linux","password":true,"vac":true,"version":"7961495","steam_id":85568392924470941,"keywords":["nocrits","nodmgspread","payload","uncletopia"],"game_id":440,"stv_port":27026,"stv_name":"Uncletopia | London | 2 | All Maps | STV","players":[{"user_id":32,"name":"Marquis de Hoto","steam_id":76561198080687708,"connected_time":990000000000,"state":"active","ping":72},{"user_id":4,"name":"bebeda blacked out","steam_id":76561198277943630,"connected_time":3294000000000,"state":"active","ping":73},{"user_id":24,"name":"Taxer","steam_id":76561199075287508,"connected_time":1621000000000,"state":"active","ping":73},{"user_id":6,"name":"beebo","steam_id":76561199120277007,"connected_time":3288000000000,"state":"active","ping":41},{"user_id":7,"name":"Quiet Kid","steam_id":76561199134800446,"connected_time":3277000000000,"state":"active","ping":96},{"user_id":26,"name":"The Chad, The Bad, This Guy","steam_id":76561199215849598,"connected_time":1423000000000,"state":"active","ping":84},{"user_id":22,"name":"spxcy","steam_id":76561198080296853,"connected_time":2249000000000,"state":"active","ping":83},{"user_id":11,"name":"snowycoast","steam_id":76561198346638308,"connected_time":3134000000000,"state":"active","ping":57},{"user_id":12,"name":"Cosmetic brain","steam_id":76561198055936410,"connected_time":3090000000000,"state":"active","ping":75},{"user_id":27,"name":"BONVH","steam_id":76561199080666656,"connected_time":1309000000000,"state":"active","ping":142},{"user_id":29,"name":"Mr. Heartaches","steam_id":76561198932426600,"connected_time":1140000000000,"state":"active","ping":87},{"user_id":17,"name":"Free Hugs","steam_id":76561198138654157,"connected_time":2704000000000,"state":"active","ping":84},{"user_id":33,"name":"peruna","steam_id":76561198000721196,"connected_time":969000000000,"state":"active","ping":86},{"user_id":23,"name":"BoxLag","steam_id":76561198303995144,"connected_time":2191000000000,"state":"active","ping":45},{"user_id":41,"name":"Mc Cheezy","steam_id":76561198834780242,"connected_time":742000000000,"state":"active","ping":108},{"user_id":40,"name":"Qdarks","steam_id":76561198013391340,"connected_time":833000000000,"state":"active","ping":147},{"user_id":42,"name":"L0g1c","steam_id":76561198134085329,"connected_time":652000000000,"state":"active","ping":92},{"user_id":45,"name":"Lander","steam_id":76561198201339157,"connected_time":530000000000,"state":"active","ping":56},{"user_id":37,"name":"Mac Bean","steam_id":76561198133782205,"connected_time":936000000000,"state":"active","ping":120},{"user_id":38,"name":"Bahador","steam_id":76561198897378461,"connected_time":919000000000,"state":"active","ping":74},{"user_id":39,"name":"Edith","steam_id":76561198867635722,"connected_time":859000000000,"state":"active","ping":184},{"user_id":47,"name":"Darth Vader Chillin","steam_id":76561199093156646,"connected_time":444000000000,"state":"active","ping":190}]},{"server_id":320,"name":"Uncletopia | London | 3 | All Maps","name_short":"lon-3","host":"lon-1.uk.uncletopia.com","port":27035,"enabled":true,"region":"eu","cc":"gb","latitude":51.509865,"longitude":-0.118092,"reserved":0,"last_update":"0001-01-01T00:00:00Z","name_a2s":"Uncletopia | London | 3 | All Maps","protocol":17,"map":"pl_barnblitz","folder":"tf","game":"Team Fortress","app_id":440,"player_count":0,"max_players":24,"Bots":0,"server_type":"Dedicated","server_os":"Linux","password":true,"vac":true,"version":"7961495","steam_id":85568392924510192,"keywords":["nocrits","nodmgspread","payload","uncletopia"],"game_id":440,"stv_port":27036,"stv_name":"Uncletopia | London | 3 | All Maps | STV","players":null},{"server_id":321,"name":"Uncletopia | London | 4 | All Maps","name_short":"lon-4","host":"lon-1.uk.uncletopia.com","port":27045,"enabled":true,"region":"eu","cc":"gb","latitude":51.509865,"longitude":-0.118092,"reserved":0,"last_update":"0001-01-01T00:00:00Z","name_a2s":"Uncletopia | London | 4 | All Maps","protocol":17,"map":"koth_cascade","folder":"tf","game":"Team Fortress","app_id":440,"player_count":0,"max_players":24,"Bots":0,"server_type":"Dedicated","server_os":"Linux","password":true,"vac":true,"version":"7961495","steam_id":85568392924510193,"keywords":["cp","nocrits","nodmgspread","uncletopia"],"game_id":440,"stv_port":27046,"stv_name":"Uncletopia | London | 4 | All Maps | STV","players":null},{"server_id":21,"name":"Uncletopia | London | 5 | All Maps","name_short":"lon-5","host":"lon-1.uk.uncletopia.com","port":27055,"enabled":true,"region":"eu","cc":"gb","latitude":51.509865,"longitude":-0.118092,"reserved":0,"last_update":"0001-01-01T00:00:00Z","name_a2s":"Uncletopia | London | 5 | All Maps","protocol":17,"map":"pl_snowycoast","folder":"tf","game":"Team Fortress","app_id":440,"player_count":0,"max_players":24,"Bots":0,"server_type":"Dedicated","server_os":"Linux","password":true,"vac":true,"version":"7961495","steam_id":85568392924742829,"keywords":["nocrits","nodmgspread","payload","uncletopia"],"game_id":440,"stv_port":27056,"stv_name":"Uncletopia | London | 5 | All Maps | STV","players":null},{"server_id":22,"name":"Uncletopia | London | 6 | All Maps","name_short":"lon-6","host":"lon-1.uk.uncletopia.com","port":27065,"enabled":true,"region":"eu","cc":"gb","latitude":51.509865,"longitude":-0.118092,"reserved":0,"last_update":"0001-01-01T00:00:00Z","name_a2s":"Uncletopia | London | 6 | All Maps","protocol":17,"map":"koth_lakeside_final","folder":"tf","game":"Team Fortress","app_id":440,"player_count":0,"max_players":24,"Bots":0,"server_type":"Dedicated","server_os":"Linux","password":true,"vac":true,"version":"7961495","steam_id":85568392924742830,"keywords":["cp","nocrits","nodmgspread","uncletopia"],"game_id":440,"stv_port":27066,"stv_name":"Uncletopia | London | 6 | All Maps | STV","players":null},{"server_id":40,"name":"Uncletopia | London | 7 | No Payload","name_short":"lon-7","host":"lon-1.uk.uncletopia.com","port":27075,"enabled":true,"region":"eu","cc":"gb","latitude":51.509865,"longitude":-0.118092,"reserved":0,"last_update":"0001-01-01T00:00:00Z","name_a2s":"Uncletopia | London | 7 | No Payload","protocol":17,"map":"pl_snowycoast","folder":"tf","game":"Team Fortress","app_id":440,"player_count":0,"max_players":24,"Bots":0,"server_type":"Dedicated","server_os":"Linux","password":true,"vac":true,"version":"7961495","steam_id":85568392924964314,"keywords":["nocrits","nodmgspread","payload","uncletopia"],"game_id":440,"stv_port":27076,"stv_name":"Uncletopia | London | 7 | No Payload | STV","players":null},{"server_id":41,"name":"Uncletopia | London | 8 | Community","name_short":"lon-8","host":"lon-1.uk.uncletopia.com","port":27085,"enabled":true,"region":"eu","cc":"gb","latitude":51.509865,"longitude":-0.118092,"reserved":0,"last_update":"0001-01-01T00:00:00Z","name_a2s":"Uncletopia | London | 8 | Community","protocol":17,"map":"koth_viaduct","folder":"tf","game":"Team Fortress","app_id":440,"player_count":0,"max_players":24,"Bots":0,"server_type":"Dedicated","server_os":"Linux","password":true,"vac":true,"version":"7961495","steam_id":85568392924964315,"keywords":["cp","nocrits","nodmgspread","uncletopia"],"game_id":440,"stv_port":27086,"stv_name":"Uncletopia | London | 8 | Community | STV","players":null},{"server_id":300,"name":"Uncletopia | Montréal | 1 | All Maps","name_short":"mtl-1","host":"mtl-1.ca.uncletopia.com","port":27015,"enabled":true,"region":"us-east","cc":"ca","latitude":45.50889,"longitude":-73.56167,"reserved":0,"last_update":"0001-01-01T00:00:00Z","name_a2s":"Uncletopia | Montréal | 1 | All Maps","protocol":17,"map":"koth_highpass","folder":"tf","game":"Team Fortress","app_id":440,"player_count":0,"max_players":24,"Bots":0,"server_type":"Dedicated","server_os":"Linux","password":true,"vac":true,"version":"7961495","steam_id":85568392924500087,"keywords":["cp","nocrits","nodmgspread","uncletopia"],"game_id":440,"stv_port":27016,"stv_name":"Uncletopia | Montréal | 1 | All Maps | STV","players":null},{"server_id":301,"name":"Uncletopia | Montréal | 2 | All Maps","name_short":"mtl-2","host":"mtl-1.ca.uncletopia.com","port":27025,"enabled":true,"region":"us-east","cc":"ca","latitude":45.50889,"longitude":-73.56167,"reserved":0,"last_update":"0001-01-01T00:00:00Z","name_a2s":"Uncletopia | Montréal | 2 | All Maps","protocol":17,"map":"pl_barnblitz","folder":"tf","game":"Team Fortress","app_id":440,"player_count":19,"max_players":24,"Bots":0,"server_type":"Dedicated","server_os":"Linux","password":true,"vac":true,"version":"7961495","steam_id":85568392924500088,"keywords":["nocrits","nodmgspread","payload","uncletopia"],"game_id":440,"stv_port":27026,"stv_name":"Uncletopia | Montréal | 2 | All Maps | STV","players":[{"user_id":137,"name":"Bee","steam_id":76561198074681324,"connected_time":2172000000000,"state":"active","ping":51},{"user_id":143,"name":"Team Fartpiss Poo","steam_id":76561199163591880,"connected_time":604000000000,"state":"active","ping":99},{"user_id":126,"name":"SixtyFiveOhSeven","steam_id":76561198044260314,"connected_time":3133000000000,"state":"active","ping":81},{"user_id":141,"name":"cyclops","steam_id":76561197970370198,"connected_time":1000000000000,"state":"active","ping":67},{"user_id":142,"name":"longanimals","steam_id":76561198150801827,"connected_time":952000000000,"state":"active","ping":110},{"user_id":144,"name":"CShore","steam_id":76561198131488918,"connected_time":489000000000,"state":"active","ping":121},{"user_id":95,"name":"Belts the Puppet","steam_id":76561198322969864,"connected_time":5047000000000,"state":"active","ping":86},{"user_id":136,"name":"Huss75","steam_id":76561198146266305,"connected_time":2349000000000,"state":"active","ping":47},{"user_id":116,"name":"AwesomeApple151","steam_id":76561198278856553,"connected_time":3483000000000,"state":"active","ping":73},{"user_id":148,"name":"Guess I'm just popo","steam_id":76561197966419253,"connected_time":355000000000,"state":"active","ping":74},{"user_id":117,"name":"anaesthesia","steam_id":76561198258774080,"connected_time":3482000000000,"state":"active","ping":47},{"user_id":146,"name":"Aristotle Voulton","steam_id":76561198100174923,"connected_time":434000000000,"state":"active","ping":94},{"user_id":119,"name":"mogwaihudson","steam_id":76561199486770715,"connected_time":3356000000000,"state":"active","ping":126},{"user_id":149,"name":"king soloman","steam_id":76561198014326643,"connected_time":296000000000,"state":"active","ping":56},{"user_id":150,"name":"ManicButtonMasher","steam_id":76561198026725131,"connected_time":183000000000,"state":"active","ping":116},{"user_id":127,"name":"Hamtaroo Man","steam_id":76561198039523047,"connected_time":3128000000000,"state":"active","ping":54},{"user_id":151,"name":"Imperator Pyrosa @THG","steam_id":76561198027056453,"connected_time":82000000000,"state":"active","ping":197},{"user_id":152,"name":"Leaf","steam_id":76561198348965524,"connected_time":39000000000,"state":"active","ping":353},{"user_id":125,"name":"Brad Bones","steam_id":76561198068129320,"connected_time":3222000000000,"state":"active","ping":63}]},{"server_id":302,"name":"Uncletopia | Montréal | 3 | All Maps","name_short":"mtl-3","host":"mtl-1.ca.uncletopia.com","port":27035,"enabled":true,"region":"us-east","cc":"ca","latitude":45.50889,"longitude":-73.56167,"reserved":0,"last_update":"0001-01-01T00:00:00Z","name_a2s":"Uncletopia | Montréal | 3 | All Maps","protocol":17,"map":"koth_lakeside_final","folder":"tf","game":"Team Fortress","app_id":440,"player_count":0,"max_players":24,"Bots":0,"server_type":"Dedicated","server_os":"Linux","password":true,"vac":true,"version":"7961495","steam_id":85568392924500089,"keywords":["cp","nocrits","nodmgspread","uncletopia"],"game_id":440,"stv_port":27036,"stv_name":"Uncletopia | Montréal | 3 | All Maps | STV","players":null},{"server_id":303,"name":"Uncletopia | Montréal | 4 | No Payload","name_short":"mtl-4","host":"mtl-1.ca.uncletopia.com","port":27045,"enabled":true,"region":"us-east","cc":"ca","latitude":45.50889,"longitude":-73.56167,"reserved":0,"last_update":"0001-01-01T00:00:00Z","name_a2s":"Uncletopia | Montréal | 4 | No Payload","protocol":17,"map":"cp_gravelpit","folder":"tf","game":"Team Fortress","app_id":440,"player_count":0,"max_players":24,"Bots":0,"server_type":"Dedicated","server_os":"Linux","password":true,"vac":true,"version":"7961495","steam_id":85568392924500090,"keywords":["cp","nocrits","nodmgspread","uncletopia"],"game_id":440,"stv_port":27046,"stv_name":"Uncletopia | Montréal | 4 | No Payload | STV","players":null},{"server_id":13,"name":"Uncletopia | New York City | 1 | All Maps","name_short":"nyc-1","host":"nyc-1.us.uncletopia.com","port":27015,"enabled":true,"region":"us-east","cc":"us","latitude":40.73061,"longitude":-73.93524,"reserved":0,"last_update":"0001-01-01T00:00:00Z","name_a2s":"Uncletopia | New York City | 1 | All Maps","protocol":17,"map":"plr_hightower","folder":"tf","game":"Team Fortress","app_id":440,"player_count":23,"max_players":24,"Bots":0,"server_type":"Dedicated","server_os":"Linux","password":true,"vac":true,"version":"7961495","steam_id":85568392924469993,"keywords":["nocrits","nodmgspread","payload","uncletopia"],"game_id":440,"stv_port":27016,"stv_name":"Uncletopia | New York City | 1 | All Maps | STV","players":[{"user_id":481,"name":"CRAZY engineer","steam_id":76561198887937902,"connected_time":4087000000000,"state":"active","ping":50},{"user_id":465,"name":"Bewen","steam_id":76561198325334261,"connected_time":5023000000000,"state":"active","ping":37},{"user_id":397,"name":"A Puppy","steam_id":76561198828184456,"connected_time":9095000000000,"state":"active","ping":49},{"user_id":518,"name":"squiddy","steam_id":76561198131737468,"connected_time":686000000000,"state":"active","ping":46},{"user_id":516,"name":"Peepster","steam_id":76561198297854733,"connected_time":1117000000000,"state":"active","ping":85},{"user_id":524,"name":"banan team fortes","steam_id":76561199073621650,"connected_time":451000000000,"state":"active","ping":116},{"user_id":519,"name":"dog","steam_id":76561198127621267,"connected_time":646000000000,"state":"active","ping":57},{"user_id":512,"name":"Zeodexic","steam_id":76561198055636655,"connected_time":1415000000000,"state":"active","ping":76},{"user_id":505,"name":"Dampé","steam_id":76561198063031202,"connected_time":2028000000000,"state":"active","ping":55},{"user_id":529,"name":"Cookie","steam_id":76561198047736899,"connected_time":112000000000,"state":"active","ping":41},{"user_id":484,"name":"Denzel McFlurry","steam_id":76561199231296521,"connected_time":3991000000000,"state":"active","ping":59},{"user_id":522,"name":"GPG scarfs :4","steam_id":76561198008264703,"connected_time":483000000000,"state":"active","ping":45},{"user_id":523,"name":"Redesign Your Logo","steam_id":76561198090289497,"connected_time":481000000000,"state":"active","ping":85},{"user_id":480,"name":"J21","steam_id":76561198066590783,"connected_time":4392000000000,"state":"active","ping":60},{"user_id":506,"name":"verycasual","steam_id":76561199204813145,"connected_time":2016000000000,"state":"active","ping":85},{"user_id":508,"name":"LarryOfAllTrades","steam_id":76561198325492137,"connected_time":1995000000000,"state":"active","ping":125},{"user_id":492,"name":"cyberas","steam_id":76561198257092290,"connected_time":3020000000000,"state":"active","ping":69},{"user_id":517,"name":"The Knight","steam_id":76561198055320626,"connected_time":799000000000,"state":"active","ping":162},{"user_id":525,"name":"im washed","steam_id":76561198362318243,"connected_time":446000000000,"state":"active","ping":92},{"user_id":526,"name":"bobbymcbobington","steam_id":76561199089411172,"connected_time":349000000000,"state":"active","ping":120},{"user_id":507,"name":"♦♣Quadric♥♠","steam_id":76561198061003853,"connected_time":2014000000000,"state":"active","ping":56},{"user_id":486,"name":"Gentoo Linux Gaming","steam_id":76561197999657118,"connected_time":3901000000000,"state":"active","ping":70},{"user_id":527,"name":"crocodilemasterof #neverforget","steam_id":76561198295713840,"connected_time":310000000000,"state":"active","ping":89}]},{"server_id":14,"name":"Uncletopia | New York City | 2 | All Maps","name_short":"nyc-2","host":"nyc-1.us.uncletopia.com","port":27025,"enabled":true,"region":"us-east","cc":"us","latitude":40.73061,"longitude":-73.93524,"reserved":0,"last_update":"0001-01-01T00:00:00Z","name_a2s":"Uncletopia | New York City | 2 | All Maps","protocol":17,"map":"cp_process_final","folder":"tf","game":"Team Fortress","app_id":440,"player_count":1,"max_players":24,"Bots":0,"server_type":"Dedicated","server_os":"Linux","password":true,"vac":true,"version":"7961495","steam_id":85568392924469994,"keywords":["cp","nocrits","nodmgspread","uncletopia"],"game_id":440,"stv_port":27026,"stv_name":"Uncletopia | New York City | 2 | All Maps | STV","players":[{"user_id":744,"name":"TuxTheAstronaut","steam_id":76561198249141126,"connected_time":259000000000,"state":"active","ping":52}]},{"server_id":15,"name":"Uncletopia | New York City | 3 | Stopwatch Beta","name_short":"nyc-3","host":"nyc-1.us.uncletopia.com","port":27035,"enabled":true,"region":"us-east","cc":"us","latitude":40.73061,"longitude":-73.93524,"reserved":0,"last_update":"0001-01-01T00:00:00Z","name_a2s":"Uncletopia | New York City | 3 | Stopwatch Beta","protocol":17,"map":"pl_borneo","folder":"tf","game":"Team Fortress","app_id":440,"player_count":0,"max_players":24,"Bots":0,"server_type":"Dedicated","server_os":"Linux","password":true,"vac":true,"version":"7961495","steam_id":85568392924742820,"keywords":["nocrits","nodmgspread","payload","uncletopia"],"game_id":440,"stv_port":27036,"stv_name":"Uncletopia | New York City | 3 | Stopwatch Beta | STV","players":null},{"server_id":16,"name":"Uncletopia | New York City | 4 | Community","name_short":"nyc-4","host":"nyc-1.us.uncletopia.com","port":27045,"enabled":true,"region":"us-east","cc":"us","latitude":40.73061,"longitude":-73.93524,"reserved":0,"last_update":"0001-01-01T00:00:00Z","name_a2s":"Uncletopia | New York City | 4 | Community","protocol":17,"map":"workshop/pl_divulgence_b4b.ugc2884808746","folder":"tf","game":"Team Fortress","app_id":440,"player_count":0,"max_players":24,"Bots":0,"server_type":"Dedicated","server_os":"Linux","password":true,"vac":true,"version":"7961495","steam_id":85568392924742821,"keywords":["nocrits","nodmgspread","payload","uncletopia"],"game_id":440,"stv_port":27046,"stv_name":"Uncletopia | New York City | 4 | Community | STV","players":null},{"server_id":142,"name":"Uncletopia | São Paulo | 1 | All Maps","name_short":"sao-1","host":"sao-1.br.uncletopia.com","port":27015,"enabled":true,"region":"sa","cc":"br","latitude":-23.533773,"longitude":-46.62529,"reserved":0,"last_update":"0001-01-01T00:00:00Z","name_a2s":"Uncletopia | São Paulo | 1 | All Maps","protocol":17,"map":"koth_lakeside_final","folder":"tf","game":"Team Fortress","app_id":440,"player_count":0,"max_players":24,"Bots":0,"server_type":"Dedicated","server_os":"Linux","password":true,"vac":true,"version":"7961495","steam_id":85568392924469996,"keywords":["cp","nocrits","nodmgspread","uncletopia"],"game_id":440,"stv_port":27016,"stv_name":"Uncletopia | São Paulo | 1 | All Maps | STV","players":null},{"server_id":143,"name":"Uncletopia | São Paulo | 2 | All Maps","name_short":"sao-2","host":"sao-2.br.uncletopia.com","port":27015,"enabled":true,"region":"sa","cc":"br","latitude":-23.533773,"longitude":-46.62529,"reserved":0,"last_update":"0001-01-01T00:00:00Z","name_a2s":"Uncletopia | São Paulo | 2 | All Maps","protocol":17,"map":"pl_snowycoast","folder":"tf","game":"Team Fortress","app_id":440,"player_count":0,"max_players":24,"Bots":0,"server_type":"Dedicated","server_os":"Linux","password":true,"vac":true,"version":"7961495","steam_id":85568392924485349,"keywords":["nocrits","nodmgspread","payload","uncletopia"],"game_id":440,"stv_port":27016,"stv_name":"Uncletopia | São Paulo | 2 | All Maps | STV","players":null},{"server_id":7,"name":"Uncletopia | Seattle | 1 | All Maps","name_short":"sea-1","host":"sea-1.us.uncletopia.com","port":27015,"enabled":true,"region":"us-west","cc":"us","latitude":47.608013,"longitude":-122.33517,"reserved":0,"last_update":"0001-01-01T00:00:00Z","name_a2s":"Uncletopia | Seattle | 1 | All Maps","protocol":17,"map":"pl_barnblitz","folder":"tf","game":"Team Fortress","app_id":440,"player_count":24,"max_players":24,"Bots":0,"server_type":"Dedicated","server_os":"Linux","password":true,"vac":true,"version":"7961495","steam_id":85568392924469997,"keywords":["nocrits","nodmgspread","payload","uncletopia"],"game_id":440,"stv_port":27016,"stv_name":"Uncletopia | Seattle | 1 | All Maps | STV","players":[{"user_id":554,"name":"lil boogie","steam_id":76561198064059721,"connected_time":241000000000,"state":"active","ping":44},{"user_id":541,"name":"William P. Ennis","steam_id":76561198073464877,"connected_time":1639000000000,"state":"active","ping":92},{"user_id":516,"name":"Arsonist Goose","steam_id":76561198147441830,"connected_time":5143000000000,"state":"active","ping":71},{"user_id":549,"name":"NEЯO","steam_id":76561197965450216,"connected_time":714000000000,"state":"active","ping":56},{"user_id":551,"name":"Skoad","steam_id":76561198104650528,"connected_time":578000000000,"state":"active","ping":64},{"user_id":527,"name":"dinocoder","steam_id":76561198311038263,"connected_time":4128000000000,"state":"active","ping":62},{"user_id":555,"name":"ed","steam_id":76561198080475712,"connected_time":192000000000,"state":"active","ping":77},{"user_id":485,"name":"Wolverine475","steam_id":76561198137136788,"connected_time":6965000000000,"state":"active","ping":116},{"user_id":553,"name":"[TrC] Dackstrus","steam_id":76561197973518509,"connected_time":262000000000,"state":"active","ping":58},{"user_id":476,"name":"rat gets the cheese","steam_id":76561198031234032,"connected_time":7437000000000,"state":"active","ping":98},{"user_id":547,"name":"Keamy","steam_id":76561199471434875,"connected_time":1380000000000,"state":"active","ping":41},{"user_id":546,"name":"NEBULA","steam_id":76561198086878595,"connected_time":1428000000000,"state":"active","ping":76},{"user_id":533,"name":"R5-D4","steam_id":76561198025196439,"connected_time":3286000000000,"state":"active","ping":55},{"user_id":520,"name":"selling rice","steam_id":76561198063357023,"connected_time":4517000000000,"state":"active","ping":64},{"user_id":545,"name":"lasky","steam_id":76561198017030029,"connected_time":1546000000000,"state":"active","ping":69},{"user_id":445,"name":"lusty","steam_id":76561198138478947,"connected_time":9604000000000,"state":"active","ping":44},{"user_id":414,"name":"Luca","steam_id":76561198125087140,"connected_time":11663000000000,"state":"active","ping":49},{"user_id":416,"name":"korkskrou","steam_id":76561198422156430,"connected_time":11200000000000,"state":"active","ping":49},{"user_id":557,"name":"mac_cheese","steam_id":76561198071334162,"connected_time":13000000000,"state":"active","ping":51},{"user_id":488,"name":"shane","steam_id":76561198060491451,"connected_time":6495000000000,"state":"active","ping":101},{"user_id":552,"name":"Finkly","steam_id":76561198049828110,"connected_time":333000000000,"state":"active","ping":46},{"user_id":535,"name":"felixfilter10","steam_id":76561199150617008,"connected_time":3063000000000,"state":"active","ping":107},{"user_id":556,"name":"Schnitz","steam_id":76561198265484253,"connected_time":140000000000,"state":"active","ping":96},{"user_id":508,"name":"forest (minecraft npc)","steam_id":76561198157960257,"connected_time":5311000000000,"state":"active","ping":45}]},{"server_id":119,"name":"Uncletopia | Seattle | 2 | All Maps","name_short":"sea-2","host":"sea-1.us.uncletopia.com","port":27025,"enabled":true,"region":"us-west","cc":"us","latitude":47.608013,"longitude":-122.33517,"reserved":0,"last_update":"0001-01-01T00:00:00Z","name_a2s":"Uncletopia | Seattle | 2 | All Maps","protocol":17,"map":"pl_snowycoast","folder":"tf","game":"Team Fortress","app_id":440,"player_count":24,"max_players":24,"Bots":0,"server_type":"Dedicated","server_os":"Linux","password":true,"vac":true,"version":"7961495","steam_id":85568392924469998,"keywords":["nocrits","nodmgspread","payload","uncletopia"],"game_id":440,"stv_port":27026,"stv_name":"Uncletopia | Seattle | 2 | All Maps | STV","players":[{"user_id":326,"name":"oo","steam_id":76561198119626492,"connected_time":2510000000000,"state":"active","ping":68},{"user_id":347,"name":"They could be starlings","steam_id":76561198441020995,"connected_time":1287000000000,"state":"active","ping":75},{"user_id":344,"name":"*loudly chewing on milk*","steam_id":76561198012539938,"connected_time":1531000000000,"state":"active","ping":137},{"user_id":350,"name":"Scrux","steam_id":76561198129763115,"connected_time":1099000000000,"state":"active","ping":86},{"user_id":319,"name":"The King of Piss World","steam_id":76561198082806956,"connected_time":3036000000000,"state":"active","ping":143},{"user_id":308,"name":"suto","steam_id":76561198026847865,"connected_time":3636000000000,"state":"active","ping":46},{"user_id":313,"name":"cringy","steam_id":76561198323000455,"connected_time":3458000000000,"state":"active","ping":90},{"user_id":290,"name":"Ira","steam_id":76561198855586261,"connected_time":5051000000000,"state":"active","ping":80},{"user_id":357,"name":"oil","steam_id":76561198099980149,"connected_time":767000000000,"state":"active","ping":82},{"user_id":329,"name":"10HourNaps","steam_id":76561199082304859,"connected_time":2426000000000,"state":"active","ping":60},{"user_id":336,"name":"Lordus","steam_id":76561198160381729,"connected_time":2106000000000,"state":"active","ping":62},{"user_id":358,"name":"Deathkillsme","steam_id":76561198059468746,"connected_time":333000000000,"state":"active","ping":56},{"user_id":233,"name":"Funbearable ʕ •ᴥ•ʔ","steam_id":76561197968272094,"connected_time":10481000000000,"state":"active","ping":56},{"user_id":330,"name":"Xx_PercyTheSmallEngineGamer6_xX","steam_id":76561198842297041,"connected_time":2399000000000,"state":"active","ping":106},{"user_id":318,"name":"General Fisticuffs","steam_id":76561198255721392,"connected_time":3210000000000,"state":"active","ping":115},{"user_id":345,"name":"Sleepycap","steam_id":76561198044484011,"connected_time":1429000000000,"state":"active","ping":127},{"user_id":359,"name":"JavaScript Frappuccino","steam_id":76561198111620153,"connected_time":273000000000,"state":"active","ping":48},{"user_id":338,"name":"Dunkle","steam_id":76561198041903573,"connected_time":1885000000000,"state":"active","ping":46},{"user_id":360,"name":"M4 Sherman","steam_id":76561198126990820,"connected_time":76000000000,"state":"active","ping":93},{"user_id":337,"name":"blueboy23","steam_id":76561199121889873,"connected_time":2023000000000,"state":"active","ping":55},{"user_id":334,"name":"Chad Narukami","steam_id":76561198117522405,"connected_time":2191000000000,"state":"active","ping":123},{"user_id":356,"name":"gravy","steam_id":76561198089644778,"connected_time":830000000000,"state":"active","ping":87},{"user_id":248,"name":"Grand","steam_id":76561198290143399,"connected_time":9384000000000,"state":"active","ping":75},{"user_id":255,"name":"Truffles","steam_id":76561198095868800,"connected_time":8568000000000,"state":"active","ping":114}]},{"server_id":406,"name":"Uncletopia | Seattle | 3 | Stopwatch Beta","name_short":"sea-3","host":"sea-1.us.uncletopia.com","port":27035,"enabled":true,"region":"us-west","cc":"us","latitude":47.608013,"longitude":-122.33517,"reserved":0,"last_update":"0001-01-01T00:00:00Z","name_a2s":"Uncletopia | Seattle | 3 | Stopwatch Beta","protocol":17,"map":"koth_highpass","folder":"tf","game":"Team Fortress","app_id":440,"player_count":0,"max_players":24,"Bots":0,"server_type":"Dedicated","server_os":"Linux","password":true,"vac":true,"version":"7961495","steam_id":85568392924515217,"keywords":["cp","nocrits","nodmgspread","uncletopia"],"game_id":440,"stv_port":27036,"stv_name":"Uncletopia | Seattle | 3 | Stopwatch Beta | STV","players":null},{"server_id":17,"name":"Uncletopia | San Francisco | 1 | All Maps","name_short":"sfo-1","host":"sfo-1.us.uncletopia.com","port":27015,"enabled":true,"region":"us-west","cc":"us","latitude":37.77397,"longitude":-122.4313,"reserved":0,"last_update":"0001-01-01T00:00:00Z","name_a2s":"Uncletopia | San Francisco | 1 | All Maps","protocol":17,"map":"pl_frontier_final","folder":"tf","game":"Team Fortress","app_id":440,"player_count":0,"max_players":24,"Bots":0,"server_type":"Dedicated","server_os":"Linux","password":true,"vac":true,"version":"7932396","steam_id":85568392924469999,"keywords":["nocrits","nodmgspread","payload","uncletopia"],"game_id":440,"stv_port":27016,"stv_name":"Uncletopia | San Francisco | 1 | All Maps | STV","players":null},{"server_id":18,"name":"Uncletopia | San Francisco | 2 | All Maps","name_short":"sfo-2","host":"sfo-1.us.uncletopia.com","port":27025,"enabled":true,"region":"us-west","cc":"us","latitude":37.77397,"longitude":-122.4313,"reserved":0,"last_update":"0001-01-01T00:00:00Z","name_a2s":"Uncletopia | San Francisco | 2 | All Maps","protocol":17,"map":"cp_snakewater_final1","folder":"tf","game":"Team Fortress","app_id":440,"player_count":0,"max_players":24,"Bots":0,"server_type":"Dedicated","server_os":"Linux","password":true,"vac":true,"version":"7932396","steam_id":85568392924470000,"keywords":["cp","nocrits","nodmgspread","uncletopia"],"game_id":440,"stv_port":27026,"stv_name":"Uncletopia | San Francisco | 2 | All Maps | STV","players":null},{"server_id":19,"name":"Uncletopia | San Francisco | 3 | Stopwatch Beta","name_short":"sfo-3","host":"sfo-1.us.uncletopia.com","port":27035,"enabled":true,"region":"us-west","cc":"us","latitude":37.77397,"longitude":-122.4313,"reserved":0,"last_update":"0001-01-01T00:00:00Z","name_a2s":"Uncletopia | San Francisco | 3 | Stopwatch Beta","protocol":17,"map":"koth_lakeside_final","folder":"tf","game":"Team Fortress","app_id":440,"player_count":0,"max_players":24,"Bots":0,"server_type":"Dedicated","server_os":"Linux","password":true,"vac":true,"version":"7932396","steam_id":85568392924742824,"keywords":["cp","nocrits","nodmgspread","uncletopia"],"game_id":440,"stv_port":27036,"stv_name":"Uncletopia | San Francisco | 3 | Stopwatch Beta | STV","players":null},{"server_id":20,"name":"Uncletopia | San Francisco | 4 | Community","name_short":"sfo-4","host":"sfo-1.us.uncletopia.com","port":27045,"enabled":true,"region":"us-west","cc":"us","latitude":37.77397,"longitude":-122.4313,"reserved":0,"last_update":"0001-01-01T00:00:00Z","name_a2s":"Uncletopia | San Francisco | 4 | Community","protocol":17,"map":"pl_borneo","folder":"tf","game":"Team Fortress","app_id":440,"player_count":0,"max_players":24,"Bots":0,"server_type":"Dedicated","server_os":"Linux","password":true,"vac":true,"version":"7932396","steam_id":85568392924742826,"keywords":["nocrits","nodmgspread","payload","uncletopia"],"game_id":440,"stv_port":27046,"stv_name":"Uncletopia | San Francisco | 4 | Community | STV","players":null},{"server_id":141,"name":"Uncletopia | Sydney | 1 | All Maps","name_short":"syd-1","host":"syd-1.au.uncletopia.com","port":27015,"enabled":true,"region":"au","cc":"au","latitude":-33.865143,"longitude":151.2099,"reserved":0,"last_update":"0001-01-01T00:00:00Z","name_a2s":"Uncletopia | Sydney | 1 | All Maps","protocol":17,"map":"pl_frontier_final","folder":"tf","game":"Team Fortress","app_id":440,"player_count":24,"max_players":24,"Bots":0,"server_type":"Dedicated","server_os":"Linux","password":true,"vac":true,"version":"7961495","steam_id":85568392924470001,"keywords":["nocrits","nodmgspread","payload","uncletopia"],"game_id":440,"stv_port":27016,"stv_name":"Uncletopia | Sydney | 1 | All Maps | STV","players":[{"user_id":147,"name":"Dave","steam_id":76561197994203216,"connected_time":1073000000000,"state":"active","ping":65},{"user_id":154,"name":"james16","steam_id":76561198362678073,"connected_time":790000000000,"state":"active","ping":47},{"user_id":157,"name":"shark lostworld","steam_id":76561198214534771,"connected_time":172000000000,"state":"active","ping":49},{"user_id":158,"name":"slignorbus prongnobbler","steam_id":76561198063481761,"connected_time":86000000000,"state":"active","ping":44},{"user_id":125,"name":"The Throngler","steam_id":76561198119304370,"connected_time":2654000000000,"state":"active","ping":60},{"user_id":114,"name":"mushroom","steam_id":76561197992336470,"connected_time":4009000000000,"state":"active","ping":98},{"user_id":136,"name":"Warren","steam_id":76561198120350917,"connected_time":2314000000000,"state":"active","ping":44},{"user_id":151,"name":"♥Hecate♥","steam_id":76561198104979519,"connected_time":973000000000,"state":"active","ping":57},{"user_id":144,"name":"Jeshī","steam_id":76561198105982416,"connected_time":1497000000000,"state":"active","ping":57},{"user_id":134,"name":"Evil Dragons 11","steam_id":76561199010001803,"connected_time":2454000000000,"state":"active","ping":52},{"user_id":138,"name":"ItsSnakey","steam_id":76561199187623513,"connected_time":2059000000000,"state":"active","ping":70},{"user_id":122,"name":"\"(kinda)\" sketchy","steam_id":76561198040844401,"connected_time":3029000000000,"state":"active","ping":47},{"user_id":141,"name":"Magicant","steam_id":76561198064244826,"connected_time":1968000000000,"state":"active","ping":63},{"user_id":98,"name":"callum.jones2008","steam_id":76561198050053720,"connected_time":5818000000000,"state":"active","ping":78},{"user_id":143,"name":"Penguin Wielder","steam_id":76561198169038889,"connected_time":1882000000000,"state":"active","ping":62},{"user_id":152,"name":"unnamed","steam_id":76561198064882653,"connected_time":865000000000,"state":"active","ping":77},{"user_id":132,"name":"Fnaf fart porn (enjoyer)","steam_id":76561198179045463,"connected_time":2499000000000,"state":"active","ping":54},{"user_id":156,"name":"Fleetfoot","steam_id":76561198072845816,"connected_time":387000000000,"state":"active","ping":55},{"user_id":155,"name":"Paul Hollywood","steam_id":76561198060024585,"connected_time":692000000000,"state":"active","ping":39},{"user_id":153,"name":"ree boy","steam_id":76561199024189820,"connected_time":845000000000,"state":"active","ping":86},{"user_id":146,"name":"badmn","steam_id":76561198056462343,"connected_time":1078000000000,"state":"active","ping":59},{"user_id":145,"name":"Bill Nye","steam_id":76561198312898168,"connected_time":1326000000000,"state":"active","ping":60},{"user_id":140,"name":"Beangodhiann","steam_id":76561198189663681,"connected_time":1982000000000,"state":"active","ping":64},{"user_id":142,"name":"Notorious","steam_id":76561198042197894,"connected_time":1947000000000,"state":"active","ping":62}]},{"server_id":123,"name":"Uncletopia | Sydney | 2 | All Maps","name_short":"syd-2","host":"syd-1.au.uncletopia.com","port":27025,"enabled":true,"region":"au","cc":"au","latitude":-33.865143,"longitude":151.2099,"reserved":0,"last_update":"0001-01-01T00:00:00Z","name_a2s":"Uncletopia | Sydney | 2 | All Maps","protocol":17,"map":"koth_viaduct","folder":"tf","game":"Team Fortress","app_id":440,"player_count":2,"max_players":24,"Bots":0,"server_type":"Dedicated","server_os":"Linux","password":true,"vac":true,"version":"7961495","steam_id":85568392924470002,"keywords":["cp","nocrits","nodmgspread","uncletopia"],"game_id":440,"stv_port":27026,"stv_name":"Uncletopia | Sydney | 2 | All Maps | STV","players":[{"user_id":7,"name":"N0thing_but_pure_lag_and_luck","steam_id":76561199002102933,"connected_time":1134000000000,"state":"active","ping":106},{"user_id":8,"name":"keneally","steam_id":76561199191313687,"connected_time":243000000000,"state":"active","ping":54}]},{"server_id":395,"name":"Uncletopia | Sydney | 3 | All Maps","name_short":"syd-3","host":"syd-1.au.uncletopia.com","port":27035,"enabled":true,"region":"au","cc":"au","latitude":-33.865143,"longitude":151.2099,"reserved":0,"last_update":"0001-01-01T00:00:00Z","name_a2s":"Uncletopia | Sydney | 3 | All Maps","protocol":17,"map":"cp_dustbowl","folder":"tf","game":"Team Fortress","app_id":440,"player_count":6,"max_players":24,"Bots":0,"server_type":"Dedicated","server_os":"Linux","password":true,"vac":true,"version":"7961495","steam_id":85568392925194467,"keywords":["cp","nocrits","nodmgspread","uncletopia"],"game_id":440,"stv_port":27036,"stv_name":"Uncletopia | Sydney | 3 | All Maps | STV","players":[{"user_id":168,"name":"Ricochet","steam_id":76561198018889278,"connected_time":4039000000000,"state":"active","ping":43},{"user_id":188,"name":"bangerlop","steam_id":76561199349993627,"connected_time":584000000000,"state":"active","ping":139},{"user_id":190,"name":"Kazaam","steam_id":76561198798503802,"connected_time":203000000000,"state":"active","ping":399},{"user_id":189,"name":"Nate_Dead","steam_id":76561199467946394,"connected_time":545000000000,"state":"active","ping":150},{"user_id":182,"name":"tenten","steam_id":76561198402822072,"connected_time":2386000000000,"state":"active","ping":92},{"user_id":187,"name":"TheSirToad","steam_id":76561199147183872,"connected_time":815000000000,"state":"active","ping":188}]},{"server_id":396,"name":"Uncletopia | Sydney | 4 | All Maps","name_short":"syd-4","host":"syd-1.au.uncletopia.com","port":27045,"enabled":true,"region":"au","cc":"au","latitude":-33.865143,"longitude":151.2099,"reserved":0,"last_update":"0001-01-01T00:00:00Z","name_a2s":"Uncletopia | Sydney | 4 | All Maps","protocol":17,"map":"koth_cascade","folder":"tf","game":"Team Fortress","app_id":440,"player_count":0,"max_players":24,"Bots":0,"server_type":"Dedicated","server_os":"Linux","password":true,"vac":true,"version":"7961495","steam_id":85568392925397958,"keywords":["cp","nocrits","nodmgspread","uncletopia"],"game_id":440,"stv_port":27046,"stv_name":"Uncletopia | Sydney | 4 | All Maps | STV","players":null},{"server_id":58,"name":"Uncletopia | Sydney | 5 | Stopwatch Beta","name_short":"syd-5","host":"syd-1.au.uncletopia.com","port":27055,"enabled":true,"region":"au","cc":"au","latitude":-33.865143,"longitude":151.2099,"reserved":0,"last_update":"0001-01-01T00:00:00Z","name_a2s":"Uncletopia | Sydney | 5 | Stopwatch Beta","protocol":17,"map":"koth_viaduct","folder":"tf","game":"Team Fortress","app_id":440,"player_count":0,"max_players":24,"Bots":0,"server_type":"Dedicated","server_os":"Linux","password":true,"vac":true,"version":"7961495","steam_id":85568392925397959,"keywords":["cp","nocrits","nodmgspread","uncletopia"],"game_id":440,"stv_port":27056,"stv_name":"Uncletopia | Sydney | 5 | Stopwatch Beta | STV","players":null},{"server_id":59,"name":"Uncletopia | Sydney | 6 | Community","name_short":"syd-6","host":"syd-1.au.uncletopia.com","port":27065,"enabled":true,"region":"au","cc":"au","latitude":-33.865143,"longitude":151.2099,"reserved":0,"last_update":"0001-01-01T00:00:00Z","name_a2s":"Uncletopia | Sydney | 6 | Community","protocol":17,"map":"workshop/koth_ramjam_rc1.ugc459778887","folder":"tf","game":"Team Fortress","app_id":440,"player_count":0,"max_players":24,"Bots":0,"server_type":"Dedicated","server_os":"Linux","password":true,"vac":true,"version":"7961495","steam_id":85568392925397960,"keywords":["cp","nocrits","nodmgspread","uncletopia"],"game_id":440,"stv_port":27066,"stv_name":"Uncletopia | Sydney | 6 | Community | STV","players":null},{"server_id":49,"name":"Uncletopia | Warsaw | 1 | All Maps","name_short":"waw-1","host":"waw-1.pl.uncletopia.com","port":27015,"enabled":true,"region":"eu","cc":"pl","latitude":52.2297,"longitude":21.017532,"reserved":0,"last_update":"0001-01-01T00:00:00Z","name_a2s":"","protocol":0,"map":"","folder":"","game":"","app_id":0,"player_count":0,"max_players":0,"Bots":0,"server_type":"","server_os":"","password":false,"vac":false,"version":"","steam_id":0,"keywords":null,"game_id":0,"stv_port":0,"stv_name":"","players":null},{"server_id":50,"name":"Uncletopia | Warsaw | 2 | All Maps","name_short":"waw-2","host":"waw-1.pl.uncletopia.com","port":27025,"enabled":true,"region":"eu","cc":"pl","latitude":52.2297,"longitude":21.017532,"reserved":0,"last_update":"0001-01-01T00:00:00Z","name_a2s":"Uncletopia | Warsaw | 2 | All Maps","protocol":17,"map":"cp_mountainlab","folder":"tf","game":"Team Fortress","app_id":440,"player_count":0,"max_players":24,"Bots":0,"server_type":"Dedicated","server_os":"Linux","password":true,"vac":true,"version":"7961495","steam_id":85568392925397851,"keywords":["cp","nocrits","nodmgspread","uncletopia"],"game_id":440,"stv_port":27026,"stv_name":"Uncletopia | Warsaw | 2 | All Maps | STV","players":null},{"server_id":51,"name":"Uncletopia | Warsaw | 3 | All Maps","name_short":"waw-3","host":"waw-1.pl.uncletopia.com","port":27035,"enabled":true,"region":"eu","cc":"pl","latitude":52.2297,"longitude":21.017532,"reserved":0,"last_update":"0001-01-01T00:00:00Z","name_a2s":"Uncletopia | Warsaw | 3 | All Maps","protocol":17,"map":"pl_barnblitz","folder":"tf","game":"Team Fortress","app_id":440,"player_count":0,"max_players":24,"Bots":0,"server_type":"Dedicated","server_os":"Linux","password":true,"vac":true,"version":"7961495","steam_id":85568392925397852,"keywords":["nocrits","nodmgspread","payload","uncletopia"],"game_id":440,"stv_port":27036,"stv_name":"Uncletopia | Warsaw | 3 | All Maps | STV","players":null},{"server_id":52,"name":"Uncletopia | Warsaw | 4 | All Maps","name_short":"waw-4","host":"waw-1.pl.uncletopia.com","port":27045,"enabled":true,"region":"eu","cc":"pl","latitude":52.2297,"longitude":21.017532,"reserved":0,"last_update":"0001-01-01T00:00:00Z","name_a2s":"Uncletopia | Warsaw | 4 | All Maps","protocol":17,"map":"cp_dustbowl","folder":"tf","game":"Team Fortress","app_id":440,"player_count":0,"max_players":24,"Bots":0,"server_type":"Dedicated","server_os":"Linux","password":true,"vac":true,"version":"7961495","steam_id":85568392925397853,"keywords":["cp","nocrits","nodmgspread","uncletopia"],"game_id":440,"stv_port":27046,"stv_name":"Uncletopia | Warsaw | 4 | All Maps | STV","players":null},{"server_id":53,"name":"Uncletopia | Warsaw | 5 | Stopwatch Beta","name_short":"waw-5","host":"waw-1.pl.uncletopia.com","port":27055,"enabled":true,"region":"eu","cc":"pl","latitude":52.2297,"longitude":21.017532,"reserved":0,"last_update":"0001-01-01T00:00:00Z","name_a2s":"Uncletopia | Warsaw | 5 | Stopwatch Beta","protocol":17,"map":"pl_snowycoast","folder":"tf","game":"Team Fortress","app_id":440,"player_count":0,"max_players":24,"Bots":0,"server_type":"Dedicated","server_os":"Linux","password":true,"vac":true,"version":"7961495","steam_id":85568392925397854,"keywords":["nocrits","nodmgspread","payload","uncletopia"],"game_id":440,"stv_port":27056,"stv_name":"Uncletopia | Warsaw | 5 | Stopwatch Beta | STV","players":null},{"server_id":54,"name":"Uncletopia | Warsaw | 6 | Community","name_short":"waw-6","host":"waw-1.pl.uncletopia.com","port":27065,"enabled":true,"region":"eu","cc":"pl","latitude":52.2297,"longitude":21.017532,"reserved":0,"last_update":"0001-01-01T00:00:00Z","name_a2s":"Uncletopia | Warsaw | 6 | Community","protocol":17,"map":"pl_borneo","folder":"tf","game":"Team Fortress","app_id":440,"player_count":0,"max_players":24,"Bots":0,"server_type":"Dedicated","server_os":"Linux","password":true,"vac":true,"version":"7961495","steam_id":85568392925397856,"keywords":["nocrits","nodmgspread","payload","uncletopia"],"game_id":440,"stv_port":27066,"stv_name":"Uncletopia | Warsaw | 6 | Community | STV","players":null}]}