{"status":true,"message":"","result":[{"server_id":9,"name":"Uncletopia | Atlanta | 1 | All Maps","name_short":"atl-1","host":"atl-1.us.uncletopia.com","port":27015,"enabled":true,"region":"us-east","cc":"us","latitude":33.753746,"longitude":-84.38633,"reserved":0,"last_update":"0001-01-01T00:00:00Z","name_a2s":"Uncletopia | Atlanta | 1 | All Maps","protocol":17,"map":"cp_dustbowl","folder":"tf","game":"Team Fortress","app_id":440,"player_count":24,"max_players":24,"Bots":0,"server_type":"Dedicated","server_os":"Linux","password":true,"vac":true,"version":"7961495","steam_id":85568392924469982,"keywords":["cp","nocrits","nodmgspread","uncletopia"],"game_id":440,"stv_port":27016,"stv_name":"Uncletopia | Atlanta | 1 | All Maps | STV","players":[{"user_id":604,"name":"Bimbonito","steam_id":76561198069676563,"connected_time":953000000000,"state":"active","ping":53},{"user_id":584,"name":"BIG HOG","steam_id":76561198079923652,"connected_time":2727000000000,"state":"active","ping":64},{"user_id":471,"name":"eish","steam_id":76561198089463603,"connected_time":10375000000000,"state":"active","ping":120},{"user_id":588,"name":"â™¥Bixitâ™¥","steam_id":76561198958823160,"connected_time":2340000000000,"state":"active","ping":76},{"user_id":582,"name":"ash","steam_id":76561198127890645,"connected_time":3152000000000,"state":"active","ping":65},{"user_id":571,"name":"Albino Jellyfish","steam_id":76561198208561097,"connected_time":4263000000000,"state":"active","ping":54},{"user_id":585,"name":"xX_BimboSwallower_Xx","steam_id":76561198016029965,"connected_time":2363000000000,"state":"active","ping":59},{"user_id":605,"name":"Dullahan","steam_id":76561198119668908,"connected_time":911000000000,"state":"active","ping":105},{"user_id":606,"name":"GreenApples","steam_id":76561198120559543,"connected_time":883000000000,"state":"active","ping":107},{"user_id":602,"name":"Lumi The âœ§Lesbianâœ§","steam_id":76561198089978036,"connected_time":1083000000000,"state":"active","ping":79},{"user_id":592,"name":"CHIKN","steam_id":76561198277792665,"connected_time":2223000000000,"state":"active","ping":120},{"user_id":607,"name":"SpaceLeezerd","steam_id":76561198171026678,"connected_time":854000000000,"state":"active","ping":60},{"user_id":608,"name":"MexicanTortilla","steam_id":76561198195872719,"connected_time":832000000000,"state":"active","ping":118},{"user_id":610,"name":"Maestro","steam_id":76561198157325020,"connected_time":796000000000,"state":"active","ping":72},{"user_id":609,"name":"Mad{}Mouse","steam_id":76561198162576354,"connected_time":819000000000,"state":"active","ping":75},{"user_id":601,"name":"Chernov","steam_id":76561198014463424,"connected_time":1132000000000,"state":"active","ping":60},{"user_id":611,"name":"mangokip","steam_id":76561198156471516,"connected_time":791000000000,"state":"active","ping":56},{"user_id":566,"name":"lil hog","steam_id":76561199230929836,"connected_time":4773000000000,"state":"active","ping":96},{"user_id":613,"name":"Herdez Hot Salsa","steam_id":76561197991740906,"connected_time":252000000000,"state":"active","ping":77},{"user_id":603,"name":"Smooth, Refreshing Bleachâ„¢","steam_id":76561197981060504,"connected_time":1053000000000,"state":"active","ping":63},{"user_id":612,"name":"Mr. White","steam_id":76561197988730902,"connected_time":695000000000,"state":"active","ping":85},{"user_id":600,"name":"nomad","steam_id":76561197998740399,"connected_time":1325000000000,"state":"active","ping":67},{"user_id":596,"name":"soof","steam_id":76561198043762955,"connected_time":2005000000000,"state":"active","ping":66},{"user_id":594,"name":"Meet The Amazing Bret","steam_id":76561198137326099,"connected_time":2203000000000,"state":"active","ping":115}]},{"server_id":104,"name":"Uncletopia | Atlanta | 2 | All Maps","name_short":"atl-2","host":"atl-1.us.uncletopia.com","port":27025,"enabled":true,"region":"us-east","cc":"us","latitude":33.753746,"longitude":-84.38633,"reserved":0,"last_update":"0001-01-01T00:00:00Z","name_a2s":"Uncletopia | Atlanta | 2 | All Maps","protocol":17,"map":"pl_upward","folder":"tf","game":"Team Fortress","app_id":440,"player_count":15,"max_players":24,"Bots":0,"server_type":"Dedicated","server_os":"Linux","password":true,"vac":true,"version":"7961495","steam_id":85568392924469983,"keywords":["nocrits","nodmgspread","payload","uncletopia"],"game_id":440,"stv_port":27026,"stv_name":"Uncletopia | Atlanta | 2 | All Maps | STV","players":[{"user_id":184,"name":"Cthulhu's Malewife","steam_id":76561198085888959,"connected_time":66000000000,"state":"spawning","ping":44},{"user_id":185,"name":"pHsHy","steam_id":76561198013195018,"connected_time":11000000000,"state":"active","ping":90},{"user_id":165,"name":"MegaKEKER","steam_id":76561199485792353,"connected_time":1546000000000,"state":"active","ping":167},{"user_id":160,"name":"Jolo25","steam_id":76561198390795573,"connected_time":1807000000000,"state":"active","ping":67},{"user_id":137,"name":"mechiimi â˜…","steam_id":76561198321627268,"connected_time":3157000000000,"state":"active","ping":108},{"user_id":114,"name":"Monkey Mode","steam_id":76561197961267543,"connected_time":4623000000000,"state":"active","ping":57},{"user_id":178,"name":"I_Am_Lazy","steam_id":76561199030283067,"connected_time":460000000000,"state":"active","ping":75},{"user_id":157,"name":"perezpro214","steam_id":76561199507124097,"connected_time":1872000000000,"state":"active","ping":61},{"user_id":151,"name":"Uncle Dane Wannabee","steam_id":76561198941700660,"connected_time":2405000000000,"state":"active","ping":85},{"user_id":135,"name":"Ceramic","steam_id":76561199007624194,"connected_time":3317000000000,"state":"active","ping":46},{"user_id":149,"name":"âœª TedBear2142 âœª","steam_id":76561198006481210,"connected_time":2481000000000,"state":"active","ping":74},{"user_id":171,"name":"0","steam_id":76561198046065237,"connected_time":1486000000000,"state":"active","ping":62},{"user_id":153,"name":"Monte","steam_id":76561198097499917,"connected_time":2136000000000,"state":"active","ping":87},{"user_id":146,"name":"gothpapa","steam_id":76561198452122510,"connected_time":2899000000000,"state":"active","ping":73},{"user_id":173,"name":"sumerian death metal warrior","steam_id":76561198997380708,"connected_time":1410000000000,"state":"active","ping":103}]},{"server_id":400,"name":"Uncletopia | Atlanta | 3 | Stopwatch","name_short":"atl-3","host":"atl-1.us.uncletopia.com","port":27035,"enabled":true,"region":"us-east","cc":"us","latitude":33.753746,"longitude":-84.38633,"reserved":0,"last_update":"0001-01-01T00:00:00Z","name_a2s":"Uncletopia | Atlanta | 3 | Stopwatch","protocol":17,"map":"workshop/koth_product_final.ugc454272353","folder":"tf","game":"Team Fortress","app_id":440,"player_count":0,"max_players":24,"Bots":0,"server_type":"Dedicated","server_os":"Linux","password":true,"vac":true,"version":"7961495","steam_id":85568392924515187,"keywords":["cp","nocrits","nodmgspread","uncletopia"],"game_id":440,"stv_port":27036,"stv_name":"Uncletopia | Atlanta | 3 | Stopwatch | STV","players":null},{"server_id":401,"name":"Uncletopia | Atlanta | 4 | Community","name_short":"atl-4","host":"atl-1.us.uncletopia.com","port":27045,"enabled":true,"region":"us-east","cc":"us","latitude":33.753746,"longitude":-84.38633,"reserved":0,"last_update":"0001-01-01T00:00:00Z","name_a2s":"Uncletopia | Atlanta | 4 | Community","protocol":17,"map":"workshop/pl_highwood_b19.ugc1769496557","folder":"tf","game":"Team Fortress","app_id":440,"player_count":0,"max_players":24,"Bots":0,"server_type":"Dedicated","server_os":"Linux","password":true,"vac":true,"version":"7961495","steam_id":85568392924515188,"keywords":["nocrits","nodmgspread","payload","uncletopia"],"game_id":440,"stv_port":27046,"stv_name":"Uncletopia | Atlanta | 4 | Community | STV","players":null},{"server_id":2,"name":"Uncletopia | Chicago | 1 | All Maps","name_short":"chi-1","host":"chi-1.us.uncletopia.com","port":27015,"enabled":true,"region":"us-central","cc":"us","latitude":41.881832,"longitude":-87.62318,"reserved":0,"last_update":"0001-01-01T00:00:00Z","name_a2s":"Uncletopia | Chicago | 1 | All Maps","protocol":17,"map":"pl_badwater","folder":"tf","game":"Team Fortress","app_id":440,"player_count":24,"max_players":24,"Bots":0,"server_type":"Dedicated","server_os":"Linux","password":true,"vac":true,"version":"7961495","steam_id":85568392924469984,"keywords":["nocrits","nodmgspread","payload","uncletopia"],"game_id":440,"stv_port":27016,"stv_name":"Uncletopia | Chicago | 1 | All Maps | STV","players":[{"user_id":715,"name":"CHIPS","steam_id":76561199085414584,"connected_time":887000000000,"state":"active","ping":68},{"user_id":690,"name":"Emberformula","steam_id":76561198171526119,"connected_time":2665000000000,"state":"active","ping":69},{"user_id":722,"name":"THE gabagool","steam_id":76561198066449282,"connected_time":15000000000,"state":"active","ping":63},{"user_id":696,"name":"SN0W","steam_id":76561198153665468,"connected_time":1554000000000,"state":"active","ping":33},{"user_id":709,"name":"have blue","steam_id":76561198054260599,"connected_time":1046000000000,"state":"active","ping":65},{"user_id":698,"name":"gyozaking","steam_id":76561197972312696,"connected_time":1516000000000,"state":"active","ping":119},{"user_id":710,"name":"Magnet Dood","steam_id":76561198364178746,"connected_time":1040000000000,"state":"active","ping":44},{"user_id":707,"name":"rin","steam_id":76561198155841915,"connected_time":1093000000000,"state":"active","ping":61},{"user_id":717,"name":"RocketRabbit","steam_id":76561198803062131,"connected_time":610000000000,"state":"active","ping":56},{"user_id":668,"name":"Uwu Micster","steam_id":76561198843890616,"connected_time":3403000000000,"state":"active","ping":78},{"user_id":711,"name":"zigs","steam_id":76561198154084372,"connected_time":1032000000000,"state":"active","ping":180},{"user_id":691,"name":"OH BOY","steam_id":76561199052273428,"connected_time":2487000000000,"state":"active","ping":51},{"user_id":706,"name":"Azalea","steam_id":76561198105514182,"connected_time":1104000000000,"state":"active","ping":162},{"user_id":682,"name":"Boston","steam_id":76561198061078236,"connected_time":2901000000000,"state":"active","ping":75},{"user_id":669,"name":"Praise_to_the_Flashlight!","steam_id":76561199001728789,"connected_time":3356000000000,"state":"active","ping":63},{"user_id":704,"name":"Rudy","steam_id":76561198013456828,"connected_time":1221000000000,"state":"active","ping":60},{"user_id":720,"name":"Rein","steam_id":76561198300340427,"connected_time":75000000000,"state":"active","ping":60},{"user_id":686,"name":"Daft","steam_id":76561198091212723,"connected_time":2810000000000,"state":"active","ping":72},{"user_id":697,"name":"rynz500","steam_id":76561198043872361,"connected_time":1532000000000,"state":"active","ping":80},{"user_id":713,"name":"Rocky","steam_id":76561198048158539,"connected_time":1023000000000,"state":"active","ping":63},{"user_id":688,"name":"Oops","steam_id":76561198015032646,"connected_time":2778000000000,"state":"active","ping":104},{"user_id":670,"name":"The strongest â‘¨ ball","steam_id":76561198126760743,"connected_time":3245000000000,"state":"active","ping":72},{"user_id":689,"name":"CyberWolfe","steam_id":76561198024624367,"connected_time":2777000000000,"state":"active","ping":64},{"user_id":719,"name":"Tibalt Nyahuma","steam_id":76561198034779431,"connected_time":432000000000,"state":"active","ping":64}]},{"server_id":106,"name":"Uncletopia | Chicago | 2 | All Maps","name_short":"chi-2","host":"chi-1.us.uncletopia.com","port":27025,"enabled":true,"region":"us-central","cc":"us","latitude":41.881832,"longitude":-87.62318,"reserved":0,"last_update":"0001-01-01T00:00:00Z","name_a2s":"Uncletopia | Chicago | 2 | All Maps","protocol":17,"map":"pl_badwater","folder":"tf","game":"Team Fortress","app_id":440,"player_count":24,"max_players":24,"Bots":0,"server_type":"Dedicated","server_os":"Linux","password":true,"vac":true,"version":"7961495","steam_id":85568392924469985,"keywords":["nocrits","nodmgspread","payload","uncletopia"],"game_id":440,"stv_port":27026,"stv_name":"Uncletopia | Chicago | 2 | All Maps | STV","players":[{"user_id":765,"name":"SofaKing","steam_id":76561198176691859,"connected_time":4461000000000,"state":"active","ping":90},{"user_id":823,"name":"gogurt","steam_id":76561199051096093,"connected_time":478000000000,"state":"active","ping":60},{"user_id":815,"name":"Dwanor","steam_id":76561198039571887,"connected_time":1273000000000,"state":"active","ping":74},{"user_id":819,"name":"yesod","steam_id":76561198212866289,"connected_time":837000000000,"state":"active","ping":88},{"user_id":820,"name":"wtf is a headshot","steam_id":76561198799224408,"connected_time":813000000000,"state":"active","ping":53},{"user_id":814,"name":"CheekiBreeki","steam_id":76561198008596138,"connected_time":1599000000000,"state":"active","ping":73},{"user_id":824,"name":"Grundle Thunder","steam_id":76561197960790338,"connected_time":432000000000,"state":"active","ping":75},{"user_id":808,"name":"SPYCHECK ME","steam_id":76561198980994364,"connected_time":2038000000000,"state":"active","ping":91},{"user_id":810,"name":"NotoriousThicc","steam_id":76561198244650474,"connected_time":2006000000000,"state":"active","ping":91},{"user_id":782,"name":"Sentinel","steam_id":76561198057008450,"connected_time":3887000000000,"state":"active","ping":76},{"user_id":805,"name":"tack","steam_id":76561198408477421,"connected_time":2196000000000,"state":"active","ping":78},{"user_id":803,"name":"EvilPi99let","steam_id":76561197987243470,"connected_time":2450000000000,"state":"active","ping":72},{"user_id":756,"name":"Harry S. Truman","steam_id":76561197993339757,"connected_time":4674000000000,"state":"active","ping":73},{"user_id":812,"name":"DanFango","steam_id":76561198078300753,"connected_time":1760000000000,"state":"active","ping":67},{"user_id":825,"name":"BiggFoot","steam_id":76561197998605599,"connected_time":432000000000,"state":"active","ping":65},{"user_id":821,"name":"wheat","steam_id":76561197971158435,"connected_time":722000000000,"state":"active","ping":53},{"user_id":822,"name":"sheep","steam_id":76561198994761483,"connected_time":714000000000,"state":"active","ping":75},{"user_id":793,"name":"craven","steam_id":76561198088191503,"connected_time":3027000000000,"state":"active","ping":77},{"user_id":826,"name":"Crescent","steam_id":76561198095124633,"connected_time":429000000000,"state":"active","ping":77},{"user_id":759,"name":"Spooky Boo","steam_id":76561198078213827,"connected_time":4571000000000,"state":"active","ping":60},{"user_id":828,"name":"guy","steam_id":76561198163306561,"connected_time":260000000000,"state":"active","ping":75},{"user_id":779,"name":"Mr. Tickle","steam_id":76561198126684647,"connected_time":4056000000000,"state":"active","ping":75},{"user_id":787,"name":"Overwatch's PvE Mode","steam_id":76561198046127710,"connected_time":3278000000000,"state":"active","ping":56}]},{"server_id":402,"name":"Uncletopia | Chicago | 3 | All Maps","name_short":"chi-3","host":"chi-1.us.uncletopia.com","port":27035,"enabled":true,"region":"us-central","cc":"us","latitude":41.881832,"longitude":-87.62318,"reserved":0,"last_update":"0001-01-01T00:00:00Z","name_a2s":"Uncletopia | Chicago | 3 | All Maps","protocol":17,"map":"pl_pier","folder":"tf","game":"Team Fortress","app_id":440,"player_count":8,"max_players":24,"Bots":0,"server_type":"Dedicated","server_os":"Linux","password":true,"vac":true,"version":"7961495","steam_id":85568392924515191,"keywords":["nocrits","nodmgspread","payload","uncletopia"],"game_id":440,"stv_port":27036,"stv_name":"Uncletopia | Chicago | 3 | All Maps | STV","players":[{"user_id":765,"name":"RusticCarp42989","steam_id":76561198361151865,"connected_time":1258000000000,"state":"active","ping":112},{"user_id":773,"name":"AidenSpot","steam_id":76561198324152195,"connected_time":45000000000,"state":"spawning","ping":63},{"user_id":772,"name":"MadDog519","steam_id":76561198300793796,"connected_time":204000000000,"state":"active","ping":51},{"user_id":768,"name":"IcyScrumpy","steam_id":76561198084605065,"connected_time":986000000000,"state":"active","ping":52},{"user_id":770,"name":"GuyGoom","steam_id":76561198254522178,"connected_time":556000000000,"state":"active","ping":60},{"user_id":771,"name":"the.land.of.avalon","steam_id":76561198245431668,"connected_time":524000000000,"state":"active","ping":60},{"user_id":721,"name":"Amoxicilina","steam_id":76561198168486429,"connected_time":5668000000000,"state":"active","ping":106},{"user_id":716,"name":"SiltyStar85","steam_id":76561198309175923,"connected_time":6006000000000,"state":"active","ping":90}]},{"server_id":403,"name":"Uncletopia | Chicago | 4 | All Maps","name_short":"chi-4","host":"chi-1.us.uncletopia.com","port":27045,"enabled":true,"region":"us-central","cc":"us","latitude":41.881832,"longitude":-87.62318,"reserved":0,"last_update":"0001-01-01T00:00:00Z","name_a2s":"Uncletopia | Chicago | 4 | All Maps","protocol":17,"map":"pl_pier","folder":"tf","game":"Team Fortress","app_id":440,"player_count":24,"max_players":24,"Bots":0,"server_type":"Dedicated","server_os":"Linux","password":true,"vac":true,"version":"7961495","steam_id":85568392924515193,"keywords":["nocrits","nodmgspread","payload","uncletopia"],"game_id":440,"stv_port":27046,"stv_name":"Uncletopia | Chicago | 4 | All Maps | STV","players":[{"user_id":447,"name":"Uh Oh!","steam_id":76561197981137624,"connected_time":1536000000000,"state":"active","ping":85},{"user_id":452,"name":"Randy \"the Man\" Johnson","steam_id":76561198039124445,"connected_time":1260000000000,"state":"active","ping":130},{"user_id":448,"name":"Alphatass","steam_id":76561197992442602,"connected_time":1480000000000,"state":"active","ping":64},{"user_id":411,"name":"Lennu","steam_id":76561198060730154,"connected_time":3964000000000,"state":"active","ping":72},{"user_id":449,"name":"rice","steam_id":76561198119326733,"connected_time":1458000000000,"state":"active","ping":67},{"user_id":450,"name":"homo habib","steam_id":76561198122943559,"connected_time":1402000000000,"state":"active","ping":57},{"user_id":453,"name":"MausWaffles","steam_id":76561198193160991,"connected_time":1181000000000,"state":"active","ping":71},{"user_id":454,"name":"Teresa","steam_id":76561198117231802,"connected_time":1167000000000,"state":"active","ping":59},{"user_id":414,"name":"Brandino!","steam_id":76561198000446932,"connected_time":3837000000000,"state":"active","ping":69},{"user_id":416,"name":"Ghost Kaisar","steam_id":76561198103629357,"connected_time":3693000000000,"state":"active","ping":68},{"user_id":424,"name":"Reaganomics","steam_id":76561199106877333,"connected_time":3460000000000,"state":"active","ping":109},{"user_id":410,"name":"Uluyo","steam_id":76561198065857148,"connected_time":4330000000000,"state":"active","ping":55},{"user_id":442,"name":"Thunder","steam_id":76561198097721532,"connected_time":1881000000000,"state":"active","ping":111},{"user_id":460,"name":"Dread S'wit N'wah","steam_id":76561198059216451,"connected_time":588000000000,"state":"active","ping":82},{"user_id":462,"name":"theconqueror","steam_id":76561199229806456,"connected_time":558000000000,"state":"active","ping":53},{"user_id":458,"name":"Blubman7","steam_id":76561198254718283,"connected_time":898000000000,"state":"active","ping":76},{"user_id":437,"name":"most.epic.brony.2002","steam_id":76561198075510786,"connected_time":1952000000000,"state":"active","ping":64},{"user_id":459,"name":"TacoMan4Life","steam_id":76561198832562728,"connected_time":892000000000,"state":"active","ping":106},{"user_id":440,"name":"St4pps","steam_id":76561198449842958,"connected_time":1909000000000,"state":"active","ping":61},{"user_id":408,"name":"Fatpoob","steam_id":76561198056730096,"connected_time":4457000000000,"state":"active","ping":52},{"user_id":445,"name":"Dr Oshawott","steam_id":76561198042021629,"connected_time":1691000000000,"state":"active","ping":59},{"user_id":444,"name":"HurRhombus","steam_id":76561198080839440,"connected_time":1753000000000,"state":"active","ping":65},{"user_id":446,"name":"Konyuna","steam_id":76561198067951988,"connected_time":1663000000000,"state":"active","ping":63},{"user_id":443,"name":"inx_is_trans","steam_id":76561198223991316,"connected_time":1827000000000,"state":"active","ping":79}]},{"server_id":36,"name":"Uncletopia | Chicago | 5 | All Maps","name_short":"chi-5","host":"chi-2.us.uncletopia.com","port":27015,"enabled":true,"region":"us-central","cc":"us","latitude":41.881832,"longitude":-87.62318,"reserved":0,"last_update":"0001-01-01T00:00:00Z","name_a2s":"Uncletopia | Chicago | 5 | All Maps","protocol":17,"map":"pl_swiftwater_final1","folder":"tf","game":"Team Fortress","app_id":440,"player_count":24,"max_players":24,"Bots":0,"server_type":"Dedicated","server_os":"Linux","password":true,"vac":true,"version":"7961495","steam_id":85568392924866362,"keywords":["nocrits","nodmgspread","payload","uncletopia"],"game_id":440,"stv_port":27016,"stv_name":"Uncletopia | Chicago | 5 | All Maps | STV","players":[{"user_id":264,"name":"bengineer","steam_id":76561198171912174,"connected_time":234000000000,"state":"active","ping":88},{"user_id":241,"name":"twix","steam_id":76561198040912048,"connected_time":2782000000000,"state":"active","ping":59},{"user_id":265,"name":"lytewerk","steam_id":76561198002819791,"connected_time":233000000000,"state":"active","ping":73},{"user_id":237,"name":"beebo babbo","steam_id":76561198097175164,"connected_time":2868000000000,"state":"active","ping":59},{"user_id":273,"name":"astrobob911","steam_id":76561199099110654,"connected_time":70000000000,"state":"active","ping":64},{"user_id":262,"name":"MacawAbalone","steam_id":76561198015127948,"connected_time":378000000000,"state":"active","ping":39},{"user_id":220,"name":"panzerkampfwagen xi schlange","steam_id":76561198006883248,"connected_time":3658000000000,"state":"active","ping":76},{"user_id":267,"name":"oppenheimer style","steam_id":76561198026664629,"connected_time":142000000000,"state":"active","ping":59},{"user_id":257,"name":"milk then cereal","steam_id":76561198047168548,"connected_time":1168000000000,"state":"active","ping":104},{"user_id":223,"name":"IBA Chandler","steam_id":76561198403649648,"connected_time":3542000000000,"state":"active","ping":52},{"user_id":228,"name":"Medici","steam_id":76561198310130481,"connected_time":3224000000000,"state":"active","ping":76},{"user_id":268,"name":"Microsoft Hollowpoint","steam_id":76561198874445824,"connected_time":137000000000,"state":"active","ping":71},{"user_id":124,"name":"NvAka","steam_id":76561199044781490,"connected_time":8693000000000,"state":"active","ping":66},{"user_id":269,"name":"BLÃ˜RG","steam_id":76561198036126673,"connected_time":122000000000,"state":"active","ping":79},{"user_id":270,"name":"HenryHJ","steam_id":76561198206291528,"connected_time":112000000000,"state":"active","ping":98},{"user_id":192,"name":"fish (2:3)","steam_id":76561198134331073,"connected_time":5212000000000,"state":"active","ping":101},{"user_id":240,"name":"[`420`] FADED THAN A HOE","steam_id":76561198058540459,"connected_time":2831000000000,"state":"active","ping":67},{"user_id":232,"name":"Envi","steam_id":76561198040700667,"connected_time":3113000000000,"state":"active","ping":49},{"user_id":263,"name":"Shulgin_4-HO_MET","steam_id":76561198038784254,"connected_time":336000000000,"state":"active","ping":52},{"user_id":234,"name":"shrrrk","steam_id":76561198006029693,"connected_time":3106000000000,"state":"active","ping":73},{"user_id":274,"name":"HopeDaGamer","steam_id":76561199487262348,"connected_time":7000000000,"state":"spawning","ping":192},{"user_id":272,"name":"Steggoman","steam_id":76561198202219235,"connected_time":75000000000,"state":"active","ping":83},{"user_id":245,"name":"tap to collect gold","steam_id":76561198822328368,"connected_time":2636000000000,"state":"active","ping":135},{"user_id":243,"name":"Large Man","steam_id":76561198880396651,"connected_time":2749000000000,"state":"active","ping":83}]},{"server_id":37,"name":"Uncletopia | Chicago | 6 | All Maps","name_short":"chi-6","host":"chi-2.us.uncletopia.com","port":27025,"enabled":true,"region":"us-central","cc":"us","latitude":41.881832,"longitude":-87.62318,"reserved":0,"last_update":"0001-01-01T00:00:00Z","name_a2s":"Uncletopia | Chicago | 6 | All Maps","protocol":17,"map":"pl_borneo","folder":"tf","game":"Team Fortress","app_id":440,"player_count":24,"max_players":24,"Bots":0,"server_type":"Dedicated","server_os":"Linux","password":true,"vac":true,"version":"7961495","steam_id":85568392924866363,"keywords":["nocrits","nodmgspread","payload","uncletopia"],"game_id":440,"stv_port":27026,"stv_name":"Uncletopia | Chicago | 6 | All Maps | STV","players":[{"user_id":308,"name":"StudioMania (#SAVETF2)","steam_id":76561198211315795,"connected_time":2525000000000,"state":"active","ping":66},{"user_id":336,"name":"zach.moore11","steam_id":76561199248933027,"connected_time":229000000000,"state":"active","ping":87},{"user_id":276,"name":"wagoogus","steam_id":76561198050618142,"connected_time":4743000000000,"state":"active","ping":92},{"user_id":285,"name":"rachel","steam_id":76561198052588144,"connected_time":3430000000000,"state":"active","ping":80},{"user_id":323,"name":"kicks","steam_id":76561199228854923,"connected_time":1444000000000,"state":"active","ping":46},{"user_id":342,"name":"Emerald_Knight","steam_id":76561198067372868,"connected_time":87000000000,"state":"spawning","ping":42},{"user_id":339,"name":"big boobs","steam_id":76561198151150175,"connected_time":174000000000,"state":"active","ping":57},{"user_id":310,"name":"Elias","steam_id":76561198106431732,"connected_time":2467000000000,"state":"active","ping":52},{"user_id":254,"name":"whirlybird","steam_id":76561198353887173,"connected_time":5770000000000,"state":"active","ping":48},{"user_id":333,"name":"REspecWizard","steam_id":76561198097950624,"connected_time":879000000000,"state":"active","ping":87},{"user_id":337,"name":"onion","steam_id":76561198242311084,"connected_time":225000000000,"state":"active","ping":54},{"user_id":335,"name":"steven","steam_id":76561198173047169,"connected_time":831000000000,"state":"active","ping":60},{"user_id":326,"name":"Shmashing Zilla","steam_id":76561198071829822,"connected_time":1367000000000,"state":"active","ping":60},{"user_id":317,"name":"Scarecrow","steam_id":76561198045870511,"connected_time":1950000000000,"state":"active","ping":57},{"user_id":325,"name":"weird bite","steam_id":76561198043757637,"connected_time":1392000000000,"state":"active","ping":70},{"user_id":343,"name":"Guts","steam_id":76561198436383373,"connected_time":19000000000,"state":"spawning","ping":131},{"user_id":296,"name":"Your Loyal Familiar","steam_id":76561198106476075,"connected_time":2923000000000,"state":"active","ping":81},{"user_id":329,"name":"BurritoCat","steam_id":76561198059822805,"connected_time":1243000000000,"state":"active","ping":91},{"user_id":330,"name":"Soda","steam_id":76561198219209367,"connected_time":1206000000000,"state":"active","ping":62},{"user_id":331,"name":"FleurDeLys","steam_id":76561198060364393,"connected_time":1176000000000,"state":"active","ping":59},{"user_id":322,"name":"Talented","steam_id":76561198800259660,"connected_time":1604000000000,"state":"active","ping":62},{"user_id":320,"name":"I Forgor ðŸ’€","steam_id":76561199067947433,"connected_time":1886000000000,"state":"active","ping":85},{"user_id":332,"name":"MasterCrafter27","steam_id":76561198151035981,"connected_time":1158000000000,"state":"active","ping":102},{"user_id":338,"name":"TRIPLE AAARON","steam_id":76561198066835150,"connected_time":225000000000,"state":"active","ping":61}]},{"server_id":38,"name":"Uncletopia | Chicago | 7 | Stopwatch","name_short":"chi-7","host":"chi-2.us.uncletopia.com","port":27035,"enabled":true,"region":"us-central","cc":"us","latitude":41.881832,"longitude":-87.62318,"reserved":0,"last_update":"0001-01-01T00:00:00Z","name_a2s":"Uncletopia | Chicago | 7 | Stopwatch","protocol":17,"map":"pl_swiftwater_final1","folder":"tf","game":"Team Fortress","app_id":440,"player_count":0,"max_players":24,"Bots":0,"server_type":"Dedicated","server_os":"Linux","password":true,"vac":true,"version":"7961495","steam_id":85568392924866364,"keywords":["nocrits","nodmgspread","payload","uncletopia"],"game_id":440,"stv_port":27036,"stv_name":"Uncletopia | Chicago | 7 | Stopwatch | STV","players":null},{"server_id":39,"name":"Uncletopia | Chicago | 8 | Community","name_short":"chi-8","host":"chi-2.us.uncletopia.com","port":27045,"enabled":true,"region":"us-central","cc":"us","latitude":41.881832,"longitude":-87.62318,"reserved":0,"last_update":"0001-01-01T00:00:00Z","name_a2s":"Uncletopia | Chicago | 8 | Community","protocol":17,"map":"workshop/koth_slaughter_rc1.ugc1712845210","folder":"tf","game":"Team Fortress","app_id":440,"player_count":0,"max_players":24,"Bots":0,"server_type":"Dedicated","server_os":"Linux","password":true,"vac":true,"version":"7961495","steam_id":85568392924866365,"keywords":["cp","nocrits","nodmgspread","uncletopia"],"game_id":440,"stv_port":27046,"stv_name":"Uncletopia | Chicago | 8 | Community | STV","players":null},{"server_id":8,"name":"Uncletopia | Dallas | 1 | All Maps","name_short":"dal-1","host":"dal-1.us.uncletopia.com","port":27015,"enabled":true,"region":"us-central","cc":"us","latitude":32.779167,"longitude":-96.80889,"reserved":0,"last_update":"0001-01-01T00:00:00Z","name_a2s":"Uncletopia | Dallas | 1 | All Maps","protocol":17,"map":"cp_sunshine","folder":"tf","game":"Team Fortress","app_id":440,"player_count":24,"max_players":24,"Bots":0,"server_type":"Dedicated","server_os":"Linux","password":true,"vac":true,"version":"7961495","steam_id":85568392924469986,"keywords":["cp","nocrits","nodmgspread","uncletopia"],"game_id":440,"stv_port":27016,"stv_name":"Uncletopia | Dallas | 1 | All Maps | STV","players":[{"user_id":657,"name":"NOBODY","steam_id":76561198094578887,"connected_time":545000000000,"state":"active","ping":75},{"user_id":658,"name":"PaninuS","steam_id":76561198131996634,"connected_time":358000000000,"state":"active","ping":83},{"user_id":654,"name":"checkswing","steam_id":76561198999816132,"connected_time":965000000000,"state":"active","ping":84},{"user_id":646,"name":"ark","steam_id":76561198041066271,"connected_time":1299000000000,"state":"active","ping":71},{"user_id":647,"name":"TF2C | fac","steam_id":76561198009818412,"connected_time":1290000000000,"state":"active","ping":55},{"user_id":659,"name":"CEO of burger","steam_id":76561198973438214,"connected_time":349000000000,"state":"active","ping":62},{"user_id":630,"name":"zoinks","steam_id":76561198127238003,"connected_time":2173000000000,"state":"active","ping":71},{"user_id":640,"name":"The True Caniac","steam_id":76561198844434119,"connected_time":1596000000000,"state":"active","ping":91},{"user_id":660,"name":"$","steam_id":76561198126247970,"connected_time":347000000000,"state":"active","ping":70},{"user_id":639,"name":"Bogey","steam_id":76561198096227944,"connected_time":1658000000000,"state":"active","ping":65},{"user_id":589,"name":"Yongle","steam_id":76561198068591156,"connected_time":5167000000000,"state":"active","ping":73},{"user_id":649,"name":"this","steam_id":76561197995469460,"connected_time":1283000000000,"state":"active","ping":76},{"user_id":650,"name":"Scrux","steam_id":76561198129763115,"connected_time":1262000000000,"state":"active","ping":75},{"user_id":620,"name":"allahsdroptop (Bag/Chaser)","steam_id":76561198133195238,"connected_time":2648000000000,"state":"active","ping":80},{"user_id":636,"name":"Caster","steam_id":76561198131592341,"connected_time":1878000000000,"state":"active","ping":80},{"user_id":642,"name":"â˜¹","steam_id":76561198804763186,"connected_time":1558000000000,"state":"active","ping":89},{"user_id":597,"name":"A Beer and Wing Combo","steam_id":76561198108400585,"connected_time":4715000000000,"state":"active","ping":67},{"user_id":579,"name":"Spinch","steam_id":76561198296224166,"connected_time":5909000000000,"state":"active","ping":75},{"user_id":602,"name":"Publo","steam_id":76561198161777140,"connected_time":4108000000000,"state":"active","ping":60},{"user_id":652,"name":"Nathan Yeet","steam_id":76561198883966591,"connected_time":1202000000000,"state":"active","ping":75},{"user_id":596,"name":"i gnaw on Funko Popsâ„¢","steam_id":76561199122152458,"connected_time":4736000000000,"state":"active","ping":55},{"user_id":653,"name":"Unlimited_Trees","steam_id":76561198299141443,"connected_time":1192000000000,"state":"active","ping":91},{"user_id":644,"name":"[P-CAN] At\u0026t Home Internet","steam_id":76561198126700526,"connected_time":1515000000000,"state":"active","ping":83},{"user_id":633,"name":"starry","steam_id":76561198989740125,"connected_time":2013000000000,"state":"active","ping":82}]},{"server_id":108,"name":"Uncletopia | Dallas | 2 | All Maps","name_short":"dal-2","host":"dal-1.us.uncletopia.com","port":27025,"enabled":true,"region":"us-central","cc":"us","latitude":32.779167,"longitude":-96.80889,"reserved":0,"last_update":"0001-01-01T00:00:00Z","name_a2s":"Uncletopia | Dallas | 2 | All Maps","protocol":17,"map":"pl_pier","folder":"tf","game":"Team Fortress","app_id":440,"player_count":24,"max_players":24,"Bots":0,"server_type":"Dedicated","server_os":"Linux","password":true,"vac":true,"version":"7961495","steam_id":85568392924469988,"keywords":["nocrits","nodmgspread","payload","uncletopia"],"game_id":440,"stv_port":27026,"stv_name":"Uncletopia | Dallas | 2 | All Maps | STV","players":[{"user_id":422,"name":"Chicken_Teriyaki","steam_id":76561199387433577,"connected_time":600000000000,"state":"active","ping":50},{"user_id":415,"name":"Schizo Femboy","steam_id":76561199162627150,"connected_time":825000000000,"state":"active","ping":129},{"user_id":423,"name":"sithreis","steam_id":76561198000564263,"connected_time":554000000000,"state":"active","ping":75},{"user_id":424,"name":"King","steam_id":76561198010019214,"connected_time":540000000000,"state":"active","ping":84},{"user_id":428,"name":"Dreamzapp","steam_id":76561199084936632,"connected_time":102000000000,"state":"active","ping":86},{"user_id":429,"name":"Stillkill","steam_id":76561198065069057,"connected_time":95000000000,"state":"active","ping":41},{"user_id":412,"name":"AlecTheNefarious","steam_id":76561198035291230,"connected_time":890000000000,"state":"active","ping":51},{"user_id":425,"name":"fish","steam_id":76561198111396488,"connected_time":490000000000,"state":"active","ping":50},{"user_id":413,"name":"Dr. W0lv","steam_id":76561198129237487,"connected_time":889000000000,"state":"active","ping":59},{"user_id":416,"name":"Chicken1178","steam_id":76561199396985158,"connected_time":821000000000,"state":"active","ping":112},{"user_id":430,"name":"Jaded","steam_id":76561198272575611,"connected_time":68000000000,"state":"active","ping":61},{"user_id":431,"name":"turnip","steam_id":76561197999375941,"connected_time":58000000000,"state":"active","ping":67},{"user_id":379,"name":"lanoc","steam_id":76561198055415367,"connected_time":4076000000000,"state":"active","ping":65},{"user_id":380,"name":"Monday","steam_id":76561198310811821,"connected_time":4066000000000,"state":"active","ping":98},{"user_id":364,"name":"RockiMtnOystr","steam_id":76561198106915405,"connected_time":5555000000000,"state":"active","ping":88},{"user_id":381,"name":"java","steam_id":76561198030276792,"connected_time":4045000000000,"state":"active","ping":69},{"user_id":265,"name":"Harbor Seal","steam_id":76561198162631724,"connected_time":12414000000000,"state":"active","ping":89},{"user_id":417,"name":"The Devious DOOBIE Doer","steam_id":76561199263588898,"connected_time":696000000000,"state":"active","ping":90},{"user_id":403,"name":"Pontifex","steam_id":76561198013016489,"connected_time":2030000000000,"state":"active","ping":57},{"user_id":432,"name":"Pestilence","steam_id":76561198272327629,"connected_time":57000000000,"state":"active","ping":85},{"user_id":433,"name":"guts' theme (Cut \u0026 Looped)","steam_id":76561198012829728,"connected_time":48000000000,"state":"active","ping":63},{"user_id":418,"name":"Dingus","steam_id":76561198121488783,"connected_time":689000000000,"state":"active","ping":90},{"user_id":419,"name":"FiddyFoMike","steam_id":76561198057072581,"connected_time":674000000000,"state":"active","ping":94},{"user_id":420,"name":"-W3E- grim10465","steam_id":76561198045698581,"connected_time":654000000000,"state":"active","ping":90}]},{"server_id":404,"name":"Uncletopia | Dallas | 3 | All Maps","name_short":"dal-3","host":"dal-1.us.uncletopia.com","port":27035,"enabled":true,"region":"us-central","cc":"us","latitude":32.779167,"longitude":-96.80889,"reserved":0,"last_update":"0001-01-01T00:00:00Z","name_a2s":"Uncletopia | Dallas | 3 | All Maps","protocol":17,"map":"pl_borneo","folder":"tf","game":"Team Fortress","app_id":440,"player_count":10,"max_players":24,"Bots":0,"server_type":"Dedicated","server_os":"Linux","password":true,"vac":true,"version":"7961495","steam_id":85568392924515219,"keywords":["nocrits","nodmgspread","payload","uncletopia"],"game_id":440,"stv_port":27036,"stv_name":"Uncletopia | Dallas | 3 | All Maps | STV","players":[{"user_id":595,"name":"LORDMARF","steam_id":76561198143122675,"connected_time":976000000000,"state":"active","ping":50},{"user_id":596,"name":"AbnerSquared","steam_id":76561198146428192,"connected_time":944000000000,"state":"active","ping":44},{"user_id":597,"name":"nickname","steam_id":76561198994984181,"connected_time":938000000000,"state":"active","ping":76},{"user_id":598,"name":"DudeGuy","steam_id":76561198316165460,"connected_time":938000000000,"state":"active","ping":70},{"user_id":599,"name":"HawkeyeWill","steam_id":76561198101899251,"connected_time":935000000000,"state":"active","ping":45},{"user_id":600,"name":"PuzzledRadish","steam_id":76561198085357114,"connected_time":930000000000,"state":"active","ping":50},{"user_id":601,"name":"Rabbit01000","steam_id":76561198279656719,"connected_time":929000000000,"state":"active","ping":76},{"user_id":602,"name":"ButtFaceMcGee","steam_id":76561198137905725,"connected_time":926000000000,"state":"active","ping":80},{"user_id":605,"name":"Doloro :3","steam_id":76561198309713613,"connected_time":357000000000,"state":"active","ping":181},{"user_id":604,"name":"put fentanyl back in pepsi","steam_id":76561198238592900,"connected_time":814000000000,"state":"active","ping":62}]},{"server_id":405,"name":"Uncletopia | Dallas | 4 | Community","name_short":"dal-4","host":"dal-1.us.uncletopia.com","port":27045,"enabled":true,"region":"us-central","cc":"us","latitude":32.779167,"longitude":-96.80889,"reserved":0,"last_update":"0001-01-01T00:00:00Z","name_a2s":"Uncletopia | Dallas | 4 | Community","protocol":17,"map":"workshop/pl_emerge_rc2.ugc888027758","folder":"tf","game":"Team Fortress","app_id":440,"player_count":23,"max_players":24,"Bots":0,"server_type":"Dedicated","server_os":"Linux","password":true,"vac":true,"version":"7961495","steam_id":85568392924515220,"keywords":["nocrits","nodmgspread","payload","uncletopia"],"game_id":440,"stv_port":27046,"stv_name":"Uncletopia | Dallas | 4 | Community | STV","players":[{"user_id":201,"name":"Luglige","steam_id":76561198094827948,"connected_time":1697000000000,"state":"active","ping":75},{"user_id":227,"name":"Yayan","steam_id":76561199174728461,"connected_time":49000000000,"state":"active","ping":169},{"user_id":197,"name":"KennytheHedgehog","steam_id":76561198094607721,"connected_time":1794000000000,"state":"active","ping":47},{"user_id":196,"name":"Cheesed Burger","steam_id":76561198066425198,"connected_time":1808000000000,"state":"active","ping":80},{"user_id":218,"name":"Overly aggressive Medic","steam_id":76561199088677539,"connected_time":582000000000,"state":"active","ping":52},{"user_id":219,"name":"ham and cheese and tomato","steam_id":76561198135559825,"connected_time":530000000000,"state":"active","ping":53},{"user_id":214,"name":"Ghostmeal","steam_id":76561198042380299,"connected_time":1155000000000,"state":"active","ping":43},{"user_id":226,"name":"type \"bad med\" to kick","steam_id":76561198076402476,"connected_time":129000000000,"state":"active","ping":86},{"user_id":199,"name":"Cahootles","steam_id":76561198056407485,"connected_time":1785000000000,"state":"active","ping":44},{"user_id":177,"name":"Eadric Zena","steam_id":76561198115996489,"connected_time":2657000000000,"state":"active","ping":82},{"user_id":221,"name":"BananaMangoFestival2013","steam_id":76561198218558897,"connected_time":514000000000,"state":"active","ping":147},{"user_id":210,"name":"104mormo","steam_id":76561199438101125,"connected_time":1315000000000,"state":"active","ping":49},{"user_id":194,"name":"Lezabel","steam_id":76561198970753261,"connected_time":1863000000000,"state":"active","ping":74},{"user_id":222,"name":"Silverkeys","steam_id":76561197986012496,"connected_time":442000000000,"state":"active","ping":75},{"user_id":203,"name":"SpycyNoodles","steam_id":76561198309439750,"connected_time":1680000000000,"state":"active","ping":49},{"user_id":204,"name":"ethan434","steam_id":76561198133113490,"connected_time":1666000000000,"state":"active","ping":79},{"user_id":224,"name":"vioxynteris","steam_id":76561198161428666,"connected_time":290000000000,"state":"active","ping":63},{"user_id":211,"name":"Scrooge McCuck","steam_id":76561198045919938,"connected_time":1208000000000,"state":"active","ping":42},{"user_id":225,"name":"Genderneutron","steam_id":76561199022773775,"connected_time":263000000000,"state":"active","ping":74},{"user_id":228,"name":"Nortel Network Telephone T7316","steam_id":76561198399261089,"connected_time":38000000000,"state":"active","ping":76},{"user_id":195,"name":"Sulius","steam_id":76561198017151981,"connected_time":1823000000000,"state":"active","ping":60},{"user_id":208,"name":"xbox record that","steam_id":76561198150117455,"connected_time":1443000000000,"state":"active","ping":77},{"user_id":216,"name":"sephrase","steam_id":76561198074398425,"connected_time":1052000000000,"state":"active","ping":72}]},{"server_id":5,"name":"Uncletopia | Frankfurt | 1 | All Maps","name_short":"frk-1","host":"frk-1.de.uncletopia.com","port":27015,"enabled":true,"region":"eu","cc":"de","latitude":50.110924,"longitude":8.682127,"reserved":0,"last_update":"0001-01-01T00:00:00Z","name_a2s":"Uncletopia | Frankfurt | 1 | All Maps","protocol":17,"map":"cp_badlands","folder":"tf","game":"Team Fortress","app_id":440,"player_count":0,"max_players":24,"Bots":0,"server_type":"Dedicated","server_os":"Linux","password":true,"vac":true,"version":"7961495","steam_id":85568392924469989,"keywords":["cp","nocrits","nodmgspread","uncletopia"],"game_id":440,"stv_port":27016,"stv_name":"Uncletopia | Frankfurt | 1 | All Maps | STV","players":null},{"server_id":110,"name":"Uncletopia | Frankfurt | 2 | All Maps","name_short":"frk-2","host":"frk-1.de.uncletopia.com","port":27025,"enabled":true,"region":"eu","cc":"de","latitude":50.110924,"longitude":8.682127,"reserved":0,"last_update":"0001-01-01T00:00:00Z","name_a2s":"Uncletopia | Frankfurt | 2 | All Maps","protocol":17,"map":"plr_hightower","folder":"tf","game":"Team Fortress","app_id":440,"player_count":0,"max_players":24,"Bots":0,"server_type":"Dedicated","server_os":"Linux","password":true,"vac":true,"version":"7961495","steam_id":85568392924469990,"keywords":["nocrits","nodmgspread","payload","uncletopia"],"game_id":440,"stv_port":27026,"stv_name":"Uncletopia | Frankfurt | 2 | All Maps | STV","players":null},{"server_id":308,"name":"Uncletopia | Frankfurt | 3 | All Maps","name_short":"frk-3","host":"frk-1.de.uncletopia.com","port":27035,"enabled":true,"region":"eu","cc":"de","latitude":50.110924,"longitude":8.682127,"reserved":0,"last_update":"0001-01-01T00:00:00Z","name_a2s":"Uncletopia | Frankfurt | 3 | All Maps","protocol":17,"map":"cp_metalworks","folder":"tf","game":"Team Fortress","app_id":440,"player_count":0,"max_players":24,"Bots":0,"server_type":"Dedicated","server_os":"Linux","password":true,"vac":true,"version":"7961495","steam_id":85568392924504274,"keywords":["cp","nocrits","nodmgspread","uncletopia"],"game_id":440,"stv_port":27036,"stv_name":"Uncletopia | Frankfurt | 3 | All Maps | STV","players":null},{"server_id":309,"name":"Uncletopia | Frankfurt | 4 | All Maps","name_short":"frk-4","host":"frk-1.de.uncletopia.com","port":27045,"enabled":true,"region":"eu","cc":"de","latitude":50.110924,"longitude":8.682127,"reserved":0,"last_update":"0001-01-01T00:00:00Z","name_a2s":"Uncletopia | Frankfurt | 4 | All Maps","protocol":17,"map":"cp_gorge","folder":"tf","game":"Team Fortress","app_id":440,"player_count":0,"max_players":24,"Bots":0,"server_type":"Dedicated","server_os":"Linux","password":true,"vac":true,"version":"7961495","steam_id":85568392924504275,"keywords":["cp","nocrits","nodmgspread","uncletopia"],"game_id":440,"stv_port":27046,"stv_name":"Uncletopia | Frankfurt | 4 | All Maps | STV","players":null},{"server_id":310,"name":"Uncletopia | Frankfurt | 5 | All Maps","name_short":"frk-5","host":"frk-1.de.uncletopia.com","port":27055,"enabled":true,"region":"eu","cc":"de","latitude":50.110924,"longitude":8.682127,"reserved":0,"last_update":"0001-01-01T00:00:00Z","name_a2s":"Uncletopia | Frankfurt | 5 | All Maps","protocol":17,"map":"cp_mountainlab","folder":"tf","game":"Team Fortress","app_id":440,"player_count":0,"max_players":24,"Bots":0,"server_type":"Dedicated","server_os":"Linux","password":true,"vac":true,"version":"7961495","steam_id":85568392924504277,"keywords":["cp","nocrits","nodmgspread","uncletopia"],"game_id":440,"stv_port":27056,"stv_name":"Uncletopia | Frankfurt | 5 | All Maps | STV","players":null},{"server_id":311,"name":"Uncletopia | Frankfurt | 6 | All Maps","name_short":"frk-6","host":"frk-1.de.uncletopia.com","port":27065,"enabled":true,"region":"eu","cc":"de","latitude":50.110924,"longitude":8.682127,"reserved":0,"last_update":"0001-01-01T00:00:00Z","name_a2s":"Uncletopia | Frankfurt | 6 | All Maps","protocol":17,"map":"cp_coldfront","folder":"tf","game":"Team Fortress","app_id":440,"player_count":0,"max_players":24,"Bots":0,"server_type":"Dedicated","server_os":"Linux","password":true,"vac":true,"version":"7961495","steam_id":85568392924504278,"keywords":["cp","nocrits","nodmgspread","uncletopia"],"game_id":440,"stv_port":27066,"stv_name":"Uncletopia | Frankfurt | 6 | All Maps | STV","players":null},{"server_id":23,"name":"Uncletopia | Frankfurt | 7 | Stopwatch","name_short":"frk-7","host":"frk-1.de.uncletopia.com","port":27075,"enabled":true,"region":"eu","cc":"de","latitude":50.110924,"longitude":8.682127,"reserved":0,"last_update":"0001-01-01T00:00:00Z","name_a2s":"Uncletopia | Frankfurt | 7 | Stopwatch","protocol":17,"map":"cp_sunshine","folder":"tf","game":"Team Fortress","app_id":440,"player_count":0,"max_players":24,"Bots":0,"server_type":"Dedicated","server_os":"Linux","password":true,"vac":true,"version":"7961495","steam_id":85568392924742827,"keywords":["cp","nocrits","nodmgspread","uncletopia"],"game_id":440,"stv_port":27076,"stv_name":"Uncletopia | Frankfurt | 7 | Stopwatch | STV","players":null},{"server_id":24,"name":"Uncletopia | Frankfurt | 8 | Community","name_short":"frk-8","host":"frk-1.de.uncletopia.com","port":27085,"enabled":true,"region":"eu","cc":"de","latitude":50.110924,"longitude":8.682127,"reserved":0,"last_update":"0001-01-01T00:00:00Z","name_a2s":"Uncletopia | Frankfurt | 8 | Community","protocol":17,"map":"workshop/pl_boundary_final1.ugc456799153","folder":"tf","game":"Team Fortress","app_id":440,"player_count":0,"max_players":24,"Bots":0,"server_type":"Dedicated","server_os":"Linux","password":true,"vac":true,"version":"7961495","steam_id":85568392924742828,"keywords":["nocrits","nodmgspread","payload","uncletopia"],"game_id":440,"stv_port":27086,"stv_name":"Uncletopia | Frankfurt | 8 | Community | STV","players":null},{"server_id":202,"name":"Uncletopia | Hong Kong | 1 | All Maps","name_short":"hgk-1","host":"hgk-1.hk.uncletopia.com","port":27015,"enabled":true,"region":"asia","cc":"hk","latitude":22.302711,"longitude":114.177216,"reserved":0,"last_update":"0001-01-01T00:00:00Z","name_a2s":"Uncletopia | Hong Kong | 1 | All Maps","protocol":17,"map":"koth_lakeside_final","folder":"tf","game":"Team Fortress","app_id":440,"player_count":0,"max_players":24,"Bots":0,"server_type":"Dedicated","server_os":"Linux","password":true,"vac":true,"version":"7961495","steam_id":85568392924494504,"keywords":["cp","nocrits","nodmgspread","uncletopia"],"game_id":440,"stv_port":27016,"stv_name":"Uncletopia | Hong Kong | 1 | All Maps | STV","players":null},{"server_id":1,"name":"Uncletopia | Los Angeles | 1 | All Maps","name_short":"lax-1","host":"lax-1.us.uncletopia.com","port":27015,"enabled":true,"region":"us-west","cc":"us","latitude":33.94279,"longitude":-118.41004,"reserved":0,"last_update":"0001-01-01T00:00:00Z","name_a2s":"Uncletopia | Los Angeles | 1 | All Maps","protocol":17,"map":"cp_gorge","folder":"tf","game":"Team Fortress","app_id":440,"player_count":0,"max_players":24,"Bots":0,"server_type":"Dedicated","server_os":"Linux","password":true,"vac":true,"version":"7961495","steam_id":85568392924469991,"keywords":["cp","nocrits","nodmgspread","uncletopia"],"game_id":440,"stv_port":27016,"stv_name":"Uncletopia | Los Angeles | 1 | All Maps | STV","players":null},{"server_id":112,"name":"Uncletopia | Los Angeles | 2 | All Maps","name_short":"lax-2","host":"lax-1.us.uncletopia.com","port":27025,"enabled":true,"region":"us-west","cc":"us","latitude":33.94279,"longitude":-118.41004,"reserved":0,"last_update":"0001-01-01T00:00:00Z","name_a2s":"Uncletopia | Los Angeles | 2 | All Maps","protocol":17,"map":"pl_badwater","folder":"tf","game":"Team Fortress","app_id":440,"player_count":23,"max_players":24,"Bots":0,"server_type":"Dedicated","server_os":"Linux","password":true,"vac":true,"version":"7961495","steam_id":85568392924469992,"keywords":["nocrits","nodmgspread","payload","uncletopia"],"game_id":440,"stv_port":27026,"stv_name":"Uncletopia | Los Angeles | 2 | All Maps | STV","players":[{"user_id":457,"name":"Melon","steam_id":76561199202306398,"connected_time":2286000000000,"state":"active","ping":50},{"user_id":464,"name":"Alcohol Hominid","steam_id":76561198320313950,"connected_time":1751000000000,"state":"active","ping":76},{"user_id":496,"name":"Copy","steam_id":76561198025031590,"connected_time":90000000000,"state":"active","ping":78},{"user_id":487,"name":"HumbDoe","steam_id":76561198065556553,"connected_time":337000000000,"state":"active","ping":50},{"user_id":480,"name":"Frenchy","steam_id":76561198064517370,"connected_time":839000000000,"state":"active","ping":46},{"user_id":481,"name":"ThePalmTopSushi","steam_id":76561198847076153,"connected_time":543000000000,"state":"active","ping":39},{"user_id":488,"name":"RickyDic","steam_id":76561198237366590,"connected_time":335000000000,"state":"active","ping":78},{"user_id":485,"name":"fish man \u003c\u003e\u003c","steam_id":76561198967838535,"connected_time":448000000000,"state":"active","ping":47},{"user_id":489,"name":"Pocky","steam_id":76561199096774182,"connected_time":225000000000,"state":"active","ping":46},{"user_id":469,"name":"renargh","steam_id":76561199494380613,"connected_time":1330000000000,"state":"active","ping":55},{"user_id":475,"name":"Magician357","steam_id":76561198009308255,"connected_time":1210000000000,"state":"active","ping":47},{"user_id":403,"name":"SD","steam_id":76561198217410988,"connected_time":6851000000000,"state":"active","ping":46},{"user_id":484,"name":"Pastaroni","steam_id":76561199114277354,"connected_time":473000000000,"state":"active","ping":62},{"user_id":497,"name":"C3ratops","steam_id":76561198847054264,"connected_time":56000000000,"state":"active","ping":222},{"user_id":483,"name":"Soap Man","steam_id":76561198000490235,"connected_time":512000000000,"state":"active","ping":81},{"user_id":474,"name":"cheezbox","steam_id":76561199088002705,"connected_time":1307000000000,"state":"active","ping":50},{"user_id":486,"name":"Zen Tuna","steam_id":76561198032445362,"connected_time":380000000000,"state":"active","ping":46},{"user_id":491,"name":"â›§ AlphaSatanOmega â›§","steam_id":76561198035125511,"connected_time":156000000000,"state":"active","ping":104},{"user_id":433,"name":"inoricaM","steam_id":76561199199257149,"connected_time":4378000000000,"state":"active","ping":96},{"user_id":492,"name":"Captain Crunch","steam_id":76561199141538581,"connected_time":135000000000,"state":"active","ping":45},{"user_id":493,"name":"Jade","steam_id":76561198092408457,"connected_time":122000000000,"state":"active","ping":74},{"user_id":494,"name":"Captain Buggy","steam_id":76561198024444448,"connected_time":121000000000,"state":"active","ping":61},{"user_id":495,"name":"plsplsplslol","steam_id":76561198868084626,"connected_time":106000000000,"state":"active","ping":37}]},{"server_id":324,"name":"Uncletopia | Los Angeles | 3 | All Maps","name_short":"lax-3","host":"lax-1.us.uncletopia.com","port":27035,"enabled":true,"region":"us-west","cc":"us","latitude":33.94279,"longitude":-118.41004,"reserved":0,"last_update":"0001-01-01T00:00:00Z","name_a2s":"Uncletopia | Los Angeles | 3 | All Maps","protocol":17,"map":"pl_upward","folder":"tf","game":"Team Fortress","app_id":440,"player_count":24,"max_players":24,"Bots":0,"server_type":"Dedicated","server_os":"Linux","password":true,"vac":true,"version":"7961495","steam_id":85568392924510198,"keywords":["nocrits","nodmgspread","payload","uncletopia"],"game_id":440,"stv_port":27036,"stv_name":"Uncletopia | Los Angeles | 3 | All Maps | STV","players":[{"user_id":89,"name":"PS2 EAR RAPE","steam_id":76561198844740037,"connected_time":985000000000,"state":"active","ping":53},{"user_id":83,"name":"FROYO b4nny","steam_id":76561197970669109,"connected_time":2066000000000,"state":"active","ping":52},{"user_id":101,"name":"Admiral","steam_id":76561198200288543,"connected_time":458000000000,"state":"active","ping":54},{"user_id":104,"name":"Ray","steam_id":76561198048011618,"connected_time":53000000000,"state":"active","ping":56},{"user_id":84,"name":"Hobbes","steam_id":76561198087956236,"connected_time":1945000000000,"state":"active","ping":75},{"user_id":91,"name":"Bry-ant","steam_id":76561198091982601,"connected_time":889000000000,"state":"active","ping":90},{"user_id":33,"name":"Sterling Nano","steam_id":76561198048580088,"connected_time":5886000000000,"state":"active","ping":60},{"user_id":92,"name":"walrooos","steam_id":76561198024521839,"connected_time":845000000000,"state":"active","ping":47},{"user_id":95,"name":"toby1673","steam_id":76561198453203619,"connected_time":644000000000,"state":"active","ping":45},{"user_id":102,"name":"Evarrel","steam_id":76561199508242414,"connected_time":454000000000,"state":"active","ping":71},{"user_id":96,"name":"jordanfer111","steam_id":76561198044993097,"connected_time":634000000000,"state":"active","ping":86},{"user_id":68,"name":"Squiggle","steam_id":76561198257197535,"connected_time":3211000000000,"state":"active","ping":43},{"user_id":97,"name":"blobmasterer","steam_id":76561198001131403,"connected_time":571000000000,"state":"active","ping":44},{"user_id":47,"name":"Master Of Whales","steam_id":76561198349104889,"connected_time":4175000000000,"state":"active","ping":42},{"user_id":85,"name":"SoCal Kaizer","steam_id":76561198334361081,"connected_time":1918000000000,"state":"active","ping":48},{"user_id":69,"name":"Ockulus","steam_id":76561199069638460,"connected_time":3062000000000,"state":"active","ping":57},{"user_id":87,"name":"Starfruit66","steam_id":76561198069917277,"connected_time":1768000000000,"state":"active","ping":48},{"user_id":98,"name":"Mix56374","steam_id":76561199093717909,"connected_time":561000000000,"state":"active","ping":50},{"user_id":99,"name":"Chicago Shoplifter","steam_id":76561197986530028,"connected_time":538000000000,"state":"active","ping":89},{"user_id":100,"name":"esoobac","steam_id":76561198010370396,"connected_time":528000000000,"state":"active","ping":77},{"user_id":65,"name":"Chili","steam_id":76561198042942046,"connected_time":3541000000000,"state":"active","ping":89},{"user_id":56,"name":"Ichibanprofen","steam_id":76561199192132061,"connected_time":3953000000000,"state":"active","ping":61},{"user_id":103,"name":"Lambchop","steam_id":76561198043900363,"connected_time":441000000000,"state":"active","ping":61},{"user_id":66,"name":"camp3r | RGL.gg","steam_id":76561197992870439,"connected_time":3535000000000,"state":"active","ping":60}]},{"server_id":25,"name":"Uncletopia | Los Angeles | 4 | Stopwatch","name_short":"lax-4","host":"lax-1.us.uncletopia.com","port":27045,"enabled":true,"region":"us-west","cc":"us","latitude":33.94279,"longitude":-118.41004,"reserved":0,"last_update":"0001-01-01T00:00:00Z","name_a2s":"Uncletopia | Los Angeles | 4 | Stopwatch","protocol":17,"map":"workshop/pl_badwater_pro_v12.ugc2142942074","folder":"tf","game":"Team Fortress","app_id":440,"player_count":0,"max_players":24,"Bots":0,"server_type":"Dedicated","server_os":"Linux","password":true,"vac":true,"version":"7961495","steam_id":85568392924510199,"keywords":["nocrits","nodmgspread","payload","uncletopia"],"game_id":440,"stv_port":27046,"stv_name":"Uncletopia | Los Angeles | 4 | Stopwatch | STV","players":null},{"server_id":11,"name":"Uncletopia | London | 1 | All Maps","name_short":"lon-1","host":"lon-1.uk.uncletopia.com","port":27015,"enabled":true,"region":"eu","cc":"gb","latitude":51.509865,"longitude":-0.118092,"reserved":0,"last_update":"0001-01-01T00:00:00Z","name_a2s":"Uncletopia | London | 1 | All Maps","protocol":17,"map":"koth_nucleus","folder":"tf","game":"Team Fortress","app_id":440,"player_count":0,"max_players":24,"Bots":0,"server_type":"Dedicated","server_os":"Linux","password":true,"vac":true,"version":"7961495","steam_id":85568392924367362,"keywords":["cp","nocrits","nodmgspread","uncletopia"],"game_id":440,"stv_port":27016,"stv_name":"Uncletopia | London | 1 | All Maps | STV","players":null},{"server_id":114,"name":"Uncletopia | London | 2 | All Maps","name_short":"lon-2","host":"lon-1.uk.uncletopia.com","port":27025,"enabled":true,"region":"eu","cc":"gb","latitude":51.509865,"longitude":-0.118092,"reserved":0,"last_update":"0001-01-01T00:00:00Z","name_a2s":"Uncletopia | London | 2 | All Maps","protocol":17,"map":"cp_altitude","folder":"tf","game":"Team Fortress","app_id":440,"player_count":0,"max_players":24,"Bots":0,"server_type":"Dedicated","server_os":"Linux","password":true,"vac":true,"version":"7961495","steam_id":85568392924470941,"keywords":["cp","nocrits","nodmgspread","uncletopia"],"game_id":440,"stv_port":27026,"stv_name":"Uncletopia | London | 2 | All Maps | STV","players":null},{"server_id":320,"name":"Uncletopia | London | 3 | All Maps","name_short":"lon-3","host":"lon-1.uk.uncletopia.com","port":27035,"enabled":true,"region":"eu","cc":"gb","latitude":51.509865,"longitude":-0.118092,"reserved":0,"last_update":"0001-01-01T00:00:00Z","name_a2s":"Uncletopia | London | 3 | All Maps","protocol":17,"map":"koth_cascade","folder":"tf","game":"Team Fortress","app_id":440,"player_count":0,"max_players":24,"Bots":0,"server_type":"Dedicated","server_os":"Linux","password":true,"vac":true,"version":"7961495","steam_id":85568392924510192,"keywords":["cp","nocrits","nodmgspread","uncletopia"],"game_id":440,"stv_port":27036,"stv_name":"Uncletopia | London | 3 | All Maps | STV","players":null},{"server_id":321,"name":"Uncletopia | London | 4 | All Maps","name_short":"lon-4","host":"lon-1.uk.uncletopia.com","port":27045,"enabled":true,"region":"eu","cc":"gb","latitude":51.509865,"longitude":-0.118092,"reserved":0,"last_update":"0001-01-01T00:00:00Z","name_a2s":"Uncletopia | London | 4 | All Maps","protocol":17,"map":"koth_highpass","folder":"tf","game":"Team Fortress","app_id":440,"player_count":0,"max_players":24,"Bots":0,"server_type":"Dedicated","server_os":"Linux","password":true,"vac":true,"version":"7961495","steam_id":85568392924510193,"keywords":["cp","nocrits","nodmgspread","uncletopia"],"game_id":440,"stv_port":27046,"stv_name":"Uncletopia | London | 4 | All Maps | STV","players":null},{"server_id":21,"name":"Uncletopia | London | 5 | All Maps","name_short":"lon-5","host":"lon-1.uk.uncletopia.com","port":27055,"enabled":true,"region":"eu","cc":"gb","latitude":51.509865,"longitude":-0.118092,"reserved":0,"last_update":"0001-01-01T00:00:00Z","name_a2s":"Uncletopia | London | 5 | All Maps","protocol":17,"map":"pl_snowycoast","folder":"tf","game":"Team Fortress","app_id":440,"player_count":0,"max_players":24,"Bots":0,"server_type":"Dedicated","server_os":"Linux","password":true,"vac":true,"version":"7961495","steam_id":85568392924742829,"keywords":["nocrits","nodmgspread","payload","uncletopia"],"game_id":440,"stv_port":27056,"stv_name":"Uncletopia | London | 5 | All Maps | STV","players":null},{"server_id":22,"name":"Uncletopia | London | 6 | All Maps","name_short":"lon-6","host":"lon-1.uk.uncletopia.com","port":27065,"enabled":true,"region":"eu","cc":"gb","latitude":51.509865,"longitude":-0.118092,"reserved":0,"last_update":"0001-01-01T00:00:00Z","name_a2s":"Uncletopia | London | 6 | All Maps","protocol":17,"map":"koth_lakeside_final","folder":"tf","game":"Team Fortress","app_id":440,"player_count":0,"max_players":24,"Bots":0,"server_type":"Dedicated","server_os":"Linux","password":true,"vac":true,"version":"7961495","steam_id":85568392924742830,"keywords":["cp","nocrits","nodmgspread","uncletopia"],"game_id":440,"stv_port":27066,"stv_name":"Uncletopia | London | 6 | All Maps | STV","players":null},{"server_id":40,"name":"Uncletopia | London | 7 | Stopwatch","name_short":"lon-7","host":"lon-1.uk.uncletopia.com","port":27075,"enabled":true,"region":"eu","cc":"gb","latitude":51.509865,"longitude":-0.118092,"reserved":0,"last_update":"0001-01-01T00:00:00Z","name_a2s":"Uncletopia | London | 7 | Stopwatch","protocol":17,"map":"koth_highpass","folder":"tf","game":"Team Fortress","app_id":440,"player_count":0,"max_players":24,"Bots":0,"server_type":"Dedicated","server_os":"Linux","password":true,"vac":true,"version":"7961495","steam_id":85568392924964314,"keywords":["cp","nocrits","nodmgspread","uncletopia"],"game_id":440,"stv_port":27076,"stv_name":"Uncletopia | London | 7 | Stopwatch | STV","players":null},{"server_id":41,"name":"Uncletopia | London | 8 | Community","name_short":"lon-8","host":"lon-1.uk.uncletopia.com","port":27085,"enabled":true,"region":"eu","cc":"gb","latitude":51.509865,"longitude":-0.118092,"reserved":0,"last_update":"0001-01-01T00:00:00Z","name_a2s":"Uncletopia | London | 8 | Community","protocol":17,"map":"workshop/pl_divulgence_b4b.ugc2884808746","folder":"tf","game":"Team Fortress","app_id":440,"player_count":0,"max_players":24,"Bots":0,"server_type":"Dedicated","server_os":"Linux","password":true,"vac":true,"version":"7961495","steam_id":85568392924964315,"keywords":["nocrits","nodmgspread","payload","uncletopia"],"game_id":440,"stv_port":27086,"stv_name":"Uncletopia | London | 8 | Community | STV","players":null},{"server_id":300,"name":"Uncletopia | MontrÃ©al | 1 | One Thousand Uncles","name_short":"mtl-1","host":"mtl-1.ca.uncletopia.com","port":27015,"enabled":true,"region":"us-east","cc":"ca","latitude":45.50889,"longitude":-73.56167,"reserved":0,"last_update":"0001-01-01T00:00:00Z","name_a2s":"Uncletopia | MontrÃ©al | 1 | One Thousand Uncles","protocol":17,"map":"pl_upward","folder":"tf","game":"Team Fortress","app_id":440,"player_count":18,"max_players":32,"Bots":16,"server_type":"Dedicated","server_os":"Linux","password":true,"vac":true,"version":"7961495","steam_id":85568392924500087,"keywords":["alltalk","bots","danepve","increased_maxplayers","norespawntime","payload","uncletopia"],"game_id":440,"stv_port":0,"stv_name":"","players":[{"user_id":408,"name":"Is.Kip","steam_id":76561198799304824,"connected_time":89000000000,"state":"active","ping":67},{"user_id":358,"name":"aofi the flat tgirl","steam_id":76561199172110503,"connected_time":9207000000000,"state":"active","ping":78}]},{"server_id":301,"name":"Uncletopia | MontrÃ©al | 2 | One Thousand Uncles","name_short":"mtl-2","host":"mtl-1.ca.uncletopia.com","port":27025,"enabled":true,"region":"us-east","cc":"ca","latitude":45.50889,"longitude":-73.56167,"reserved":0,"last_update":"0001-01-01T00:00:00Z","name_a2s":"Uncletopia | MontrÃ©al | 2 | One Thousand Uncles","protocol":17,"map":"pl_chilly","folder":"tf","game":"Team Fortress","app_id":440,"player_count":0,"max_players":32,"Bots":0,"server_type":"Dedicated","server_os":"Linux","password":true,"vac":true,"version":"7961495","steam_id":85568392924500088,"keywords":["alltalk","danepve","increased_maxplayers","norespawntime","payload","uncletopia"],"game_id":440,"stv_port":0,"stv_name":"","players":null},{"server_id":302,"name":"Uncletopia | MontrÃ©al | 3 | One Thousand Uncles","name_short":"mtl-3","host":"mtl-1.ca.uncletopia.com","port":27035,"enabled":true,"region":"us-east","cc":"ca","latitude":45.50889,"longitude":-73.56167,"reserved":0,"last_update":"0001-01-01T00:00:00Z","name_a2s":"Uncletopia | MontrÃ©al | 3 | One Thousand Uncles","protocol":17,"map":"cp_dustbowl","folder":"tf","game":"Team Fortress","app_id":440,"player_count":0,"max_players":32,"Bots":0,"server_type":"Dedicated","server_os":"Linux","password":true,"vac":true,"version":"7961495","steam_id":85568392924500089,"keywords":["alltalk","cp","danepve","increased_maxplayers","norespawntime","uncletopia"],"game_id":440,"stv_port":0,"stv_name":"","players":null},{"server_id":13,"name":"Uncletopia | New York City | 1 | All Maps","name_short":"nyc-1","host":"nyc-1.us.uncletopia.com","port":27015,"enabled":true,"region":"us-east","cc":"us","latitude":40.73061,"longitude":-73.93524,"reserved":0,"last_update":"0001-01-01T00:00:00Z","name_a2s":"Uncletopia | New York City | 1 | All Maps","protocol":17,"map":"pl_pier","folder":"tf","game":"Team Fortress","app_id":440,"player_count":23,"max_players":24,"Bots":0,"server_type":"Dedicated","server_os":"Linux","password":true,"vac":true,"version":"7961495","steam_id":85568392924469993,"keywords":["nocrits","nodmgspread","payload","uncletopia"],"game_id":440,"stv_port":27016,"stv_name":"Uncletopia | New York City | 1 | All Maps | STV","players":[{"user_id":490,"name":"dog","steam_id":76561198263873491,"connected_time":2748000000000,"state":"active","ping":60},{"user_id":497,"name":"Meh","steam_id":76561198078187920,"connected_time":1792000000000,"state":"active","ping":75},{"user_id":503,"name":"Cowabummer","steam_id":76561198272640432,"connected_time":1037000000000,"state":"active","ping":70},{"user_id":418,"name":"space man","steam_id":76561198066333670,"connected_time":8634000000000,"state":"active","ping":46},{"user_id":510,"name":"gIBBY","steam_id":76561198080099598,"connected_time":864000000000,"state":"active","ping":40},{"user_id":504,"name":"Majattack","steam_id":76561198319421259,"connected_time":1027000000000,"state":"active","ping":61},{"user_id":505,"name":"Jnet","steam_id":76561198001282720,"connected_time":1013000000000,"state":"active","ping":158},{"user_id":506,"name":"Some Guy","steam_id":76561198447348725,"connected_time":1007000000000,"state":"active","ping":145},{"user_id":397,"name":"GummybearKillr","steam_id":76561198031235750,"connected_time":9343000000000,"state":"active","ping":43},{"user_id":413,"name":"Yuzu","steam_id":76561198417913035,"connected_time":8861000000000,"state":"active","ping":58},{"user_id":364,"name":"googa","steam_id":76561198133130452,"connected_time":12328000000000,"state":"active","ping":44},{"user_id":448,"name":"MILF Gaming","steam_id":76561198155378170,"connected_time":6140000000000,"state":"active","ping":44},{"user_id":507,"name":"urine trouble","steam_id":76561199013266640,"connected_time":993000000000,"state":"active","ping":44},{"user_id":484,"name":"Chris Daisy","steam_id":76561198332145126,"connected_time":3020000000000,"state":"active","ping":57},{"user_id":455,"name":"Government Plates","steam_id":76561198140866252,"connected_time":6015000000000,"state":"active","ping":56},{"user_id":508,"name":"GUH","steam_id":76561199013202758,"connected_time":992000000000,"state":"active","ping":112},{"user_id":515,"name":"Bobirulez","steam_id":76561198009125458,"connected_time":391000000000,"state":"active","ping":139},{"user_id":509,"name":"Tokyo_Timeshift_","steam_id":76561198048677523,"connected_time":967000000000,"state":"active","ping":61},{"user_id":516,"name":"callum","steam_id":76561198070918366,"connected_time":65000000000,"state":"active","ping":74},{"user_id":514,"name":"Steen","steam_id":76561198122992510,"connected_time":624000000000,"state":"active","ping":129},{"user_id":500,"name":"Phyre112","steam_id":76561198064367510,"connected_time":1547000000000,"state":"active","ping":118},{"user_id":512,"name":"Skudge Sister","steam_id":76561198041766766,"connected_time":827000000000,"state":"active","ping":93},{"user_id":423,"name":"Bacchus","steam_id":76561198113244990,"connected_time":8360000000000,"state":"active","ping":74}]},{"server_id":14,"name":"Uncletopia | New York City | 2 | All Maps","name_short":"nyc-2","host":"nyc-1.us.uncletopia.com","port":27025,"enabled":true,"region":"us-east","cc":"us","latitude":40.73061,"longitude":-73.93524,"reserved":0,"last_update":"0001-01-01T00:00:00Z","name_a2s":"Uncletopia | New York City | 2 | All Maps","protocol":17,"map":"pl_badwater","folder":"tf","game":"Team Fortress","app_id":440,"player_count":12,"max_players":24,"Bots":0,"server_type":"Dedicated","server_os":"Linux","password":true,"vac":true,"version":"7961495","steam_id":85568392924469994,"keywords":["nocrits","nodmgspread","payload","uncletopia"],"game_id":440,"stv_port":27026,"stv_name":"Uncletopia | New York City | 2 | All Maps | STV","players":[{"user_id":608,"name":"Little T","steam_id":76561198880511271,"connected_time":138000000000,"state":"active","ping":54},{"user_id":516,"name":"zpalmtree","steam_id":76561198134307620,"connected_time":8396000000000,"state":"active","ping":62},{"user_id":602,"name":"ryler","steam_id":76561198087876394,"connected_time":483000000000,"state":"active","ping":55},{"user_id":581,"name":"KhorneBread ï¸»ãƒ‡ ä¸€","steam_id":76561198097069958,"connected_time":3439000000000,"state":"active","ping":53},{"user_id":588,"name":"Pomegranate88","steam_id":76561198056385456,"connected_time":2841000000000,"state":"active","ping":78},{"user_id":605,"name":"Boysmell chungus","steam_id":76561198096737300,"connected_time":386000000000,"state":"active","ping":47},{"user_id":599,"name":"\u003etfw no buggo gf","steam_id":76561198980062131,"connected_time":640000000000,"state":"active","ping":61},{"user_id":601,"name":"chill stoner guy w cool stories","steam_id":76561198120973162,"connected_time":551000000000,"state":"active","ping":76},{"user_id":603,"name":"Twitch.tv/markblood2023tm","steam_id":76561198171746702,"connected_time":451000000000,"state":"active","ping":32},{"user_id":586,"name":"Mufalito","steam_id":76561198951889482,"connected_time":2873000000000,"state":"active","ping":162},{"user_id":532,"name":"JxyGREED","steam_id":76561198345026653,"connected_time":7697000000000,"state":"active","ping":41},{"user_id":590,"name":"Fish Fisherman","steam_id":76561198018656022,"connected_time":2834000000000,"state":"active","ping":45}]},{"server_id":15,"name":"Uncletopia | New York City | 3 | Stopwatch","name_short":"nyc-3","host":"nyc-1.us.uncletopia.com","port":27035,"enabled":true,"region":"us-east","cc":"us","latitude":40.73061,"longitude":-73.93524,"reserved":0,"last_update":"0001-01-01T00:00:00Z","name_a2s":"Uncletopia | New York City | 3 | Stopwatch","protocol":17,"map":"workshop/koth_ashville_final.ugc2130459942","folder":"tf","game":"Team Fortress","app_id":440,"player_count":0,"max_players":24,"Bots":0,"server_type":"Dedicated","server_os":"Linux","password":true,"vac":true,"version":"7961495","steam_id":85568392924742820,"keywords":["cp","nocrits","nodmgspread","uncletopia"],"game_id":440,"stv_port":27036,"stv_name":"Uncletopia | New York City | 3 | Stopwatch | STV","players":null},{"server_id":16,"name":"Uncletopia | New York City | 4 | Community","name_short":"nyc-4","host":"nyc-1.us.uncletopia.com","port":27045,"enabled":true,"region":"us-east","cc":"us","latitude":40.73061,"longitude":-73.93524,"reserved":0,"last_update":"0001-01-01T00:00:00Z","name_a2s":"Uncletopia | New York City | 4 | Community","protocol":17,"map":"workshop/pl_boundary_final1.ugc456799153","folder":"tf","game":"Team Fortress","app_id":440,"player_count":0,"max_players":24,"Bots":0,"server_type":"Dedicated","server_os":"Linux","password":true,"vac":true,"version":"7961495","steam_id":85568392924742821,"keywords":["nocrits","nodmgspread","payload","uncletopia"],"game_id":440,"stv_port":27046,"stv_name":"Uncletopia | New York City | 4 | Community | STV","players":null},{"server_id":142,"name":"Uncletopia | SÃ£o Paulo | 1 | All Maps","name_short":"sao-1","host":"sao-1.br.uncletopia.com","port":27015,"enabled":true,"region":"sa","cc":"br","latitude":-23.533773,"longitude":-46.62529,"reserved":0,"last_update":"0001-01-01T00:00:00Z","name_a2s":"Uncletopia | SÃ£o Paulo | 1 | All Maps","protocol":17,"map":"koth_highpass","folder":"tf","game":"Team Fortress","app_id":440,"player_count":0,"max_players":24,"Bots":0,"server_type":"Dedicated","server_os":"Linux","password":true,"vac":true,"version":"7961495","steam_id":85568392924469996,"keywords":["cp","nocrits","nodmgspread","uncletopia"],"game_id":440,"stv_port":27016,"stv_name":"Uncletopia | SÃ£o Paulo | 1 | All Maps | STV","players":null},{"server_id":143,"name":"Uncletopia | SÃ£o Paulo | 2 | Community","name_short":"sao-2","host":"sao-2.br.uncletopia.com","port":27015,"enabled":true,"region":"sa","cc":"br","latitude":-23.533773,"longitude":-46.62529,"reserved":0,"last_update":"0001-01-01T00:00:00Z","name_a2s":"Uncletopia | SÃ£o Paulo | 2 | Community","protocol":17,"map":"workshop/koth_slaughter_rc1.ugc1712845210","folder":"tf","game":"Team Fortress","app_id":440,"player_count":0,"max_players":24,"Bots":0,"server_type":"Dedicated","server_os":"Linux","password":true,"vac":true,"version":"7961495","steam_id":85568392924485349,"keywords":["cp","nocrits","nodmgspread","uncletopia"],"game_id":440,"stv_port":27016,"stv_name":"Uncletopia | SÃ£o Paulo | 2 | Community | STV","players":null},{"server_id":7,"name":"Uncletopia | Seattle | 1 | All Maps","name_short":"sea-1","host":"sea-1.us.uncletopia.com","port":27015,"enabled":true,"region":"us-west","cc":"us","latitude":47.608013,"longitude":-122.33517,"reserved":0,"last_update":"0001-01-01T00:00:00Z","name_a2s":"Uncletopia | Seattle | 1 | All Maps","protocol":17,"map":"pl_badwater","folder":"tf","game":"Team Fortress","app_id":440,"player_count":24,"max_players":24,"Bots":0,"server_type":"Dedicated","server_os":"Linux","password":true,"vac":true,"version":"7961495","steam_id":85568392924469997,"keywords":["nocrits","nodmgspread","payload","uncletopia"],"game_id":440,"stv_port":27016,"stv_name":"Uncletopia | Seattle | 1 | All Maps | STV","players":[{"user_id":642,"name":"Banana Man","steam_id":76561199012105803,"connected_time":11032000000000,"state":"active","ping":45},{"user_id":749,"name":"Loading...","steam_id":76561198075555396,"connected_time":876000000000,"state":"active","ping":43},{"user_id":747,"name":"zee","steam_id":76561198148876424,"connected_time":1272000000000,"state":"active","ping":51},{"user_id":753,"name":"thunderous prophet","steam_id":76561198131166135,"connected_time":152000000000,"state":"active","ping":39},{"user_id":738,"name":"soup","steam_id":76561198043209046,"connected_time":2716000000000,"state":"active","ping":64},{"user_id":743,"name":"Themasterman75","steam_id":76561199385573293,"connected_time":1896000000000,"state":"active","ping":55},{"user_id":751,"name":"rat who can kickflip dot com","steam_id":76561198073620027,"connected_time":773000000000,"state":"active","ping":37},{"user_id":724,"name":"MoondogIe","steam_id":76561198063328194,"connected_time":4002000000000,"state":"active","ping":54},{"user_id":737,"name":"William P. Ennis","steam_id":76561198073464877,"connected_time":2738000000000,"state":"active","ping":90},{"user_id":727,"name":"Gary, 40, soul sucking 9-5","steam_id":76561198073812888,"connected_time":3333000000000,"state":"active","ping":37},{"user_id":742,"name":"lynks disease no sound","steam_id":76561198043465434,"connected_time":1907000000000,"state":"active","ping":70},{"user_id":744,"name":"Cream Criminal","steam_id":76561198120802986,"connected_time":1558000000000,"state":"active","ping":59},{"user_id":740,"name":"Nom Skirrett","steam_id":76561198014600788,"connected_time":2654000000000,"state":"active","ping":68},{"user_id":726,"name":"doopsies","steam_id":76561198083000867,"connected_time":3355000000000,"state":"active","ping":47},{"user_id":714,"name":"NOT FRIENDLY","steam_id":76561198041327231,"connected_time":4608000000000,"state":"active","ping":46},{"user_id":708,"name":"WaffleWithNoToppings","steam_id":76561199088280111,"connected_time":5167000000000,"state":"active","ping":46},{"user_id":734,"name":"mega","steam_id":76561198089520959,"connected_time":2802000000000,"state":"active","ping":84},{"user_id":709,"name":"Bookmark","steam_id":76561198210918443,"connected_time":5163000000000,"state":"active","ping":74},{"user_id":741,"name":"dust | it/she [no mic]","steam_id":76561198045218909,"connected_time":2428000000000,"state":"active","ping":39},{"user_id":754,"name":"Cancerous Pineapple","steam_id":76561198097307656,"connected_time":86000000000,"state":"active","ping":67},{"user_id":692,"name":"RiceFarmer","steam_id":76561198869180993,"connected_time":6972000000000,"state":"active","ping":45},{"user_id":729,"name":"Sniff","steam_id":76561198010270922,"connected_time":3152000000000,"state":"active","ping":45},{"user_id":736,"name":"TROY","steam_id":76561197983852176,"connected_time":2762000000000,"state":"active","ping":76},{"user_id":746,"name":"zlaggaming68","steam_id":76561199140665706,"connected_time":1289000000000,"state":"active","ping":63}]},{"server_id":119,"name":"Uncletopia | Seattle | 2 | All Maps","name_short":"sea-2","host":"sea-1.us.uncletopia.com","port":27025,"enabled":true,"region":"us-west","cc":"us","latitude":47.608013,"longitude":-122.33517,"reserved":0,"last_update":"0001-01-01T00:00:00Z","name_a2s":"Uncletopia | Seattle | 2 | All Maps","protocol":17,"map":"pl_pier","folder":"tf","game":"Team Fortress","app_id":440,"player_count":18,"max_players":24,"Bots":0,"server_type":"Dedicated","server_os":"Linux","password":true,"vac":true,"version":"7961495","steam_id":85568392924469998,"keywords":["nocrits","nodmgspread","payload","uncletopia"],"game_id":440,"stv_port":27026,"stv_name":"Uncletopia | Seattle | 2 | All Maps | STV","players":[{"user_id":33,"name":"Azary56","steam_id":76561198321404617,"connected_time":6387000000000,"state":"active","ping":55},{"user_id":78,"name":"CubeDio","steam_id":76561198403403639,"connected_time":1228000000000,"state":"active","ping":53},{"user_id":89,"name":"nfseskimo","steam_id":76561198078745666,"connected_time":187000000000,"state":"active","ping":46},{"user_id":90,"name":"RIP Bashar Jackson","steam_id":76561198062940197,"connected_time":186000000000,"state":"active","ping":44},{"user_id":45,"name":"Kaczynski Mode","steam_id":76561198043251593,"connected_time":3281000000000,"state":"active","ping":59},{"user_id":75,"name":"Humble Learner","steam_id":76561198066091050,"connected_time":1541000000000,"state":"active","ping":58},{"user_id":79,"name":"Lemonade Juice","steam_id":76561198402892608,"connected_time":1222000000000,"state":"active","ping":73},{"user_id":46,"name":"Lyn","steam_id":76561198009656676,"connected_time":2963000000000,"state":"active","ping":64},{"user_id":69,"name":"meph","steam_id":76561198149683030,"connected_time":2217000000000,"state":"active","ping":66},{"user_id":76,"name":"Lawyer","steam_id":76561197974126447,"connected_time":1314000000000,"state":"active","ping":63},{"user_id":87,"name":"-_-","steam_id":76561199190800520,"connected_time":328000000000,"state":"active","ping":41},{"user_id":50,"name":"lol","steam_id":76561198026491738,"connected_time":2826000000000,"state":"active","ping":81},{"user_id":93,"name":"Cigarette Fish","steam_id":76561199086973797,"connected_time":61000000000,"state":"active","ping":320},{"user_id":77,"name":"Sassy","steam_id":76561197977382238,"connected_time":1276000000000,"state":"active","ping":72},{"user_id":91,"name":"Lily Thorn","steam_id":76561198305488625,"connected_time":100000000000,"state":"active","ping":57},{"user_id":92,"name":"holiday-sized update","steam_id":76561198023324513,"connected_time":99000000000,"state":"active","ping":44},{"user_id":68,"name":"TylertheImperial","steam_id":76561199401195068,"connected_time":2273000000000,"state":"active","ping":85},{"user_id":82,"name":"Sudsen","steam_id":76561198370603787,"connected_time":922000000000,"state":"active","ping":71}]},{"server_id":406,"name":"Uncletopia | Seattle | 3 | Stopwatch","name_short":"sea-3","host":"sea-1.us.uncletopia.com","port":27035,"enabled":true,"region":"us-west","cc":"us","latitude":47.608013,"longitude":-122.33517,"reserved":0,"last_update":"0001-01-01T00:00:00Z","name_a2s":"Uncletopia | Seattle | 3 | Stopwatch","protocol":17,"map":"workshop/pl_vigil_rc10.ugc1266210012","folder":"tf","game":"Team Fortress","app_id":440,"player_count":0,"max_players":24,"Bots":0,"server_type":"Dedicated","server_os":"Linux","password":true,"vac":true,"version":"7961495","steam_id":85568392924515217,"keywords":["nocrits","nodmgspread","payload","uncletopia"],"game_id":440,"stv_port":27036,"stv_name":"Uncletopia | Seattle | 3 | Stopwatch | STV","players":null},{"server_id":17,"name":"Uncletopia | San Francisco | 1 | All Maps","name_short":"sfo-1","host":"sfo-1.us.uncletopia.com","port":27015,"enabled":true,"region":"us-west","cc":"us","latitude":37.77397,"longitude":-122.4313,"reserved":0,"last_update":"0001-01-01T00:00:00Z","name_a2s":"Uncletopia | San Francisco | 1 | All Maps","protocol":17,"map":"pl_thundermountain","folder":"tf","game":"Team Fortress","app_id":440,"player_count":16,"max_players":24,"Bots":0,"server_type":"Dedicated","server_os":"Linux","password":true,"vac":true,"version":"7961495","steam_id":85568392924469999,"keywords":["nocrits","nodmgspread","payload","uncletopia"],"game_id":440,"stv_port":27016,"stv_name":"Uncletopia | San Francisco | 1 | All Maps | STV","players":[{"user_id":349,"name":"PootisBird","steam_id":76561198284344671,"connected_time":1233000000000,"state":"active","ping":52},{"user_id":165,"name":"Marzbee115","steam_id":76561198095821025,"connected_time":11278000000000,"state":"active","ping":45},{"user_id":362,"name":"Kerrplunk","steam_id":76561198058211496,"connected_time":144000000000,"state":"active","ping":58},{"user_id":332,"name":"A Pile Of Bacon","steam_id":76561198105243785,"connected_time":2901000000000,"state":"active","ping":59},{"user_id":363,"name":"AzRoth","steam_id":76561198312841772,"connected_time":18000000000,"state":"spawning","ping":68},{"user_id":335,"name":"TeriyakiDynamite","steam_id":76561198050049346,"connected_time":2601000000000,"state":"active","ping":58},{"user_id":357,"name":"insertdubname","steam_id":76561199080036154,"connected_time":578000000000,"state":"active","ping":52},{"user_id":356,"name":"John","steam_id":76561198065100839,"connected_time":617000000000,"state":"active","ping":58},{"user_id":359,"name":"OrangeSodaMachine","steam_id":76561198079230156,"connected_time":431000000000,"state":"active","ping":160},{"user_id":337,"name":"kiwi","steam_id":76561198052177917,"connected_time":2514000000000,"state":"active","ping":51},{"user_id":348,"name":"Optimore","steam_id":76561198047662990,"connected_time":1408000000000,"state":"active","ping":49},{"user_id":343,"name":"Ian","steam_id":76561198159334435,"connected_time":2063000000000,"state":"active","ping":165},{"user_id":339,"name":"Wender","steam_id":76561198995247917,"connected_time":2408000000000,"state":"active","ping":53},{"user_id":277,"name":"Viol3tOni","steam_id":76561198079208738,"connected_time":4918000000000,"state":"active","ping":60},{"user_id":321,"name":"Drake from State Farm","steam_id":76561199069029812,"connected_time":3280000000000,"state":"active","ping":57},{"user_id":353,"name":"Xx_PercyTheSmallEngineGamer6_xX","steam_id":76561198842297041,"connected_time":844000000000,"state":"active","ping":130}]},{"server_id":18,"name":"Uncletopia | San Francisco | 2 | All Maps","name_short":"sfo-2","host":"sfo-1.us.uncletopia.com","port":27025,"enabled":true,"region":"us-west","cc":"us","latitude":37.77397,"longitude":-122.4313,"reserved":0,"last_update":"0001-01-01T00:00:00Z","name_a2s":"Uncletopia | San Francisco | 2 | All Maps","protocol":17,"map":"pl_thundermountain","folder":"tf","game":"Team Fortress","app_id":440,"player_count":20,"max_players":24,"Bots":0,"server_type":"Dedicated","server_os":"Linux","password":true,"vac":true,"version":"7961495","steam_id":85568392924470000,"keywords":["nocrits","nodmgspread","payload","uncletopia"],"game_id":440,"stv_port":27026,"stv_name":"Uncletopia | San Francisco | 2 | All Maps | STV","players":[{"user_id":266,"name":"Human Resources Manager","steam_id":76561198066386411,"connected_time":1743000000000,"state":"active","ping":59},{"user_id":264,"name":"unnamed","steam_id":76561197994638650,"connected_time":1830000000000,"state":"active","ping":59},{"user_id":277,"name":"105 Â°C kaede","steam_id":76561198345528370,"connected_time":1044000000000,"state":"active","ping":41},{"user_id":268,"name":"rumes","steam_id":76561198349219467,"connected_time":1709000000000,"state":"active","ping":84},{"user_id":275,"name":"DragonHunter994","steam_id":76561199076203907,"connected_time":1176000000000,"state":"active","ping":85},{"user_id":229,"name":"åƒå°ºã„–Òœ","steam_id":76561198118910141,"connected_time":3926000000000,"state":"active","ping":66},{"user_id":282,"name":"Dukino","steam_id":76561198008455368,"connected_time":320000000000,"state":"active","ping":114},{"user_id":283,"name":"WaywardFinn","steam_id":76561198040391296,"connected_time":35000000000,"state":"active","ping":118},{"user_id":262,"name":"Pie","steam_id":76561198054721133,"connected_time":2069000000000,"state":"active","ping":70},{"user_id":263,"name":"pipebombrater","steam_id":76561199029030831,"connected_time":1895000000000,"state":"active","ping":116},{"user_id":279,"name":"glue sniffer","steam_id":76561198109770996,"connected_time":671000000000,"state":"active","ping":79},{"user_id":284,"name":"Renzlo","steam_id":76561198044348567,"connected_time":29000000000,"state":"active","ping":55},{"user_id":272,"name":"Frosted Lighted Ornament","steam_id":76561197971250619,"connected_time":1572000000000,"state":"active","ping":33},{"user_id":281,"name":"L-","steam_id":76561198046074220,"connected_time":377000000000,"state":"active","ping":53},{"user_id":248,"name":"Stripes","steam_id":76561198156305842,"connected_time":3228000000000,"state":"active","ping":54},{"user_id":235,"name":"ForAPessimistImPrettyOptimistic","steam_id":76561198170128009,"connected_time":3817000000000,"state":"active","ping":56},{"user_id":181,"name":"Gnome Tank","steam_id":76561198984179092,"connected_time":5525000000000,"state":"active","ping":111},{"user_id":274,"name":"sans undertale","steam_id":76561199128903858,"connected_time":1218000000000,"state":"active","ping":63},{"user_id":250,"name":"netoc6","steam_id":76561199065312168,"connected_time":2913000000000,"state":"active","ping":99},{"user_id":278,"name":"Hongy","steam_id":76561198012448846,"connected_time":882000000000,"state":"active","ping":68}]},{"server_id":19,"name":"Uncletopia | San Francisco | 3 | Stopwatch","name_short":"sfo-3","host":"sfo-1.us.uncletopia.com","port":27035,"enabled":true,"region":"us-west","cc":"us","latitude":37.77397,"longitude":-122.4313,"reserved":0,"last_update":"0001-01-01T00:00:00Z","name_a2s":"Uncletopia | San Francisco | 3 | Stopwatch","protocol":17,"map":"workshop/koth_product_final.ugc454272353","folder":"tf","game":"Team Fortress","app_id":440,"player_count":0,"max_players":24,"Bots":0,"server_type":"Dedicated","server_os":"Linux","password":true,"vac":true,"version":"7961495","steam_id":85568392924742824,"keywords":["cp","nocrits","nodmgspread","uncletopia"],"game_id":440,"stv_port":27036,"stv_name":"Uncletopia | San Francisco | 3 | Stopwatch | STV","players":null},{"server_id":20,"name":"Uncletopia | San Francisco | 4 | Community","name_short":"sfo-4","host":"sfo-1.us.uncletopia.com","port":27045,"enabled":true,"region":"us-west","cc":"us","latitude":37.77397,"longitude":-122.4313,"reserved":0,"last_update":"0001-01-01T00:00:00Z","name_a2s":"Uncletopia | San Francisco | 4 | Community","protocol":17,"map":"workshop/pl_cashworks_final1.ugc2904065412","folder":"tf","game":"Team Fortress","app_id":440,"player_count":0,"max_players":24,"Bots":0,"server_type":"Dedicated","server_os":"Linux","password":true,"vac":true,"version":"7961495","steam_id":85568392924742826,"keywords":["nocrits","nodmgspread","payload","uncletopia"],"game_id":440,"stv_port":27046,"stv_name":"Uncletopia | San Francisco | 4 | Community | STV","players":null},{"server_id":141,"name":"Uncletopia | Sydney | 1 | All Maps","name_short":"syd-1","host":"syd-1.au.uncletopia.com","port":27015,"enabled":true,"region":"au","cc":"au","latitude":-33.865143,"longitude":151.2099,"reserved":0,"last_update":"0001-01-01T00:00:00Z","name_a2s":"Uncletopia | Sydney | 1 | All Maps","protocol":17,"map":"koth_nucleus","folder":"tf","game":"Team Fortress","app_id":440,"player_count":0,"max_players":24,"Bots":0,"server_type":"Dedicated","server_os":"Linux","password":true,"vac":true,"version":"7961495","steam_id":85568392924470001,"keywords":["cp","nocrits","nodmgspread","uncletopia"],"game_id":440,"stv_port":27016,"stv_name":"Uncletopia | Sydney | 1 | All Maps | STV","players":null},{"server_id":123,"name":"Uncletopia | Sydney | 2 | All Maps","name_short":"syd-2","host":"syd-1.au.uncletopia.com","port":27025,"enabled":true,"region":"au","cc":"au","latitude":-33.865143,"longitude":151.2099,"reserved":0,"last_update":"0001-01-01T00:00:00Z","name_a2s":"Uncletopia | Sydney | 2 | All Maps","protocol":17,"map":"cp_gorge","folder":"tf","game":"Team Fortress","app_id":440,"player_count":0,"max_players":24,"Bots":0,"server_type":"Dedicated","server_os":"Linux","password":true,"vac":true,"version":"7961495","steam_id":85568392924470002,"keywords":["cp","nocrits","nodmgspread","uncletopia"],"game_id":440,"stv_port":27026,"stv_name":"Uncletopia | Sydney | 2 | All Maps | STV","players":null},{"server_id":395,"name":"Uncletopia | Sydney | 3 | All Maps","name_short":"syd-3","host":"syd-1.au.uncletopia.com","port":27035,"enabled":true,"region":"au","cc":"au","latitude":-33.865143,"longitude":151.2099,"reserved":0,"last_update":"0001-01-01T00:00:00Z","name_a2s":"Uncletopia | Sydney | 3 | All Maps","protocol":17,"map":"cp_metalworks","folder":"tf","game":"Team Fortress","app_id":440,"player_count":0,"max_players":24,"Bots":0,"server_type":"Dedicated","server_os":"Linux","password":true,"vac":true,"version":"7961495","steam_id":85568392925194467,"keywords":["cp","nocrits","nodmgspread","uncletopia"],"game_id":440,"stv_port":27036,"stv_name":"Uncletopia | Sydney | 3 | All Maps | STV","players":null},{"server_id":396,"name":"Uncletopia | Sydney | 4 | All Maps","name_short":"syd-4","host":"syd-1.au.uncletopia.com","port":27045,"enabled":true,"region":"au","cc":"au","latitude":-33.865143,"longitude":151.2099,"reserved":0,"last_update":"0001-01-01T00:00:00Z","name_a2s":"Uncletopia | Sydney | 4 | All Maps","protocol":17,"map":"koth_cascade","folder":"tf","game":"Team Fortress","app_id":440,"player_count":0,"max_players":24,"Bots":0,"server_type":"Dedicated","server_os":"Linux","password":true,"vac":true,"version":"7961495","steam_id":85568392925397958,"keywords":["cp","nocrits","nodmgspread","uncletopia"],"game_id":440,"stv_port":27046,"stv_name":"Uncletopia | Sydney | 4 | All Maps | STV","players":null},{"server_id":58,"name":"Uncletopia | Sydney | 5 | Stopwatch","name_short":"syd-5","host":"syd-1.au.uncletopia.com","port":27055,"enabled":true,"region":"au","cc":"au","latitude":-33.865143,"longitude":151.2099,"reserved":0,"last_update":"0001-01-01T00:00:00Z","name_a2s":"Uncletopia | Sydney | 5 | Stopwatch","protocol":17,"map":"pl_swiftwater_final1","folder":"tf","game":"Team Fortress","app_id":440,"player_count":0,"max_players":24,"Bots":0,"server_type":"Dedicated","server_os":"Linux","password":true,"vac":true,"version":"7961495","steam_id":85568392925397959,"keywords":["nocrits","nodmgspread","payload","uncletopia"],"game_id":440,"stv_port":27056,"stv_name":"Uncletopia | Sydney | 5 | Stopwatch | STV","players":null},{"server_id":59,"name":"Uncletopia | Sydney | 6 | Community","name_short":"syd-6","host":"syd-1.au.uncletopia.com","port":27065,"enabled":true,"region":"au","cc":"au","latitude":-33.865143,"longitude":151.2099,"reserved":0,"last_update":"0001-01-01T00:00:00Z","name_a2s":"Uncletopia | Sydney | 6 | Community","protocol":17,"map":"workshop/koth_trenchfoot_ab1.ugc731436616","folder":"tf","game":"Team Fortress","app_id":440,"player_count":0,"max_players":24,"Bots":0,"server_type":"Dedicated","server_os":"Linux","password":true,"vac":true,"version":"7961495","steam_id":85568392925397960,"keywords":["cp","nocrits","nodmgspread","uncletopia"],"game_id":440,"stv_port":27066,"stv_name":"Uncletopia | Sydney | 6 | Community | STV","players":null},{"server_id":49,"name":"Uncletopia | Warsaw | 1 | One Thousand Uncles","name_short":"waw-1","host":"waw-1.pl.uncletopia.com","port":27015,"enabled":true,"region":"eu","cc":"pl","latitude":52.2297,"longitude":21.017532,"reserved":0,"last_update":"0001-01-01T00:00:00Z","name_a2s":"Uncletopia | Warsaw | 1 | One Thousand Uncles","protocol":17,"map":"cp_mercenarypark","folder":"tf","game":"Team Fortress","app_id":440,"player_count":18,"max_players":32,"Bots":16,"server_type":"Dedicated","server_os":"Linux","password":true,"vac":true,"version":"7961495","steam_id":85568392925397850,"keywords":["alltalk","bots","cp","danepve","increased_maxplayers","norespawntime","uncletopia"],"game_id":440,"stv_port":0,"stv_name":"","players":[{"user_id":2,"name":"JMJGAMING971","steam_id":76561199465588292,"connected_time":122000000000,"state":"active","ping":245},{"user_id":19,"name":"Kira","steam_id":76561199472769701,"connected_time":53000000000,"state":"spawning","ping":81}]},{"server_id":50,"name":"Uncletopia | Warsaw | 2 | One Thousand Uncles","name_short":"waw-2","host":"waw-1.pl.uncletopia.com","port":27025,"enabled":true,"region":"eu","cc":"pl","latitude":52.2297,"longitude":21.017532,"reserved":0,"last_update":"0001-01-01T00:00:00Z","name_a2s":"Uncletopia | Warsaw | 2 | One Thousand Uncles","protocol":17,"map":"cp_egypt_final","folder":"tf","game":"Team Fortress","app_id":440,"player_count":0,"max_players":32,"Bots":0,"server_type":"Dedicated","server_os":"Linux","password":true,"vac":true,"version":"7961495","steam_id":85568392925397851,"keywords":["alltalk","cp","danepve","increased_maxplayers","norespawntime","uncletopia"],"game_id":440,"stv_port":0,"stv_name":"","players":null},{"server_id":51,"name":"Uncletopia | Warsaw | 3 | All Maps","name_short":"waw-3","host":"waw-1.pl.uncletopia.com","port":27035,"enabled":true,"region":"eu","cc":"pl","latitude":52.2297,"longitude":21.017532,"reserved":0,"last_update":"0001-01-01T00:00:00Z","name_a2s":"Uncletopia | Warsaw | 3 | All Maps","protocol":17,"map":"pl_snowycoast","folder":"tf","game":"Team Fortress","app_id":440,"player_count":0,"max_players":24,"Bots":0,"server_type":"Dedicated","server_os":"Linux","password":true,"vac":true,"version":"7961495","steam_id":85568392925397852,"keywords":["nocrits","nodmgspread","payload","uncletopia"],"game_id":440,"stv_port":27036,"stv_name":"Uncletopia | Warsaw | 3 | All Maps | STV","players":null},{"server_id":52,"name":"Uncletopia | Warsaw | 4 | All Maps","name_short":"waw-4","host":"waw-1.pl.uncletopia.com","port":27045,"enabled":true,"region":"eu","cc":"pl","latitude":52.2297,"longitude":21.017532,"reserved":0,"last_update":"0001-01-01T00:00:00Z","name_a2s":"Uncletopia | Warsaw | 4 | All Maps","protocol":17,"map":"cp_fastlane","folder":"tf","game":"Team Fortress","app_id":440,"player_count":0,"max_players":24,"Bots":0,"server_type":"Dedicated","server_os":"Linux","password":true,"vac":true,"version":"7961495","steam_id":85568392925397853,"keywords":["cp","nocrits","nodmgspread","uncletopia"],"game_id":440,"stv_port":27046,"stv_name":"Uncletopia | Warsaw | 4 | All Maps | STV","players":null},{"server_id":53,"name":"Uncletopia | Warsaw | 5 | Stopwatch","name_short":"waw-5","host":"waw-1.pl.uncletopia.com","port":27055,"enabled":true,"region":"eu","cc":"pl","latitude":52.2297,"longitude":21.017532,"reserved":0,"last_update":"0001-01-01T00:00:00Z","name_a2s":"Uncletopia | Warsaw | 5 | Stopwatch","protocol":17,"map":"cp_gullywash_final1","folder":"tf","game":"Team Fortress","app_id":440,"player_count":0,"max_players":24,"Bots":0,"server_type":"Dedicated","server_os":"Linux","password":true,"vac":true,"version":"7961495","steam_id":85568392925397854,"keywords":["cp","nocrits","nodmgspread","uncletopia"],"game_id":440,"stv_port":27056,"stv_name":"Uncletopia | Warsaw | 5 | Stopwatch | STV","players":null},{"server_id":54,"name":"Uncletopia | Warsaw | 6 | Community","name_short":"waw-6","host":"waw-1.pl.uncletopia.com","port":27065,"enabled":true,"region":"eu","cc":"pl","latitude":52.2297,"longitude":21.017532,"reserved":0,"last_update":"0001-01-01T00:00:00Z","name_a2s":"Uncletopia | Warsaw | 6 | Community","protocol":17,"map":"workshop/cp_fulgur_rc2a.ugc2068252300","folder":"tf","game":"Team Fortress","app_id":440,"player_count":0,"max_players":24,"Bots":0,"server_type":"Dedicated","server_os":"Linux","password":true,"vac":true,"version":"7961495","steam_id":85568392925397856,"keywords":["cp","nocrits","nodmgspread","uncletopia"],"game_id":440,"stv_port":27066,"stv_name":"Uncletopia | Warsaw | 6 | Community | STV","players":null}]}