{"status":true,"message":"","result":[{"server_id":9,"name":"Uncletopia | Atlanta | 1 | All Maps","name_short":"atl-1","host":"atl-1.us.uncletopia.com","port":27015,"enabled":true,"region":"us-east","cc":"us","latitude":33.753746,"longitude":-84.38633,"reserved":0,"last_update":"0001-01-01T00:00:00Z","name_a2s":"Uncletopia | Atlanta | 1 | All Maps","protocol":17,"map":"pl_swiftwater_final1","folder":"tf","game":"Team Fortress","app_id":440,"player_count":24,"max_players":24,"Bots":0,"server_type":"Dedicated","server_os":"Linux","password":true,"vac":true,"version":"7742253","steam_id":85568392924469982,"keywords":["nocrits","nodmgspread","payload","uncletopia"],"game_id":440,"stv_port":27016,"stv_name":"Uncletopia | Atlanta | 1 | All Maps | STV","players":[{"user_id":65,"name":"Ziath","steam_id":76561198094009164,"connected_time":7495000000000,"state":"active","ping":62},{"user_id":126,"name":"Obelisk","steam_id":76561198049416866,"connected_time":1888000000000,"state":"active","ping":67},{"user_id":153,"name":"Fawny","steam_id":76561198311363172,"connected_time":4000000000,"state":"spawning","ping":81},{"user_id":136,"name":"a real gummy krabby patty","steam_id":76561198238842076,"connected_time":1307000000000,"state":"active","ping":49},{"user_id":122,"name":"InkAnarch","steam_id":76561198121033853,"connected_time":2471000000000,"state":"active","ping":82},{"user_id":151,"name":"Regrettable Decisions","steam_id":76561199084088704,"connected_time":53000000000,"state":"active","ping":145},{"user_id":133,"name":"Alt","steam_id":76561197992591984,"connected_time":1341000000000,"state":"active","ping":82},{"user_id":150,"name":"RoboWarrior0410a","steam_id":76561199106531261,"connected_time":79000000000,"state":"active","ping":57},{"user_id":134,"name":"Jailbreak","steam_id":76561198802085218,"connected_time":1339000000000,"state":"active","ping":93},{"user_id":119,"name":"the ham man from ham land","steam_id":76561198251977820,"connected_time":2525000000000,"state":"active","ping":107},{"user_id":108,"name":"chexo4","steam_id":76561198150532531,"connected_time":3622000000000,"state":"active","ping":53},{"user_id":140,"name":"Rockhead","steam_id":76561197995196535,"connected_time":353000000000,"state":"active","ping":64},{"user_id":143,"name":"mario","steam_id":76561198148282278,"connected_time":294000000000,"state":"active","ping":71},{"user_id":120,"name":"SwingDickerson","steam_id":76561198045542926,"connected_time":2524000000000,"state":"active","ping":79},{"user_id":144,"name":"Quack-San","steam_id":76561198074090034,"connected_time":287000000000,"state":"active","ping":115},{"user_id":132,"name":"jackhillard83","steam_id":76561199057098390,"connected_time":1622000000000,"state":"active","ping":89},{"user_id":104,"name":"DO NOT call me BART SIMPSON!!","steam_id":76561198069113375,"connected_time":3884000000000,"state":"active","ping":92},{"user_id":125,"name":"--_Cook_--","steam_id":76561198080855748,"connected_time":2220000000000,"state":"active","ping":60},{"user_id":145,"name":"P√™xe","steam_id":76561198036491809,"connected_time":263000000000,"state":"active","ping":124},{"user_id":146,"name":"t.tv/ibbKitty ‚àë:3","steam_id":76561198110858518,"connected_time":254000000000,"state":"active","ping":75},{"user_id":135,"name":"C papi","steam_id":76561198027779564,"connected_time":1339000000000,"state":"active","ping":60},{"user_id":147,"name":"Cthulwho?","steam_id":76561198165550810,"connected_time":254000000000,"state":"active","ping":84},{"user_id":31,"name":"177013","steam_id":76561198072303290,"connected_time":11208000000000,"state":"active","ping":67},{"user_id":152,"name":"Angel","steam_id":76561198175654911,"connected_time":12000000000,"state":"spawning","ping":59}]},{"server_id":400,"name":"Uncletopia | Atlanta | 3 | Stopwatch Beta","name_short":"atl-3","host":"atl-1.us.uncletopia.com","port":27035,"enabled":true,"region":"us-east","cc":"us","latitude":33.753746,"longitude":-84.38633,"reserved":0,"last_update":"0001-01-01T00:00:00Z","name_a2s":"Uncletopia | Atlanta | 3 | Stopwatch Beta","protocol":17,"map":"pl_pier","folder":"tf","game":"Team Fortress","app_id":440,"player_count":0,"max_players":24,"Bots":0,"server_type":"Dedicated","server_os":"Linux","password":true,"vac":true,"version":"7742253","steam_id":85568392924515187,"keywords":["nocrits","nodmgspread","payload","uncletopia"],"game_id":440,"stv_port":27036,"stv_name":"Uncletopia | Atlanta | 3 | Stopwatch Beta | STV","players":null},{"server_id":401,"name":"Uncletopia | Atlanta | 4 | No Payload","name_short":"atl-4","host":"atl-1.us.uncletopia.com","port":27045,"enabled":true,"region":"us-east","cc":"us","latitude":33.753746,"longitude":-84.38633,"reserved":0,"last_update":"0001-01-01T00:00:00Z","name_a2s":"Uncletopia | Atlanta | 4 | No Payload","protocol":17,"map":"pl_pier","folder":"tf","game":"Team Fortress","app_id":440,"player_count":0,"max_players":24,"Bots":0,"server_type":"Dedicated","server_os":"Linux","password":true,"vac":true,"version":"7723704","steam_id":85568392924515188,"keywords":["nocrits","nodmgspread","payload","uncletopia"],"game_id":440,"stv_port":27046,"stv_name":"Uncletopia | Atlanta | 4 | No Payload | STV","players":null},{"server_id":2,"name":"Uncletopia | Chicago | 1 | All Maps","name_short":"chi-1","host":"chi-1.us.uncletopia.com","port":27015,"enabled":true,"region":"us-central","cc":"us","latitude":41.881832,"longitude":-87.62318,"reserved":0,"last_update":"0001-01-01T00:00:00Z","name_a2s":"Uncletopia | Chicago | 1 | All Maps","protocol":17,"map":"pl_snowycoast","folder":"tf","game":"Team Fortress","app_id":440,"player_count":24,"max_players":24,"Bots":0,"server_type":"Dedicated","server_os":"Linux","password":true,"vac":true,"version":"7742253","steam_id":85568392924469984,"keywords":["nocrits","nodmgspread","payload","uncletopia"],"game_id":440,"stv_port":27016,"stv_name":"Uncletopia | Chicago | 1 | All Maps | STV","players":[{"user_id":11,"name":"Astori√¶!","steam_id":76561199090168858,"connected_time":1657000000000,"state":"active","ping":57},{"user_id":49,"name":"SquipSquap","steam_id":76561198295884253,"connected_time":172000000000,"state":"active","ping":82},{"user_id":16,"name":"Dr.Bobert (Listening to MCR)","steam_id":76561198072186001,"connected_time":1430000000000,"state":"active","ping":80},{"user_id":20,"name":"Indigama","steam_id":76561198347265541,"connected_time":984000000000,"state":"active","ping":62},{"user_id":15,"name":"Open Mailbox","steam_id":76561198051933580,"connected_time":1443000000000,"state":"active","ping":81},{"user_id":18,"name":"Stop Tryharding :(","steam_id":76561199130074444,"connected_time":1293000000000,"state":"active","ping":74},{"user_id":28,"name":"Bl√•haj","steam_id":76561198444871237,"connected_time":662000000000,"state":"active","ping":66},{"user_id":22,"name":"Jujitsu82","steam_id":76561198445522556,"connected_time":797000000000,"state":"active","ping":83},{"user_id":23,"name":"Bassman","steam_id":76561198083440914,"connected_time":752000000000,"state":"active","ping":72},{"user_id":24,"name":"JunZI","steam_id":76561199121850793,"connected_time":748000000000,"state":"active","ping":56},{"user_id":25,"name":"45 Cent","steam_id":76561198048690188,"connected_time":743000000000,"state":"active","ping":75},{"user_id":26,"name":"woul","steam_id":76561199134296565,"connected_time":727000000000,"state":"active","ping":70},{"user_id":29,"name":"‡πáYou got Killed by --\u003e","steam_id":76561198039763676,"connected_time":656000000000,"state":"active","ping":65},{"user_id":36,"name":"AOkScrump","steam_id":76561198996230924,"connected_time":537000000000,"state":"active","ping":60},{"user_id":48,"name":"Xavibite","steam_id":76561198209380493,"connected_time":209000000000,"state":"active","ping":61},{"user_id":50,"name":"Pablo Sanchez","steam_id":76561197982219837,"connected_time":154000000000,"state":"active","ping":63},{"user_id":47,"name":"Supa Dupt","steam_id":76561198166666289,"connected_time":251000000000,"state":"active","ping":101},{"user_id":34,"name":"ScoutWantsBobux69","steam_id":76561199316368867,"connected_time":579000000000,"state":"active","ping":60},{"user_id":38,"name":"Smig","steam_id":76561198408846602,"connected_time":498000000000,"state":"active","ping":67},{"user_id":39,"name":"Potato","steam_id":76561198883934935,"connected_time":493000000000,"state":"active","ping":155},{"user_id":40,"name":"Kartyac","steam_id":76561197991069005,"connected_time":489000000000,"state":"active","ping":86},{"user_id":41,"name":"green drink","steam_id":76561199260739414,"connected_time":484000000000,"state":"active","ping":75},{"user_id":43,"name":"Data","steam_id":76561197996329548,"connected_time":430000000000,"state":"active","ping":61},{"user_id":44,"name":"purply-ghost","steam_id":76561199204779865,"connected_time":423000000000,"state":"active","ping":76}]},{"server_id":106,"name":"Uncletopia | Chicago | 2 | All Maps","name_short":"chi-2","host":"chi-1.us.uncletopia.com","port":27025,"enabled":true,"region":"us-central","cc":"us","latitude":41.881832,"longitude":-87.62318,"reserved":0,"last_update":"0001-01-01T00:00:00Z","name_a2s":"Uncletopia | Chicago | 2 | All Maps","protocol":17,"map":"pl_rumford_event","folder":"tf","game":"Team Fortress","app_id":440,"player_count":18,"max_players":24,"Bots":0,"server_type":"Dedicated","server_os":"Linux","password":true,"vac":true,"version":"7742253","steam_id":85568392924469985,"keywords":["nocrits","nodmgspread","payload","uncletopia"],"game_id":440,"stv_port":27026,"stv_name":"Uncletopia | Chicago | 2 | All Maps | STV","players":[{"user_id":154,"name":"dog","steam_id":76561198263873491,"connected_time":6000000000,"state":"spawning","ping":44},{"user_id":151,"name":"A Puppy","steam_id":76561198828184456,"connected_time":66000000000,"state":"active","ping":56},{"user_id":89,"name":"LunarrD","steam_id":76561198811220107,"connected_time":5780000000000,"state":"active","ping":71},{"user_id":113,"name":"Candy Quill","steam_id":76561198044092009,"connected_time":4060000000000,"state":"active","ping":98},{"user_id":148,"name":"no kit","steam_id":76561198259529793,"connected_time":378000000000,"state":"active","ping":152},{"user_id":61,"name":"froggy","steam_id":76561198079485096,"connected_time":7566000000000,"state":"active","ping":72},{"user_id":99,"name":"Dumbus Denny","steam_id":76561198052328616,"connected_time":5254000000000,"state":"active","ping":49},{"user_id":126,"name":"green rouny","steam_id":76561199195104977,"connected_time":2716000000000,"state":"active","ping":68},{"user_id":145,"name":"gaming elliptical","steam_id":76561198013456569,"connected_time":996000000000,"state":"active","ping":51},{"user_id":152,"name":"IncogNeeto","steam_id":76561199091278006,"connected_time":61000000000,"state":"active","ping":125},{"user_id":141,"name":"Chicken","steam_id":76561199187641532,"connected_time":1596000000000,"state":"active","ping":83},{"user_id":147,"name":"Im totally a hacker","steam_id":76561198888005736,"connected_time":630000000000,"state":"active","ping":74},{"user_id":121,"name":"Furry Saul Goodman","steam_id":76561198069580305,"connected_time":3454000000000,"state":"active","ping":56},{"user_id":136,"name":"Aster","steam_id":76561198037920420,"connected_time":1800000000000,"state":"active","ping":107},{"user_id":73,"name":"Rornir","steam_id":76561198081829615,"connected_time":6967000000000,"state":"active","ping":40},{"user_id":138,"name":"Koishi","steam_id":76561198054541054,"connected_time":1702000000000,"state":"active","ping":48},{"user_id":125,"name":"Carl, Good to see you","steam_id":76561198070574075,"connected_time":2731000000000,"state":"active","ping":67},{"user_id":133,"name":"Swedish Crowbar","steam_id":76561199105488936,"connected_time":2254000000000,"state":"active","ping":146}]},{"server_id":402,"name":"Uncletopia | Chicago | 3 | All Maps","name_short":"chi-3","host":"chi-1.us.uncletopia.com","port":27035,"enabled":true,"region":"us-central","cc":"us","latitude":41.881832,"longitude":-87.62318,"reserved":0,"last_update":"0001-01-01T00:00:00Z","name_a2s":"Uncletopia | Chicago | 3 | All Maps","protocol":17,"map":"koth_viaduct","folder":"tf","game":"Team Fortress","app_id":440,"player_count":0,"max_players":24,"Bots":0,"server_type":"Dedicated","server_os":"Linux","password":true,"vac":true,"version":"7742253","steam_id":85568392924515191,"keywords":["cp","nocrits","nodmgspread","uncletopia"],"game_id":440,"stv_port":27036,"stv_name":"Uncletopia | Chicago | 3 | All Maps | STV","players":null},{"server_id":403,"name":"Uncletopia | Chicago | 4 | All Maps","name_short":"chi-4","host":"chi-1.us.uncletopia.com","port":27045,"enabled":true,"region":"us-central","cc":"us","latitude":41.881832,"longitude":-87.62318,"reserved":0,"last_update":"0001-01-01T00:00:00Z","name_a2s":"Uncletopia | Chicago | 4 | All Maps","protocol":17,"map":"pl_snowycoast","folder":"tf","game":"Team Fortress","app_id":440,"player_count":24,"max_players":24,"Bots":0,"server_type":"Dedicated","server_os":"Linux","password":true,"vac":true,"version":"7742253","steam_id":85568392924515193,"keywords":["nocrits","nodmgspread","payload","uncletopia"],"game_id":440,"stv_port":27046,"stv_name":"Uncletopia | Chicago | 4 | All Maps | STV","players":[{"user_id":70,"name":"Freewave","steam_id":76561198156282541,"connected_time":2664000000000,"state":"active","ping":45},{"user_id":53,"name":"Mercy From Overwatch(wln.tf)","steam_id":76561199015641953,"connected_time":4136000000000,"state":"active","ping":130},{"user_id":72,"name":"scarybroccoli","steam_id":76561198296440084,"connected_time":2296000000000,"state":"active","ping":71},{"user_id":98,"name":"zip it gungus","steam_id":76561198077272494,"connected_time":610000000000,"state":"active","ping":54},{"user_id":95,"name":"QuarticalPhysics","steam_id":76561198061386266,"connected_time":739000000000,"state":"active","ping":65},{"user_id":91,"name":"Tyler\u0026Fingers","steam_id":76561198085154485,"connected_time":822000000000,"state":"active","ping":79},{"user_id":60,"name":"Tywhip","steam_id":76561199207545191,"connected_time":3323000000000,"state":"active","ping":153},{"user_id":84,"name":"True American Hero","steam_id":76561198025473302,"connected_time":1314000000000,"state":"active","ping":82},{"user_id":88,"name":"thomasdee725","steam_id":76561199189526173,"connected_time":1079000000000,"state":"active","ping":79},{"user_id":80,"name":"{ST} Pip","steam_id":76561198200365894,"connected_time":2032000000000,"state":"active","ping":44},{"user_id":64,"name":"The Beheaded","steam_id":76561199067788742,"connected_time":3196000000000,"state":"active","ping":76},{"user_id":81,"name":"Krazy","steam_id":76561198835502709,"connected_time":1872000000000,"state":"active","ping":99},{"user_id":92,"name":"THIRDPIERCE","steam_id":76561198405366314,"connected_time":818000000000,"state":"active","ping":88},{"user_id":62,"name":"Whoa","steam_id":76561197970353496,"connected_time":3293000000000,"state":"active","ping":76},{"user_id":76,"name":"Reckless Klondike","steam_id":76561198060904416,"connected_time":2256000000000,"state":"active","ping":70},{"user_id":56,"name":"Rusty","steam_id":76561198055585129,"connected_time":3801000000000,"state":"active","ping":94},{"user_id":100,"name":"Fumohuxi Viriphyto","steam_id":76561198369395636,"connected_time":237000000000,"state":"active","ping":90},{"user_id":94,"name":"‚ù§Dumpster Cat‚ù§","steam_id":76561199200969139,"connected_time":793000000000,"state":"active","ping":127},{"user_id":97,"name":"Stapler","steam_id":76561198099295077,"connected_time":654000000000,"state":"active","ping":91},{"user_id":78,"name":"Meowth from Team Rocket","steam_id":76561198144049265,"connected_time":2254000000000,"state":"active","ping":57},{"user_id":85,"name":"Doey","steam_id":76561198356353805,"connected_time":1287000000000,"state":"active","ping":66},{"user_id":99,"name":"nyaanbinary catboy gayming","steam_id":76561198262604439,"connected_time":338000000000,"state":"active","ping":45},{"user_id":101,"name":"Rhutebeer","steam_id":76561198018302761,"connected_time":202000000000,"state":"active","ping":99},{"user_id":83,"name":"‚ô•Mossbuckets‚ô•","steam_id":76561198365188929,"connected_time":1726000000000,"state":"active","ping":78}]},{"server_id":36,"name":"Uncletopia | Chicago | 5 | All Maps","name_short":"chi-5","host":"chi-2.us.uncletopia.com","port":27015,"enabled":true,"region":"us-central","cc":"us","latitude":41.881832,"longitude":-87.62318,"reserved":0,"last_update":"0001-01-01T00:00:00Z","name_a2s":"Uncletopia | Chicago | 5 | All Maps","protocol":17,"map":"koth_harvest_final","folder":"tf","game":"Team Fortress","app_id":440,"player_count":22,"max_players":24,"Bots":0,"server_type":"Dedicated","server_os":"Linux","password":true,"vac":true,"version":"7742253","steam_id":85568392924866362,"keywords":["cp","nocrits","nodmgspread","uncletopia"],"game_id":440,"stv_port":27016,"stv_name":"Uncletopia | Chicago | 5 | All Maps | STV","players":[{"user_id":314,"name":"Levont (You Tired?)","steam_id":76561198255454993,"connected_time":648000000000,"state":"active","ping":73},{"user_id":310,"name":"TeaPirate [TTC]","steam_id":76561197993068398,"connected_time":701000000000,"state":"active","ping":65},{"user_id":323,"name":"Liver Giver","steam_id":76561198318604999,"connected_time":289000000000,"state":"active","ping":63},{"user_id":319,"name":"CJAIME01345","steam_id":76561199091599141,"connected_time":490000000000,"state":"active","ping":130},{"user_id":329,"name":"Bongman","steam_id":76561199041948900,"connected_time":31000000000,"state":"active","ping":90},{"user_id":330,"name":"Deltaco","steam_id":76561198094572694,"connected_time":16000000000,"state":"spawning","ping":119},{"user_id":304,"name":"LiliMaid","steam_id":76561198271981179,"connected_time":994000000000,"state":"active","ping":59},{"user_id":325,"name":"The One True Pineapple #SaveTF2","steam_id":76561198083157236,"connected_time":165000000000,"state":"active","ping":74},{"user_id":331,"name":"sansa musa","steam_id":76561198163723555,"connected_time":12000000000,"state":"active","ping":72},{"user_id":324,"name":"Hertz","steam_id":76561198245322982,"connected_time":225000000000,"state":"active","ping":48},{"user_id":296,"name":"BoxesOnCheetahs","steam_id":76561198213080323,"connected_time":1153000000000,"state":"active","ping":53},{"user_id":262,"name":"Iron Sheik","steam_id":76561198069980923,"connected_time":2235000000000,"state":"active","ping":61},{"user_id":287,"name":"YourUncle'sUncle.","steam_id":76561198239040554,"connected_time":1552000000000,"state":"active","ping":69},{"user_id":317,"name":"Laft","steam_id":76561198364501558,"connected_time":518000000000,"state":"active","ping":65},{"user_id":320,"name":"Arttur","steam_id":76561199080503175,"connected_time":411000000000,"state":"active","ping":176},{"user_id":208,"name":"The Caretaker","steam_id":76561198125241411,"connected_time":5598000000000,"state":"active","ping":121},{"user_id":289,"name":"Exotic","steam_id":76561198094518524,"connected_time":1464000000000,"state":"active","ping":44},{"user_id":291,"name":"Veir≈´ Viseris","steam_id":76561197989857176,"connected_time":1294000000000,"state":"active","ping":166},{"user_id":318,"name":"xJEMAx","steam_id":76561198370956616,"connected_time":514000000000,"state":"active","ping":93},{"user_id":297,"name":"Chuk Benis","steam_id":76561198107659080,"connected_time":1137000000000,"state":"active","ping":58},{"user_id":266,"name":"Kol","steam_id":76561199151398882,"connected_time":2131000000000,"state":"active","ping":84},{"user_id":267,"name":"Spectre","steam_id":76561198025652246,"connected_time":2130000000000,"state":"active","ping":32}]},{"server_id":37,"name":"Uncletopia | Chicago | 6 | All Maps","name_short":"chi-6","host":"chi-2.us.uncletopia.com","port":27025,"enabled":true,"region":"us-central","cc":"us","latitude":41.881832,"longitude":-87.62318,"reserved":0,"last_update":"0001-01-01T00:00:00Z","name_a2s":"Uncletopia | Chicago | 6 | All Maps","protocol":17,"map":"pl_pier","folder":"tf","game":"Team Fortress","app_id":440,"player_count":0,"max_players":24,"Bots":0,"server_type":"Dedicated","server_os":"Linux","password":true,"vac":true,"version":"7742253","steam_id":85568392924866363,"keywords":["nocrits","nodmgspread","payload","uncletopia"],"game_id":440,"stv_port":27026,"stv_name":"Uncletopia | Chicago | 6 | All Maps | STV","players":null},{"server_id":38,"name":"Uncletopia | Chicago | 7 | Stopwatch Beta","name_short":"chi-7","host":"chi-2.us.uncletopia.com","port":27035,"enabled":true,"region":"us-central","cc":"us","latitude":41.881832,"longitude":-87.62318,"reserved":0,"last_update":"0001-01-01T00:00:00Z","name_a2s":"Uncletopia | Chicago | 7 | Stopwatch Beta","protocol":17,"map":"koth_lakeside_final","folder":"tf","game":"Team Fortress","app_id":440,"player_count":0,"max_players":24,"Bots":0,"server_type":"Dedicated","server_os":"Linux","password":true,"vac":true,"version":"7742253","steam_id":85568392924866364,"keywords":["cp","nocrits","nodmgspread","uncletopia"],"game_id":440,"stv_port":27036,"stv_name":"Uncletopia | Chicago | 7 | Stopwatch Beta | STV","players":null},{"server_id":39,"name":"Uncletopia | Chicago | 8 | Community","name_short":"chi-8","host":"chi-2.us.uncletopia.com","port":27045,"enabled":true,"region":"us-central","cc":"us","latitude":41.881832,"longitude":-87.62318,"reserved":0,"last_update":"0001-01-01T00:00:00Z","name_a2s":"Uncletopia | Chicago | 8 | Community","protocol":17,"map":"koth_lakeside_final","folder":"tf","game":"Team Fortress","app_id":440,"player_count":0,"max_players":24,"Bots":0,"server_type":"Dedicated","server_os":"Linux","password":true,"vac":true,"version":"7742253","steam_id":85568392924866365,"keywords":["cp","nocrits","nodmgspread","uncletopia"],"game_id":440,"stv_port":27046,"stv_name":"Uncletopia | Chicago | 8 | Community | STV","players":null},{"server_id":8,"name":"Uncletopia | Dallas | 1 | All Maps","name_short":"dal-1","host":"dal-1.us.uncletopia.com","port":27015,"enabled":true,"region":"us-central","cc":"us","latitude":32.779167,"longitude":-96.80889,"reserved":0,"last_update":"0001-01-01T00:00:00Z","name_a2s":"Uncletopia | Dallas | 1 | All Maps","protocol":17,"map":"cp_sunshine","folder":"tf","game":"Team Fortress","app_id":440,"player_count":24,"max_players":24,"Bots":0,"server_type":"Dedicated","server_os":"Linux","password":true,"vac":true,"version":"7742253","steam_id":85568392924469986,"keywords":["cp","nocrits","nodmgspread","uncletopia"],"game_id":440,"stv_port":27016,"stv_name":"Uncletopia | Dallas | 1 | All Maps | STV","players":[{"user_id":52,"name":"Chicken Bake","steam_id":76561198045366628,"connected_time":360000000000,"state":"active","ping":89},{"user_id":50,"name":"humgry","steam_id":76561198805659769,"connected_time":496000000000,"state":"active","ping":93},{"user_id":44,"name":"Cad","steam_id":76561198312145232,"connected_time":753000000000,"state":"active","ping":93},{"user_id":9,"name":"Game Trooper","steam_id":76561198044979579,"connected_time":2200000000000,"state":"active","ping":87},{"user_id":55,"name":"PzVIIIMaus","steam_id":76561198346559365,"connected_time":231000000000,"state":"active","ping":75},{"user_id":13,"name":"scuttles","steam_id":76561199250039100,"connected_time":1859000000000,"state":"active","ping":58},{"user_id":14,"name":"Critical","steam_id":76561198123744966,"connected_time":1852000000000,"state":"active","ping":93},{"user_id":17,"name":"the doom of acoustic","steam_id":76561198328109873,"connected_time":1405000000000,"state":"active","ping":101},{"user_id":51,"name":"Echo Gaming","steam_id":76561198242890502,"connected_time":377000000000,"state":"active","ping":60},{"user_id":54,"name":"hola","steam_id":76561198873043242,"connected_time":310000000000,"state":"active","ping":127},{"user_id":56,"name":"theodoric","steam_id":76561198017539604,"connected_time":195000000000,"state":"active","ping":72},{"user_id":57,"name":"Mao Zedoge","steam_id":76561198141939154,"connected_time":169000000000,"state":"active","ping":77},{"user_id":24,"name":"apple","steam_id":76561198310578571,"connected_time":1080000000000,"state":"active","ping":92},{"user_id":46,"name":"Leo","steam_id":76561198309760791,"connected_time":726000000000,"state":"active","ping":118},{"user_id":26,"name":"BrightOrangeMango","steam_id":76561198023144607,"connected_time":1047000000000,"state":"active","ping":72},{"user_id":27,"name":"adrianvilla58","steam_id":76561199079317084,"connected_time":1037000000000,"state":"active","ping":103},{"user_id":28,"name":"\"Heavy\"","steam_id":76561198964539315,"connected_time":1019000000000,"state":"active","ping":71},{"user_id":29,"name":":0","steam_id":76561199049071249,"connected_time":1010000000000,"state":"active","ping":80},{"user_id":40,"name":"Paleblood","steam_id":76561198083943268,"connected_time":806000000000,"state":"active","ping":74},{"user_id":31,"name":"Frank","steam_id":76561198126681511,"connected_time":961000000000,"state":"active","ping":93},{"user_id":41,"name":"jeremiah","steam_id":76561198314490927,"connected_time":803000000000,"state":"active","ping":68},{"user_id":53,"name":"Obamacare","steam_id":76561198018894553,"connected_time":358000000000,"state":"active","ping":66},{"user_id":47,"name":"NovaMonkey","steam_id":76561198157828317,"connected_time":725000000000,"state":"active","ping":82},{"user_id":59,"name":"roughly 7 italians","steam_id":76561199443213821,"connected_time":18000000000,"state":"spawning","ping":128}]},{"server_id":108,"name":"Uncletopia | Dallas | 2 | All Maps","name_short":"dal-2","host":"dal-1.us.uncletopia.com","port":27025,"enabled":true,"region":"us-central","cc":"us","latitude":32.779167,"longitude":-96.80889,"reserved":0,"last_update":"0001-01-01T00:00:00Z","name_a2s":"Uncletopia | Dallas | 2 | All Maps","protocol":17,"map":"pl_barnblitz","folder":"tf","game":"Team Fortress","app_id":440,"player_count":24,"max_players":24,"Bots":0,"server_type":"Dedicated","server_os":"Linux","password":true,"vac":true,"version":"7742253","steam_id":85568392924469988,"keywords":["nocrits","nodmgspread","payload","uncletopia"],"game_id":440,"stv_port":27026,"stv_name":"Uncletopia | Dallas | 2 | All Maps | STV","players":[{"user_id":96,"name":"spot (paradise edition)","steam_id":76561198151135298,"connected_time":1494000000000,"state":"active","ping":60},{"user_id":111,"name":"mikey | I'm Burning Bright!","steam_id":76561198985847893,"connected_time":846000000000,"state":"active","ping":47},{"user_id":92,"name":"It's DecemBURR","steam_id":76561198167302164,"connected_time":1910000000000,"state":"active","ping":30},{"user_id":104,"name":"therealdeal680","steam_id":76561199190330316,"connected_time":1308000000000,"state":"active","ping":69},{"user_id":124,"name":"Yiff Police","steam_id":76561198103938356,"connected_time":122000000000,"state":"active","ping":67},{"user_id":82,"name":"Maranata","steam_id":76561198830158092,"connected_time":2807000000000,"state":"active","ping":75},{"user_id":117,"name":"You Want Me","steam_id":76561198135492119,"connected_time":474000000000,"state":"active","ping":81},{"user_id":99,"name":"ly","steam_id":76561198062922146,"connected_time":1475000000000,"state":"active","ping":46},{"user_id":12,"name":"Lolxdloldx","steam_id":76561198136887125,"connected_time":7106000000000,"state":"active","ping":75},{"user_id":125,"name":"papas","steam_id":76561198823848914,"connected_time":101000000000,"state":"active","ping":72},{"user_id":75,"name":"eBay","steam_id":76561198061214569,"connected_time":3314000000000,"state":"active","ping":81},{"user_id":118,"name":"glop shitto bounter hunter","steam_id":76561198063138457,"connected_time":460000000000,"state":"active","ping":97},{"user_id":16,"name":"Hobocop","steam_id":76561198076321907,"connected_time":6624000000000,"state":"active","ping":100},{"user_id":105,"name":"King Baldski","steam_id":76561198359568400,"connected_time":1302000000000,"state":"active","ping":138},{"user_id":127,"name":"spoonycookie2","steam_id":76561198799454812,"connected_time":53000000000,"state":"active","ping":74},{"user_id":122,"name":"TheBrocklobster","steam_id":76561198039682984,"connected_time":308000000000,"state":"active","ping":79},{"user_id":119,"name":"Chol","steam_id":76561198122054259,"connected_time":452000000000,"state":"active","ping":77},{"user_id":120,"name":"dicksnip","steam_id":76561198356515396,"connected_time":451000000000,"state":"active","ping":60},{"user_id":94,"name":"Vsause","steam_id":76561198799268441,"connected_time":1521000000000,"state":"active","ping":76},{"user_id":85,"name":"theholylightone","steam_id":76561198423539449,"connected_time":2715000000000,"state":"active","ping":85},{"user_id":114,"name":"TheFlyingTortis","steam_id":76561198071576016,"connected_time":656000000000,"state":"active","ping":89},{"user_id":126,"name":"shoe","steam_id":76561199251802651,"connected_time":86000000000,"state":"active","ping":91},{"user_id":116,"name":"G_Bob","steam_id":76561198098133233,"connected_time":546000000000,"state":"active","ping":82},{"user_id":115,"name":"Magitrex","steam_id":76561199088811754,"connected_time":651000000000,"state":"active","ping":55}]},{"server_id":5,"name":"Uncletopia | Frankfurt | 1 | All Maps","name_short":"frk-1","host":"frk-1.de.uncletopia.com","port":27015,"enabled":true,"region":"eu","cc":"de","latitude":50.110924,"longitude":8.682127,"reserved":0,"last_update":"0001-01-01T00:00:00Z","name_a2s":"Uncletopia | Frankfurt | 1 | All Maps","protocol":17,"map":"cp_process_final","folder":"tf","game":"Team Fortress","app_id":440,"player_count":24,"max_players":24,"Bots":0,"server_type":"Dedicated","server_os":"Linux","password":true,"vac":true,"version":"7742253","steam_id":85568392924469989,"keywords":["cp","nocrits","nodmgspread","uncletopia"],"game_id":440,"stv_port":27016,"stv_name":"Uncletopia | Frankfurt | 1 | All Maps | STV","players":[{"user_id":659,"name":"BenJantr_","steam_id":76561198882922635,"connected_time":1352000000000,"state":"active","ping":75},{"user_id":648,"name":"Speedy","steam_id":76561197973634290,"connected_time":1852000000000,"state":"active","ping":86},{"user_id":664,"name":"Sch","steam_id":76561198071341689,"connected_time":985000000000,"state":"active","ping":55},{"user_id":660,"name":"zazuza","steam_id":76561198049820905,"connected_time":1066000000000,"state":"active","ping":67},{"user_id":643,"name":"tealoverr.190","steam_id":76561199028497703,"connected_time":2006000000000,"state":"active","ping":97},{"user_id":657,"name":"Frank Drebin","steam_id":76561197982891118,"connected_time":1575000000000,"state":"active","ping":50},{"user_id":661,"name":"leyyzerr","steam_id":76561199418855142,"connected_time":1039000000000,"state":"active","ping":87},{"user_id":665,"name":"Miton","steam_id":76561197970323209,"connected_time":977000000000,"state":"active","ping":81},{"user_id":666,"name":"americano","steam_id":76561198033695429,"connected_time":913000000000,"state":"active","ping":54},{"user_id":644,"name":"Yagumbus","steam_id":76561198039691679,"connected_time":1930000000000,"state":"active","ping":80},{"user_id":645,"name":"James Elroy - 1967","steam_id":76561198799616345,"connected_time":1929000000000,"state":"active","ping":66},{"user_id":583,"name":"TheShadowScribe","steam_id":76561199037525945,"connected_time":6187000000000,"state":"active","ping":79},{"user_id":672,"name":"Beater","steam_id":76561197990142005,"connected_time":339000000000,"state":"active","ping":60},{"user_id":667,"name":"AleXandriX","steam_id":76561198035203950,"connected_time":902000000000,"state":"active","ping":60},{"user_id":673,"name":"Taskyy","steam_id":76561198134901175,"connected_time":167000000000,"state":"active","ping":77},{"user_id":670,"name":"Zero (Orbital Gear Mastermind)","steam_id":76561198017416816,"connected_time":417000000000,"state":"active","ping":49},{"user_id":636,"name":"fried","steam_id":76561198307522022,"connected_time":2396000000000,"state":"active","ping":57},{"user_id":640,"name":"–ò–Ω—Å–ø–µ–∫—Ç–æ—Ä –ê—Ç–∞—Å","steam_id":76561199175688390,"connected_time":2162000000000,"state":"active","ping":77},{"user_id":598,"name":"Mariachi Dave","steam_id":76561198074274900,"connected_time":5195000000000,"state":"active","ping":66},{"user_id":580,"name":"PLUTO","steam_id":76561198312436128,"connected_time":6752000000000,"state":"active","ping":126},{"user_id":655,"name":"Rezkey","steam_id":76561198206079048,"connected_time":1688000000000,"state":"active","ping":60},{"user_id":622,"name":"„ÉÜ„Ç§„É´„Çπ","steam_id":76561198022403271,"connected_time":3550000000000,"state":"active","ping":45},{"user_id":628,"name":"mesoni","steam_id":76561199141290973,"connected_time":2820000000000,"state":"active","ping":90},{"user_id":671,"name":"Madetter_","steam_id":76561198067838929,"connected_time":377000000000,"state":"active","ping":81}]},{"server_id":110,"name":"Uncletopia | Frankfurt | 2 | All Maps","name_short":"frk-2","host":"frk-1.de.uncletopia.com","port":27025,"enabled":true,"region":"eu","cc":"de","latitude":50.110924,"longitude":8.682127,"reserved":0,"last_update":"0001-01-01T00:00:00Z","name_a2s":"Uncletopia | Frankfurt | 2 | All Maps","protocol":17,"map":"pl_snowycoast","folder":"tf","game":"Team Fortress","app_id":440,"player_count":24,"max_players":24,"Bots":0,"server_type":"Dedicated","server_os":"Linux","password":true,"vac":true,"version":"7742253","steam_id":85568392924469990,"keywords":["nocrits","nodmgspread","payload","uncletopia"],"game_id":440,"stv_port":27026,"stv_name":"Uncletopia | Frankfurt | 2 | All Maps | STV","players":[{"user_id":448,"name":"Doriian","steam_id":76561198071438810,"connected_time":1012000000000,"state":"active","ping":100},{"user_id":463,"name":"freemantel30","steam_id":76561198065669800,"connected_time":166000000000,"state":"active","ping":43},{"user_id":455,"name":"tayro","steam_id":76561198202990635,"connected_time":634000000000,"state":"active","ping":60},{"user_id":447,"name":"tekszi","steam_id":76561198107220903,"connected_time":1108000000000,"state":"active","ping":53},{"user_id":451,"name":"Sir Oldryn Shootsalot","steam_id":76561198060264635,"connected_time":708000000000,"state":"active","ping":47},{"user_id":436,"name":"mole","steam_id":76561198057766853,"connected_time":1513000000000,"state":"active","ping":50},{"user_id":437,"name":"ryft","steam_id":76561198429138254,"connected_time":1510000000000,"state":"active","ping":60},{"user_id":449,"name":"Silky smooth","steam_id":76561198345773558,"connected_time":830000000000,"state":"active","ping":110},{"user_id":445,"name":"Rat head","steam_id":76561198184360615,"connected_time":1167000000000,"state":"active","ping":98},{"user_id":443,"name":"Vischan but worse","steam_id":76561199371650805,"connected_time":1275000000000,"state":"active","ping":92},{"user_id":366,"name":"Penis Contortionist","steam_id":76561198073663784,"connected_time":5869000000000,"state":"active","ping":51},{"user_id":423,"name":"Noob_with_source","steam_id":76561198870362103,"connected_time":2346000000000,"state":"active","ping":62},{"user_id":438,"name":"greeneyo","steam_id":76561198316173029,"connected_time":1472000000000,"state":"active","ping":64},{"user_id":405,"name":"cappy","steam_id":76561198231859236,"connected_time":3452000000000,"state":"active","ping":89},{"user_id":433,"name":"sex bob","steam_id":76561199235435358,"connected_time":1590000000000,"state":"active","ping":80},{"user_id":456,"name":"Joe","steam_id":76561198061717026,"connected_time":614000000000,"state":"active","ping":61},{"user_id":440,"name":"MR.MOON","steam_id":76561198846124429,"connected_time":1395000000000,"state":"active","ping":107},{"user_id":424,"name":"Lyra","steam_id":76561198043601838,"connected_time":2339000000000,"state":"active","ping":60},{"user_id":459,"name":"Slav-matros","steam_id":76561198251977912,"connected_time":490000000000,"state":"active","ping":56},{"user_id":453,"name":"Ranidaphobia","steam_id":76561198865564747,"connected_time":679000000000,"state":"active","ping":109},{"user_id":461,"name":"ck","steam_id":76561197984084920,"connected_time":316000000000,"state":"active","ping":68},{"user_id":444,"name":"killercupcake","steam_id":76561198079730284,"connected_time":1222000000000,"state":"active","ping":65},{"user_id":376,"name":"NALA","steam_id":76561198039806469,"connected_time":5040000000000,"state":"active","ping":73},{"user_id":458,"name":"flora","steam_id":76561197994492154,"connected_time":563000000000,"state":"active","ping":65}]},{"server_id":308,"name":"Uncletopia | Frankfurt | 3 | All Maps","name_short":"frk-3","host":"frk-1.de.uncletopia.com","port":27035,"enabled":true,"region":"eu","cc":"de","latitude":50.110924,"longitude":8.682127,"reserved":0,"last_update":"0001-01-01T00:00:00Z","name_a2s":"Uncletopia | Frankfurt | 3 | All Maps","protocol":17,"map":"pl_snowycoast","folder":"tf","game":"Team Fortress","app_id":440,"player_count":24,"max_players":24,"Bots":0,"server_type":"Dedicated","server_os":"Linux","password":true,"vac":true,"version":"7742253","steam_id":85568392924504274,"keywords":["nocrits","nodmgspread","payload","uncletopia"],"game_id":440,"stv_port":27036,"stv_name":"Uncletopia | Frankfurt | 3 | All Maps | STV","players":[{"user_id":104,"name":"The Funny Cat-Heaby","steam_id":76561198439978112,"connected_time":1009000000000,"state":"active","ping":98},{"user_id":105,"name":"poliakov.noam","steam_id":76561199259322961,"connected_time":946000000000,"state":"active","ping":101},{"user_id":54,"name":"GigaGuenther","steam_id":76561198257633868,"connected_time":3463000000000,"state":"active","ping":68},{"user_id":113,"name":"-rikeOo-","steam_id":76561198303995379,"connected_time":31000000000,"state":"spawning","ping":83},{"user_id":87,"name":"LasagnaLarry22","steam_id":76561198089478290,"connected_time":2104000000000,"state":"active","ping":53},{"user_id":114,"name":"nachtraaf","steam_id":76561197960473205,"connected_time":0,"state":"connecting","ping":0},{"user_id":112,"name":"Gravity‚Ñ¢","steam_id":76561197992193212,"connected_time":42000000000,"state":"spawning","ping":107},{"user_id":99,"name":"Morbeus","steam_id":76561198057717808,"connected_time":1353000000000,"state":"active","ping":91},{"user_id":93,"name":"Aesthetic Alcoholism","steam_id":76561198044418968,"connected_time":1729000000000,"state":"active","ping":47},{"user_id":86,"name":"Pabs :D","steam_id":76561198000016962,"connected_time":2113000000000,"state":"active","ping":58},{"user_id":107,"name":"Knee-eater","steam_id":76561199114057061,"connected_time":923000000000,"state":"active","ping":65},{"user_id":94,"name":"Frazzles","steam_id":76561199228009586,"connected_time":1712000000000,"state":"active","ping":56},{"user_id":90,"name":"all snipers are edgy cowards","steam_id":76561198060200599,"connected_time":1882000000000,"state":"active","ping":110},{"user_id":70,"name":"X-tis","steam_id":76561198043837480,"connected_time":2630000000000,"state":"active","ping":75},{"user_id":71,"name":"Fat Pigeon","steam_id":76561198817940142,"connected_time":2610000000000,"state":"active","ping":47},{"user_id":101,"name":"Sweat Plantation","steam_id":76561198025086883,"connected_time":1060000000000,"state":"active","ping":79},{"user_id":110,"name":"Espa√±aa","steam_id":76561198879587832,"connected_time":844000000000,"state":"active","ping":79},{"user_id":108,"name":"√úbergine","steam_id":76561198175517826,"connected_time":913000000000,"state":"active","ping":76},{"user_id":97,"name":"BigGuyGeorge","steam_id":76561198043141880,"connected_time":1445000000000,"state":"active","ping":72},{"user_id":100,"name":"Lord of the Lockerroom","steam_id":76561198080619697,"connected_time":1313000000000,"state":"active","ping":92},{"user_id":111,"name":"G6 sherlock","steam_id":76561198802967796,"connected_time":190000000000,"state":"active","ping":120},{"user_id":80,"name":"Rarky","steam_id":76561198054398642,"connected_time":2417000000000,"state":"active","ping":51},{"user_id":81,"name":"Swibby","steam_id":76561198041296417,"connected_time":2407000000000,"state":"active","ping":62},{"user_id":109,"name":"AforeKingDwarf","steam_id":76561198043562926,"connected_time":879000000000,"state":"active","ping":52}]},{"server_id":309,"name":"Uncletopia | Frankfurt | 4 | All Maps","name_short":"frk-4","host":"frk-1.de.uncletopia.com","port":27045,"enabled":true,"region":"eu","cc":"de","latitude":50.110924,"longitude":8.682127,"reserved":0,"last_update":"0001-01-01T00:00:00Z","name_a2s":"Uncletopia | Frankfurt | 4 | All Maps","protocol":17,"map":"cp_sunshine","folder":"tf","game":"Team Fortress","app_id":440,"player_count":24,"max_players":24,"Bots":0,"server_type":"Dedicated","server_os":"Linux","password":true,"vac":true,"version":"7742253","steam_id":85568392924504275,"keywords":["cp","nocrits","nodmgspread","uncletopia"],"game_id":440,"stv_port":27046,"stv_name":"Uncletopia | Frankfurt | 4 | All Maps | STV","players":[{"user_id":48,"name":"...","steam_id":76561198969234594,"connected_time":356000000000,"state":"active","ping":67},{"user_id":31,"name":"Elon","steam_id":76561198140751130,"connected_time":2159000000000,"state":"active","ping":65},{"user_id":32,"name":"Superior Turtle","steam_id":76561199051735799,"connected_time":1930000000000,"state":"active","ping":49},{"user_id":49,"name":"Lessoz","steam_id":76561199211572036,"connected_time":333000000000,"state":"active","ping":92},{"user_id":43,"name":"Dantube","steam_id":76561198329954436,"connected_time":665000000000,"state":"active","ping":83},{"user_id":39,"name":"MAJAX","steam_id":76561198254828632,"connected_time":757000000000,"state":"active","ping":80},{"user_id":50,"name":"marsel","steam_id":76561198116168271,"connected_time":314000000000,"state":"active","ping":63},{"user_id":51,"name":"live","steam_id":76561198039254055,"connected_time":289000000000,"state":"active","ping":143},{"user_id":45,"name":"Frog","steam_id":76561198043981067,"connected_time":511000000000,"state":"active","ping":71},{"user_id":52,"name":"Frank","steam_id":76561198086672774,"connected_time":289000000000,"state":"active","ping":61},{"user_id":53,"name":"honey live","steam_id":76561198345972230,"connected_time":285000000000,"state":"active","ping":76},{"user_id":54,"name":"quack","steam_id":76561198121003465,"connected_time":258000000000,"state":"active","ping":61},{"user_id":55,"name":"Chef Magpie","steam_id":76561198043926401,"connected_time":251000000000,"state":"active","ping":105},{"user_id":56,"name":"Û†Ä°Û†Ä°","steam_id":76561198015585266,"connected_time":233000000000,"state":"active","ping":71},{"user_id":58,"name":"Knoxxen","steam_id":76561198071114510,"connected_time":211000000000,"state":"active","ping":63},{"user_id":59,"name":"·óúÀ∞·óú","steam_id":76561198148074472,"connected_time":160000000000,"state":"active","ping":42},{"user_id":60,"name":"ra","steam_id":76561198147277460,"connected_time":136000000000,"state":"active","ping":58},{"user_id":61,"name":"ChaseYourDream56065","steam_id":76561199008351754,"connected_time":114000000000,"state":"active","ping":158},{"user_id":62,"name":"Luminark","steam_id":76561198176747370,"connected_time":90000000000,"state":"active","ping":52},{"user_id":63,"name":"varven","steam_id":76561197965907387,"connected_time":83000000000,"state":"active","ping":60},{"user_id":64,"name":"Soru","steam_id":76561198253484065,"connected_time":82000000000,"state":"active","ping":113},{"user_id":65,"name":"zeus hater","steam_id":76561199182295660,"connected_time":82000000000,"state":"active","ping":65},{"user_id":66,"name":"filo","steam_id":76561198103633797,"connected_time":65000000000,"state":"active","ping":80},{"user_id":67,"name":"Lizardly","steam_id":76561198176750238,"connected_time":65000000000,"state":"active","ping":72}]},{"server_id":310,"name":"Uncletopia | Frankfurt | 5 | All Maps","name_short":"frk-5","host":"frk-1.de.uncletopia.com","port":27055,"enabled":true,"region":"eu","cc":"de","latitude":50.110924,"longitude":8.682127,"reserved":0,"last_update":"0001-01-01T00:00:00Z","name_a2s":"Uncletopia | Frankfurt | 5 | All Maps","protocol":17,"map":"pl_badwater","folder":"tf","game":"Team Fortress","app_id":440,"player_count":23,"max_players":24,"Bots":0,"server_type":"Dedicated","server_os":"Linux","password":true,"vac":true,"version":"7742253","steam_id":85568392924504277,"keywords":["nocrits","nodmgspread","payload","uncletopia"],"game_id":440,"stv_port":27056,"stv_name":"Uncletopia | Frankfurt | 5 | All Maps | STV","players":[{"user_id":310,"name":"Jiant","steam_id":76561198374998274,"connected_time":77000000000,"state":"active","ping":84},{"user_id":288,"name":"GodOfGobboz","steam_id":76561198154677956,"connected_time":1314000000000,"state":"active","ping":67},{"user_id":270,"name":"KeepIT.OK?","steam_id":76561198957890584,"connected_time":2191000000000,"state":"active","ping":145},{"user_id":194,"name":"Zateske","steam_id":76561198047446276,"connected_time":6513000000000,"state":"active","ping":61},{"user_id":259,"name":"Cerberus","steam_id":76561198140442059,"connected_time":2644000000000,"state":"active","ping":54},{"user_id":279,"name":"FurryLover","steam_id":76561198159328061,"connected_time":1827000000000,"state":"active","ping":92},{"user_id":308,"name":"gaming","steam_id":76561199015038728,"connected_time":159000000000,"state":"active","ping":67},{"user_id":287,"name":"Noah May","steam_id":76561198411732527,"connected_time":1321000000000,"state":"active","ping":60},{"user_id":298,"name":"Azra","steam_id":76561198331351205,"connected_time":869000000000,"state":"active","ping":89},{"user_id":302,"name":"dafydd","steam_id":76561198052200325,"connected_time":345000000000,"state":"active","ping":78},{"user_id":306,"name":"Combat Wombat","steam_id":76561197994720068,"connected_time":216000000000,"state":"active","ping":67},{"user_id":283,"name":"Tel Ltd.","steam_id":76561198045137670,"connected_time":1586000000000,"state":"active","ping":62},{"user_id":309,"name":"Floris","steam_id":76561198001717422,"connected_time":130000000000,"state":"active","ping":50},{"user_id":304,"name":"Martial Autist","steam_id":76561198392067162,"connected_time":318000000000,"state":"active","ping":62},{"user_id":293,"name":"Milosz52","steam_id":76561199060940204,"connected_time":1121000000000,"state":"active","ping":79},{"user_id":221,"name":"Valoxi","steam_id":76561197995042938,"connected_time":4794000000000,"state":"active","ping":67},{"user_id":307,"name":"Daddy Donovan","steam_id":76561198140938904,"connected_time":210000000000,"state":"active","ping":65},{"user_id":311,"name":"GE P42DC","steam_id":76561198342354836,"connected_time":46000000000,"state":"active","ping":54},{"user_id":303,"name":"Abnormally stupid","steam_id":76561199364074118,"connected_time":343000000000,"state":"active","ping":70},{"user_id":277,"name":"MatesThePlayer","steam_id":76561198066156449,"connected_time":2086000000000,"state":"active","ping":55},{"user_id":305,"name":"crepitus","steam_id":76561198184881255,"connected_time":292000000000,"state":"active","ping":74},{"user_id":292,"name":"√ì√∞inn","steam_id":76561198132690562,"connected_time":1202000000000,"state":"active","ping":52},{"user_id":297,"name":"Gatsby","steam_id":76561198259576959,"connected_time":987000000000,"state":"active","ping":76}]},{"server_id":311,"name":"Uncletopia | Frankfurt | 6 | All Maps","name_short":"frk-6","host":"frk-1.de.uncletopia.com","port":27065,"enabled":true,"region":"eu","cc":"de","latitude":50.110924,"longitude":8.682127,"reserved":0,"last_update":"0001-01-01T00:00:00Z","name_a2s":"Uncletopia | Frankfurt | 6 | All Maps","protocol":17,"map":"cp_dustbowl","folder":"tf","game":"Team Fortress","app_id":440,"player_count":24,"max_players":24,"Bots":0,"server_type":"Dedicated","server_os":"Linux","password":true,"vac":true,"version":"7742253","steam_id":85568392924504278,"keywords":["cp","nocrits","nodmgspread","uncletopia"],"game_id":440,"stv_port":27066,"stv_name":"Uncletopia | Frankfurt | 6 | All Maps | STV","players":[{"user_id":303,"name":"Your Lovely Medic","steam_id":76561198039326848,"connected_time":3934000000000,"state":"active","ping":68},{"user_id":345,"name":"ProfessorCrack","steam_id":76561199035475627,"connected_time":781000000000,"state":"active","ping":75},{"user_id":341,"name":"ScarredPixel123","steam_id":76561199165112703,"connected_time":1091000000000,"state":"active","ping":78},{"user_id":332,"name":"üòà COCKDESTROYER üòà","steam_id":76561198042846999,"connected_time":1810000000000,"state":"active","ping":71},{"user_id":221,"name":"Blo","steam_id":76561198161651469,"connected_time":9442000000000,"state":"active","ping":56},{"user_id":313,"name":"Jedi Knight","steam_id":76561198039030709,"connected_time":2849000000000,"state":"active","ping":48},{"user_id":348,"name":"XavierSweet","steam_id":76561198091781913,"connected_time":424000000000,"state":"active","ping":62},{"user_id":350,"name":"agent youppii","steam_id":76561198055264447,"connected_time":82000000000,"state":"active","ping":74},{"user_id":346,"name":"NaN","steam_id":76561198071098413,"connected_time":703000000000,"state":"active","ping":46},{"user_id":309,"name":"yuh","steam_id":76561199005555839,"connected_time":3230000000000,"state":"active","ping":65},{"user_id":293,"name":"TH3 V1CT0R","steam_id":76561198007025172,"connected_time":4378000000000,"state":"active","ping":74},{"user_id":291,"name":"Mi Manchi","steam_id":76561198171573129,"connected_time":4526000000000,"state":"active","ping":56},{"user_id":288,"name":"Bajas","steam_id":76561198179339326,"connected_time":4863000000000,"state":"active","ping":77},{"user_id":209,"name":"VioBeeyo ‚ô•","steam_id":76561198066258544,"connected_time":10626000000000,"state":"active","ping":58},{"user_id":333,"name":"Warrior_Tongs","steam_id":76561197971278858,"connected_time":1794000000000,"state":"active","ping":67},{"user_id":349,"name":"bANji","steam_id":76561198108898161,"connected_time":382000000000,"state":"active","ping":34},{"user_id":331,"name":"jankomit","steam_id":76561198043024857,"connected_time":1889000000000,"state":"active","ping":82},{"user_id":337,"name":"DaVitsChi","steam_id":76561199035895096,"connected_time":1493000000000,"state":"active","ping":67},{"user_id":334,"name":"Vershal Smershal","steam_id":76561198116223995,"connected_time":1526000000000,"state":"active","ping":64},{"user_id":339,"name":"Pain in a Box","steam_id":76561197990777173,"connected_time":1160000000000,"state":"active","ping":68},{"user_id":322,"name":"Hegyi tah√≥ F2P","steam_id":76561199219150356,"connected_time":2242000000000,"state":"active","ping":113},{"user_id":342,"name":"Deus","steam_id":76561197966689694,"connected_time":1091000000000,"state":"active","ping":94},{"user_id":330,"name":"thospe","steam_id":76561198144990501,"connected_time":2011000000000,"state":"active","ping":65},{"user_id":344,"name":"lolimsogreat21","steam_id":76561199052033788,"connected_time":817000000000,"state":"active","ping":68}]},{"server_id":23,"name":"Uncletopia | Frankfurt | 7 | Stopwatch Beta","name_short":"frk-7","host":"frk-1.de.uncletopia.com","port":27075,"enabled":true,"region":"eu","cc":"de","latitude":50.110924,"longitude":8.682127,"reserved":0,"last_update":"0001-01-01T00:00:00Z","name_a2s":"Uncletopia | Frankfurt | 7 | Stopwatch Beta","protocol":17,"map":"pl_badwater","folder":"tf","game":"Team Fortress","app_id":440,"player_count":0,"max_players":24,"Bots":0,"server_type":"Dedicated","server_os":"Linux","password":true,"vac":true,"version":"7742253","steam_id":85568392924742827,"keywords":["nocrits","nodmgspread","payload","uncletopia"],"game_id":440,"stv_port":27076,"stv_name":"Uncletopia | Frankfurt | 7 | Stopwatch Beta | STV","players":null},{"server_id":24,"name":"Uncletopia | Frankfurt | 8 | Community","name_short":"frk-8","host":"frk-1.de.uncletopia.com","port":27085,"enabled":true,"region":"eu","cc":"de","latitude":50.110924,"longitude":8.682127,"reserved":0,"last_update":"0001-01-01T00:00:00Z","name_a2s":"Uncletopia | Frankfurt | 8 | Community","protocol":17,"map":"koth_cascade","folder":"tf","game":"Team Fortress","app_id":440,"player_count":4,"max_players":24,"Bots":0,"server_type":"Dedicated","server_os":"Linux","password":true,"vac":true,"version":"7742253","steam_id":85568392924742828,"keywords":["cp","nocrits","nodmgspread","uncletopia"],"game_id":440,"stv_port":27086,"stv_name":"Uncletopia | Frankfurt | 8 | Community | STV","players":[{"user_id":38,"name":"Name_not_available","steam_id":76561198332519382,"connected_time":279000000000,"state":"active","ping":53},{"user_id":39,"name":"Divide by Zero","steam_id":76561198815450806,"connected_time":277000000000,"state":"active","ping":52},{"user_id":40,"name":"Mormarnus","steam_id":76561198328455859,"connected_time":277000000000,"state":"active","ping":45},{"user_id":41,"name":"mark","steam_id":76561198309246388,"connected_time":38000000000,"state":"active","ping":45}]},{"server_id":202,"name":"Uncletopia | Hong Kong | 1 | All Maps","name_short":"hgk-1","host":"hgk-1.hk.uncletopia.com","port":27015,"enabled":true,"region":"asia","cc":"hk","latitude":22.302711,"longitude":114.177216,"reserved":0,"last_update":"0001-01-01T00:00:00Z","name_a2s":"Uncletopia | Hong Kong | 1 | All Maps","protocol":17,"map":"pl_frontier_final","folder":"tf","game":"Team Fortress","app_id":440,"player_count":1,"max_players":24,"Bots":0,"server_type":"Dedicated","server_os":"Linux","password":true,"vac":true,"version":"7742253","steam_id":85568392924494504,"keywords":["nocrits","nodmgspread","payload","uncletopia"],"game_id":440,"stv_port":27016,"stv_name":"Uncletopia | Hong Kong | 1 | All Maps | STV","players":[{"user_id":1161,"name":"alamodefenders","steam_id":76561199014939498,"connected_time":24000000000,"state":"active","ping":254}]},{"server_id":1,"name":"Uncletopia | Los Angeles | 1 | All Maps","name_short":"lax-1","host":"lax-1.us.uncletopia.com","port":27015,"enabled":true,"region":"us-west","cc":"us","latitude":33.94279,"longitude":-118.41004,"reserved":0,"last_update":"0001-01-01T00:00:00Z","name_a2s":"Uncletopia | Los Angeles | 1 | All Maps","protocol":17,"map":"cp_dustbowl","folder":"tf","game":"Team Fortress","app_id":440,"player_count":4,"max_players":24,"Bots":0,"server_type":"Dedicated","server_os":"Linux","password":true,"vac":true,"version":"7742253","steam_id":85568392924469991,"keywords":["cp","nocrits","nodmgspread","uncletopia"],"game_id":440,"stv_port":27016,"stv_name":"Uncletopia | Los Angeles | 1 | All Maps | STV","players":[{"user_id":6,"name":"nerd_man","steam_id":76561198345757865,"connected_time":177000000000,"state":"active","ping":133},{"user_id":7,"name":"aidanpenney2","steam_id":76561199193017693,"connected_time":159000000000,"state":"active","ping":109},{"user_id":8,"name":"Risky","steam_id":76561198231029328,"connected_time":134000000000,"state":"active","ping":44},{"user_id":9,"name":"ErikaNectarrr","steam_id":76561199405226986,"connected_time":6000000000,"state":"spawning","ping":179}]},{"server_id":112,"name":"Uncletopia | Los Angeles | 2 | All Maps","name_short":"lax-2","host":"lax-1.us.uncletopia.com","port":27025,"enabled":true,"region":"us-west","cc":"us","latitude":33.94279,"longitude":-118.41004,"reserved":0,"last_update":"0001-01-01T00:00:00Z","name_a2s":"Uncletopia | Los Angeles | 2 | All Maps","protocol":17,"map":"koth_highpass","folder":"tf","game":"Team Fortress","app_id":440,"player_count":0,"max_players":24,"Bots":0,"server_type":"Dedicated","server_os":"Linux","password":true,"vac":true,"version":"7742253","steam_id":85568392924469992,"keywords":["cp","nocrits","nodmgspread","uncletopia"],"game_id":440,"stv_port":27026,"stv_name":"Uncletopia | Los Angeles | 2 | All Maps | STV","players":null},{"server_id":324,"name":"Uncletopia | Los Angeles | 3 | All Maps","name_short":"lax-3","host":"lax-1.us.uncletopia.com","port":27035,"enabled":true,"region":"us-west","cc":"us","latitude":33.94279,"longitude":-118.41004,"reserved":0,"last_update":"0001-01-01T00:00:00Z","name_a2s":"Uncletopia | Los Angeles | 3 | All Maps","protocol":17,"map":"koth_viaduct","folder":"tf","game":"Team Fortress","app_id":440,"player_count":0,"max_players":24,"Bots":0,"server_type":"Dedicated","server_os":"Linux","password":true,"vac":true,"version":"7742253","steam_id":85568392924510198,"keywords":["cp","nocrits","nodmgspread","uncletopia"],"game_id":440,"stv_port":27036,"stv_name":"Uncletopia | Los Angeles | 3 | All Maps | STV","players":null},{"server_id":25,"name":"Uncletopia | Los Angeles | 4 | Stopwatch Beta","name_short":"lax-4","host":"lax-1.us.uncletopia.com","port":27045,"enabled":true,"region":"us-west","cc":"us","latitude":33.94279,"longitude":-118.41004,"reserved":0,"last_update":"0001-01-01T00:00:00Z","name_a2s":"Uncletopia | Los Angeles | 4 | Stopwatch Beta","protocol":17,"map":"cp_snakewater_final1","folder":"tf","game":"Team Fortress","app_id":440,"player_count":0,"max_players":24,"Bots":0,"server_type":"Dedicated","server_os":"Linux","password":true,"vac":true,"version":"7742253","steam_id":85568392924510199,"keywords":["cp","nocrits","nodmgspread","uncletopia"],"game_id":440,"stv_port":27046,"stv_name":"Uncletopia | Los Angeles | 4 | Stopwatch Beta | STV","players":null},{"server_id":11,"name":"Uncletopia | London | 1 | All Maps","name_short":"lon-1","host":"lon-1.uk.uncletopia.com","port":27015,"enabled":true,"region":"eu","cc":"gb","latitude":51.509865,"longitude":-0.118092,"reserved":0,"last_update":"0001-01-01T00:00:00Z","name_a2s":"Uncletopia | London | 1 | All Maps","protocol":17,"map":"pl_pier","folder":"tf","game":"Team Fortress","app_id":440,"player_count":24,"max_players":24,"Bots":0,"server_type":"Dedicated","server_os":"Linux","password":true,"vac":true,"version":"7742253","steam_id":85568392924367362,"keywords":["nocrits","nodmgspread","payload","uncletopia"],"game_id":440,"stv_port":27016,"stv_name":"Uncletopia | London | 1 | All Maps | STV","players":[{"user_id":361,"name":"NotFionn","steam_id":76561198890525176,"connected_time":270000000000,"state":"active","ping":72},{"user_id":308,"name":"Bruschetta","steam_id":76561198251927162,"connected_time":3085000000000,"state":"active","ping":60},{"user_id":332,"name":"Avoonix","steam_id":76561198186954897,"connected_time":1628000000000,"state":"active","ping":60},{"user_id":340,"name":"Veliki Gospar","steam_id":76561198077733475,"connected_time":1443000000000,"state":"active","ping":71},{"user_id":329,"name":"Saiko","steam_id":76561198140258756,"connected_time":1980000000000,"state":"active","ping":90},{"user_id":345,"name":"Bits\u0026Peices","steam_id":76561199225453607,"connected_time":1090000000000,"state":"active","ping":110},{"user_id":316,"name":"Grimm","steam_id":76561198044684227,"connected_time":2753000000000,"state":"active","ping":66},{"user_id":362,"name":"cropper","steam_id":76561198047728149,"connected_time":52000000000,"state":"active","ping":45},{"user_id":333,"name":"average f2p","steam_id":76561199136308055,"connected_time":1565000000000,"state":"active","ping":49},{"user_id":350,"name":"Axord","steam_id":76561199289652176,"connected_time":992000000000,"state":"active","ping":50},{"user_id":334,"name":"Alegz","steam_id":76561198287810139,"connected_time":1564000000000,"state":"active","ping":64},{"user_id":356,"name":"Nitrogliceryna","steam_id":76561199105104134,"connected_time":799000000000,"state":"active","ping":73},{"user_id":347,"name":"Rat, the ungodly rat #SaveTF2","steam_id":76561199126577423,"connected_time":1059000000000,"state":"active","ping":70},{"user_id":338,"name":"Vitamin Weee","steam_id":76561199183937747,"connected_time":1506000000000,"state":"active","ping":89},{"user_id":348,"name":"The Pyro Chef","steam_id":76561198069610259,"connected_time":1004000000000,"state":"active","ping":50},{"user_id":349,"name":"Tresnov","steam_id":76561198068106802,"connected_time":998000000000,"state":"active","ping":53},{"user_id":351,"name":"Ice Tea","steam_id":76561199180744278,"connected_time":982000000000,"state":"active","ping":74},{"user_id":301,"name":"Vectillion","steam_id":76561198074292454,"connected_time":3308000000000,"state":"active","ping":62},{"user_id":343,"name":"CarBombEnthusiast","steam_id":76561199448185434,"connected_time":1218000000000,"state":"active","ping":63},{"user_id":355,"name":"Hell Striker","steam_id":76561199023875942,"connected_time":852000000000,"state":"active","ping":107},{"user_id":309,"name":"Asoivel","steam_id":76561198172052699,"connected_time":3069000000000,"state":"active","ping":51},{"user_id":358,"name":"R3inis","steam_id":76561199030393569,"connected_time":525000000000,"state":"active","ping":88},{"user_id":353,"name":"Shady guy","steam_id":76561198365698508,"connected_time":960000000000,"state":"active","ping":61},{"user_id":331,"name":"Dr.Razor","steam_id":76561198061747145,"connected_time":1682000000000,"state":"active","ping":118}]},{"server_id":114,"name":"Uncletopia | London | 2 | All Maps","name_short":"lon-2","host":"lon-1.uk.uncletopia.com","port":27025,"enabled":true,"region":"eu","cc":"gb","latitude":51.509865,"longitude":-0.118092,"reserved":0,"last_update":"0001-01-01T00:00:00Z","name_a2s":"Uncletopia | London | 2 | All Maps","protocol":17,"map":"koth_suijin","folder":"tf","game":"Team Fortress","app_id":440,"player_count":24,"max_players":24,"Bots":0,"server_type":"Dedicated","server_os":"Linux","password":true,"vac":true,"version":"7742253","steam_id":85568392924470941,"keywords":["cp","nocrits","nodmgspread","uncletopia"],"game_id":440,"stv_port":27026,"stv_name":"Uncletopia | London | 2 | All Maps | STV","players":[{"user_id":476,"name":"Ecton","steam_id":76561198025103720,"connected_time":1409000000000,"state":"active","ping":54},{"user_id":445,"name":"The Trimp Squire","steam_id":76561198367203640,"connected_time":3418000000000,"state":"active","ping":58},{"user_id":453,"name":"Mr. Mundy","steam_id":76561198132008918,"connected_time":2855000000000,"state":"active","ping":81},{"user_id":456,"name":"kbbq","steam_id":76561198346638308,"connected_time":2591000000000,"state":"active","ping":45},{"user_id":472,"name":"astrom651","steam_id":76561199121128962,"connected_time":1579000000000,"state":"active","ping":43},{"user_id":498,"name":"Jughead","steam_id":76561198000355410,"connected_time":251000000000,"state":"active","ping":34},{"user_id":480,"name":"DoctorTopLeL","steam_id":76561198088533595,"connected_time":1314000000000,"state":"active","ping":104},{"user_id":455,"name":"Hexagon","steam_id":76561198151205758,"connected_time":2683000000000,"state":"active","ping":60},{"user_id":497,"name":"the white wizard","steam_id":76561198853566184,"connected_time":323000000000,"state":"active","ping":89},{"user_id":492,"name":"4's up Rigby","steam_id":76561199122067976,"connected_time":573000000000,"state":"active","ping":49},{"user_id":503,"name":"Kins ‚ô•","steam_id":76561198013129299,"connected_time":68000000000,"state":"active","ping":48},{"user_id":499,"name":"Marekh","steam_id":76561198116468433,"connected_time":198000000000,"state":"active","ping":90},{"user_id":500,"name":"enxy","steam_id":76561198100469355,"connected_time":190000000000,"state":"active","ping":68},{"user_id":473,"name":"Nick","steam_id":76561198036109469,"connected_time":1479000000000,"state":"active","ping":125},{"user_id":491,"name":"Koli","steam_id":76561197992428783,"connected_time":596000000000,"state":"active","ping":60},{"user_id":495,"name":"Alex","steam_id":76561197997254515,"connected_time":452000000000,"state":"active","ping":46},{"user_id":504,"name":"Heretican","steam_id":76561198018202228,"connected_time":63000000000,"state":"active","ping":49},{"user_id":501,"name":"zurzz","steam_id":76561198384423612,"connected_time":179000000000,"state":"active","ping":51},{"user_id":482,"name":"bigwish | bmod.tf","steam_id":76561197997859723,"connected_time":1290000000000,"state":"active","ping":79},{"user_id":496,"name":"That Demo Is A Spy","steam_id":76561199013368332,"connected_time":334000000000,"state":"active","ping":48},{"user_id":460,"name":"YourDoom","steam_id":76561198080790857,"connected_time":2498000000000,"state":"active","ping":37},{"user_id":483,"name":"danno civilnetworks.net","steam_id":76561198079126551,"connected_time":1195000000000,"state":"active","ping":45},{"user_id":505,"name":"Martoro","steam_id":76561199022278314,"connected_time":54000000000,"state":"active","ping":59},{"user_id":502,"name":"Jano8887","steam_id":76561199020113205,"connected_time":102000000000,"state":"active","ping":60}]},{"server_id":320,"name":"Uncletopia | London | 3 | All Maps","name_short":"lon-3","host":"lon-1.uk.uncletopia.com","port":27035,"enabled":true,"region":"eu","cc":"gb","latitude":51.509865,"longitude":-0.118092,"reserved":0,"last_update":"0001-01-01T00:00:00Z","name_a2s":"Uncletopia | London | 3 | All Maps","protocol":17,"map":"cp_sunshine","folder":"tf","game":"Team Fortress","app_id":440,"player_count":24,"max_players":24,"Bots":0,"server_type":"Dedicated","server_os":"Linux","password":true,"vac":true,"version":"7742253","steam_id":85568392924510192,"keywords":["cp","nocrits","nodmgspread","uncletopia"],"game_id":440,"stv_port":27036,"stv_name":"Uncletopia | London | 3 | All Maps | STV","players":[{"user_id":296,"name":"FROYO gr4nny","steam_id":76561198241759034,"connected_time":1095000000000,"state":"active","ping":98},{"user_id":273,"name":"Spootnak","steam_id":76561198049052518,"connected_time":2173000000000,"state":"active","ping":56},{"user_id":274,"name":"nidhalmbarkihere","steam_id":76561199252399754,"connected_time":2114000000000,"state":"active","ping":99},{"user_id":261,"name":"ShoobyDooby","steam_id":76561198118473910,"connected_time":2972000000000,"state":"active","ping":53},{"user_id":240,"name":"Lubrsi","steam_id":76561198040208195,"connected_time":3757000000000,"state":"active","ping":50},{"user_id":258,"name":"IX","steam_id":76561198039589783,"connected_time":3233000000000,"state":"active","ping":57},{"user_id":295,"name":"guacardo","steam_id":76561199063253626,"connected_time":1319000000000,"state":"active","ping":139},{"user_id":271,"name":"justin_ (f2p and real)","steam_id":76561198839843428,"connected_time":2286000000000,"state":"active","ping":121},{"user_id":269,"name":"Tramuntana","steam_id":76561198241843480,"connected_time":2339000000000,"state":"active","ping":80},{"user_id":215,"name":"Sappin'","steam_id":76561198107054587,"connected_time":5483000000000,"state":"active","ping":52},{"user_id":299,"name":"sv_MrGibbs","steam_id":76561198114071972,"connected_time":171000000000,"state":"active","ping":49},{"user_id":288,"name":"subway vergil","steam_id":76561199110064166,"connected_time":1579000000000,"state":"active","ping":59},{"user_id":227,"name":"I love femboys","steam_id":76561198196357213,"connected_time":4615000000000,"state":"active","ping":88},{"user_id":298,"name":"nah_","steam_id":76561198005043477,"connected_time":195000000000,"state":"active","ping":47},{"user_id":228,"name":"23","steam_id":76561198149347502,"connected_time":4610000000000,"state":"active","ping":75},{"user_id":297,"name":"Superiumentarius","steam_id":76561198081642249,"connected_time":1035000000000,"state":"active","ping":59},{"user_id":289,"name":"Remyie","steam_id":76561198131031404,"connected_time":1480000000000,"state":"active","ping":91},{"user_id":294,"name":"NoodlesOnchair","steam_id":76561198986667242,"connected_time":1363000000000,"state":"active","ping":38},{"user_id":284,"name":"ArekanPL","steam_id":76561198306811916,"connected_time":1818000000000,"state":"active","ping":82},{"user_id":300,"name":"Deva Path","steam_id":76561198085763542,"connected_time":35000000000,"state":"spawning","ping":93},{"user_id":265,"name":"pumpkin spice go.ggez.ro","steam_id":76561198449957490,"connected_time":2792000000000,"state":"active","ping":85},{"user_id":270,"name":"Sandvich Gaming","steam_id":76561199079493666,"connected_time":2317000000000,"state":"active","ping":94},{"user_id":250,"name":"Windows Vista Cruiser","steam_id":76561198064102233,"connected_time":3402000000000,"state":"active","ping":65},{"user_id":281,"name":"Excessive Clownery","steam_id":76561198130404188,"connected_time":1988000000000,"state":"active","ping":41}]},{"server_id":321,"name":"Uncletopia | London | 4 | All Maps","name_short":"lon-4","host":"lon-1.uk.uncletopia.com","port":27045,"enabled":true,"region":"eu","cc":"gb","latitude":51.509865,"longitude":-0.118092,"reserved":0,"last_update":"0001-01-01T00:00:00Z","name_a2s":"Uncletopia | London | 4 | All Maps","protocol":17,"map":"pl_borneo","folder":"tf","game":"Team Fortress","app_id":440,"player_count":24,"max_players":24,"Bots":0,"server_type":"Dedicated","server_os":"Linux","password":true,"vac":true,"version":"7742253","steam_id":85568392924510193,"keywords":["nocrits","nodmgspread","payload","uncletopia"],"game_id":440,"stv_port":27046,"stv_name":"Uncletopia | London | 4 | All Maps | STV","players":[{"user_id":489,"name":"Thors","steam_id":76561197968739075,"connected_time":892000000000,"state":"active","ping":43},{"user_id":366,"name":"TxrraFINN","steam_id":76561199006591691,"connected_time":7931000000000,"state":"active","ping":46},{"user_id":270,"name":"Suspicious Cabin","steam_id":76561198083261198,"connected_time":15072000000000,"state":"active","ping":53},{"user_id":501,"name":"Yony","steam_id":76561199070569941,"connected_time":379000000000,"state":"active","ping":72},{"user_id":433,"name":"M@T!X „Éû„ÉÜ„Ç£","steam_id":76561198273121669,"connected_time":2063000000000,"state":"active","ping":101},{"user_id":422,"name":"luma","steam_id":76561198081649669,"connected_time":2786000000000,"state":"active","ping":79},{"user_id":421,"name":"pezza","steam_id":76561197995173247,"connected_time":2901000000000,"state":"active","ping":37},{"user_id":426,"name":"Hey, I¬¥m Andy!","steam_id":76561198060337777,"connected_time":2197000000000,"state":"active","ping":74},{"user_id":431,"name":"mrbeast109385079350229083479082","steam_id":76561198370687830,"connected_time":2089000000000,"state":"active","ping":119},{"user_id":460,"name":"Roasted Toast","steam_id":76561198045051290,"connected_time":1558000000000,"state":"active","ping":61},{"user_id":470,"name":"pile of marie amiibos","steam_id":76561199131526517,"connected_time":1268000000000,"state":"active","ping":45},{"user_id":497,"name":"KFC Enjoyer","steam_id":76561198840259819,"connected_time":680000000000,"state":"active","ping":59},{"user_id":499,"name":"Mr.Dies a lot","steam_id":76561199061602946,"connected_time":519000000000,"state":"active","ping":89},{"user_id":468,"name":"sus","steam_id":76561198904169632,"connected_time":1366000000000,"state":"active","ping":107},{"user_id":448,"name":"SoupER","steam_id":76561198063056668,"connected_time":1747000000000,"state":"active","ping":32},{"user_id":462,"name":"Wizardfort","steam_id":76561198095320741,"connected_time":1487000000000,"state":"active","ping":126},{"user_id":471,"name":"Khoreo","steam_id":76561198208096339,"connected_time":1257000000000,"state":"active","ping":46},{"user_id":500,"name":"Proofmean","steam_id":76561198878552103,"connected_time":508000000000,"state":"active","ping":43},{"user_id":393,"name":"Drdarlekzzz","steam_id":76561198160141785,"connected_time":4713000000000,"state":"active","ping":42},{"user_id":436,"name":"Spy Gaming.","steam_id":76561198889149340,"connected_time":2033000000000,"state":"active","ping":115},{"user_id":400,"name":"chey","steam_id":76561198035380064,"connected_time":4445000000000,"state":"active","ping":59},{"user_id":502,"name":"WinsomeYapper9","steam_id":76561199275285546,"connected_time":74000000000,"state":"active","ping":93},{"user_id":472,"name":"Fishul","steam_id":76561198074001910,"connected_time":1225000000000,"state":"active","ping":61},{"user_id":491,"name":"Vince","steam_id":76561199103000131,"connected_time":848000000000,"state":"active","ping":45}]},{"server_id":21,"name":"Uncletopia | London | 5 | All Maps","name_short":"lon-5","host":"lon-1.uk.uncletopia.com","port":27055,"enabled":true,"region":"eu","cc":"gb","latitude":51.509865,"longitude":-0.118092,"reserved":0,"last_update":"0001-01-01T00:00:00Z","name_a2s":"Uncletopia | London | 5 | All Maps","protocol":17,"map":"pl_upward","folder":"tf","game":"Team Fortress","app_id":440,"player_count":18,"max_players":24,"Bots":0,"server_type":"Dedicated","server_os":"Linux","password":true,"vac":true,"version":"7742253","steam_id":85568392924742829,"keywords":["nocrits","nodmgspread","payload","uncletopia"],"game_id":440,"stv_port":27056,"stv_name":"Uncletopia | London | 5 | All Maps | STV","players":[{"user_id":12,"name":"A Cat","steam_id":76561198221549132,"connected_time":1694000000000,"state":"active","ping":31},{"user_id":13,"name":"frost^","steam_id":76561198167675482,"connected_time":1685000000000,"state":"active","ping":91},{"user_id":20,"name":"albinos","steam_id":76561198959964655,"connected_time":757000000000,"state":"active","ping":76},{"user_id":16,"name":"Kahvi","steam_id":76561198723244199,"connected_time":978000000000,"state":"active","ping":74},{"user_id":22,"name":"cronchieboy","steam_id":76561198257669300,"connected_time":637000000000,"state":"active","ping":49},{"user_id":21,"name":"Hetmanych","steam_id":76561198870926865,"connected_time":701000000000,"state":"active","ping":44},{"user_id":23,"name":"Kosher Twink","steam_id":76561198397024973,"connected_time":604000000000,"state":"active","ping":31},{"user_id":24,"name":"ralph62x","steam_id":76561198865294231,"connected_time":386000000000,"state":"active","ping":47},{"user_id":27,"name":"TheBeardedM1G","steam_id":76561198040208946,"connected_time":222000000000,"state":"active","ping":45},{"user_id":26,"name":"Angelo254","steam_id":76561198327226011,"connected_time":300000000000,"state":"active","ping":75},{"user_id":29,"name":"Insain Bolt!","steam_id":76561198025687726,"connected_time":105000000000,"state":"active","ping":66},{"user_id":30,"name":"Nehtrix","steam_id":76561199166167449,"connected_time":80000000000,"state":"active","ping":119},{"user_id":31,"name":"Izzermann","steam_id":76561199100131945,"connected_time":64000000000,"state":"active","ping":54},{"user_id":34,"name":"Avitz","steam_id":76561197986150359,"connected_time":36000000000,"state":"active","ping":171},{"user_id":33,"name":"Heisenburger","steam_id":76561198347336086,"connected_time":51000000000,"state":"active","ping":41},{"user_id":35,"name":"Saken","steam_id":76561198049075295,"connected_time":22000000000,"state":"active","ping":61},{"user_id":36,"name":"suna militisto","steam_id":76561198352926998,"connected_time":15000000000,"state":"active","ping":95},{"user_id":37,"name":"MR_JONHSON","steam_id":76561199198894168,"connected_time":5000000000,"state":"spawning","ping":83}]},{"server_id":22,"name":"Uncletopia | London | 6 | All Maps","name_short":"lon-6","host":"lon-1.uk.uncletopia.com","port":27065,"enabled":true,"region":"eu","cc":"gb","latitude":51.509865,"longitude":-0.118092,"reserved":0,"last_update":"0001-01-01T00:00:00Z","name_a2s":"Uncletopia | London | 6 | All Maps","protocol":17,"map":"koth_lakeside_final","folder":"tf","game":"Team Fortress","app_id":440,"player_count":0,"max_players":24,"Bots":0,"server_type":"Dedicated","server_os":"Linux","password":true,"vac":true,"version":"7742253","steam_id":85568392924742830,"keywords":["cp","nocrits","nodmgspread","uncletopia"],"game_id":440,"stv_port":27066,"stv_name":"Uncletopia | London | 6 | All Maps | STV","players":null},{"server_id":40,"name":"Uncletopia | London | 7 | No Payload","name_short":"lon-7","host":"lon-1.uk.uncletopia.com","port":27075,"enabled":true,"region":"eu","cc":"gb","latitude":51.509865,"longitude":-0.118092,"reserved":0,"last_update":"0001-01-01T00:00:00Z","name_a2s":"Uncletopia | London | 7 | No Payload","protocol":17,"map":"koth_viaduct","folder":"tf","game":"Team Fortress","app_id":440,"player_count":0,"max_players":24,"Bots":0,"server_type":"Dedicated","server_os":"Linux","password":true,"vac":true,"version":"7742253","steam_id":85568392924964314,"keywords":["cp","nocrits","nodmgspread","uncletopia"],"game_id":440,"stv_port":27076,"stv_name":"Uncletopia | London | 7 | No Payload | STV","players":null},{"server_id":41,"name":"Uncletopia | London | 8 | Community","name_short":"lon-8","host":"lon-1.uk.uncletopia.com","port":27085,"enabled":true,"region":"eu","cc":"gb","latitude":51.509865,"longitude":-0.118092,"reserved":0,"last_update":"0001-01-01T00:00:00Z","name_a2s":"Uncletopia | London | 8 | Community","protocol":17,"map":"workshop/koth_ramjam_rc1.ugc459778887","folder":"tf","game":"Team Fortress","app_id":440,"player_count":0,"max_players":24,"Bots":0,"server_type":"Dedicated","server_os":"Linux","password":true,"vac":true,"version":"7742253","steam_id":85568392924964315,"keywords":["cp","nocrits","nodmgspread","uncletopia"],"game_id":440,"stv_port":27086,"stv_name":"Uncletopia | London | 8 | Community | STV","players":null},{"server_id":300,"name":"Uncletopia | Montr√©al | 1 | All Maps","name_short":"mtl-1","host":"mtl-1.ca.uncletopia.com","port":27015,"enabled":true,"region":"us-east","cc":"ca","latitude":45.50889,"longitude":-73.56167,"reserved":0,"last_update":"0001-01-01T00:00:00Z","name_a2s":"Uncletopia | Montr√©al | 1 | All Maps","protocol":17,"map":"cp_altitude","folder":"tf","game":"Team Fortress","app_id":440,"player_count":0,"max_players":24,"Bots":0,"server_type":"Dedicated","server_os":"Linux","password":true,"vac":true,"version":"7742253","steam_id":85568392924500087,"keywords":["cp","nocrits","nodmgspread","uncletopia"],"game_id":440,"stv_port":27016,"stv_name":"Uncletopia | Montr√©al | 1 | All Maps | STV","players":null},{"server_id":301,"name":"Uncletopia | Montr√©al | 2 | All Maps","name_short":"mtl-2","host":"mtl-1.ca.uncletopia.com","port":27025,"enabled":true,"region":"us-east","cc":"ca","latitude":45.50889,"longitude":-73.56167,"reserved":0,"last_update":"0001-01-01T00:00:00Z","name_a2s":"Uncletopia | Montr√©al | 2 | All Maps","protocol":17,"map":"koth_highpass","folder":"tf","game":"Team Fortress","app_id":440,"player_count":0,"max_players":24,"Bots":0,"server_type":"Dedicated","server_os":"Linux","password":true,"vac":true,"version":"7742253","steam_id":85568392924500088,"keywords":["cp","nocrits","nodmgspread","uncletopia"],"game_id":440,"stv_port":27026,"stv_name":"Uncletopia | Montr√©al | 2 | All Maps | STV","players":null},{"server_id":302,"name":"Uncletopia | Montr√©al | 3 | All Maps","name_short":"mtl-3","host":"mtl-1.ca.uncletopia.com","port":27035,"enabled":true,"region":"us-east","cc":"ca","latitude":45.50889,"longitude":-73.56167,"reserved":0,"last_update":"0001-01-01T00:00:00Z","name_a2s":"Uncletopia | Montr√©al | 3 | All Maps","protocol":17,"map":"cp_mountainlab","folder":"tf","game":"Team Fortress","app_id":440,"player_count":0,"max_players":24,"Bots":0,"server_type":"Dedicated","server_os":"Linux","password":true,"vac":true,"version":"7742253","steam_id":85568392924500089,"keywords":["cp","nocrits","nodmgspread","uncletopia"],"game_id":440,"stv_port":27036,"stv_name":"Uncletopia | Montr√©al | 3 | All Maps | STV","players":null},{"server_id":303,"name":"Uncletopia | Montr√©al | 4 | No Payload","name_short":"mtl-4","host":"mtl-1.ca.uncletopia.com","port":27045,"enabled":true,"region":"us-east","cc":"ca","latitude":45.50889,"longitude":-73.56167,"reserved":0,"last_update":"0001-01-01T00:00:00Z","name_a2s":"Uncletopia | Montr√©al | 4 | No Payload","protocol":17,"map":"cp_snakewater_final1","folder":"tf","game":"Team Fortress","app_id":440,"player_count":0,"max_players":24,"Bots":0,"server_type":"Dedicated","server_os":"Linux","password":true,"vac":true,"version":"7742253","steam_id":85568392924500090,"keywords":["cp","nocrits","nodmgspread","uncletopia"],"game_id":440,"stv_port":27046,"stv_name":"Uncletopia | Montr√©al | 4 | No Payload | STV","players":null},{"server_id":13,"name":"Uncletopia | New York City | 1 | All Maps","name_short":"nyc-1","host":"nyc-1.us.uncletopia.com","port":27015,"enabled":true,"region":"us-east","cc":"us","latitude":40.73061,"longitude":-73.93524,"reserved":0,"last_update":"0001-01-01T00:00:00Z","name_a2s":"Uncletopia | New York City | 1 | All Maps","protocol":17,"map":"cp_dustbowl","folder":"tf","game":"Team Fortress","app_id":440,"player_count":23,"max_players":24,"Bots":0,"server_type":"Dedicated","server_os":"Linux","password":true,"vac":true,"version":"7742253","steam_id":85568392924469993,"keywords":["cp","nocrits","nodmgspread","uncletopia"],"game_id":440,"stv_port":27016,"stv_name":"Uncletopia | New York City | 1 | All Maps | STV","players":[{"user_id":127,"name":"Doctor Sex","steam_id":76561198119503652,"connected_time":1929000000000,"state":"active","ping":76},{"user_id":148,"name":"the spy from team fortress 2","steam_id":76561198047797306,"connected_time":186000000000,"state":"active","ping":45},{"user_id":130,"name":"Soldie","steam_id":76561198118414372,"connected_time":1867000000000,"state":"active","ping":62},{"user_id":149,"name":"joubrou.13","steam_id":76561198208567991,"connected_time":143000000000,"state":"active","ping":98},{"user_id":140,"name":"Chase McCain","steam_id":76561198314538469,"connected_time":1681000000000,"state":"active","ping":54},{"user_id":80,"name":"Chase from Paw Patrol‚Ñ¢","steam_id":76561198145283389,"connected_time":5288000000000,"state":"active","ping":53},{"user_id":145,"name":"happs (God is good)","steam_id":76561198364093418,"connected_time":230000000000,"state":"active","ping":60},{"user_id":150,"name":"woodrow","steam_id":76561198323702203,"connected_time":133000000000,"state":"active","ping":88},{"user_id":147,"name":"Snugboo","steam_id":76561198147970327,"connected_time":216000000000,"state":"active","ping":42},{"user_id":144,"name":"dandanostar","steam_id":76561198313293205,"connected_time":897000000000,"state":"active","ping":60},{"user_id":151,"name":"scrapheap","steam_id":76561198202407087,"connected_time":91000000000,"state":"active","ping":69},{"user_id":108,"name":"Loafus","steam_id":76561198154561111,"connected_time":3279000000000,"state":"active","ping":60},{"user_id":152,"name":"m","steam_id":76561198050171726,"connected_time":88000000000,"state":"active","ping":202},{"user_id":135,"name":"googy doogy","steam_id":76561199025852100,"connected_time":1778000000000,"state":"active","ping":46},{"user_id":131,"name":"sock","steam_id":76561199117597830,"connected_time":1861000000000,"state":"active","ping":109},{"user_id":125,"name":"SLaPPy- oNaSiS","steam_id":76561198009286862,"connected_time":2042000000000,"state":"active","ping":64},{"user_id":72,"name":"Bulk","steam_id":76561199009814535,"connected_time":5766000000000,"state":"active","ping":47},{"user_id":117,"name":"PizzaPasta","steam_id":76561199125109082,"connected_time":2145000000000,"state":"active","ping":67},{"user_id":153,"name":"Arjen PSN 23","steam_id":76561198963682232,"connected_time":31000000000,"state":"active","ping":46},{"user_id":156,"name":"Sacred Relic","steam_id":76561198140341533,"connected_time":0,"state":"spawning","ping":0},{"user_id":136,"name":"Apetometrist","steam_id":76561198045391635,"connected_time":1750000000000,"state":"active","ping":71},{"user_id":137,"name":"Obama F. Kennedy","steam_id":76561198282499318,"connected_time":1740000000000,"state":"active","ping":52},{"user_id":139,"name":"PunchGhost","steam_id":76561198041668043,"connected_time":1726000000000,"state":"active","ping":69}]},{"server_id":14,"name":"Uncletopia | New York City | 2 | All Maps","name_short":"nyc-2","host":"nyc-1.us.uncletopia.com","port":27025,"enabled":true,"region":"us-east","cc":"us","latitude":40.73061,"longitude":-73.93524,"reserved":0,"last_update":"0001-01-01T00:00:00Z","name_a2s":"Uncletopia | New York City | 2 | All Maps","protocol":17,"map":"koth_cascade","folder":"tf","game":"Team Fortress","app_id":440,"player_count":0,"max_players":24,"Bots":0,"server_type":"Dedicated","server_os":"Linux","password":true,"vac":true,"version":"7742253","steam_id":85568392924469994,"keywords":["cp","nocrits","nodmgspread","uncletopia"],"game_id":440,"stv_port":27026,"stv_name":"Uncletopia | New York City | 2 | All Maps | STV","players":null},{"server_id":15,"name":"Uncletopia | New York City | 3 | Stopwatch Beta","name_short":"nyc-3","host":"nyc-1.us.uncletopia.com","port":27035,"enabled":true,"region":"us-east","cc":"us","latitude":40.73061,"longitude":-73.93524,"reserved":0,"last_update":"0001-01-01T00:00:00Z","name_a2s":"Uncletopia | New York City | 3 | Stopwatch Beta","protocol":17,"map":"pl_pier","folder":"tf","game":"Team Fortress","app_id":440,"player_count":0,"max_players":24,"Bots":0,"server_type":"Dedicated","server_os":"Linux","password":true,"vac":true,"version":"7742253","steam_id":85568392924742820,"keywords":["nocrits","nodmgspread","payload","uncletopia"],"game_id":440,"stv_port":27036,"stv_name":"Uncletopia | New York City | 3 | Stopwatch Beta | STV","players":null},{"server_id":16,"name":"Uncletopia | New York City | 4 | Community","name_short":"nyc-4","host":"nyc-1.us.uncletopia.com","port":27045,"enabled":true,"region":"us-east","cc":"us","latitude":40.73061,"longitude":-73.93524,"reserved":0,"last_update":"0001-01-01T00:00:00Z","name_a2s":"Uncletopia | New York City | 4 | Community","protocol":17,"map":"koth_viaduct","folder":"tf","game":"Team Fortress","app_id":440,"player_count":0,"max_players":24,"Bots":0,"server_type":"Dedicated","server_os":"Linux","password":true,"vac":true,"version":"7742253","steam_id":85568392924742821,"keywords":["cp","nocrits","nodmgspread","uncletopia"],"game_id":440,"stv_port":27046,"stv_name":"Uncletopia | New York City | 4 | Community | STV","players":null},{"server_id":142,"name":"Uncletopia | S√£o Paulo | 1 | All Maps","name_short":"sao-1","host":"sao-1.br.uncletopia.com","port":27015,"enabled":true,"region":"sa","cc":"br","latitude":-23.533773,"longitude":-46.62529,"reserved":0,"last_update":"0001-01-01T00:00:00Z","name_a2s":"Uncletopia | S√£o Paulo | 1 | All Maps","protocol":17,"map":"koth_viaduct","folder":"tf","game":"Team Fortress","app_id":440,"player_count":0,"max_players":24,"Bots":0,"server_type":"Dedicated","server_os":"Linux","password":true,"vac":true,"version":"7742253","steam_id":85568392924469996,"keywords":["cp","nocrits","nodmgspread","uncletopia"],"game_id":440,"stv_port":27016,"stv_name":"Uncletopia | S√£o Paulo | 1 | All Maps | STV","players":null},{"server_id":143,"name":"Uncletopia | S√£o Paulo | 2 | All Maps","name_short":"sao-2","host":"sao-2.br.uncletopia.com","port":27015,"enabled":true,"region":"sa","cc":"br","latitude":-23.533773,"longitude":-46.62529,"reserved":0,"last_update":"0001-01-01T00:00:00Z","name_a2s":"Uncletopia | S√£o Paulo | 2 | All Maps","protocol":17,"map":"koth_viaduct","folder":"tf","game":"Team Fortress","app_id":440,"player_count":1,"max_players":24,"Bots":0,"server_type":"Dedicated","server_os":"Linux","password":true,"vac":true,"version":"7742253","steam_id":85568392924485349,"keywords":["cp","nocrits","nodmgspread","uncletopia"],"game_id":440,"stv_port":27016,"stv_name":"Uncletopia | S√£o Paulo | 2 | All Maps | STV","players":[{"user_id":6,"name":"LintyTuff","steam_id":76561198304775783,"connected_time":147000000000,"state":"active","ping":372}]},{"server_id":7,"name":"Uncletopia | Seattle | 1 | All Maps","name_short":"sea-1","host":"sea-1.us.uncletopia.com","port":27015,"enabled":true,"region":"us-west","cc":"us","latitude":47.608013,"longitude":-122.33517,"reserved":0,"last_update":"0001-01-01T00:00:00Z","name_a2s":"Uncletopia | Seattle | 1 | All Maps","protocol":17,"map":"pl_snowycoast","folder":"tf","game":"Team Fortress","app_id":440,"player_count":24,"max_players":24,"Bots":0,"server_type":"Dedicated","server_os":"Linux","password":true,"vac":true,"version":"7742253","steam_id":85568392924469997,"keywords":["nocrits","nodmgspread","payload","uncletopia"],"game_id":440,"stv_port":27016,"stv_name":"Uncletopia | Seattle | 1 | All Maps | STV","players":[{"user_id":209,"name":"Elite_Friendly","steam_id":76561198819972127,"connected_time":1734000000000,"state":"active","ping":60},{"user_id":227,"name":"toomyzoom","steam_id":76561198041774837,"connected_time":541000000000,"state":"active","ping":70},{"user_id":217,"name":"Sparks","steam_id":76561198050950496,"connected_time":1423000000000,"state":"active","ping":81},{"user_id":224,"name":"young thug weaponry","steam_id":76561198363821364,"connected_time":602000000000,"state":"active","ping":60},{"user_id":214,"name":":D","steam_id":76561198082011283,"connected_time":1565000000000,"state":"active","ping":60},{"user_id":207,"name":"The Best Healer","steam_id":76561198079452621,"connected_time":1813000000000,"state":"active","ping":52},{"user_id":170,"name":"Sleuth","steam_id":76561198418288939,"connected_time":4220000000000,"state":"active","ping":75},{"user_id":221,"name":"SirJellyRolls","steam_id":76561198119277244,"connected_time":609000000000,"state":"active","ping":52},{"user_id":216,"name":"Limp Pumpo Discography Fan Club","steam_id":76561198145748479,"connected_time":1443000000000,"state":"active","ping":53},{"user_id":219,"name":"laggy mcstab","steam_id":76561198106379962,"connected_time":1271000000000,"state":"active","ping":52},{"user_id":218,"name":"Void","steam_id":76561198308290211,"connected_time":1377000000000,"state":"active","ping":99},{"user_id":191,"name":"Nassu","steam_id":76561198147367577,"connected_time":2985000000000,"state":"active","ping":116},{"user_id":233,"name":"luisdimesen28","steam_id":76561199213976201,"connected_time":22000000000,"state":"spawning","ping":187},{"user_id":182,"name":"Reggievich","steam_id":76561198173252835,"connected_time":3394000000000,"state":"active","ping":105},{"user_id":230,"name":"Jface1221","steam_id":76561198188082091,"connected_time":466000000000,"state":"active","ping":79},{"user_id":225,"name":"misterjozo","steam_id":76561198012300755,"connected_time":601000000000,"state":"active","ping":57},{"user_id":195,"name":"SGT_Kano","steam_id":76561199162423120,"connected_time":2947000000000,"state":"active","ping":91},{"user_id":228,"name":"oo","steam_id":76561198119626492,"connected_time":524000000000,"state":"active","ping":83},{"user_id":232,"name":"Cottontail","steam_id":76561198213634567,"connected_time":203000000000,"state":"active","ping":101},{"user_id":210,"name":"la loveiathenne","steam_id":76561198046394237,"connected_time":1674000000000,"state":"active","ping":46},{"user_id":194,"name":"King Sans","steam_id":76561198294198517,"connected_time":2964000000000,"state":"active","ping":122},{"user_id":151,"name":"that sweater gal","steam_id":76561198322956099,"connected_time":6141000000000,"state":"active","ping":90},{"user_id":229,"name":"chief sosa","steam_id":76561198095495769,"connected_time":519000000000,"state":"active","ping":64},{"user_id":231,"name":"Jwags","steam_id":76561199241794549,"connected_time":388000000000,"state":"active","ping":106}]},{"server_id":119,"name":"Uncletopia | Seattle | 2 | All Maps","name_short":"sea-2","host":"sea-1.us.uncletopia.com","port":27025,"enabled":true,"region":"us-west","cc":"us","latitude":47.608013,"longitude":-122.33517,"reserved":0,"last_update":"0001-01-01T00:00:00Z","name_a2s":"Uncletopia | Seattle | 2 | All Maps","protocol":17,"map":"koth_viaduct","folder":"tf","game":"Team Fortress","app_id":440,"player_count":0,"max_players":24,"Bots":0,"server_type":"Dedicated","server_os":"Linux","password":true,"vac":true,"version":"7742253","steam_id":85568392924469998,"keywords":["cp","nocrits","nodmgspread","uncletopia"],"game_id":440,"stv_port":27026,"stv_name":"Uncletopia | Seattle | 2 | All Maps | STV","players":null},{"server_id":406,"name":"Uncletopia | Seattle | 3 | Stopwatch Beta","name_short":"sea-3","host":"sea-1.us.uncletopia.com","port":27035,"enabled":true,"region":"us-west","cc":"us","latitude":47.608013,"longitude":-122.33517,"reserved":0,"last_update":"0001-01-01T00:00:00Z","name_a2s":"Uncletopia | Seattle | 3 | Stopwatch Beta","protocol":17,"map":"workshop/koth_bagel_rc5.ugc2514036946","folder":"tf","game":"Team Fortress","app_id":440,"player_count":0,"max_players":24,"Bots":0,"server_type":"Dedicated","server_os":"Linux","password":true,"vac":true,"version":"7742253","steam_id":85568392924515217,"keywords":["cp","nocrits","nodmgspread","uncletopia"],"game_id":440,"stv_port":27036,"stv_name":"Uncletopia | Seattle | 3 | Stopwatch Beta | STV","players":null},{"server_id":17,"name":"Uncletopia | San Francisco | 1 | All Maps","name_short":"sfo-1","host":"sfo-1.us.uncletopia.com","port":27015,"enabled":true,"region":"us-west","cc":"us","latitude":37.77397,"longitude":-122.4313,"reserved":0,"last_update":"0001-01-01T00:00:00Z","name_a2s":"Uncletopia | San Francisco | 1 | All Maps","protocol":17,"map":"pl_snowycoast","folder":"tf","game":"Team Fortress","app_id":440,"player_count":0,"max_players":24,"Bots":0,"server_type":"Dedicated","server_os":"Linux","password":true,"vac":true,"version":"7742253","steam_id":85568392924469999,"keywords":["nocrits","nodmgspread","payload","uncletopia"],"game_id":440,"stv_port":27016,"stv_name":"Uncletopia | San Francisco | 1 | All Maps | STV","players":null},{"server_id":18,"name":"Uncletopia | San Francisco | 2 | All Maps","name_short":"sfo-2","host":"sfo-1.us.uncletopia.com","port":27025,"enabled":true,"region":"us-west","cc":"us","latitude":37.77397,"longitude":-122.4313,"reserved":0,"last_update":"0001-01-01T00:00:00Z","name_a2s":"Uncletopia | San Francisco | 2 | All Maps","protocol":17,"map":"cp_altitude","folder":"tf","game":"Team Fortress","app_id":440,"player_count":0,"max_players":24,"Bots":0,"server_type":"Dedicated","server_os":"Linux","password":true,"vac":true,"version":"7742253","steam_id":85568392924470000,"keywords":["cp","nocrits","nodmgspread","uncletopia"],"game_id":440,"stv_port":27026,"stv_name":"Uncletopia | San Francisco | 2 | All Maps | STV","players":null},{"server_id":19,"name":"Uncletopia | San Francisco | 3 | Stopwatch Beta","name_short":"sfo-3","host":"sfo-1.us.uncletopia.com","port":27035,"enabled":true,"region":"us-west","cc":"us","latitude":37.77397,"longitude":-122.4313,"reserved":0,"last_update":"0001-01-01T00:00:00Z","name_a2s":"Uncletopia | San Francisco | 3 | Stopwatch Beta","protocol":17,"map":"koth_highpass","folder":"tf","game":"Team Fortress","app_id":440,"player_count":1,"max_players":24,"Bots":0,"server_type":"Dedicated","server_os":"Linux","password":true,"vac":true,"version":"7742253","steam_id":85568392924742824,"keywords":["cp","nocrits","nodmgspread","uncletopia"],"game_id":440,"stv_port":27036,"stv_name":"Uncletopia | San Francisco | 3 | Stopwatch Beta | STV","players":[{"user_id":4,"name":"Luigiminer8","steam_id":76561198803438732,"connected_time":200000000000,"state":"active","ping":57}]},{"server_id":20,"name":"Uncletopia | San Francisco | 4 | Community","name_short":"sfo-4","host":"sfo-1.us.uncletopia.com","port":27045,"enabled":true,"region":"us-west","cc":"us","latitude":37.77397,"longitude":-122.4313,"reserved":0,"last_update":"0001-01-01T00:00:00Z","name_a2s":"Uncletopia | San Francisco | 4 | Community","protocol":17,"map":"cp_dustbowl","folder":"tf","game":"Team Fortress","app_id":440,"player_count":0,"max_players":24,"Bots":0,"server_type":"Dedicated","server_os":"Linux","password":true,"vac":true,"version":"7742253","steam_id":85568392924742826,"keywords":["cp","nocrits","nodmgspread","uncletopia"],"game_id":440,"stv_port":27046,"stv_name":"Uncletopia | San Francisco | 4 | Community | STV","players":null},{"server_id":141,"name":"Uncletopia | Sydney | 1 | All Maps","name_short":"syd-1","host":"syd-1.au.uncletopia.com","port":27015,"enabled":true,"region":"au","cc":"au","latitude":-33.865143,"longitude":151.2099,"reserved":0,"last_update":"0001-01-01T00:00:00Z","name_a2s":"Uncletopia | Sydney | 1 | All Maps","protocol":17,"map":"koth_viaduct","folder":"tf","game":"Team Fortress","app_id":440,"player_count":0,"max_players":24,"Bots":0,"server_type":"Dedicated","server_os":"Linux","password":true,"vac":true,"version":"7742253","steam_id":85568392924470001,"keywords":["cp","nocrits","nodmgspread","uncletopia"],"game_id":440,"stv_port":27016,"stv_name":"Uncletopia | Sydney | 1 | All Maps | STV","players":null},{"server_id":123,"name":"Uncletopia | Sydney | 2 | All Maps","name_short":"syd-2","host":"syd-1.au.uncletopia.com","port":27025,"enabled":true,"region":"au","cc":"au","latitude":-33.865143,"longitude":151.2099,"reserved":0,"last_update":"0001-01-01T00:00:00Z","name_a2s":"Uncletopia | Sydney | 2 | All Maps","protocol":17,"map":"koth_cascade","folder":"tf","game":"Team Fortress","app_id":440,"player_count":0,"max_players":24,"Bots":0,"server_type":"Dedicated","server_os":"Linux","password":true,"vac":true,"version":"7742253","steam_id":85568392924470002,"keywords":["cp","nocrits","nodmgspread","uncletopia"],"game_id":440,"stv_port":27026,"stv_name":"Uncletopia | Sydney | 2 | All Maps | STV","players":null},{"server_id":395,"name":"Uncletopia | Sydney | 3 | All Maps","name_short":"syd-3","host":"syd-1.au.uncletopia.com","port":27035,"enabled":true,"region":"au","cc":"au","latitude":-33.865143,"longitude":151.2099,"reserved":0,"last_update":"0001-01-01T00:00:00Z","name_a2s":"Uncletopia | Sydney | 3 | All Maps","protocol":17,"map":"koth_highpass","folder":"tf","game":"Team Fortress","app_id":440,"player_count":0,"max_players":24,"Bots":0,"server_type":"Dedicated","server_os":"Linux","password":true,"vac":true,"version":"7742253","steam_id":85568392925194467,"keywords":["cp","nocrits","nodmgspread","uncletopia"],"game_id":440,"stv_port":27036,"stv_name":"Uncletopia | Sydney | 3 | All Maps | STV","players":null},{"server_id":396,"name":"Uncletopia | Sydney | 4 | All Maps","name_short":"syd-4","host":"syd-1.au.uncletopia.com","port":27045,"enabled":true,"region":"au","cc":"au","latitude":-33.865143,"longitude":151.2099,"reserved":0,"last_update":"0001-01-01T00:00:00Z","name_a2s":"Uncletopia | Sydney | 4 | All Maps","protocol":17,"map":"koth_lakeside_final","folder":"tf","game":"Team Fortress","app_id":440,"player_count":0,"max_players":24,"Bots":0,"server_type":"Dedicated","server_os":"Linux","password":true,"vac":true,"version":"7742253","steam_id":85568392925397958,"keywords":["cp","nocrits","nodmgspread","uncletopia"],"game_id":440,"stv_port":27046,"stv_name":"Uncletopia | Sydney | 4 | All Maps | STV","players":null},{"server_id":58,"name":"Uncletopia | Sydney | 5 | Stopwatch Beta","name_short":"syd-5","host":"syd-1.au.uncletopia.com","port":27055,"enabled":true,"region":"au","cc":"au","latitude":-33.865143,"longitude":151.2099,"reserved":0,"last_update":"0001-01-01T00:00:00Z","name_a2s":"Uncletopia | Sydney | 5 | Stopwatch Beta","protocol":17,"map":"workshop/koth_bagel_rc5.ugc2514036946","folder":"tf","game":"Team Fortress","app_id":440,"player_count":0,"max_players":24,"Bots":0,"server_type":"Dedicated","server_os":"Linux","password":true,"vac":true,"version":"7742253","steam_id":85568392925397959,"keywords":["cp","nocrits","nodmgspread","uncletopia"],"game_id":440,"stv_port":27056,"stv_name":"Uncletopia | Sydney | 5 | Stopwatch Beta | STV","players":null},{"server_id":59,"name":"Uncletopia | Sydney | 6 | Community","name_short":"syd-6","host":"syd-1.au.uncletopia.com","port":27065,"enabled":true,"region":"au","cc":"au","latitude":-33.865143,"longitude":151.2099,"reserved":0,"last_update":"0001-01-01T00:00:00Z","name_a2s":"Uncletopia | Sydney | 6 | Community","protocol":17,"map":"workshop/koth_synthetic_rc6a.ugc1549817316","folder":"tf","game":"Team Fortress","app_id":440,"player_count":0,"max_players":24,"Bots":0,"server_type":"Dedicated","server_os":"Linux","password":true,"vac":true,"version":"7742253","steam_id":85568392925397960,"keywords":["cp","nocrits","nodmgspread","uncletopia"],"game_id":440,"stv_port":27066,"stv_name":"Uncletopia | Sydney | 6 | Community | STV","players":null},{"server_id":49,"name":"Uncletopia | Warsaw | 1 | All Maps","name_short":"waw-1","host":"waw-1.pl.uncletopia.com","port":27015,"enabled":true,"region":"eu","cc":"pl","latitude":52.2297,"longitude":21.017532,"reserved":0,"last_update":"0001-01-01T00:00:00Z","name_a2s":"","protocol":0,"map":"","folder":"","game":"","app_id":0,"player_count":0,"max_players":0,"Bots":0,"server_type":"","server_os":"","password":false,"vac":false,"version":"","steam_id":0,"keywords":null,"game_id":0,"stv_port":0,"stv_name":"","players":null},{"server_id":50,"name":"Uncletopia | Warsaw | 2 | All Maps","name_short":"waw-2","host":"waw-1.pl.uncletopia.com","port":27025,"enabled":true,"region":"eu","cc":"pl","latitude":52.2297,"longitude":21.017532,"reserved":0,"last_update":"0001-01-01T00:00:00Z","name_a2s":"Uncletopia | Warsaw | 2 | All Maps","protocol":17,"map":"koth_lakeside_final","folder":"tf","game":"Team Fortress","app_id":440,"player_count":0,"max_players":24,"Bots":0,"server_type":"Dedicated","server_os":"Linux","password":true,"vac":true,"version":"7742253","steam_id":85568392925397851,"keywords":["cp","nocrits","nodmgspread","uncletopia"],"game_id":440,"stv_port":27026,"stv_name":"Uncletopia | Warsaw | 2 | All Maps | STV","players":null},{"server_id":51,"name":"Uncletopia | Warsaw | 3 | All Maps","name_short":"waw-3","host":"waw-1.pl.uncletopia.com","port":27035,"enabled":true,"region":"eu","cc":"pl","latitude":52.2297,"longitude":21.017532,"reserved":0,"last_update":"0001-01-01T00:00:00Z","name_a2s":"Uncletopia | Warsaw | 3 | All Maps","protocol":17,"map":"koth_lakeside_final","folder":"tf","game":"Team Fortress","app_id":440,"player_count":2,"max_players":24,"Bots":0,"server_type":"Dedicated","server_os":"Linux","password":true,"vac":true,"version":"7742253","steam_id":85568392925397852,"keywords":["cp","nocrits","nodmgspread","uncletopia"],"game_id":440,"stv_port":27036,"stv_name":"Uncletopia | Warsaw | 3 | All Maps | STV","players":[{"user_id":4,"name":"CzarnyRycerzMomon","steam_id":76561199028465810,"connected_time":1213000000000,"state":"active","ping":38},{"user_id":5,"name":"Wojowniczek.pl","steam_id":76561199228645329,"connected_time":1161000000000,"state":"active","ping":69}]},{"server_id":52,"name":"Uncletopia | Warsaw | 4 | All Maps","name_short":"waw-4","host":"waw-1.pl.uncletopia.com","port":27045,"enabled":true,"region":"eu","cc":"pl","latitude":52.2297,"longitude":21.017532,"reserved":0,"last_update":"0001-01-01T00:00:00Z","name_a2s":"Uncletopia | Warsaw | 4 | All Maps","protocol":17,"map":"cp_altitude","folder":"tf","game":"Team Fortress","app_id":440,"player_count":24,"max_players":24,"Bots":0,"server_type":"Dedicated","server_os":"Linux","password":true,"vac":true,"version":"7742253","steam_id":85568392925397853,"keywords":["cp","nocrits","nodmgspread","uncletopia"],"game_id":440,"stv_port":27046,"stv_name":"Uncletopia | Warsaw | 4 | All Maps | STV","players":[{"user_id":313,"name":"jpl8","steam_id":76561198077770726,"connected_time":1756000000000,"state":"active","ping":105},{"user_id":378,"name":"Bread Boi","steam_id":76561199060307324,"connected_time":466000000000,"state":"active","ping":167},{"user_id":379,"name":"reho-iwnw","steam_id":76561198348062373,"connected_time":414000000000,"state":"active","ping":69},{"user_id":380,"name":"frikandel speciaal","steam_id":76561198137997056,"connected_time":398000000000,"state":"active","ping":75},{"user_id":382,"name":"Jacek Jaworek","steam_id":76561198340344220,"connected_time":361000000000,"state":"active","ping":43},{"user_id":358,"name":"SODA!!!!!!!","steam_id":76561198107362485,"connected_time":881000000000,"state":"active","ping":45},{"user_id":303,"name":"Wigion the first","steam_id":76561198899108901,"connected_time":2273000000000,"state":"active","ping":73},{"user_id":356,"name":"nexus","steam_id":76561198445936642,"connected_time":922000000000,"state":"active","ping":58},{"user_id":334,"name":"Shirogame","steam_id":76561198126154697,"connected_time":1357000000000,"state":"active","ping":83},{"user_id":359,"name":"Zylx","steam_id":76561198883608713,"connected_time":859000000000,"state":"active","ping":129},{"user_id":311,"name":"Tmpod","steam_id":76561198069210431,"connected_time":1788000000000,"state":"active","ping":93},{"user_id":387,"name":"Doughy","steam_id":76561198044084210,"connected_time":258000000000,"state":"active","ping":93},{"user_id":322,"name":"Mr. Dick‚Ñ¢","steam_id":76561198047309044,"connected_time":1550000000000,"state":"active","ping":159},{"user_id":383,"name":"night.s","steam_id":76561198326287823,"connected_time":353000000000,"state":"active","ping":103},{"user_id":365,"name":"Tryrn","steam_id":76561198075487436,"connected_time":783000000000,"state":"active","ping":72},{"user_id":384,"name":"Kameleon","steam_id":76561198041394657,"connected_time":334000000000,"state":"active","ping":38},{"user_id":320,"name":"GrantTheMedicYT","steam_id":76561199077176696,"connected_time":1574000000000,"state":"active","ping":153},{"user_id":323,"name":"yourbadandimbest","steam_id":76561198167118483,"connected_time":1540000000000,"state":"active","ping":76},{"user_id":368,"name":"Sotviing","steam_id":76561198154311159,"connected_time":697000000000,"state":"active","ping":100},{"user_id":329,"name":"Konoko_x3","steam_id":76561198065342613,"connected_time":1417000000000,"state":"active","ping":98},{"user_id":369,"name":"lilleskutte","steam_id":76561198033164425,"connected_time":680000000000,"state":"active","ping":90},{"user_id":370,"name":"simonjohna646","steam_id":76561199403481880,"connected_time":672000000000,"state":"active","ping":162},{"user_id":385,"name":"\u003e////\u003c","steam_id":76561199216923710,"connected_time":315000000000,"state":"active","ping":142},{"user_id":388,"name":"Big They/Them is watching YOU","steam_id":76561198307598168,"connected_time":207000000000,"state":"active","ping":36}]},{"server_id":53,"name":"Uncletopia | Warsaw | 5 | Stopwatch Beta","name_short":"waw-5","host":"waw-1.pl.uncletopia.com","port":27055,"enabled":true,"region":"eu","cc":"pl","latitude":52.2297,"longitude":21.017532,"reserved":0,"last_update":"0001-01-01T00:00:00Z","name_a2s":"Uncletopia | Warsaw | 5 | Stopwatch Beta","protocol":17,"map":"pl_swiftwater_final1","folder":"tf","game":"Team Fortress","app_id":440,"player_count":0,"max_players":24,"Bots":0,"server_type":"Dedicated","server_os":"Linux","password":true,"vac":true,"version":"7742253","steam_id":85568392925397854,"keywords":["nocrits","nodmgspread","payload","uncletopia"],"game_id":440,"stv_port":27056,"stv_name":"Uncletopia | Warsaw | 5 | Stopwatch Beta | STV","players":null},{"server_id":54,"name":"Uncletopia | Warsaw | 6 | Community","name_short":"waw-6","host":"waw-1.pl.uncletopia.com","port":27065,"enabled":true,"region":"eu","cc":"pl","latitude":52.2297,"longitude":21.017532,"reserved":0,"last_update":"0001-01-01T00:00:00Z","name_a2s":"Uncletopia | Warsaw | 6 | Community","protocol":17,"map":"koth_highpass","folder":"tf","game":"Team Fortress","app_id":440,"player_count":0,"max_players":24,"Bots":0,"server_type":"Dedicated","server_os":"Linux","password":true,"vac":true,"version":"7742253","steam_id":85568392925397856,"keywords":["cp","nocrits","nodmgspread","uncletopia"],"game_id":440,"stv_port":27066,"stv_name":"Uncletopia | Warsaw | 6 | Community | STV","players":null}]}