{"status":true,"message":"","result":[{"server_id":9,"name":"Uncletopia | Atlanta | 1 | All Maps","name_short":"atl-1","host":"atl-1.us.uncletopia.com","port":27015,"enabled":true,"region":"us-east","cc":"us","latitude":33.753746,"longitude":-84.38633,"reserved":0,"last_update":"0001-01-01T00:00:00Z","name_a2s":"Uncletopia | Atlanta | 1 | All Maps","protocol":17,"map":"pl_thundermountain","folder":"tf","game":"Team Fortress","app_id":440,"player_count":24,"max_players":24,"Bots":0,"server_type":"Dedicated","server_os":"Linux","password":true,"vac":true,"version":"7961495","steam_id":85568392924469982,"keywords":["nocrits","nodmgspread","payload","uncletopia"],"game_id":440,"stv_port":27016,"stv_name":"Uncletopia | Atlanta | 1 | All Maps | STV","players":[{"user_id":259,"name":"julaa","steam_id":76561198060288611,"connected_time":314000000000,"state":"active","ping":44},{"user_id":260,"name":"BitPieStudios","steam_id":76561198059216393,"connected_time":286000000000,"state":"active","ping":105},{"user_id":252,"name":"b4nny sewer spot on process","steam_id":76561198982810452,"connected_time":1293000000000,"state":"active","ping":78},{"user_id":223,"name":"Duck","steam_id":76561198303483056,"connected_time":3593000000000,"state":"active","ping":89},{"user_id":253,"name":"Í∞ÄÏßú ÌïúÍµ≠Ïù∏","steam_id":76561198079416036,"connected_time":999000000000,"state":"active","ping":71},{"user_id":249,"name":"Gaminglast","steam_id":76561198362927765,"connected_time":1567000000000,"state":"active","ping":109},{"user_id":244,"name":"StompArtist","steam_id":76561198056247405,"connected_time":1791000000000,"state":"active","ping":80},{"user_id":219,"name":"Tony dat Brony","steam_id":76561198003863640,"connected_time":3807000000000,"state":"active","ping":58},{"user_id":255,"name":"Sinta","steam_id":76561198098398841,"connected_time":973000000000,"state":"active","ping":60},{"user_id":248,"name":"Jesus","steam_id":76561198018890911,"connected_time":1750000000000,"state":"active","ping":60},{"user_id":217,"name":"DƒÅpƒ´","steam_id":76561199131359347,"connected_time":3836000000000,"state":"active","ping":102},{"user_id":242,"name":"ATL1 | on my hunting trip","steam_id":76561198315341646,"connected_time":1854000000000,"state":"active","ping":77},{"user_id":258,"name":"Oxygen User","steam_id":76561199111975528,"connected_time":495000000000,"state":"active","ping":71},{"user_id":262,"name":"nonagon infinity","steam_id":76561198397662124,"connected_time":267000000000,"state":"active","ping":95},{"user_id":222,"name":"Joe Rogan (real)","steam_id":76561198359511515,"connected_time":3719000000000,"state":"active","ping":67},{"user_id":251,"name":"PorpoiseLove","steam_id":76561198085250634,"connected_time":1460000000000,"state":"active","ping":99},{"user_id":231,"name":"yoodle doodle","steam_id":76561198054897884,"connected_time":2544000000000,"state":"active","ping":73},{"user_id":240,"name":"why","steam_id":76561199059732212,"connected_time":1974000000000,"state":"active","ping":58},{"user_id":236,"name":"Eins Shinigami","steam_id":76561199030343810,"connected_time":2168000000000,"state":"active","ping":49},{"user_id":232,"name":"Okpar","steam_id":76561199221067945,"connected_time":2542000000000,"state":"active","ping":81},{"user_id":237,"name":"PinkLemonade","steam_id":76561198799286228,"connected_time":2133000000000,"state":"active","ping":74},{"user_id":209,"name":"Grim","steam_id":76561198225241776,"connected_time":4288000000000,"state":"active","ping":73},{"user_id":233,"name":"Skitarii Toaster Enjoyer","steam_id":76561198152437646,"connected_time":2534000000000,"state":"active","ping":72},{"user_id":254,"name":"Just PYE","steam_id":76561199439622967,"connected_time":984000000000,"state":"active","ping":83}]},{"server_id":104,"name":"Uncletopia | Atlanta | 2 | All Maps","name_short":"atl-2","host":"atl-1.us.uncletopia.com","port":27025,"enabled":true,"region":"us-east","cc":"us","latitude":33.753746,"longitude":-84.38633,"reserved":0,"last_update":"0001-01-01T00:00:00Z","name_a2s":"Uncletopia | Atlanta | 2 | All Maps","protocol":17,"map":"pl_snowycoast","folder":"tf","game":"Team Fortress","app_id":440,"player_count":24,"max_players":24,"Bots":0,"server_type":"Dedicated","server_os":"Linux","password":true,"vac":true,"version":"7961495","steam_id":85568392924469983,"keywords":["nocrits","nodmgspread","payload","uncletopia"],"game_id":440,"stv_port":27026,"stv_name":"Uncletopia | Atlanta | 2 | All Maps | STV","players":[{"user_id":64,"name":"Ocean","steam_id":76561198860325411,"connected_time":593000000000,"state":"active","ping":75},{"user_id":66,"name":"chen","steam_id":76561198064872330,"connected_time":553000000000,"state":"active","ping":72},{"user_id":28,"name":"Biggus idiotus","steam_id":76561198037218103,"connected_time":2245000000000,"state":"active","ping":57},{"user_id":21,"name":"CDBeans","steam_id":76561198046990367,"connected_time":3094000000000,"state":"active","ping":96},{"user_id":63,"name":"Severain","steam_id":76561198026326136,"connected_time":978000000000,"state":"active","ping":61},{"user_id":24,"name":"King Cotton","steam_id":76561198292444376,"connected_time":2681000000000,"state":"active","ping":85},{"user_id":26,"name":"Mer","steam_id":76561198192171041,"connected_time":2599000000000,"state":"active","ping":113},{"user_id":29,"name":"piebluedog","steam_id":76561198141362745,"connected_time":2231000000000,"state":"active","ping":84},{"user_id":67,"name":"MillerWhite","steam_id":76561198076060357,"connected_time":310000000000,"state":"active","ping":80},{"user_id":57,"name":"Pyrovision Distributor","steam_id":76561198242118240,"connected_time":1131000000000,"state":"active","ping":86},{"user_id":53,"name":"Shooter of Walls","steam_id":76561197988105207,"connected_time":1325000000000,"state":"active","ping":65},{"user_id":35,"name":"amaz","steam_id":76561198386233160,"connected_time":1936000000000,"state":"active","ping":88},{"user_id":36,"name":"bredinstead","steam_id":76561199156464551,"connected_time":1924000000000,"state":"active","ping":86},{"user_id":37,"name":"Zeebop","steam_id":76561198148332988,"connected_time":1905000000000,"state":"active","ping":72},{"user_id":52,"name":"Notsocreative","steam_id":76561198236372202,"connected_time":1357000000000,"state":"active","ping":79},{"user_id":50,"name":"Lichy","steam_id":76561198310682841,"connected_time":1401000000000,"state":"active","ping":59},{"user_id":65,"name":"TechnoBear2099","steam_id":76561198238863596,"connected_time":593000000000,"state":"active","ping":73},{"user_id":42,"name":"Cyberpunk McDonald's Play Place","steam_id":76561198063512035,"connected_time":1829000000000,"state":"active","ping":76},{"user_id":43,"name":"Niceness(Charisma)","steam_id":76561198079345172,"connected_time":1825000000000,"state":"active","ping":90},{"user_id":44,"name":"Disco Fever","steam_id":76561198069532215,"connected_time":1819000000000,"state":"active","ping":91},{"user_id":45,"name":"frenemy","steam_id":76561198011363677,"connected_time":1798000000000,"state":"active","ping":74},{"user_id":54,"name":"yes daddy","steam_id":76561198166100997,"connected_time":1323000000000,"state":"active","ping":66},{"user_id":59,"name":"veemo","steam_id":76561198321393225,"connected_time":1092000000000,"state":"active","ping":128},{"user_id":55,"name":"Female Gamer","steam_id":76561199366482682,"connected_time":1323000000000,"state":"active","ping":125}]},{"server_id":400,"name":"Uncletopia | Atlanta | 3 | Stopwatch","name_short":"atl-3","host":"atl-1.us.uncletopia.com","port":27035,"enabled":true,"region":"us-east","cc":"us","latitude":33.753746,"longitude":-84.38633,"reserved":0,"last_update":"0001-01-01T00:00:00Z","name_a2s":"Uncletopia | Atlanta | 3 | Stopwatch","protocol":17,"map":"workshop/koth_ashville_final.ugc2130459942","folder":"tf","game":"Team Fortress","app_id":440,"player_count":0,"max_players":24,"Bots":0,"server_type":"Dedicated","server_os":"Linux","password":true,"vac":true,"version":"7961495","steam_id":85568392924515187,"keywords":["cp","nocrits","nodmgspread","uncletopia"],"game_id":440,"stv_port":27036,"stv_name":"Uncletopia | Atlanta | 3 | Stopwatch | STV","players":null},{"server_id":401,"name":"Uncletopia | Atlanta | 4 | Community","name_short":"atl-4","host":"atl-1.us.uncletopia.com","port":27045,"enabled":true,"region":"us-east","cc":"us","latitude":33.753746,"longitude":-84.38633,"reserved":0,"last_update":"0001-01-01T00:00:00Z","name_a2s":"Uncletopia | Atlanta | 4 | Community","protocol":17,"map":"cp_sunshine","folder":"tf","game":"Team Fortress","app_id":440,"player_count":0,"max_players":24,"Bots":0,"server_type":"Dedicated","server_os":"Linux","password":true,"vac":true,"version":"7961495","steam_id":85568392924515188,"keywords":["cp","nocrits","nodmgspread","uncletopia"],"game_id":440,"stv_port":27046,"stv_name":"Uncletopia | Atlanta | 4 | Community | STV","players":null},{"server_id":2,"name":"Uncletopia | Chicago | 1 | All Maps","name_short":"chi-1","host":"chi-1.us.uncletopia.com","port":27015,"enabled":true,"region":"us-central","cc":"us","latitude":41.881832,"longitude":-87.62318,"reserved":0,"last_update":"0001-01-01T00:00:00Z","name_a2s":"Uncletopia | Chicago | 1 | All Maps","protocol":17,"map":"pl_barnblitz","folder":"tf","game":"Team Fortress","app_id":440,"player_count":24,"max_players":24,"Bots":0,"server_type":"Dedicated","server_os":"Linux","password":true,"vac":true,"version":"7961495","steam_id":85568392924469984,"keywords":["nocrits","nodmgspread","payload","uncletopia"],"game_id":440,"stv_port":27016,"stv_name":"Uncletopia | Chicago | 1 | All Maps | STV","players":[{"user_id":429,"name":"Stacks63bs","steam_id":76561198067797130,"connected_time":2516000000000,"state":"active","ping":83},{"user_id":465,"name":"corned beef","steam_id":76561199366782761,"connected_time":978000000000,"state":"active","ping":157},{"user_id":439,"name":"‡∏∏","steam_id":76561198170624701,"connected_time":2163000000000,"state":"active","ping":75},{"user_id":483,"name":"milk then cereal","steam_id":76561198047168548,"connected_time":283000000000,"state":"active","ping":98},{"user_id":485,"name":"Amari","steam_id":76561198272446730,"connected_time":255000000000,"state":"active","ping":57},{"user_id":458,"name":"(Speaks in Spanish)","steam_id":76561198198704538,"connected_time":1402000000000,"state":"active","ping":90},{"user_id":331,"name":"Melody","steam_id":76561198407789232,"connected_time":9029000000000,"state":"active","ping":120},{"user_id":486,"name":"Rhutebeer","steam_id":76561198018302761,"connected_time":225000000000,"state":"active","ping":100},{"user_id":443,"name":"richard clock","steam_id":76561198048455671,"connected_time":1954000000000,"state":"active","ping":59},{"user_id":487,"name":"Rec","steam_id":76561198022813906,"connected_time":223000000000,"state":"active","ping":57},{"user_id":477,"name":"RoFrogle","steam_id":76561199078941377,"connected_time":736000000000,"state":"active","ping":75},{"user_id":479,"name":"Bee","steam_id":76561198074681324,"connected_time":633000000000,"state":"active","ping":61},{"user_id":471,"name":"Dr Oshawott","steam_id":76561198042021629,"connected_time":803000000000,"state":"active","ping":66},{"user_id":482,"name":"Comrade","steam_id":76561199056721863,"connected_time":297000000000,"state":"active","ping":90},{"user_id":488,"name":"hammythegreat #SaveTF2","steam_id":76561198079526946,"connected_time":216000000000,"state":"active","ping":96},{"user_id":455,"name":"Five","steam_id":76561198026640473,"connected_time":1553000000000,"state":"active","ping":65},{"user_id":456,"name":"beta central","steam_id":76561198301876831,"connected_time":1550000000000,"state":"active","ping":62},{"user_id":452,"name":"CherriKat","steam_id":76561198821297512,"connected_time":1591000000000,"state":"active","ping":105},{"user_id":481,"name":"Just washed","steam_id":76561199030160932,"connected_time":350000000000,"state":"active","ping":77},{"user_id":472,"name":"MajorPlatinum","steam_id":76561198204291936,"connected_time":802000000000,"state":"active","ping":60},{"user_id":473,"name":"The_RainbowTrout","steam_id":76561199309554436,"connected_time":797000000000,"state":"active","ping":93},{"user_id":475,"name":"Coffeemelon","steam_id":76561198285891257,"connected_time":766000000000,"state":"active","ping":114},{"user_id":357,"name":"Bond","steam_id":76561198089262776,"connected_time":7240000000000,"state":"active","ping":79},{"user_id":478,"name":"Lone_Bacon2","steam_id":76561198067488643,"connected_time":736000000000,"state":"active","ping":103}]},{"server_id":106,"name":"Uncletopia | Chicago | 2 | All Maps","name_short":"chi-2","host":"chi-1.us.uncletopia.com","port":27025,"enabled":true,"region":"us-central","cc":"us","latitude":41.881832,"longitude":-87.62318,"reserved":0,"last_update":"0001-01-01T00:00:00Z","name_a2s":"Uncletopia | Chicago | 2 | All Maps","protocol":17,"map":"cp_process_final","folder":"tf","game":"Team Fortress","app_id":440,"player_count":24,"max_players":24,"Bots":0,"server_type":"Dedicated","server_os":"Linux","password":true,"vac":true,"version":"7961495","steam_id":85568392924469985,"keywords":["cp","nocrits","nodmgspread","uncletopia"],"game_id":440,"stv_port":27026,"stv_name":"Uncletopia | Chicago | 2 | All Maps | STV","players":[{"user_id":425,"name":"Sceptimus","steam_id":76561198179580927,"connected_time":409000000000,"state":"active","ping":118},{"user_id":392,"name":"Kitchen Sink Gaming","steam_id":76561198930293420,"connected_time":3579000000000,"state":"active","ping":60},{"user_id":410,"name":"Starfruit66","steam_id":76561198069917277,"connected_time":2469000000000,"state":"active","ping":95},{"user_id":391,"name":"A Rhino with Coronavirus","steam_id":76561197999451366,"connected_time":3638000000000,"state":"active","ping":73},{"user_id":426,"name":"dark souls boss","steam_id":76561198316610724,"connected_time":404000000000,"state":"active","ping":92},{"user_id":420,"name":"Broadsword #LGM","steam_id":76561198011160411,"connected_time":1059000000000,"state":"active","ping":88},{"user_id":439,"name":"ivan","steam_id":76561198033001607,"connected_time":9000000000,"state":"spawning","ping":86},{"user_id":422,"name":"Oogle","steam_id":76561198041815877,"connected_time":877000000000,"state":"active","ping":65},{"user_id":427,"name":"vareh","steam_id":76561197993190926,"connected_time":399000000000,"state":"active","ping":106},{"user_id":428,"name":"malarkeyman","steam_id":76561198844473584,"connected_time":363000000000,"state":"active","ping":48},{"user_id":429,"name":"Sock","steam_id":76561199274452891,"connected_time":360000000000,"state":"active","ping":86},{"user_id":437,"name":"dirty30","steam_id":76561198021226566,"connected_time":128000000000,"state":"active","ping":91},{"user_id":419,"name":"Duncan","steam_id":76561198042148095,"connected_time":1075000000000,"state":"active","ping":45},{"user_id":431,"name":"boof^","steam_id":76561198087074444,"connected_time":301000000000,"state":"active","ping":83},{"user_id":371,"name":"ZachChase","steam_id":76561198086057112,"connected_time":5354000000000,"state":"active","ping":105},{"user_id":432,"name":"ProGaming115","steam_id":76561198411734418,"connected_time":298000000000,"state":"active","ping":55},{"user_id":423,"name":"jstn","steam_id":76561198845283665,"connected_time":761000000000,"state":"active","ping":73},{"user_id":433,"name":"Captain Malarkey","steam_id":76561198869924281,"connected_time":286000000000,"state":"active","ping":78},{"user_id":399,"name":"bonk","steam_id":76561198922763623,"connected_time":3522000000000,"state":"active","ping":97},{"user_id":417,"name":"TheoLynwood","steam_id":76561198079596878,"connected_time":1207000000000,"state":"active","ping":69},{"user_id":389,"name":"Person","steam_id":76561198093244204,"connected_time":4052000000000,"state":"active","ping":75},{"user_id":438,"name":"DolphiN | RGL.gg","steam_id":76561198048614515,"connected_time":103000000000,"state":"active","ping":59},{"user_id":404,"name":"Sexterminator","steam_id":76561199018767956,"connected_time":3394000000000,"state":"active","ping":47},{"user_id":434,"name":"i only ubercharge snipers","steam_id":76561198003995600,"connected_time":240000000000,"state":"active","ping":99}]},{"server_id":402,"name":"Uncletopia | Chicago | 3 | All Maps","name_short":"chi-3","host":"chi-1.us.uncletopia.com","port":27035,"enabled":true,"region":"us-central","cc":"us","latitude":41.881832,"longitude":-87.62318,"reserved":0,"last_update":"0001-01-01T00:00:00Z","name_a2s":"Uncletopia | Chicago | 3 | All Maps","protocol":17,"map":"pl_thundermountain","folder":"tf","game":"Team Fortress","app_id":440,"player_count":24,"max_players":24,"Bots":0,"server_type":"Dedicated","server_os":"Linux","password":true,"vac":true,"version":"7961495","steam_id":85568392924515191,"keywords":["nocrits","nodmgspread","payload","uncletopia"],"game_id":440,"stv_port":27036,"stv_name":"Uncletopia | Chicago | 3 | All Maps | STV","players":[{"user_id":288,"name":"Aperture Science Intern","steam_id":76561198040553272,"connected_time":1202000000000,"state":"active","ping":80},{"user_id":267,"name":"KaiDuck4348","steam_id":76561199060186538,"connected_time":3428000000000,"state":"active","ping":86},{"user_id":298,"name":"Just Luck","steam_id":76561198294350105,"connected_time":615000000000,"state":"active","ping":86},{"user_id":300,"name":"EL Matador","steam_id":76561197971206879,"connected_time":601000000000,"state":"active","ping":78},{"user_id":265,"name":"while(1)","steam_id":76561198000876529,"connected_time":3474000000000,"state":"active","ping":49},{"user_id":302,"name":"TheChickenChuck","steam_id":76561199192686708,"connected_time":321000000000,"state":"active","ping":101},{"user_id":282,"name":"Chhaam","steam_id":76561198058508132,"connected_time":1740000000000,"state":"active","ping":59},{"user_id":269,"name":"j3nga","steam_id":76561198094296283,"connected_time":3350000000000,"state":"active","ping":90},{"user_id":261,"name":"benjamator67","steam_id":76561198209002860,"connected_time":4063000000000,"state":"active","ping":53},{"user_id":250,"name":"kitchen goblin","steam_id":76561198271710504,"connected_time":5212000000000,"state":"active","ping":56},{"user_id":258,"name":"Dave Davidson","steam_id":76561198010802812,"connected_time":4611000000000,"state":"active","ping":70},{"user_id":296,"name":"Big Floppa Gaming","steam_id":76561198151258264,"connected_time":650000000000,"state":"active","ping":105},{"user_id":253,"name":"hej","steam_id":76561197996366940,"connected_time":4927000000000,"state":"active","ping":61},{"user_id":297,"name":"goop","steam_id":76561198214461775,"connected_time":646000000000,"state":"active","ping":77},{"user_id":279,"name":"Dim","steam_id":76561198061411324,"connected_time":2003000000000,"state":"active","ping":79},{"user_id":303,"name":"interloper","steam_id":76561198042518244,"connected_time":297000000000,"state":"active","ping":98},{"user_id":266,"name":"Mikke","steam_id":76561198170234003,"connected_time":3468000000000,"state":"active","ping":126},{"user_id":270,"name":"Swashb√ºkler","steam_id":76561197969421355,"connected_time":3253000000000,"state":"active","ping":57},{"user_id":304,"name":"FunGi","steam_id":76561198881418662,"connected_time":232000000000,"state":"active","ping":85},{"user_id":208,"name":"TrashPanda (she/her)","steam_id":76561198447864095,"connected_time":7279000000000,"state":"active","ping":88},{"user_id":280,"name":"endwalker simp","steam_id":76561198066177299,"connected_time":1822000000000,"state":"active","ping":100},{"user_id":286,"name":"MedRed‚Ñ¢ #IATAH","steam_id":76561198002962970,"connected_time":1691000000000,"state":"active","ping":103},{"user_id":285,"name":"Scum Knight | T.I.D.K.","steam_id":76561198282444763,"connected_time":1704000000000,"state":"active","ping":64},{"user_id":307,"name":"twerp","steam_id":76561198347557315,"connected_time":168000000000,"state":"active","ping":67}]},{"server_id":403,"name":"Uncletopia | Chicago | 4 | All Maps","name_short":"chi-4","host":"chi-1.us.uncletopia.com","port":27045,"enabled":true,"region":"us-central","cc":"us","latitude":41.881832,"longitude":-87.62318,"reserved":0,"last_update":"0001-01-01T00:00:00Z","name_a2s":"Uncletopia | Chicago | 4 | All Maps","protocol":17,"map":"cp_dustbowl","folder":"tf","game":"Team Fortress","app_id":440,"player_count":24,"max_players":24,"Bots":0,"server_type":"Dedicated","server_os":"Linux","password":true,"vac":true,"version":"7961495","steam_id":85568392924515193,"keywords":["cp","nocrits","nodmgspread","uncletopia"],"game_id":440,"stv_port":27046,"stv_name":"Uncletopia | Chicago | 4 | All Maps | STV","players":[{"user_id":151,"name":"Palamute Jho","steam_id":76561199219936729,"connected_time":2924000000000,"state":"active","ping":83},{"user_id":190,"name":"Sorry","steam_id":76561198040722720,"connected_time":843000000000,"state":"active","ping":81},{"user_id":189,"name":"j3","steam_id":76561198934493061,"connected_time":887000000000,"state":"active","ping":133},{"user_id":188,"name":"Drilly22","steam_id":76561198068838338,"connected_time":966000000000,"state":"active","ping":85},{"user_id":198,"name":"Moodflame","steam_id":76561199079466529,"connected_time":553000000000,"state":"active","ping":90},{"user_id":184,"name":"barefoot fruitscato","steam_id":76561198094225038,"connected_time":1360000000000,"state":"active","ping":48},{"user_id":199,"name":"HOODOO_LOVER_2007","steam_id":76561199087691214,"connected_time":545000000000,"state":"active","ping":92},{"user_id":177,"name":"·≤º·≤º·≤º","steam_id":76561198845246815,"connected_time":1645000000000,"state":"active","ping":108},{"user_id":161,"name":"Peepster","steam_id":76561198297854733,"connected_time":2496000000000,"state":"active","ping":71},{"user_id":192,"name":"squidwardhasfun45","steam_id":76561198073269122,"connected_time":803000000000,"state":"active","ping":67},{"user_id":193,"name":"Calvin?","steam_id":76561198034069587,"connected_time":737000000000,"state":"active","ping":78},{"user_id":202,"name":"Fancy Jello","steam_id":76561198890633732,"connected_time":96000000000,"state":"active","ping":86},{"user_id":194,"name":"lcy13vv","steam_id":76561197995997446,"connected_time":734000000000,"state":"active","ping":48},{"user_id":195,"name":"SoWhich","steam_id":76561198237125842,"connected_time":711000000000,"state":"active","ping":54},{"user_id":196,"name":"[GUT] RiDiK¬Æ","steam_id":76561197969756446,"connected_time":679000000000,"state":"active","ping":56},{"user_id":115,"name":"down syndrome larry","steam_id":76561198272948471,"connected_time":4920000000000,"state":"active","ping":58},{"user_id":197,"name":"Tideflat","steam_id":76561198179850851,"connected_time":678000000000,"state":"active","ping":105},{"user_id":181,"name":"A Random Guy","steam_id":76561198282519457,"connected_time":1492000000000,"state":"active","ping":113},{"user_id":185,"name":"mug","steam_id":76561198283008682,"connected_time":1325000000000,"state":"active","ping":50},{"user_id":179,"name":"I_amfish","steam_id":76561198058605649,"connected_time":1559000000000,"state":"active","ping":61},{"user_id":176,"name":"Wiggs is the Shiggs","steam_id":76561198078379719,"connected_time":1728000000000,"state":"active","ping":112},{"user_id":200,"name":"Koishi","steam_id":76561198054541054,"connected_time":476000000000,"state":"active","ping":57},{"user_id":182,"name":"stinkmaster666demon","steam_id":76561198073914311,"connected_time":1427000000000,"state":"active","ping":97},{"user_id":158,"name":"jose.gonzales.2003","steam_id":76561199217620385,"connected_time":2637000000000,"state":"active","ping":72}]},{"server_id":36,"name":"Uncletopia | Chicago | 5 | All Maps","name_short":"chi-5","host":"chi-2.us.uncletopia.com","port":27015,"enabled":true,"region":"us-central","cc":"us","latitude":41.881832,"longitude":-87.62318,"reserved":0,"last_update":"0001-01-01T00:00:00Z","name_a2s":"Uncletopia | Chicago | 5 | All Maps","protocol":17,"map":"koth_viaduct","folder":"tf","game":"Team Fortress","app_id":440,"player_count":24,"max_players":24,"Bots":0,"server_type":"Dedicated","server_os":"Linux","password":true,"vac":true,"version":"7961495","steam_id":85568392924866362,"keywords":["cp","nocrits","nodmgspread","uncletopia"],"game_id":440,"stv_port":27016,"stv_name":"Uncletopia | Chicago | 5 | All Maps | STV","players":[{"user_id":353,"name":"Herbie","steam_id":76561198060855542,"connected_time":1241000000000,"state":"active","ping":57},{"user_id":366,"name":"floppy muppet","steam_id":76561198003076261,"connected_time":635000000000,"state":"active","ping":83},{"user_id":334,"name":"TinyTator","steam_id":76561198799282234,"connected_time":2133000000000,"state":"active","ping":82},{"user_id":365,"name":"._.","steam_id":76561198300316801,"connected_time":790000000000,"state":"active","ping":54},{"user_id":335,"name":"Harness","steam_id":76561199031066548,"connected_time":2099000000000,"state":"active","ping":72},{"user_id":332,"name":"beats!","steam_id":76561199245717718,"connected_time":2174000000000,"state":"active","ping":58},{"user_id":367,"name":"Grimm - (RIP Rick May/Kitty0706","steam_id":76561199050642411,"connected_time":569000000000,"state":"active","ping":87},{"user_id":304,"name":"ExplosiveGamer21","steam_id":76561198132370955,"connected_time":4178000000000,"state":"active","ping":117},{"user_id":336,"name":"Art","steam_id":76561198123802486,"connected_time":2096000000000,"state":"active","ping":86},{"user_id":345,"name":"SpyderMonkee777","steam_id":76561198170859026,"connected_time":1665000000000,"state":"active","ping":74},{"user_id":363,"name":"Squigly","steam_id":76561198084811625,"connected_time":932000000000,"state":"active","ping":82},{"user_id":320,"name":"The_Blaze_king","steam_id":76561198324842122,"connected_time":3391000000000,"state":"active","ping":161},{"user_id":369,"name":"Brawling Bouse","steam_id":76561198030271278,"connected_time":112000000000,"state":"active","ping":69},{"user_id":358,"name":"Synergy","steam_id":76561198098630198,"connected_time":1174000000000,"state":"active","ping":102},{"user_id":339,"name":"momazos diegos","steam_id":76561199220257695,"connected_time":2013000000000,"state":"active","ping":146},{"user_id":364,"name":"Whyamidoingthisaaaa","steam_id":76561199168837342,"connected_time":926000000000,"state":"active","ping":68},{"user_id":340,"name":"ceres","steam_id":76561198291976960,"connected_time":1994000000000,"state":"active","ping":104},{"user_id":309,"name":"Circuit Spark","steam_id":76561198832124473,"connected_time":4128000000000,"state":"active","ping":80},{"user_id":348,"name":"angry!!!!!","steam_id":76561198435286999,"connected_time":1571000000000,"state":"active","ping":61},{"user_id":341,"name":"Haveltherock27","steam_id":76561199219844391,"connected_time":1964000000000,"state":"active","ping":87},{"user_id":206,"name":"fresco","steam_id":76561199101199477,"connected_time":10109000000000,"state":"active","ping":65},{"user_id":266,"name":"Greaseball","steam_id":76561198240220178,"connected_time":6856000000000,"state":"active","ping":58},{"user_id":351,"name":"Sharp","steam_id":76561198044565001,"connected_time":1287000000000,"state":"active","ping":71},{"user_id":352,"name":"MechaSixVII","steam_id":76561198014927379,"connected_time":1287000000000,"state":"active","ping":71}]},{"server_id":37,"name":"Uncletopia | Chicago | 6 | All Maps","name_short":"chi-6","host":"chi-2.us.uncletopia.com","port":27025,"enabled":true,"region":"us-central","cc":"us","latitude":41.881832,"longitude":-87.62318,"reserved":0,"last_update":"0001-01-01T00:00:00Z","name_a2s":"Uncletopia | Chicago | 6 | All Maps","protocol":17,"map":"pl_frontier_final","folder":"tf","game":"Team Fortress","app_id":440,"player_count":24,"max_players":24,"Bots":0,"server_type":"Dedicated","server_os":"Linux","password":true,"vac":true,"version":"7961495","steam_id":85568392924866363,"keywords":["nocrits","nodmgspread","payload","uncletopia"],"game_id":440,"stv_port":27026,"stv_name":"Uncletopia | Chicago | 6 | All Maps | STV","players":[{"user_id":24,"name":"Tri-Dot","steam_id":76561199075186597,"connected_time":4857000000000,"state":"active","ping":67},{"user_id":25,"name":"ShawnLmao","steam_id":76561198350691501,"connected_time":4773000000000,"state":"active","ping":81},{"user_id":69,"name":"Oviraptor Supreme","steam_id":76561198044262534,"connected_time":2761000000000,"state":"active","ping":73},{"user_id":27,"name":"Dead Face","steam_id":76561198857643139,"connected_time":4607000000000,"state":"active","ping":57},{"user_id":94,"name":"Phantom Watcher","steam_id":76561197986292563,"connected_time":517000000000,"state":"active","ping":83},{"user_id":93,"name":"sillylokisparkles","steam_id":76561198872251615,"connected_time":532000000000,"state":"active","ping":83},{"user_id":72,"name":"Kart","steam_id":76561198045307014,"connected_time":2402000000000,"state":"active","ping":89},{"user_id":74,"name":"Flap","steam_id":76561198078889633,"connected_time":2290000000000,"state":"active","ping":59},{"user_id":87,"name":"Dwanor","steam_id":76561198039571887,"connected_time":896000000000,"state":"active","ping":74},{"user_id":76,"name":"Valuez_THS","steam_id":76561199055291822,"connected_time":2077000000000,"state":"active","ping":109},{"user_id":80,"name":"leeroy","steam_id":76561198226418600,"connected_time":1602000000000,"state":"active","ping":79},{"user_id":100,"name":"Butters495","steam_id":76561197998689042,"connected_time":183000000000,"state":"active","ping":86},{"user_id":37,"name":"Bones0010","steam_id":76561198096186958,"connected_time":4104000000000,"state":"active","ping":90},{"user_id":38,"name":"Sir.TopHats","steam_id":76561198267326839,"connected_time":4095000000000,"state":"active","ping":92},{"user_id":101,"name":"Ting","steam_id":76561198111669760,"connected_time":94000000000,"state":"active","ping":61},{"user_id":78,"name":"jaytheking05","steam_id":76561198856419769,"connected_time":2024000000000,"state":"active","ping":68},{"user_id":98,"name":"Average Anarchist","steam_id":76561199175442910,"connected_time":370000000000,"state":"active","ping":76},{"user_id":89,"name":"Skooot","steam_id":76561198800357246,"connected_time":850000000000,"state":"active","ping":66},{"user_id":95,"name":"LACTAID","steam_id":76561198276585202,"connected_time":484000000000,"state":"active","ping":104},{"user_id":79,"name":"Tethered","steam_id":76561199237582239,"connected_time":1757000000000,"state":"active","ping":84},{"user_id":47,"name":"*Gage*","steam_id":76561197975233869,"connected_time":3959000000000,"state":"active","ping":85},{"user_id":102,"name":"toastman","steam_id":76561198207073088,"connected_time":77000000000,"state":"active","ping":76},{"user_id":97,"name":"frid","steam_id":76561198005806915,"connected_time":458000000000,"state":"active","ping":60},{"user_id":83,"name":"Jcc989","steam_id":76561198443682389,"connected_time":1547000000000,"state":"active","ping":117}]},{"server_id":38,"name":"Uncletopia | Chicago | 7 | Stopwatch","name_short":"chi-7","host":"chi-2.us.uncletopia.com","port":27035,"enabled":true,"region":"us-central","cc":"us","latitude":41.881832,"longitude":-87.62318,"reserved":0,"last_update":"0001-01-01T00:00:00Z","name_a2s":"Uncletopia | Chicago | 7 | Stopwatch","protocol":17,"map":"koth_highpass","folder":"tf","game":"Team Fortress","app_id":440,"player_count":0,"max_players":24,"Bots":0,"server_type":"Dedicated","server_os":"Linux","password":true,"vac":true,"version":"7961495","steam_id":85568392924866364,"keywords":["cp","nocrits","nodmgspread","uncletopia"],"game_id":440,"stv_port":27036,"stv_name":"Uncletopia | Chicago | 7 | Stopwatch | STV","players":null},{"server_id":39,"name":"Uncletopia | Chicago | 8 | Community","name_short":"chi-8","host":"chi-2.us.uncletopia.com","port":27045,"enabled":true,"region":"us-central","cc":"us","latitude":41.881832,"longitude":-87.62318,"reserved":0,"last_update":"0001-01-01T00:00:00Z","name_a2s":"Uncletopia | Chicago | 8 | Community","protocol":17,"map":"pl_pier","folder":"tf","game":"Team Fortress","app_id":440,"player_count":0,"max_players":24,"Bots":0,"server_type":"Dedicated","server_os":"Linux","password":true,"vac":true,"version":"7961495","steam_id":85568392924866365,"keywords":["nocrits","nodmgspread","payload","uncletopia"],"game_id":440,"stv_port":27046,"stv_name":"Uncletopia | Chicago | 8 | Community | STV","players":null},{"server_id":8,"name":"Uncletopia | Dallas | 1 | All Maps","name_short":"dal-1","host":"dal-1.us.uncletopia.com","port":27015,"enabled":true,"region":"us-central","cc":"us","latitude":32.779167,"longitude":-96.80889,"reserved":0,"last_update":"0001-01-01T00:00:00Z","name_a2s":"Uncletopia | Dallas | 1 | All Maps","protocol":17,"map":"pl_borneo","folder":"tf","game":"Team Fortress","app_id":440,"player_count":24,"max_players":24,"Bots":0,"server_type":"Dedicated","server_os":"Linux","password":true,"vac":true,"version":"7961495","steam_id":85568392924469986,"keywords":["nocrits","nodmgspread","payload","uncletopia"],"game_id":440,"stv_port":27016,"stv_name":"Uncletopia | Dallas | 1 | All Maps | STV","players":[{"user_id":253,"name":"Cap'n Bill","steam_id":76561197969559549,"connected_time":6263000000000,"state":"active","ping":75},{"user_id":307,"name":"Sweet Tooth","steam_id":76561198830158092,"connected_time":1864000000000,"state":"active","ping":81},{"user_id":308,"name":"Mike Bean Burritos","steam_id":76561198173430607,"connected_time":1538000000000,"state":"active","ping":104},{"user_id":274,"name":"hunterzar","steam_id":76561198347666725,"connected_time":5009000000000,"state":"active","ping":86},{"user_id":294,"name":"mbell1199","steam_id":76561198827517736,"connected_time":2930000000000,"state":"active","ping":65},{"user_id":257,"name":"Hello World","steam_id":76561199093925982,"connected_time":5827000000000,"state":"active","ping":120},{"user_id":305,"name":"C4K3","steam_id":76561197996963285,"connected_time":2067000000000,"state":"active","ping":61},{"user_id":208,"name":"Certified Hood Classic","steam_id":76561199086159354,"connected_time":8759000000000,"state":"active","ping":55},{"user_id":281,"name":"chill","steam_id":76561198313364985,"connected_time":4168000000000,"state":"active","ping":90},{"user_id":314,"name":"Anstorner","steam_id":76561198274026015,"connected_time":621000000000,"state":"active","ping":73},{"user_id":170,"name":"dance monkey","steam_id":76561198188722751,"connected_time":12545000000000,"state":"active","ping":90},{"user_id":310,"name":"37 septillion tapeworms","steam_id":76561198186128723,"connected_time":1143000000000,"state":"active","ping":51},{"user_id":283,"name":"9AM | Jamal27","steam_id":76561198068654532,"connected_time":4116000000000,"state":"active","ping":104},{"user_id":315,"name":"JtsRes","steam_id":76561197994809241,"connected_time":594000000000,"state":"active","ping":61},{"user_id":299,"name":"Your Loyal Familiar","steam_id":76561198106476075,"connected_time":2760000000000,"state":"active","ping":79},{"user_id":306,"name":"penis atomizer 9000 üè≥Ô∏è?","steam_id":76561198864841966,"connected_time":1984000000000,"state":"active","ping":97},{"user_id":309,"name":"Drapph","steam_id":76561199384213314,"connected_time":1530000000000,"state":"active","ping":85},{"user_id":265,"name":"Dinosaur","steam_id":76561199079626189,"connected_time":5544000000000,"state":"active","ping":81},{"user_id":313,"name":"SmokeyGalaxy","steam_id":76561198118780516,"connected_time":661000000000,"state":"active","ping":61},{"user_id":319,"name":"Anthid","steam_id":76561198074493797,"connected_time":239000000000,"state":"active","ping":62},{"user_id":218,"name":"Rappy \u003c3","steam_id":76561198105613110,"connected_time":8527000000000,"state":"active","ping":81},{"user_id":298,"name":"Woody","steam_id":76561198020308956,"connected_time":2799000000000,"state":"active","ping":62},{"user_id":302,"name":"banana gaming","steam_id":76561198334907218,"connected_time":2695000000000,"state":"active","ping":70},{"user_id":296,"name":"owl","steam_id":76561198088403016,"connected_time":2845000000000,"state":"active","ping":171}]},{"server_id":108,"name":"Uncletopia | Dallas | 2 | All Maps","name_short":"dal-2","host":"dal-1.us.uncletopia.com","port":27025,"enabled":true,"region":"us-central","cc":"us","latitude":32.779167,"longitude":-96.80889,"reserved":0,"last_update":"0001-01-01T00:00:00Z","name_a2s":"Uncletopia | Dallas | 2 | All Maps","protocol":17,"map":"pl_barnblitz","folder":"tf","game":"Team Fortress","app_id":440,"player_count":24,"max_players":24,"Bots":0,"server_type":"Dedicated","server_os":"Linux","password":true,"vac":true,"version":"7961495","steam_id":85568392924469988,"keywords":["nocrits","nodmgspread","payload","uncletopia"],"game_id":440,"stv_port":27026,"stv_name":"Uncletopia | Dallas | 2 | All Maps | STV","players":[{"user_id":327,"name":"FliturbiousRex","steam_id":76561199217583334,"connected_time":208000000000,"state":"active","ping":79},{"user_id":330,"name":"Bleok","steam_id":76561198078212322,"connected_time":179000000000,"state":"active","ping":121},{"user_id":331,"name":"Digit","steam_id":76561198156589157,"connected_time":177000000000,"state":"active","ping":188},{"user_id":307,"name":"2002 Toyota Corolla VE","steam_id":76561198149172070,"connected_time":1299000000000,"state":"active","ping":48},{"user_id":326,"name":"Howell at the Moon","steam_id":76561198060827426,"connected_time":216000000000,"state":"active","ping":75},{"user_id":275,"name":"hoOmIN","steam_id":76561198334947079,"connected_time":3805000000000,"state":"active","ping":73},{"user_id":266,"name":"Kirby.exe","steam_id":76561198242714582,"connected_time":4106000000000,"state":"active","ping":47},{"user_id":320,"name":"Astronomical-Ravs","steam_id":76561197993919776,"connected_time":557000000000,"state":"active","ping":94},{"user_id":328,"name":"Jeramosa","steam_id":76561198811000094,"connected_time":205000000000,"state":"active","ping":74},{"user_id":308,"name":"Joe Biden","steam_id":76561198056170906,"connected_time":1292000000000,"state":"active","ping":97},{"user_id":325,"name":"blue","steam_id":76561198342449098,"connected_time":283000000000,"state":"active","ping":56},{"user_id":319,"name":"dreamySylph","steam_id":76561199000573308,"connected_time":789000000000,"state":"active","ping":65},{"user_id":303,"name":"Lezabel","steam_id":76561198970753261,"connected_time":1577000000000,"state":"active","ping":75},{"user_id":318,"name":"Fred Ott","steam_id":76561198099088693,"connected_time":972000000000,"state":"active","ping":83},{"user_id":322,"name":"Yimberly","steam_id":76561199206923109,"connected_time":555000000000,"state":"active","ping":88},{"user_id":309,"name":"Gecem","steam_id":76561198945552630,"connected_time":1286000000000,"state":"active","ping":88},{"user_id":312,"name":"wetto makaveli","steam_id":76561198224811504,"connected_time":1215000000000,"state":"active","ping":63},{"user_id":299,"name":"DualiTea","steam_id":76561198081733870,"connected_time":2085000000000,"state":"active","ping":61},{"user_id":329,"name":"UFOhaunted","steam_id":76561198400813173,"connected_time":197000000000,"state":"active","ping":182},{"user_id":263,"name":"Word To Your Mothership","steam_id":76561198034329138,"connected_time":4643000000000,"state":"active","ping":93},{"user_id":332,"name":"Big Sauce","steam_id":76561198046654750,"connected_time":135000000000,"state":"active","ping":99},{"user_id":333,"name":"BoyWithTheBeanie","steam_id":76561199435079308,"connected_time":126000000000,"state":"active","ping":161},{"user_id":315,"name":"5kPrime","steam_id":76561198039471915,"connected_time":1131000000000,"state":"active","ping":99},{"user_id":334,"name":"grape","steam_id":76561197993980328,"connected_time":122000000000,"state":"active","ping":119}]},{"server_id":404,"name":"Uncletopia | Dallas | 3 | All Maps","name_short":"dal-3","host":"dal-1.us.uncletopia.com","port":27035,"enabled":true,"region":"us-central","cc":"us","latitude":32.779167,"longitude":-96.80889,"reserved":0,"last_update":"0001-01-01T00:00:00Z","name_a2s":"Uncletopia | Dallas | 3 | All Maps","protocol":17,"map":"koth_highpass","folder":"tf","game":"Team Fortress","app_id":440,"player_count":0,"max_players":24,"Bots":0,"server_type":"Dedicated","server_os":"Linux","password":true,"vac":true,"version":"7961495","steam_id":85568392924515219,"keywords":["cp","nocrits","nodmgspread","uncletopia"],"game_id":440,"stv_port":27036,"stv_name":"Uncletopia | Dallas | 3 | All Maps | STV","players":null},{"server_id":405,"name":"Uncletopia | Dallas | 4 | Community","name_short":"dal-4","host":"dal-1.us.uncletopia.com","port":27045,"enabled":true,"region":"us-central","cc":"us","latitude":32.779167,"longitude":-96.80889,"reserved":0,"last_update":"0001-01-01T00:00:00Z","name_a2s":"Uncletopia | Dallas | 4 | Community","protocol":17,"map":"workshop/pl_badwater_pro_v12.ugc2142942074","folder":"tf","game":"Team Fortress","app_id":440,"player_count":1,"max_players":24,"Bots":0,"server_type":"Dedicated","server_os":"Linux","password":true,"vac":true,"version":"7961495","steam_id":85568392924515220,"keywords":["nocrits","nodmgspread","payload","uncletopia"],"game_id":440,"stv_port":27046,"stv_name":"Uncletopia | Dallas | 4 | Community | STV","players":[{"user_id":4178,"name":"UFOhaunted","steam_id":76561198400813173,"connected_time":234000000000,"state":"connecting","ping":0}]},{"server_id":5,"name":"Uncletopia | Frankfurt | 1 | All Maps","name_short":"frk-1","host":"frk-1.de.uncletopia.com","port":27015,"enabled":true,"region":"eu","cc":"de","latitude":50.110924,"longitude":8.682127,"reserved":0,"last_update":"0001-01-01T00:00:00Z","name_a2s":"Uncletopia | Frankfurt | 1 | All Maps","protocol":17,"map":"cp_sunshine","folder":"tf","game":"Team Fortress","app_id":440,"player_count":24,"max_players":24,"Bots":0,"server_type":"Dedicated","server_os":"Linux","password":true,"vac":true,"version":"7961495","steam_id":85568392924469989,"keywords":["cp","nocrits","nodmgspread","uncletopia"],"game_id":440,"stv_port":27016,"stv_name":"Uncletopia | Frankfurt | 1 | All Maps | STV","players":[{"user_id":676,"name":"M√ºesli","steam_id":76561198183105149,"connected_time":843000000000,"state":"active","ping":32},{"user_id":692,"name":"Silver","steam_id":76561198175238807,"connected_time":201000000000,"state":"active","ping":81},{"user_id":679,"name":"frosty","steam_id":76561198094560834,"connected_time":666000000000,"state":"active","ping":53},{"user_id":677,"name":"Ixsus\u003c3","steam_id":76561198094756869,"connected_time":786000000000,"state":"active","ping":58},{"user_id":678,"name":"Schogard","steam_id":76561198847318421,"connected_time":743000000000,"state":"active","ping":122},{"user_id":645,"name":"Raulca25","steam_id":76561199068256964,"connected_time":2397000000000,"state":"active","ping":90},{"user_id":641,"name":"stefanbejenari","steam_id":76561199466718294,"connected_time":2641000000000,"state":"active","ping":74},{"user_id":680,"name":"Arsonist","steam_id":76561199087953833,"connected_time":663000000000,"state":"active","ping":107},{"user_id":696,"name":"A.D.H.|Artem","steam_id":76561198041801369,"connected_time":11000000000,"state":"spawning","ping":85},{"user_id":673,"name":"Conan the Librarian","steam_id":76561198007224654,"connected_time":1084000000000,"state":"active","ping":56},{"user_id":682,"name":"M7MD3BD0","steam_id":76561199072750769,"connected_time":589000000000,"state":"active","ping":93},{"user_id":621,"name":"Arti_Chokes","steam_id":76561199213835861,"connected_time":4073000000000,"state":"active","ping":56},{"user_id":690,"name":"Goblin on deez nuts","steam_id":76561199070562554,"connected_time":387000000000,"state":"active","ping":59},{"user_id":684,"name":"A literal heavy","steam_id":76561199219233587,"connected_time":577000000000,"state":"active","ping":88},{"user_id":693,"name":"MR BUBBLES","steam_id":76561198019005259,"connected_time":191000000000,"state":"active","ping":100},{"user_id":685,"name":"kastanomata","steam_id":76561198271832763,"connected_time":551000000000,"state":"active","ping":76},{"user_id":618,"name":"BabyFoxoti","steam_id":76561198974666142,"connected_time":4315000000000,"state":"active","ping":56},{"user_id":686,"name":"Yelowchy","steam_id":76561198199416121,"connected_time":516000000000,"state":"active","ping":63},{"user_id":651,"name":"Hawkon","steam_id":76561197999523727,"connected_time":2328000000000,"state":"active","ping":69},{"user_id":582,"name":"Jimmy Poppadopolos","steam_id":76561198044825612,"connected_time":6305000000000,"state":"active","ping":58},{"user_id":654,"name":"balder","steam_id":76561198796325635,"connected_time":2189000000000,"state":"active","ping":76},{"user_id":688,"name":"slifty","steam_id":76561198166682199,"connected_time":476000000000,"state":"active","ping":68},{"user_id":689,"name":"The Lady","steam_id":76561198029895809,"connected_time":471000000000,"state":"active","ping":74},{"user_id":695,"name":"booba","steam_id":76561198158018284,"connected_time":135000000000,"state":"active","ping":57}]},{"server_id":110,"name":"Uncletopia | Frankfurt | 2 | All Maps","name_short":"frk-2","host":"frk-1.de.uncletopia.com","port":27025,"enabled":true,"region":"eu","cc":"de","latitude":50.110924,"longitude":8.682127,"reserved":0,"last_update":"0001-01-01T00:00:00Z","name_a2s":"Uncletopia | Frankfurt | 2 | All Maps","protocol":17,"map":"pl_borneo","folder":"tf","game":"Team Fortress","app_id":440,"player_count":23,"max_players":24,"Bots":0,"server_type":"Dedicated","server_os":"Linux","password":true,"vac":true,"version":"7961495","steam_id":85568392924469990,"keywords":["nocrits","nodmgspread","payload","uncletopia"],"game_id":440,"stv_port":27026,"stv_name":"Uncletopia | Frankfurt | 2 | All Maps | STV","players":[{"user_id":618,"name":"Xer0X","steam_id":76561198374260280,"connected_time":40000000000,"state":"active","ping":71},{"user_id":607,"name":"juni","steam_id":76561198036504214,"connected_time":1236000000000,"state":"active","ping":47},{"user_id":580,"name":"trolldier jumpscare","steam_id":76561198271785898,"connected_time":4272000000000,"state":"active","ping":67},{"user_id":586,"name":"iShockwave","steam_id":76561198404037424,"connected_time":3960000000000,"state":"active","ping":93},{"user_id":491,"name":"myon","steam_id":76561197992528570,"connected_time":9837000000000,"state":"active","ping":85},{"user_id":619,"name":"Kaziocalvice","steam_id":76561198146425583,"connected_time":21000000000,"state":"active","ping":72},{"user_id":565,"name":"SocialistBacon","steam_id":76561198055872267,"connected_time":4847000000000,"state":"active","ping":103},{"user_id":605,"name":"Akwperry","steam_id":76561198125821131,"connected_time":1427000000000,"state":"active","ping":68},{"user_id":606,"name":"Kasaichi","steam_id":76561198109301754,"connected_time":1245000000000,"state":"active","ping":66},{"user_id":596,"name":"Brica","steam_id":76561198196324799,"connected_time":2877000000000,"state":"active","ping":84},{"user_id":531,"name":"hyvakii705","steam_id":76561198086630552,"connected_time":7363000000000,"state":"active","ping":90},{"user_id":608,"name":"DrRavioli","steam_id":76561198170822595,"connected_time":1174000000000,"state":"active","ping":72},{"user_id":601,"name":"Alcobra","steam_id":76561198134154962,"connected_time":1884000000000,"state":"active","ping":104},{"user_id":615,"name":"Lin","steam_id":76561198066992851,"connected_time":955000000000,"state":"active","ping":65},{"user_id":609,"name":"The Storm That Is Approaching","steam_id":76561198982155864,"connected_time":1172000000000,"state":"active","ping":75},{"user_id":599,"name":"Eric Catman","steam_id":76561198802117294,"connected_time":2707000000000,"state":"active","ping":77},{"user_id":576,"name":"Relic","steam_id":76561199499093258,"connected_time":4403000000000,"state":"active","ping":58},{"user_id":610,"name":"zvekan","steam_id":76561198381101196,"connected_time":1134000000000,"state":"active","ping":56},{"user_id":611,"name":"Wildeshammer","steam_id":76561198132133702,"connected_time":1124000000000,"state":"active","ping":44},{"user_id":583,"name":"Mastenbier","steam_id":76561199067658590,"connected_time":4171000000000,"state":"active","ping":124},{"user_id":616,"name":"Skyrider of Spaceways","steam_id":76561197991678236,"connected_time":926000000000,"state":"active","ping":134},{"user_id":617,"name":"KrazedMango","steam_id":76561198280075506,"connected_time":924000000000,"state":"active","ping":70},{"user_id":614,"name":"Gamlader","steam_id":76561198306177608,"connected_time":970000000000,"state":"active","ping":70}]},{"server_id":308,"name":"Uncletopia | Frankfurt | 3 | All Maps","name_short":"frk-3","host":"frk-1.de.uncletopia.com","port":27035,"enabled":true,"region":"eu","cc":"de","latitude":50.110924,"longitude":8.682127,"reserved":0,"last_update":"0001-01-01T00:00:00Z","name_a2s":"Uncletopia | Frankfurt | 3 | All Maps","protocol":17,"map":"pl_pier","folder":"tf","game":"Team Fortress","app_id":440,"player_count":20,"max_players":24,"Bots":0,"server_type":"Dedicated","server_os":"Linux","password":true,"vac":true,"version":"7961495","steam_id":85568392924504274,"keywords":["nocrits","nodmgspread","payload","uncletopia"],"game_id":440,"stv_port":27036,"stv_name":"Uncletopia | Frankfurt | 3 | All Maps | STV","players":[{"user_id":682,"name":"blud thinks he cold","steam_id":76561199386061683,"connected_time":418000000000,"state":"active","ping":85},{"user_id":686,"name":"rajAs","steam_id":76561198035928111,"connected_time":215000000000,"state":"active","ping":88},{"user_id":688,"name":"say gex","steam_id":76561198265479349,"connected_time":115000000000,"state":"active","ping":49},{"user_id":690,"name":"Seanstarman Phillips","steam_id":76561198059812384,"connected_time":6000000000,"state":"spawning","ping":348},{"user_id":656,"name":"WiDam","steam_id":76561198005976631,"connected_time":2312000000000,"state":"active","ping":124},{"user_id":657,"name":"Asmodeus","steam_id":76561198283156425,"connected_time":2301000000000,"state":"active","ping":60},{"user_id":689,"name":"Real (Real)","steam_id":76561198323425034,"connected_time":80000000000,"state":"active","ping":60},{"user_id":678,"name":"pakin157","steam_id":76561198035125667,"connected_time":683000000000,"state":"active","ping":80},{"user_id":680,"name":"S. Krypt","steam_id":76561199387501738,"connected_time":577000000000,"state":"active","ping":68},{"user_id":684,"name":"Soerlssoelss√∂en","steam_id":76561197993060585,"connected_time":337000000000,"state":"active","ping":69},{"user_id":663,"name":"CumbustiblePunda","steam_id":76561197974274677,"connected_time":1952000000000,"state":"active","ping":52},{"user_id":672,"name":"pretty dick peso","steam_id":76561198798177799,"connected_time":1330000000000,"state":"active","ping":72},{"user_id":683,"name":"CzechMate #SaveTF2","steam_id":76561198012687703,"connected_time":350000000000,"state":"active","ping":46},{"user_id":607,"name":"Nickbro101","steam_id":76561198044271692,"connected_time":6812000000000,"state":"active","ping":59},{"user_id":608,"name":"Mario3ghj","steam_id":76561198069804561,"connected_time":6812000000000,"state":"active","ping":98},{"user_id":609,"name":"Arturias","steam_id":76561198188720263,"connected_time":6811000000000,"state":"active","ping":54},{"user_id":687,"name":"Baron","steam_id":76561198021901783,"connected_time":193000000000,"state":"active","ping":71},{"user_id":685,"name":"desmo_","steam_id":76561198023528339,"connected_time":286000000000,"state":"active","ping":57},{"user_id":666,"name":"Cardamine","steam_id":76561198100619314,"connected_time":1662000000000,"state":"active","ping":72},{"user_id":642,"name":"MISTER SUIIII","steam_id":76561198018330092,"connected_time":4646000000000,"state":"active","ping":86}]},{"server_id":309,"name":"Uncletopia | Frankfurt | 4 | All Maps","name_short":"frk-4","host":"frk-1.de.uncletopia.com","port":27045,"enabled":true,"region":"eu","cc":"de","latitude":50.110924,"longitude":8.682127,"reserved":0,"last_update":"0001-01-01T00:00:00Z","name_a2s":"Uncletopia | Frankfurt | 4 | All Maps","protocol":17,"map":"pl_snowycoast","folder":"tf","game":"Team Fortress","app_id":440,"player_count":1,"max_players":24,"Bots":0,"server_type":"Dedicated","server_os":"Linux","password":true,"vac":true,"version":"7961495","steam_id":85568392924504275,"keywords":["nocrits","nodmgspread","payload","uncletopia"],"game_id":440,"stv_port":27046,"stv_name":"Uncletopia | Frankfurt | 4 | All Maps | STV","players":[{"user_id":753,"name":"Kuickfire","steam_id":76561198066476639,"connected_time":251000000000,"state":"active","ping":103}]},{"server_id":310,"name":"Uncletopia | Frankfurt | 5 | All Maps","name_short":"frk-5","host":"frk-1.de.uncletopia.com","port":27055,"enabled":true,"region":"eu","cc":"de","latitude":50.110924,"longitude":8.682127,"reserved":0,"last_update":"0001-01-01T00:00:00Z","name_a2s":"Uncletopia | Frankfurt | 5 | All Maps","protocol":17,"map":"koth_harvest_final","folder":"tf","game":"Team Fortress","app_id":440,"player_count":23,"max_players":24,"Bots":0,"server_type":"Dedicated","server_os":"Linux","password":true,"vac":true,"version":"7961495","steam_id":85568392924504277,"keywords":["cp","nocrits","nodmgspread","uncletopia"],"game_id":440,"stv_port":27056,"stv_name":"Uncletopia | Frankfurt | 5 | All Maps | STV","players":[{"user_id":653,"name":"Gir","steam_id":76561198075155374,"connected_time":655000000000,"state":"active","ping":51},{"user_id":665,"name":"cockroach","steam_id":76561198841841656,"connected_time":100000000000,"state":"active","ping":62},{"user_id":614,"name":"donatofina","steam_id":76561198353497885,"connected_time":3942000000000,"state":"active","ping":78},{"user_id":513,"name":"Duktigafred","steam_id":76561199211222396,"connected_time":8856000000000,"state":"active","ping":67},{"user_id":574,"name":"forsen tf2","steam_id":76561198125768571,"connected_time":6668000000000,"state":"active","ping":71},{"user_id":638,"name":"lege schappen","steam_id":76561199077022985,"connected_time":2640000000000,"state":"active","ping":60},{"user_id":626,"name":"Ml√©ƒçn√Ω Cecek","steam_id":76561198138939377,"connected_time":3296000000000,"state":"active","ping":58},{"user_id":666,"name":"Baba Sraka","steam_id":76561198128292318,"connected_time":99000000000,"state":"active","ping":144},{"user_id":635,"name":"grandpa","steam_id":76561198061208814,"connected_time":2707000000000,"state":"active","ping":65},{"user_id":660,"name":"Yip","steam_id":76561198946540436,"connected_time":432000000000,"state":"active","ping":55},{"user_id":639,"name":"randompixel","steam_id":76561198003941207,"connected_time":2618000000000,"state":"active","ping":67},{"user_id":656,"name":"cirrem","steam_id":76561198265192382,"connected_time":588000000000,"state":"active","ping":61},{"user_id":624,"name":"‚óÑAreezy‚ñ∫","steam_id":76561198111336972,"connected_time":3361000000000,"state":"active","ping":84},{"user_id":649,"name":"Demo #saveTF2","steam_id":76561198102850854,"connected_time":1167000000000,"state":"active","ping":57},{"user_id":650,"name":"Zirif","steam_id":76561198116200959,"connected_time":939000000000,"state":"active","ping":64},{"user_id":659,"name":"pepsimus_maximus (pepsi/max)","steam_id":76561198062425104,"connected_time":461000000000,"state":"active","ping":80},{"user_id":642,"name":"GregerUlander","steam_id":76561198152375055,"connected_time":2464000000000,"state":"active","ping":82},{"user_id":632,"name":"Valfezant","steam_id":76561199063983797,"connected_time":2754000000000,"state":"active","ping":51},{"user_id":664,"name":"rClowny","steam_id":76561199074883856,"connected_time":172000000000,"state":"active","ping":54},{"user_id":633,"name":"Archive","steam_id":76561198071255385,"connected_time":2748000000000,"state":"active","ping":93},{"user_id":662,"name":"Hoffa","steam_id":76561197963748995,"connected_time":418000000000,"state":"active","ping":67},{"user_id":643,"name":"Testicular torsion","steam_id":76561198119547399,"connected_time":2439000000000,"state":"active","ping":51},{"user_id":647,"name":"Cioly","steam_id":76561198257791981,"connected_time":1435000000000,"state":"active","ping":77}]},{"server_id":311,"name":"Uncletopia | Frankfurt | 6 | All Maps","name_short":"frk-6","host":"frk-1.de.uncletopia.com","port":27065,"enabled":true,"region":"eu","cc":"de","latitude":50.110924,"longitude":8.682127,"reserved":0,"last_update":"0001-01-01T00:00:00Z","name_a2s":"Uncletopia | Frankfurt | 6 | All Maps","protocol":17,"map":"koth_highpass","folder":"tf","game":"Team Fortress","app_id":440,"player_count":24,"max_players":24,"Bots":0,"server_type":"Dedicated","server_os":"Linux","password":true,"vac":true,"version":"7961495","steam_id":85568392924504278,"keywords":["cp","nocrits","nodmgspread","uncletopia"],"game_id":440,"stv_port":27066,"stv_name":"Uncletopia | Frankfurt | 6 | All Maps | STV","players":[{"user_id":567,"name":"humble genius","steam_id":76561198243808680,"connected_time":1850000000000,"state":"active","ping":59},{"user_id":583,"name":"PrinzAnalFaust","steam_id":76561198136407626,"connected_time":448000000000,"state":"active","ping":86},{"user_id":568,"name":"Retz","steam_id":76561198252830166,"connected_time":1792000000000,"state":"active","ping":83},{"user_id":561,"name":"Dr. Jabbinton","steam_id":76561198180007387,"connected_time":2023000000000,"state":"active","ping":50},{"user_id":588,"name":"Kryastorm","steam_id":76561198045127892,"connected_time":218000000000,"state":"active","ping":56},{"user_id":579,"name":"the joy of recycling","steam_id":76561198138509827,"connected_time":598000000000,"state":"active","ping":60},{"user_id":513,"name":"BabyYodaIsMySoda","steam_id":76561198321846861,"connected_time":5734000000000,"state":"active","ping":82},{"user_id":574,"name":"Qwerty","steam_id":76561198023525894,"connected_time":1420000000000,"state":"active","ping":77},{"user_id":532,"name":"K3nza","steam_id":76561198180128410,"connected_time":4530000000000,"state":"active","ping":63},{"user_id":545,"name":"Morpheus","steam_id":76561198984889776,"connected_time":3211000000000,"state":"active","ping":73},{"user_id":591,"name":"pinhead","steam_id":76561198162641776,"connected_time":59000000000,"state":"active","ping":72},{"user_id":577,"name":"Rodak","steam_id":76561199135986344,"connected_time":991000000000,"state":"active","ping":57},{"user_id":585,"name":"Professor Brofessor","steam_id":76561198102541181,"connected_time":402000000000,"state":"active","ping":61},{"user_id":570,"name":"grassesmode.exe","steam_id":76561198090167960,"connected_time":1744000000000,"state":"active","ping":98},{"user_id":581,"name":"Gryoss","steam_id":76561197999837111,"connected_time":487000000000,"state":"active","ping":99},{"user_id":576,"name":"Snowy","steam_id":76561198169992461,"connected_time":1120000000000,"state":"active","ping":55},{"user_id":589,"name":"Mar","steam_id":76561198127633424,"connected_time":208000000000,"state":"active","ping":94},{"user_id":590,"name":"DVI monitor gaming","steam_id":76561199058970916,"connected_time":112000000000,"state":"active","ping":100},{"user_id":592,"name":"Reec","steam_id":76561197994807041,"connected_time":6000000000,"state":"spawning","ping":44},{"user_id":571,"name":"Pjuske","steam_id":76561198013943953,"connected_time":1739000000000,"state":"active","ping":57},{"user_id":572,"name":"a mostly willing son","steam_id":76561198076668423,"connected_time":1732000000000,"state":"active","ping":90},{"user_id":575,"name":"mertefe","steam_id":76561199237126613,"connected_time":1339000000000,"state":"active","ping":115},{"user_id":586,"name":"ViperForty","steam_id":76561198987005981,"connected_time":393000000000,"state":"active","ping":81},{"user_id":587,"name":"Nadir of Acuity","steam_id":76561198107886442,"connected_time":393000000000,"state":"active","ping":73}]},{"server_id":23,"name":"Uncletopia | Frankfurt | 7 | Stopwatch","name_short":"frk-7","host":"frk-1.de.uncletopia.com","port":27075,"enabled":true,"region":"eu","cc":"de","latitude":50.110924,"longitude":8.682127,"reserved":0,"last_update":"0001-01-01T00:00:00Z","name_a2s":"Uncletopia | Frankfurt | 7 | Stopwatch","protocol":17,"map":"workshop/pl_vigil_rc10.ugc1266210012","folder":"tf","game":"Team Fortress","app_id":440,"player_count":3,"max_players":24,"Bots":0,"server_type":"Dedicated","server_os":"Linux","password":true,"vac":true,"version":"7961495","steam_id":85568392924742827,"keywords":["nocrits","nodmgspread","payload","uncletopia"],"game_id":440,"stv_port":27076,"stv_name":"Uncletopia | Frankfurt | 7 | Stopwatch | STV","players":[{"user_id":27,"name":"VICTOR","steam_id":76561199498753063,"connected_time":1260000000000,"state":"active","ping":117},{"user_id":21,"name":"piss man (real)","steam_id":76561198839843428,"connected_time":3486000000000,"state":"active","ping":115},{"user_id":29,"name":"^1MARAMA PALEX","steam_id":76561198311372563,"connected_time":520000000000,"state":"active","ping":65}]},{"server_id":24,"name":"Uncletopia | Frankfurt | 8 | Community","name_short":"frk-8","host":"frk-1.de.uncletopia.com","port":27085,"enabled":true,"region":"eu","cc":"de","latitude":50.110924,"longitude":8.682127,"reserved":0,"last_update":"0001-01-01T00:00:00Z","name_a2s":"Uncletopia | Frankfurt | 8 | Community","protocol":17,"map":"workshop/pl_highwood_b13.ugc1769496557","folder":"tf","game":"Team Fortress","app_id":440,"player_count":0,"max_players":24,"Bots":0,"server_type":"Dedicated","server_os":"Linux","password":true,"vac":true,"version":"7961495","steam_id":85568392924742828,"keywords":["nocrits","nodmgspread","payload","uncletopia"],"game_id":440,"stv_port":27086,"stv_name":"Uncletopia | Frankfurt | 8 | Community | STV","players":null},{"server_id":202,"name":"Uncletopia | Hong Kong | 1 | All Maps","name_short":"hgk-1","host":"hgk-1.hk.uncletopia.com","port":27015,"enabled":true,"region":"asia","cc":"hk","latitude":22.302711,"longitude":114.177216,"reserved":0,"last_update":"0001-01-01T00:00:00Z","name_a2s":"Uncletopia | Hong Kong | 1 | All Maps","protocol":17,"map":"koth_viaduct","folder":"tf","game":"Team Fortress","app_id":440,"player_count":0,"max_players":24,"Bots":0,"server_type":"Dedicated","server_os":"Linux","password":true,"vac":true,"version":"7961495","steam_id":85568392924494504,"keywords":["cp","nocrits","nodmgspread","uncletopia"],"game_id":440,"stv_port":27016,"stv_name":"Uncletopia | Hong Kong | 1 | All Maps | STV","players":null},{"server_id":1,"name":"Uncletopia | Los Angeles | 1 | All Maps","name_short":"lax-1","host":"lax-1.us.uncletopia.com","port":27015,"enabled":true,"region":"us-west","cc":"us","latitude":33.94279,"longitude":-118.41004,"reserved":0,"last_update":"0001-01-01T00:00:00Z","name_a2s":"Uncletopia | Los Angeles | 1 | All Maps","protocol":17,"map":"cp_dustbowl","folder":"tf","game":"Team Fortress","app_id":440,"player_count":24,"max_players":24,"Bots":0,"server_type":"Dedicated","server_os":"Linux","password":true,"vac":true,"version":"7961495","steam_id":85568392924469991,"keywords":["cp","nocrits","nodmgspread","uncletopia"],"game_id":440,"stv_port":27016,"stv_name":"Uncletopia | Los Angeles | 1 | All Maps | STV","players":[{"user_id":211,"name":"nescoceo","steam_id":76561198040801160,"connected_time":1081000000000,"state":"active","ping":46},{"user_id":188,"name":"Max Headass","steam_id":76561198964210411,"connected_time":4100000000000,"state":"active","ping":54},{"user_id":197,"name":"Grim","steam_id":76561198016978310,"connected_time":3172000000000,"state":"active","ping":66},{"user_id":218,"name":"triph","steam_id":76561198067196509,"connected_time":664000000000,"state":"active","ping":30},{"user_id":181,"name":"roach :3","steam_id":76561198354811369,"connected_time":4789000000000,"state":"active","ping":52},{"user_id":140,"name":"unnamed","steam_id":76561198050225055,"connected_time":8496000000000,"state":"active","ping":45},{"user_id":192,"name":"lando.calrissian","steam_id":76561198145669711,"connected_time":3621000000000,"state":"active","ping":40},{"user_id":214,"name":"the pizza","steam_id":76561198221331476,"connected_time":1056000000000,"state":"active","ping":45},{"user_id":215,"name":"oog","steam_id":76561199089730744,"connected_time":792000000000,"state":"active","ping":64},{"user_id":186,"name":"walrooos","steam_id":76561198024521839,"connected_time":4147000000000,"state":"active","ping":42},{"user_id":210,"name":"‚ú™VincY -iwnl-","steam_id":76561198162395555,"connected_time":1086000000000,"state":"active","ping":62},{"user_id":219,"name":"S√°bado Gigante","steam_id":76561197994685971,"connected_time":650000000000,"state":"active","ping":55},{"user_id":223,"name":"d4ngerd4n","steam_id":76561198043758735,"connected_time":245000000000,"state":"active","ping":58},{"user_id":222,"name":"1 Worst Steve Fox","steam_id":76561198263405297,"connected_time":553000000000,"state":"active","ping":70},{"user_id":172,"name":"no vc no c","steam_id":76561197989503095,"connected_time":5998000000000,"state":"active","ping":166},{"user_id":178,"name":"Risky","steam_id":76561198231029328,"connected_time":5157000000000,"state":"active","ping":61},{"user_id":131,"name":"eggplantgirl‚ô•","steam_id":76561198811515692,"connected_time":9771000000000,"state":"active","ping":50},{"user_id":187,"name":"birbneedsumseed","steam_id":76561198853439850,"connected_time":4144000000000,"state":"active","ping":45},{"user_id":205,"name":"heck","steam_id":76561198315694520,"connected_time":2452000000000,"state":"active","ping":46},{"user_id":212,"name":"SAVECASEY","steam_id":76561198857896847,"connected_time":1078000000000,"state":"active","ping":44},{"user_id":207,"name":"Chad MorningWood","steam_id":76561198139832291,"connected_time":1910000000000,"state":"active","ping":48},{"user_id":136,"name":"Nyges","steam_id":76561198139236154,"connected_time":9067000000000,"state":"active","ping":55},{"user_id":217,"name":"Mr.Pan","steam_id":76561198069030613,"connected_time":674000000000,"state":"active","ping":76},{"user_id":151,"name":"Boxcars","steam_id":76561198120978767,"connected_time":7196000000000,"state":"active","ping":60}]},{"server_id":112,"name":"Uncletopia | Los Angeles | 2 | All Maps","name_short":"lax-2","host":"lax-1.us.uncletopia.com","port":27025,"enabled":true,"region":"us-west","cc":"us","latitude":33.94279,"longitude":-118.41004,"reserved":0,"last_update":"0001-01-01T00:00:00Z","name_a2s":"Uncletopia | Los Angeles | 2 | All Maps","protocol":17,"map":"koth_cascade","folder":"tf","game":"Team Fortress","app_id":440,"player_count":0,"max_players":24,"Bots":0,"server_type":"Dedicated","server_os":"Linux","password":true,"vac":true,"version":"7961495","steam_id":85568392924469992,"keywords":["cp","nocrits","nodmgspread","uncletopia"],"game_id":440,"stv_port":27026,"stv_name":"Uncletopia | Los Angeles | 2 | All Maps | STV","players":null},{"server_id":324,"name":"Uncletopia | Los Angeles | 3 | All Maps","name_short":"lax-3","host":"lax-1.us.uncletopia.com","port":27035,"enabled":true,"region":"us-west","cc":"us","latitude":33.94279,"longitude":-118.41004,"reserved":0,"last_update":"0001-01-01T00:00:00Z","name_a2s":"Uncletopia | Los Angeles | 3 | All Maps","protocol":17,"map":"koth_viaduct","folder":"tf","game":"Team Fortress","app_id":440,"player_count":0,"max_players":24,"Bots":0,"server_type":"Dedicated","server_os":"Linux","password":true,"vac":true,"version":"7961495","steam_id":85568392924510198,"keywords":["cp","nocrits","nodmgspread","uncletopia"],"game_id":440,"stv_port":27036,"stv_name":"Uncletopia | Los Angeles | 3 | All Maps | STV","players":null},{"server_id":25,"name":"Uncletopia | Los Angeles | 4 | Stopwatch","name_short":"lax-4","host":"lax-1.us.uncletopia.com","port":27045,"enabled":true,"region":"us-west","cc":"us","latitude":33.94279,"longitude":-118.41004,"reserved":0,"last_update":"0001-01-01T00:00:00Z","name_a2s":"Uncletopia | Los Angeles | 4 | Stopwatch","protocol":17,"map":"workshop/cp_process_f12.ugc2302948105","folder":"tf","game":"Team Fortress","app_id":440,"player_count":0,"max_players":24,"Bots":0,"server_type":"Dedicated","server_os":"Linux","password":true,"vac":true,"version":"7961495","steam_id":85568392924510199,"keywords":["cp","nocrits","nodmgspread","uncletopia"],"game_id":440,"stv_port":27046,"stv_name":"Uncletopia | Los Angeles | 4 | Stopwatch | STV","players":null},{"server_id":11,"name":"Uncletopia | London | 1 | All Maps","name_short":"lon-1","host":"lon-1.uk.uncletopia.com","port":27015,"enabled":true,"region":"eu","cc":"gb","latitude":51.509865,"longitude":-0.118092,"reserved":0,"last_update":"0001-01-01T00:00:00Z","name_a2s":"Uncletopia | London | 1 | All Maps","protocol":17,"map":"cp_steel","folder":"tf","game":"Team Fortress","app_id":440,"player_count":24,"max_players":24,"Bots":0,"server_type":"Dedicated","server_os":"Linux","password":true,"vac":true,"version":"7961495","steam_id":85568392924367362,"keywords":["cp","nocrits","nodmgspread","uncletopia"],"game_id":440,"stv_port":27016,"stv_name":"Uncletopia | London | 1 | All Maps | STV","players":[{"user_id":632,"name":"Bradley","steam_id":76561198984603343,"connected_time":75000000000,"state":"spawning","ping":78},{"user_id":614,"name":"gibb (official)","steam_id":76561198074097655,"connected_time":1586000000000,"state":"active","ping":74},{"user_id":633,"name":"sora","steam_id":76561198096547662,"connected_time":70000000000,"state":"active","ping":52},{"user_id":612,"name":"Minimi","steam_id":76561198873850443,"connected_time":1976000000000,"state":"active","ping":48},{"user_id":634,"name":"Dale ‚ù§","steam_id":76561197995189004,"connected_time":70000000000,"state":"active","ping":54},{"user_id":615,"name":"ahab","steam_id":76561198049703177,"connected_time":1572000000000,"state":"active","ping":76},{"user_id":607,"name":"dogbowcar","steam_id":76561198046597584,"connected_time":2230000000000,"state":"active","ping":42},{"user_id":613,"name":"Anri Okita's Massive Milkers","steam_id":76561199186352720,"connected_time":1610000000000,"state":"active","ping":63},{"user_id":618,"name":"legalize marijuana","steam_id":76561198988882521,"connected_time":1469000000000,"state":"active","ping":86},{"user_id":631,"name":"Purps","steam_id":76561198053886680,"connected_time":85000000000,"state":"active","ping":43},{"user_id":570,"name":"shooer!","steam_id":76561198110531281,"connected_time":7090000000000,"state":"active","ping":72},{"user_id":505,"name":"Lyra","steam_id":76561198043601838,"connected_time":15324000000000,"state":"active","ping":65},{"user_id":625,"name":"Dr. Funkenstein","steam_id":76561197977816210,"connected_time":787000000000,"state":"active","ping":63},{"user_id":526,"name":"‚ù§aura‚ù§","steam_id":76561198066258544,"connected_time":13287000000000,"state":"active","ping":61},{"user_id":572,"name":"KnugenIV","steam_id":76561198127091993,"connected_time":6964000000000,"state":"active","ping":54},{"user_id":635,"name":"Mintme","steam_id":76561199033531922,"connected_time":32000000000,"state":"active","ping":44},{"user_id":620,"name":"kittylover55","steam_id":76561198136297981,"connected_time":1070000000000,"state":"active","ping":78},{"user_id":630,"name":"cazador","steam_id":76561198123096922,"connected_time":164000000000,"state":"active","ping":101},{"user_id":617,"name":"so valid queen slay","steam_id":76561198190583242,"connected_time":1529000000000,"state":"active","ping":92},{"user_id":636,"name":"CR4YCR4Y","steam_id":76561198009310297,"connected_time":0,"state":"connecting","ping":0},{"user_id":562,"name":"Lartsa","steam_id":76561198275690230,"connected_time":8791000000000,"state":"active","ping":117},{"user_id":619,"name":"teddy","steam_id":76561198007436837,"connected_time":1309000000000,"state":"active","ping":32},{"user_id":627,"name":"eon","steam_id":76561197971360276,"connected_time":721000000000,"state":"active","ping":70},{"user_id":571,"name":"ein","steam_id":76561198152162834,"connected_time":7088000000000,"state":"active","ping":107}]},{"server_id":114,"name":"Uncletopia | London | 2 | All Maps","name_short":"lon-2","host":"lon-1.uk.uncletopia.com","port":27025,"enabled":true,"region":"eu","cc":"gb","latitude":51.509865,"longitude":-0.118092,"reserved":0,"last_update":"0001-01-01T00:00:00Z","name_a2s":"Uncletopia | London | 2 | All Maps","protocol":17,"map":"pl_snowycoast","folder":"tf","game":"Team Fortress","app_id":440,"player_count":23,"max_players":24,"Bots":0,"server_type":"Dedicated","server_os":"Linux","password":true,"vac":true,"version":"7961495","steam_id":85568392924470941,"keywords":["nocrits","nodmgspread","payload","uncletopia"],"game_id":440,"stv_port":27026,"stv_name":"Uncletopia | London | 2 | All Maps | STV","players":[{"user_id":574,"name":"mt","steam_id":76561197961319303,"connected_time":951000000000,"state":"active","ping":59},{"user_id":552,"name":"JamOnBread","steam_id":76561199232257212,"connected_time":1546000000000,"state":"active","ping":42},{"user_id":589,"name":"Penguinos Le Gentleman","steam_id":76561199111363432,"connected_time":182000000000,"state":"active","ping":52},{"user_id":586,"name":"Joo ‚ô¶","steam_id":76561197987609203,"connected_time":389000000000,"state":"active","ping":74},{"user_id":590,"name":"Ah shit, here we go again","steam_id":76561198382080975,"connected_time":149000000000,"state":"active","ping":55},{"user_id":577,"name":"KingGalaxyKnight","steam_id":76561198217130020,"connected_time":815000000000,"state":"active","ping":74},{"user_id":548,"name":"TomBlog","steam_id":76561198440909067,"connected_time":1825000000000,"state":"active","ping":83},{"user_id":549,"name":"Alerestor06","steam_id":76561199198293215,"connected_time":1755000000000,"state":"active","ping":85},{"user_id":547,"name":"wapito","steam_id":76561199056554410,"connected_time":1850000000000,"state":"active","ping":101},{"user_id":553,"name":"DJANGO CHAINED #STOPTHEWAR","steam_id":76561198276681691,"connected_time":1514000000000,"state":"active","ping":47},{"user_id":561,"name":"fernandobmwm355555","steam_id":76561198086609447,"connected_time":1425000000000,"state":"active","ping":61},{"user_id":556,"name":"Wattseyy","steam_id":76561198248567360,"connected_time":1505000000000,"state":"active","ping":39},{"user_id":557,"name":"WHAT IS HE MAKING","steam_id":76561198798803845,"connected_time":1503000000000,"state":"active","ping":45},{"user_id":591,"name":"Lilypadio","steam_id":76561198090146457,"connected_time":142000000000,"state":"active","ping":42},{"user_id":559,"name":"A Very Disappointing Salad","steam_id":76561198020277939,"connected_time":1450000000000,"state":"active","ping":57},{"user_id":585,"name":"Sparky","steam_id":76561198036754195,"connected_time":393000000000,"state":"active","ping":52},{"user_id":562,"name":"fgdshbsbfjnhjsrgnnjsegjsgrjoisg","steam_id":76561198963378933,"connected_time":1403000000000,"state":"active","ping":42},{"user_id":563,"name":"I am dating your grandmother","steam_id":76561198268159433,"connected_time":1376000000000,"state":"active","ping":95},{"user_id":592,"name":"Yisl","steam_id":76561198379536082,"connected_time":134000000000,"state":"active","ping":97},{"user_id":579,"name":"HorizonR2","steam_id":76561198034824778,"connected_time":659000000000,"state":"active","ping":67},{"user_id":570,"name":"baillement","steam_id":76561198088624259,"connected_time":1195000000000,"state":"active","ping":59},{"user_id":575,"name":"fl1p","steam_id":76561198148565659,"connected_time":949000000000,"state":"active","ping":74},{"user_id":588,"name":"LOBZIK","steam_id":76561198114830120,"connected_time":356000000000,"state":"active","ping":79}]},{"server_id":320,"name":"Uncletopia | London | 3 | All Maps","name_short":"lon-3","host":"lon-1.uk.uncletopia.com","port":27035,"enabled":true,"region":"eu","cc":"gb","latitude":51.509865,"longitude":-0.118092,"reserved":0,"last_update":"0001-01-01T00:00:00Z","name_a2s":"Uncletopia | London | 3 | All Maps","protocol":17,"map":"pl_pier","folder":"tf","game":"Team Fortress","app_id":440,"player_count":24,"max_players":24,"Bots":0,"server_type":"Dedicated","server_os":"Linux","password":true,"vac":true,"version":"7961495","steam_id":85568392924510192,"keywords":["nocrits","nodmgspread","payload","uncletopia"],"game_id":440,"stv_port":27036,"stv_name":"Uncletopia | London | 3 | All Maps | STV","players":[{"user_id":743,"name":"Proper Noun","steam_id":76561198055264269,"connected_time":2573000000000,"state":"active","ping":72},{"user_id":775,"name":"tjuvjakt","steam_id":76561198214848887,"connected_time":448000000000,"state":"active","ping":74},{"user_id":771,"name":"HRCR118","steam_id":76561199146388596,"connected_time":866000000000,"state":"active","ping":66},{"user_id":725,"name":"CNTRL","steam_id":76561199125803827,"connected_time":3598000000000,"state":"active","ping":67},{"user_id":722,"name":"herbal tea","steam_id":76561197980736364,"connected_time":4068000000000,"state":"active","ping":85},{"user_id":781,"name":"Northvy","steam_id":76561198136732563,"connected_time":200000000000,"state":"active","ping":40},{"user_id":776,"name":"slnc","steam_id":76561198041151496,"connected_time":401000000000,"state":"active","ping":74},{"user_id":768,"name":"zak","steam_id":76561197998895428,"connected_time":1056000000000,"state":"active","ping":65},{"user_id":773,"name":"Max","steam_id":76561198080956366,"connected_time":688000000000,"state":"active","ping":88},{"user_id":774,"name":"Sodsboy","steam_id":76561198030482006,"connected_time":615000000000,"state":"active","ping":44},{"user_id":738,"name":"Mr.Okman","steam_id":76561198119636866,"connected_time":2920000000000,"state":"active","ping":92},{"user_id":758,"name":"Rubi","steam_id":76561198139410003,"connected_time":1844000000000,"state":"active","ping":72},{"user_id":744,"name":"sv_MrGibbs","steam_id":76561198114071972,"connected_time":2538000000000,"state":"active","ping":46},{"user_id":749,"name":"zayd","steam_id":76561198895235231,"connected_time":2020000000000,"state":"active","ping":56},{"user_id":782,"name":"Pebble The Cook","steam_id":76561198351444483,"connected_time":196000000000,"state":"active","ping":57},{"user_id":763,"name":"Bread Infected SnowTrooper","steam_id":76561198220732252,"connected_time":1527000000000,"state":"active","ping":55},{"user_id":772,"name":"Panda","steam_id":76561198176342325,"connected_time":730000000000,"state":"active","ping":99},{"user_id":783,"name":"Merciz","steam_id":76561197971808715,"connected_time":137000000000,"state":"active","ping":87},{"user_id":741,"name":"flamingosaurus","steam_id":76561198051455397,"connected_time":2659000000000,"state":"active","ping":44},{"user_id":780,"name":"Trojan","steam_id":76561198034787330,"connected_time":215000000000,"state":"active","ping":86},{"user_id":742,"name":"Odin","steam_id":76561198087800030,"connected_time":2585000000000,"state":"active","ping":44},{"user_id":762,"name":"bowchika wowa #SlavaUkraine","steam_id":76561198159564550,"connected_time":1703000000000,"state":"active","ping":72},{"user_id":721,"name":"Lithe","steam_id":76561198097130024,"connected_time":4160000000000,"state":"active","ping":55},{"user_id":777,"name":"dopamine overdose","steam_id":76561199032511302,"connected_time":330000000000,"state":"active","ping":104}]},{"server_id":321,"name":"Uncletopia | London | 4 | All Maps","name_short":"lon-4","host":"lon-1.uk.uncletopia.com","port":27045,"enabled":true,"region":"eu","cc":"gb","latitude":51.509865,"longitude":-0.118092,"reserved":0,"last_update":"0001-01-01T00:00:00Z","name_a2s":"Uncletopia | London | 4 | All Maps","protocol":17,"map":"koth_harvest_final","folder":"tf","game":"Team Fortress","app_id":440,"player_count":23,"max_players":24,"Bots":0,"server_type":"Dedicated","server_os":"Linux","password":true,"vac":true,"version":"7961495","steam_id":85568392924510193,"keywords":["cp","nocrits","nodmgspread","uncletopia"],"game_id":440,"stv_port":27046,"stv_name":"Uncletopia | London | 4 | All Maps | STV","players":[{"user_id":513,"name":"agent youppii","steam_id":76561198055264447,"connected_time":995000000000,"state":"active","ping":57},{"user_id":527,"name":"..-. .- - / -. ..- -","steam_id":76561198138189069,"connected_time":237000000000,"state":"active","ping":55},{"user_id":488,"name":"Gameing","steam_id":76561198199687607,"connected_time":3171000000000,"state":"active","ping":69},{"user_id":528,"name":"hananamanna","steam_id":76561198006570285,"connected_time":223000000000,"state":"active","ping":120},{"user_id":530,"name":"falliewagon","steam_id":76561199004886554,"connected_time":110000000000,"state":"active","ping":63},{"user_id":487,"name":"goop","steam_id":76561198190073005,"connected_time":3207000000000,"state":"active","ping":45},{"user_id":507,"name":"child cruncher","steam_id":76561199376433147,"connected_time":1673000000000,"state":"active","ping":49},{"user_id":501,"name":"Familypotato22","steam_id":76561198204652592,"connected_time":2002000000000,"state":"active","ping":102},{"user_id":477,"name":"Just Navlis","steam_id":76561198090479609,"connected_time":3590000000000,"state":"active","ping":59},{"user_id":516,"name":"psu","steam_id":76561198094652091,"connected_time":939000000000,"state":"active","ping":83},{"user_id":517,"name":"ha,burger","steam_id":76561199093584225,"connected_time":919000000000,"state":"active","ping":67},{"user_id":529,"name":"Mr Fruitypebbles","steam_id":76561198133823242,"connected_time":144000000000,"state":"active","ping":59},{"user_id":519,"name":"kiki","steam_id":76561198838277022,"connected_time":855000000000,"state":"active","ping":79},{"user_id":498,"name":"Bobirulez","steam_id":76561198009125458,"connected_time":2188000000000,"state":"active","ping":75},{"user_id":521,"name":"Demoman","steam_id":76561198190936635,"connected_time":811000000000,"state":"active","ping":73},{"user_id":502,"name":"24/7 lofi hip hop beats","steam_id":76561198130597374,"connected_time":1931000000000,"state":"active","ping":80},{"user_id":522,"name":"Columban","steam_id":76561199202258284,"connected_time":793000000000,"state":"active","ping":59},{"user_id":509,"name":"hasky","steam_id":76561197986052798,"connected_time":1636000000000,"state":"active","ping":70},{"user_id":524,"name":"Dr. Femboy Ghordbort","steam_id":76561198072320671,"connected_time":699000000000,"state":"active","ping":35},{"user_id":523,"name":"emko√ß","steam_id":76561198846782346,"connected_time":789000000000,"state":"active","ping":107},{"user_id":481,"name":"Bajas","steam_id":76561198179339326,"connected_time":3466000000000,"state":"active","ping":76},{"user_id":505,"name":"hbivnm a.k.a forsen","steam_id":76561197996468677,"connected_time":1890000000000,"state":"active","ping":71},{"user_id":525,"name":"Edgebug Earl","steam_id":76561197970114051,"connected_time":697000000000,"state":"active","ping":43}]},{"server_id":21,"name":"Uncletopia | London | 5 | All Maps","name_short":"lon-5","host":"lon-1.uk.uncletopia.com","port":27055,"enabled":true,"region":"eu","cc":"gb","latitude":51.509865,"longitude":-0.118092,"reserved":0,"last_update":"0001-01-01T00:00:00Z","name_a2s":"Uncletopia | London | 5 | All Maps","protocol":17,"map":"pl_borneo","folder":"tf","game":"Team Fortress","app_id":440,"player_count":25,"max_players":24,"Bots":0,"server_type":"Dedicated","server_os":"Linux","password":true,"vac":true,"version":"7961495","steam_id":85568392924742829,"keywords":["nocrits","nodmgspread","payload","uncletopia"],"game_id":440,"stv_port":27056,"stv_name":"Uncletopia | London | 5 | All Maps | STV","players":[{"user_id":560,"name":"I will violate you","steam_id":76561198349830813,"connected_time":2756000000000,"state":"active","ping":47},{"user_id":592,"name":"Locke","steam_id":76561198339408300,"connected_time":620000000000,"state":"active","ping":51},{"user_id":564,"name":"Ark-e","steam_id":76561198261870909,"connected_time":2203000000000,"state":"active","ping":33},{"user_id":588,"name":"sussy baka","steam_id":76561198368758532,"connected_time":891000000000,"state":"active","ping":74},{"user_id":598,"name":"Herb","steam_id":76561198205266944,"connected_time":79000000000,"state":"active","ping":45},{"user_id":488,"name":"LiterallyRyanGosling","steam_id":76561199017856691,"connected_time":7174000000000,"state":"active","ping":56},{"user_id":575,"name":"siriusplay116","steam_id":76561199403847433,"connected_time":1081000000000,"state":"active","ping":56},{"user_id":333,"name":"Zerosiini","steam_id":76561198113771976,"connected_time":14577000000000,"state":"active","ping":63},{"user_id":591,"name":"Tamas","steam_id":76561198106783406,"connected_time":759000000000,"state":"active","ping":87},{"user_id":580,"name":"Albon","steam_id":76561198060378881,"connected_time":1049000000000,"state":"active","ping":68},{"user_id":582,"name":"Cursed","steam_id":76561198381491880,"connected_time":1022000000000,"state":"active","ping":106},{"user_id":568,"name":"Abyssion","steam_id":76561198040246963,"connected_time":1770000000000,"state":"active","ping":53},{"user_id":515,"name":"Zonddey","steam_id":76561198134885222,"connected_time":5755000000000,"state":"active","ping":57},{"user_id":480,"name":"DiracDeltaFunction","steam_id":76561199201624841,"connected_time":8064000000000,"state":"active","ping":88},{"user_id":599,"name":"Mintme","steam_id":76561199033531922,"connected_time":57000000000,"state":"connecting","ping":0},{"user_id":574,"name":"Grog the caveman","steam_id":76561199040975062,"connected_time":1441000000000,"state":"active","ping":83},{"user_id":587,"name":"Musse","steam_id":76561198054731076,"connected_time":937000000000,"state":"active","ping":73},{"user_id":565,"name":"Jussukka","steam_id":76561198122894683,"connected_time":1948000000000,"state":"active","ping":89},{"user_id":532,"name":"Axter","steam_id":76561198118747192,"connected_time":4849000000000,"state":"active","ping":87},{"user_id":600,"name":"Dirgodno","steam_id":76561199066932493,"connected_time":35000000000,"state":"active","ping":88},{"user_id":519,"name":"jerkwaterberg","steam_id":76561198134165667,"connected_time":5682000000000,"state":"active","ping":52},{"user_id":585,"name":"Dr Bondus Bolongus Dongus","steam_id":76561198378657692,"connected_time":977000000000,"state":"active","ping":48},{"user_id":550,"name":"Jonno","steam_id":76561198023443744,"connected_time":3785000000000,"state":"active","ping":51},{"user_id":597,"name":"hawkblob","steam_id":76561198803720565,"connected_time":417000000000,"state":"active","ping":79},{"user_id":571,"name":"Grakalor","steam_id":76561198171185939,"connected_time":1540000000000,"state":"active","ping":72}]},{"server_id":22,"name":"Uncletopia | London | 6 | All Maps","name_short":"lon-6","host":"lon-1.uk.uncletopia.com","port":27065,"enabled":true,"region":"eu","cc":"gb","latitude":51.509865,"longitude":-0.118092,"reserved":0,"last_update":"0001-01-01T00:00:00Z","name_a2s":"Uncletopia | London | 6 | All Maps","protocol":17,"map":"cp_mountainlab","folder":"tf","game":"Team Fortress","app_id":440,"player_count":12,"max_players":24,"Bots":0,"server_type":"Dedicated","server_os":"Linux","password":true,"vac":true,"version":"7961495","steam_id":85568392924742830,"keywords":["cp","nocrits","nodmgspread","uncletopia"],"game_id":440,"stv_port":27066,"stv_name":"Uncletopia | London | 6 | All Maps | STV","players":[{"user_id":224,"name":"FROG IndigoJones","steam_id":76561198050284262,"connected_time":663000000000,"state":"active","ping":44},{"user_id":225,"name":"Latgaul","steam_id":76561199009145544,"connected_time":579000000000,"state":"active","ping":99},{"user_id":232,"name":"God's Drunkest Driver","steam_id":76561199174579733,"connected_time":313000000000,"state":"active","ping":121},{"user_id":192,"name":"‚ôÇKipu‚ôÇ","steam_id":76561198046239061,"connected_time":5038000000000,"state":"active","ping":85},{"user_id":204,"name":"Jersku","steam_id":76561198140994845,"connected_time":3386000000000,"state":"active","ping":74},{"user_id":229,"name":"Elix","steam_id":76561199072306920,"connected_time":459000000000,"state":"active","ping":88},{"user_id":233,"name":"lugge","steam_id":76561197963937453,"connected_time":232000000000,"state":"active","ping":68},{"user_id":234,"name":"Chin Chung Phong","steam_id":76561198097244166,"connected_time":193000000000,"state":"active","ping":77},{"user_id":235,"name":"CPU","steam_id":76561198000799864,"connected_time":124000000000,"state":"active","ping":95},{"user_id":94,"name":"Beanie","steam_id":76561198173882658,"connected_time":11220000000000,"state":"active","ping":50},{"user_id":95,"name":"skittish maiden","steam_id":76561198096856475,"connected_time":11200000000000,"state":"active","ping":58},{"user_id":211,"name":"TR1dent02","steam_id":76561198199276830,"connected_time":2512000000000,"state":"active","ping":46}]},{"server_id":40,"name":"Uncletopia | London | 7 | Stopwatch","name_short":"lon-7","host":"lon-1.uk.uncletopia.com","port":27075,"enabled":true,"region":"eu","cc":"gb","latitude":51.509865,"longitude":-0.118092,"reserved":0,"last_update":"0001-01-01T00:00:00Z","name_a2s":"Uncletopia | London | 7 | Stopwatch","protocol":17,"map":"workshop/koth_product_final.ugc454272353","folder":"tf","game":"Team Fortress","app_id":440,"player_count":0,"max_players":24,"Bots":0,"server_type":"Dedicated","server_os":"Linux","password":true,"vac":true,"version":"7961495","steam_id":85568392924964314,"keywords":["cp","nocrits","nodmgspread","uncletopia"],"game_id":440,"stv_port":27076,"stv_name":"Uncletopia | London | 7 | Stopwatch | STV","players":null},{"server_id":41,"name":"Uncletopia | London | 8 | Community","name_short":"lon-8","host":"lon-1.uk.uncletopia.com","port":27085,"enabled":true,"region":"eu","cc":"gb","latitude":51.509865,"longitude":-0.118092,"reserved":0,"last_update":"0001-01-01T00:00:00Z","name_a2s":"Uncletopia | London | 8 | Community","protocol":17,"map":"workshop/cp_sulfur_rc2.ugc619869471","folder":"tf","game":"Team Fortress","app_id":440,"player_count":0,"max_players":24,"Bots":0,"server_type":"Dedicated","server_os":"Linux","password":true,"vac":true,"version":"7961495","steam_id":85568392924964315,"keywords":["cp","nocrits","nodmgspread","uncletopia"],"game_id":440,"stv_port":27086,"stv_name":"Uncletopia | London | 8 | Community | STV","players":null},{"server_id":300,"name":"Uncletopia | Montr√©al | 1 | One Thousand Uncles","name_short":"mtl-1","host":"mtl-1.ca.uncletopia.com","port":27015,"enabled":true,"region":"us-east","cc":"ca","latitude":45.50889,"longitude":-73.56167,"reserved":0,"last_update":"0001-01-01T00:00:00Z","name_a2s":"","protocol":0,"map":"","folder":"","game":"","app_id":0,"player_count":0,"max_players":0,"Bots":0,"server_type":"","server_os":"","password":false,"vac":false,"version":"","steam_id":0,"keywords":null,"game_id":0,"stv_port":0,"stv_name":"","players":null},{"server_id":301,"name":"Uncletopia | Montr√©al | 2 | One Thousand Uncles","name_short":"mtl-2","host":"mtl-1.ca.uncletopia.com","port":27025,"enabled":true,"region":"us-east","cc":"ca","latitude":45.50889,"longitude":-73.56167,"reserved":0,"last_update":"0001-01-01T00:00:00Z","name_a2s":"","protocol":0,"map":"","folder":"","game":"","app_id":0,"player_count":1,"max_players":0,"Bots":0,"server_type":"","server_os":"","password":false,"vac":false,"version":"","steam_id":0,"keywords":null,"game_id":0,"stv_port":0,"stv_name":"","players":[{"user_id":139,"name":"WillDragonangel","steam_id":76561198258025259,"connected_time":2937000000000,"state":"active","ping":57}]},{"server_id":302,"name":"Uncletopia | Montr√©al | 3 | One Thousand Uncles","name_short":"mtl-3","host":"mtl-1.ca.uncletopia.com","port":27035,"enabled":true,"region":"us-east","cc":"ca","latitude":45.50889,"longitude":-73.56167,"reserved":0,"last_update":"0001-01-01T00:00:00Z","name_a2s":"","protocol":0,"map":"","folder":"","game":"","app_id":0,"player_count":0,"max_players":0,"Bots":0,"server_type":"","server_os":"","password":false,"vac":false,"version":"","steam_id":0,"keywords":null,"game_id":0,"stv_port":0,"stv_name":"","players":null},{"server_id":13,"name":"Uncletopia | New York City | 1 | All Maps","name_short":"nyc-1","host":"nyc-1.us.uncletopia.com","port":27015,"enabled":true,"region":"us-east","cc":"us","latitude":40.73061,"longitude":-73.93524,"reserved":0,"last_update":"0001-01-01T00:00:00Z","name_a2s":"Uncletopia | New York City | 1 | All Maps","protocol":17,"map":"cp_dustbowl","folder":"tf","game":"Team Fortress","app_id":440,"player_count":24,"max_players":24,"Bots":0,"server_type":"Dedicated","server_os":"Linux","password":true,"vac":true,"version":"7961495","steam_id":85568392924469993,"keywords":["cp","nocrits","nodmgspread","uncletopia"],"game_id":440,"stv_port":27016,"stv_name":"Uncletopia | New York City | 1 | All Maps | STV","players":[{"user_id":601,"name":"cajun thotsauce","steam_id":76561198101636066,"connected_time":943000000000,"state":"active","ping":106},{"user_id":594,"name":"1st place love live fan","steam_id":76561198037951506,"connected_time":1085000000000,"state":"active","ping":56},{"user_id":579,"name":"pinkissocool {f2p}","steam_id":76561198989599828,"connected_time":2595000000000,"state":"active","ping":39},{"user_id":608,"name":"daxx","steam_id":76561197971296086,"connected_time":293000000000,"state":"active","ping":62},{"user_id":588,"name":"Curse of the Blackened Eye","steam_id":76561198097175164,"connected_time":1687000000000,"state":"active","ping":76},{"user_id":587,"name":"Guil","steam_id":76561197993289176,"connected_time":1778000000000,"state":"active","ping":66},{"user_id":595,"name":"penjamin","steam_id":76561198147833204,"connected_time":1063000000000,"state":"active","ping":129},{"user_id":605,"name":"‚ô¶‚ô£Quadric‚ô•‚ô†","steam_id":76561198061003853,"connected_time":530000000000,"state":"active","ping":55},{"user_id":568,"name":"Sha-Woompa","steam_id":76561199068063459,"connected_time":3414000000000,"state":"active","ping":68},{"user_id":540,"name":"OKAY","steam_id":76561198091980659,"connected_time":6309000000000,"state":"active","ping":57},{"user_id":596,"name":"Chunk","steam_id":76561198204275251,"connected_time":1024000000000,"state":"active","ping":104},{"user_id":607,"name":"TuSuperVieja24","steam_id":76561198940737217,"connected_time":468000000000,"state":"active","ping":126},{"user_id":602,"name":"The Power","steam_id":76561198060566884,"connected_time":875000000000,"state":"active","ping":117},{"user_id":569,"name":"The Guy","steam_id":76561198799183693,"connected_time":3411000000000,"state":"active","ping":83},{"user_id":570,"name":"Average JoJo Fan","steam_id":76561198863432523,"connected_time":3381000000000,"state":"active","ping":122},{"user_id":603,"name":"feleven","steam_id":76561198853721046,"connected_time":675000000000,"state":"active","ping":52},{"user_id":581,"name":"George Holdin' W Bush","steam_id":76561198030066204,"connected_time":2581000000000,"state":"active","ping":40},{"user_id":582,"name":"sasharudzik","steam_id":76561199126617781,"connected_time":2548000000000,"state":"active","ping":93},{"user_id":598,"name":"[fish] Space Arson","steam_id":76561198087375211,"connected_time":1018000000000,"state":"active","ping":83},{"user_id":609,"name":"Fredrick","steam_id":76561197981419964,"connected_time":158000000000,"state":"active","ping":54},{"user_id":599,"name":"Miso Soup Lover :3","steam_id":76561198278247053,"connected_time":1013000000000,"state":"active","ping":106},{"user_id":600,"name":"Dragus","steam_id":76561198032967285,"connected_time":977000000000,"state":"active","ping":67},{"user_id":523,"name":"Cat_Gaben","steam_id":76561198308094558,"connected_time":8423000000000,"state":"active","ping":67},{"user_id":585,"name":"Ice","steam_id":76561198069065342,"connected_time":2059000000000,"state":"active","ping":67}]},{"server_id":14,"name":"Uncletopia | New York City | 2 | All Maps","name_short":"nyc-2","host":"nyc-1.us.uncletopia.com","port":27025,"enabled":true,"region":"us-east","cc":"us","latitude":40.73061,"longitude":-73.93524,"reserved":0,"last_update":"0001-01-01T00:00:00Z","name_a2s":"Uncletopia | New York City | 2 | All Maps","protocol":17,"map":"pl_upward","folder":"tf","game":"Team Fortress","app_id":440,"player_count":24,"max_players":24,"Bots":0,"server_type":"Dedicated","server_os":"Linux","password":true,"vac":true,"version":"7961495","steam_id":85568392924469994,"keywords":["nocrits","nodmgspread","payload","uncletopia"],"game_id":440,"stv_port":27026,"stv_name":"Uncletopia | New York City | 2 | All Maps | STV","players":[{"user_id":393,"name":"puffy","steam_id":76561198411347037,"connected_time":5571000000000,"state":"active","ping":56},{"user_id":449,"name":"Discourse","steam_id":76561198984286678,"connected_time":1278000000000,"state":"active","ping":72},{"user_id":431,"name":"fear_the-penguins","steam_id":76561199013292217,"connected_time":2291000000000,"state":"active","ping":59},{"user_id":417,"name":"aurro","steam_id":76561198315692300,"connected_time":3330000000000,"state":"active","ping":60},{"user_id":451,"name":"mike penis","steam_id":76561198159339442,"connected_time":1199000000000,"state":"active","ping":68},{"user_id":444,"name":"Kritzburgh","steam_id":76561198149466938,"connected_time":1592000000000,"state":"active","ping":53},{"user_id":445,"name":"supcupman","steam_id":76561198051513866,"connected_time":1551000000000,"state":"active","ping":130},{"user_id":440,"name":"DoggyDogWhirl","steam_id":76561198042841344,"connected_time":1813000000000,"state":"active","ping":56},{"user_id":425,"name":"bigSMALL","steam_id":76561198964101426,"connected_time":3026000000000,"state":"active","ping":41},{"user_id":468,"name":"peniblor","steam_id":76561198307923786,"connected_time":108000000000,"state":"active","ping":116},{"user_id":422,"name":"sketch","steam_id":76561198138216669,"connected_time":3224000000000,"state":"active","ping":75},{"user_id":430,"name":"jimmyfnaf172198yay","steam_id":76561198311446636,"connected_time":2356000000000,"state":"active","ping":78},{"user_id":447,"name":"trzepaczkaadam","steam_id":76561199480520243,"connected_time":1463000000000,"state":"active","ping":61},{"user_id":441,"name":"eduard","steam_id":76561198136550093,"connected_time":1813000000000,"state":"active","ping":74},{"user_id":465,"name":"Ike Yard","steam_id":76561197998954523,"connected_time":178000000000,"state":"active","ping":100},{"user_id":442,"name":"Jonah Hill from 21 Jump Street","steam_id":76561198811130843,"connected_time":1812000000000,"state":"active","ping":88},{"user_id":466,"name":"Madrox Who?","steam_id":76561197988859134,"connected_time":175000000000,"state":"active","ping":76},{"user_id":469,"name":"Tailsmonster12","steam_id":76561198399989261,"connected_time":33000000000,"state":"active","ping":48},{"user_id":443,"name":"FAKE TAXI PRANKS","steam_id":76561198136746987,"connected_time":1806000000000,"state":"active","ping":77},{"user_id":452,"name":"yourlocalforecast","steam_id":76561198042243083,"connected_time":1178000000000,"state":"active","ping":53},{"user_id":428,"name":"‚ú®‚ú® BOILING PIZZA ‚ú®‚ú®","steam_id":76561198354108114,"connected_time":2789000000000,"state":"active","ping":101},{"user_id":460,"name":"boykisser","steam_id":76561198375866407,"connected_time":508000000000,"state":"active","ping":99},{"user_id":462,"name":"Nibelsnarf (She/They)","steam_id":76561198137642054,"connected_time":268000000000,"state":"active","ping":60},{"user_id":463,"name":"totally nuts","steam_id":76561198072856511,"connected_time":242000000000,"state":"active","ping":69}]},{"server_id":15,"name":"Uncletopia | New York City | 3 | Stopwatch","name_short":"nyc-3","host":"nyc-1.us.uncletopia.com","port":27035,"enabled":true,"region":"us-east","cc":"us","latitude":40.73061,"longitude":-73.93524,"reserved":0,"last_update":"0001-01-01T00:00:00Z","name_a2s":"Uncletopia | New York City | 3 | Stopwatch","protocol":17,"map":"workshop/koth_product_final.ugc454272353","folder":"tf","game":"Team Fortress","app_id":440,"player_count":0,"max_players":24,"Bots":0,"server_type":"Dedicated","server_os":"Linux","password":true,"vac":true,"version":"7961495","steam_id":85568392924742820,"keywords":["cp","nocrits","nodmgspread","uncletopia"],"game_id":440,"stv_port":27036,"stv_name":"Uncletopia | New York City | 3 | Stopwatch | STV","players":null},{"server_id":16,"name":"Uncletopia | New York City | 4 | Community","name_short":"nyc-4","host":"nyc-1.us.uncletopia.com","port":27045,"enabled":true,"region":"us-east","cc":"us","latitude":40.73061,"longitude":-73.93524,"reserved":0,"last_update":"0001-01-01T00:00:00Z","name_a2s":"Uncletopia | New York City | 4 | Community","protocol":17,"map":"workshop/pl_emerge_rc2.ugc888027758","folder":"tf","game":"Team Fortress","app_id":440,"player_count":0,"max_players":24,"Bots":0,"server_type":"Dedicated","server_os":"Linux","password":true,"vac":true,"version":"7961495","steam_id":85568392924742821,"keywords":["nocrits","nodmgspread","payload","uncletopia"],"game_id":440,"stv_port":27046,"stv_name":"Uncletopia | New York City | 4 | Community | STV","players":null},{"server_id":142,"name":"Uncletopia | S√£o Paulo | 1 | All Maps","name_short":"sao-1","host":"sao-1.br.uncletopia.com","port":27015,"enabled":true,"region":"sa","cc":"br","latitude":-23.533773,"longitude":-46.62529,"reserved":0,"last_update":"0001-01-01T00:00:00Z","name_a2s":"Uncletopia | S√£o Paulo | 1 | All Maps","protocol":17,"map":"pl_pier","folder":"tf","game":"Team Fortress","app_id":440,"player_count":0,"max_players":24,"Bots":0,"server_type":"Dedicated","server_os":"Linux","password":true,"vac":true,"version":"7961495","steam_id":85568392924469996,"keywords":["nocrits","nodmgspread","payload","uncletopia"],"game_id":440,"stv_port":27016,"stv_name":"Uncletopia | S√£o Paulo | 1 | All Maps | STV","players":null},{"server_id":143,"name":"Uncletopia | S√£o Paulo | 2 | Community","name_short":"sao-2","host":"sao-2.br.uncletopia.com","port":27015,"enabled":true,"region":"sa","cc":"br","latitude":-23.533773,"longitude":-46.62529,"reserved":0,"last_update":"0001-01-01T00:00:00Z","name_a2s":"Uncletopia | S√£o Paulo | 2 | Community","protocol":17,"map":"workshop/pl_badwater_pro_v12.ugc2142942074","folder":"tf","game":"Team Fortress","app_id":440,"player_count":1,"max_players":24,"Bots":0,"server_type":"Dedicated","server_os":"Linux","password":true,"vac":true,"version":"7961495","steam_id":85568392924485349,"keywords":["nocrits","nodmgspread","payload","uncletopia"],"game_id":440,"stv_port":27016,"stv_name":"Uncletopia | S√£o Paulo | 2 | Community | STV","players":[{"user_id":9,"name":"Random","steam_id":76561199183854535,"connected_time":524000000000,"state":"active","ping":51}]},{"server_id":7,"name":"Uncletopia | Seattle | 1 | All Maps","name_short":"sea-1","host":"sea-1.us.uncletopia.com","port":27015,"enabled":true,"region":"us-west","cc":"us","latitude":47.608013,"longitude":-122.33517,"reserved":0,"last_update":"0001-01-01T00:00:00Z","name_a2s":"Uncletopia | Seattle | 1 | All Maps","protocol":17,"map":"cp_steel","folder":"tf","game":"Team Fortress","app_id":440,"player_count":24,"max_players":24,"Bots":0,"server_type":"Dedicated","server_os":"Linux","password":true,"vac":true,"version":"7961495","steam_id":85568392924469997,"keywords":["cp","nocrits","nodmgspread","uncletopia"],"game_id":440,"stv_port":27016,"stv_name":"Uncletopia | Seattle | 1 | All Maps | STV","players":[{"user_id":391,"name":"PLATNUMHANNYA","steam_id":76561198451426311,"connected_time":835000000000,"state":"active","ping":46},{"user_id":337,"name":"Little Linguine","steam_id":76561198816986370,"connected_time":4609000000000,"state":"active","ping":44},{"user_id":393,"name":"CockDick69","steam_id":76561198051882744,"connected_time":368000000000,"state":"active","ping":64},{"user_id":367,"name":"Barbecue  Bacon Burger","steam_id":76561198981135699,"connected_time":2638000000000,"state":"active","ping":120},{"user_id":392,"name":"Pissmass Pissman","steam_id":76561198409907417,"connected_time":406000000000,"state":"active","ping":85},{"user_id":396,"name":"Why does glass taste like blood","steam_id":76561198253922494,"connected_time":51000000000,"state":"active","ping":85},{"user_id":336,"name":"Gm_Sweet","steam_id":76561199445091548,"connected_time":4831000000000,"state":"active","ping":48},{"user_id":386,"name":"Jovo","steam_id":76561197993265970,"connected_time":1073000000000,"state":"active","ping":31},{"user_id":378,"name":"‚ôÇ boss of this gym ‚ôÇ","steam_id":76561198027102212,"connected_time":1830000000000,"state":"active","ping":62},{"user_id":398,"name":"Odysseus The Proto-O-possum","steam_id":76561198122084846,"connected_time":35000000000,"state":"spawning","ping":185},{"user_id":381,"name":"Noah1k","steam_id":76561199428633514,"connected_time":1194000000000,"state":"active","ping":47},{"user_id":399,"name":"Trapilicious","steam_id":76561198061430457,"connected_time":32000000000,"state":"active","ping":106},{"user_id":383,"name":"ArjayTheWeenie","steam_id":76561198275999294,"connected_time":1149000000000,"state":"active","ping":45},{"user_id":388,"name":"Dingelsmurf the Orange","steam_id":76561198212489267,"connected_time":1038000000000,"state":"active","ping":77},{"user_id":373,"name":"Tom","steam_id":76561198070630154,"connected_time":2499000000000,"state":"active","ping":62},{"user_id":397,"name":"slushy :))","steam_id":76561198135281802,"connected_time":51000000000,"state":"active","ping":33},{"user_id":360,"name":"shrigma","steam_id":76561198101301195,"connected_time":3475000000000,"state":"active","ping":76},{"user_id":384,"name":"Dimple","steam_id":76561198980324190,"connected_time":1149000000000,"state":"active","ping":61},{"user_id":332,"name":"Keamy","steam_id":76561199471434875,"connected_time":5213000000000,"state":"active","ping":30},{"user_id":321,"name":"DiscoTraveler","steam_id":76561199240168088,"connected_time":6516000000000,"state":"active","ping":112},{"user_id":389,"name":"Shabooyaroll-call","steam_id":76561198112306237,"connected_time":1035000000000,"state":"active","ping":76},{"user_id":347,"name":"TheMagicMrWaffle","steam_id":76561198104357256,"connected_time":4173000000000,"state":"active","ping":61},{"user_id":390,"name":"sillybillyfunnyfairy","steam_id":76561197999648153,"connected_time":1004000000000,"state":"active","ping":81},{"user_id":394,"name":"H.A.Z.E.Y  \u003c3","steam_id":76561199247095754,"connected_time":162000000000,"state":"active","ping":59}]},{"server_id":119,"name":"Uncletopia | Seattle | 2 | All Maps","name_short":"sea-2","host":"sea-1.us.uncletopia.com","port":27025,"enabled":true,"region":"us-west","cc":"us","latitude":47.608013,"longitude":-122.33517,"reserved":0,"last_update":"0001-01-01T00:00:00Z","name_a2s":"Uncletopia | Seattle | 2 | All Maps","protocol":17,"map":"koth_nucleus","folder":"tf","game":"Team Fortress","app_id":440,"player_count":24,"max_players":24,"Bots":0,"server_type":"Dedicated","server_os":"Linux","password":true,"vac":true,"version":"7961495","steam_id":85568392924469998,"keywords":["cp","nocrits","nodmgspread","uncletopia"],"game_id":440,"stv_port":27026,"stv_name":"Uncletopia | Seattle | 2 | All Maps | STV","players":[{"user_id":48,"name":"LetsWinCarlos2012","steam_id":76561199084826822,"connected_time":1679000000000,"state":"active","ping":108},{"user_id":66,"name":"Goldensliv","steam_id":76561198161673891,"connected_time":493000000000,"state":"active","ping":60},{"user_id":18,"name":"cielael","steam_id":76561198043971956,"connected_time":2862000000000,"state":"active","ping":76},{"user_id":26,"name":"Noobynoob15","steam_id":76561199497020916,"connected_time":2608000000000,"state":"active","ping":68},{"user_id":71,"name":"Cael","steam_id":76561198136789464,"connected_time":303000000000,"state":"active","ping":59},{"user_id":22,"name":"Oninja94","steam_id":76561199467195274,"connected_time":2785000000000,"state":"active","ping":36},{"user_id":60,"name":"vulture pupy","steam_id":76561198061963965,"connected_time":917000000000,"state":"active","ping":56},{"user_id":56,"name":"drake on soldier","steam_id":76561198143132686,"connected_time":1512000000000,"state":"active","ping":75},{"user_id":29,"name":"ilyKittyXOXO","steam_id":76561198179569849,"connected_time":2455000000000,"state":"active","ping":87},{"user_id":74,"name":"miguelrodriguez2013","steam_id":76561198269253587,"connected_time":146000000000,"state":"active","ping":60},{"user_id":68,"name":"Dreamzapp","steam_id":76561199084936632,"connected_time":460000000000,"state":"active","ping":83},{"user_id":45,"name":"Botanics","steam_id":76561198137966109,"connected_time":1869000000000,"state":"active","ping":76},{"user_id":33,"name":"McSpazatron","steam_id":76561198955942148,"connected_time":2308000000000,"state":"active","ping":53},{"user_id":34,"name":"‚òÖDeebo‚òÖ","steam_id":76561198060081522,"connected_time":2285000000000,"state":"active","ping":85},{"user_id":46,"name":"collector's pest","steam_id":76561198170402666,"connected_time":1848000000000,"state":"active","ping":69},{"user_id":61,"name":"Stick","steam_id":76561198127495278,"connected_time":903000000000,"state":"active","ping":61},{"user_id":69,"name":"wmjledger","steam_id":76561198443046861,"connected_time":452000000000,"state":"active","ping":45},{"user_id":63,"name":"Preston","steam_id":76561198255721392,"connected_time":762000000000,"state":"active","ping":120},{"user_id":72,"name":"Sprit ‚ô•","steam_id":76561198268780781,"connected_time":297000000000,"state":"active","ping":98},{"user_id":40,"name":"Youngblood5780","steam_id":76561198113934410,"connected_time":2113000000000,"state":"active","ping":75},{"user_id":52,"name":"FireQuiz","steam_id":76561198107357249,"connected_time":1627000000000,"state":"active","ping":45},{"user_id":62,"name":"PK Wizened","steam_id":76561199035458926,"connected_time":895000000000,"state":"active","ping":65},{"user_id":73,"name":"Fachedin","steam_id":76561198041850415,"connected_time":204000000000,"state":"active","ping":60},{"user_id":70,"name":"V@nn1e","steam_id":76561199099194994,"connected_time":448000000000,"state":"active","ping":115}]},{"server_id":406,"name":"Uncletopia | Seattle | 3 | Stopwatch","name_short":"sea-3","host":"sea-1.us.uncletopia.com","port":27035,"enabled":true,"region":"us-west","cc":"us","latitude":47.608013,"longitude":-122.33517,"reserved":0,"last_update":"0001-01-01T00:00:00Z","name_a2s":"Uncletopia | Seattle | 3 | Stopwatch","protocol":17,"map":"pl_pier","folder":"tf","game":"Team Fortress","app_id":440,"player_count":0,"max_players":24,"Bots":0,"server_type":"Dedicated","server_os":"Linux","password":true,"vac":true,"version":"7961495","steam_id":85568392924515217,"keywords":["nocrits","nodmgspread","payload","uncletopia"],"game_id":440,"stv_port":27036,"stv_name":"Uncletopia | Seattle | 3 | Stopwatch | STV","players":null},{"server_id":17,"name":"Uncletopia | San Francisco | 1 | All Maps","name_short":"sfo-1","host":"sfo-1.us.uncletopia.com","port":27015,"enabled":true,"region":"us-west","cc":"us","latitude":37.77397,"longitude":-122.4313,"reserved":0,"last_update":"0001-01-01T00:00:00Z","name_a2s":"Uncletopia | San Francisco | 1 | All Maps","protocol":17,"map":"koth_cascade","folder":"tf","game":"Team Fortress","app_id":440,"player_count":0,"max_players":24,"Bots":0,"server_type":"Dedicated","server_os":"Linux","password":true,"vac":true,"version":"7961495","steam_id":85568392924469999,"keywords":["cp","nocrits","nodmgspread","uncletopia"],"game_id":440,"stv_port":27016,"stv_name":"Uncletopia | San Francisco | 1 | All Maps | STV","players":null},{"server_id":18,"name":"Uncletopia | San Francisco | 2 | All Maps","name_short":"sfo-2","host":"sfo-1.us.uncletopia.com","port":27025,"enabled":true,"region":"us-west","cc":"us","latitude":37.77397,"longitude":-122.4313,"reserved":0,"last_update":"0001-01-01T00:00:00Z","name_a2s":"Uncletopia | San Francisco | 2 | All Maps","protocol":17,"map":"cp_sunshine","folder":"tf","game":"Team Fortress","app_id":440,"player_count":0,"max_players":24,"Bots":0,"server_type":"Dedicated","server_os":"Linux","password":true,"vac":true,"version":"7961495","steam_id":85568392924470000,"keywords":["cp","nocrits","nodmgspread","uncletopia"],"game_id":440,"stv_port":27026,"stv_name":"Uncletopia | San Francisco | 2 | All Maps | STV","players":null},{"server_id":19,"name":"Uncletopia | San Francisco | 3 | Stopwatch","name_short":"sfo-3","host":"sfo-1.us.uncletopia.com","port":27035,"enabled":true,"region":"us-west","cc":"us","latitude":37.77397,"longitude":-122.4313,"reserved":0,"last_update":"0001-01-01T00:00:00Z","name_a2s":"Uncletopia | San Francisco | 3 | Stopwatch","protocol":17,"map":"workshop/koth_ramjam_rc1.ugc459778887","folder":"tf","game":"Team Fortress","app_id":440,"player_count":0,"max_players":24,"Bots":0,"server_type":"Dedicated","server_os":"Linux","password":true,"vac":true,"version":"7961495","steam_id":85568392924742824,"keywords":["cp","nocrits","nodmgspread","uncletopia"],"game_id":440,"stv_port":27036,"stv_name":"Uncletopia | San Francisco | 3 | Stopwatch | STV","players":null},{"server_id":20,"name":"Uncletopia | San Francisco | 4 | Community","name_short":"sfo-4","host":"sfo-1.us.uncletopia.com","port":27045,"enabled":true,"region":"us-west","cc":"us","latitude":37.77397,"longitude":-122.4313,"reserved":0,"last_update":"0001-01-01T00:00:00Z","name_a2s":"Uncletopia | San Francisco | 4 | Community","protocol":17,"map":"pl_pier","folder":"tf","game":"Team Fortress","app_id":440,"player_count":0,"max_players":24,"Bots":0,"server_type":"Dedicated","server_os":"Linux","password":true,"vac":true,"version":"7961495","steam_id":85568392924742826,"keywords":["nocrits","nodmgspread","payload","uncletopia"],"game_id":440,"stv_port":27046,"stv_name":"Uncletopia | San Francisco | 4 | Community | STV","players":null},{"server_id":141,"name":"Uncletopia | Sydney | 1 | All Maps","name_short":"syd-1","host":"syd-1.au.uncletopia.com","port":27015,"enabled":true,"region":"au","cc":"au","latitude":-33.865143,"longitude":151.2099,"reserved":0,"last_update":"0001-01-01T00:00:00Z","name_a2s":"Uncletopia | Sydney | 1 | All Maps","protocol":17,"map":"koth_viaduct","folder":"tf","game":"Team Fortress","app_id":440,"player_count":0,"max_players":24,"Bots":0,"server_type":"Dedicated","server_os":"Linux","password":true,"vac":true,"version":"7961495","steam_id":85568392924470001,"keywords":["cp","nocrits","nodmgspread","uncletopia"],"game_id":440,"stv_port":27016,"stv_name":"Uncletopia | Sydney | 1 | All Maps | STV","players":null},{"server_id":123,"name":"Uncletopia | Sydney | 2 | All Maps","name_short":"syd-2","host":"syd-1.au.uncletopia.com","port":27025,"enabled":true,"region":"au","cc":"au","latitude":-33.865143,"longitude":151.2099,"reserved":0,"last_update":"0001-01-01T00:00:00Z","name_a2s":"Uncletopia | Sydney | 2 | All Maps","protocol":17,"map":"koth_lakeside_final","folder":"tf","game":"Team Fortress","app_id":440,"player_count":0,"max_players":24,"Bots":0,"server_type":"Dedicated","server_os":"Linux","password":true,"vac":true,"version":"7961495","steam_id":85568392924470002,"keywords":["cp","nocrits","nodmgspread","uncletopia"],"game_id":440,"stv_port":27026,"stv_name":"Uncletopia | Sydney | 2 | All Maps | STV","players":null},{"server_id":395,"name":"Uncletopia | Sydney | 3 | All Maps","name_short":"syd-3","host":"syd-1.au.uncletopia.com","port":27035,"enabled":true,"region":"au","cc":"au","latitude":-33.865143,"longitude":151.2099,"reserved":0,"last_update":"0001-01-01T00:00:00Z","name_a2s":"Uncletopia | Sydney | 3 | All Maps","protocol":17,"map":"pl_frontier_final","folder":"tf","game":"Team Fortress","app_id":440,"player_count":0,"max_players":24,"Bots":0,"server_type":"Dedicated","server_os":"Linux","password":true,"vac":true,"version":"7961495","steam_id":85568392925194467,"keywords":["nocrits","nodmgspread","payload","uncletopia"],"game_id":440,"stv_port":27036,"stv_name":"Uncletopia | Sydney | 3 | All Maps | STV","players":null},{"server_id":396,"name":"Uncletopia | Sydney | 4 | All Maps","name_short":"syd-4","host":"syd-1.au.uncletopia.com","port":27045,"enabled":true,"region":"au","cc":"au","latitude":-33.865143,"longitude":151.2099,"reserved":0,"last_update":"0001-01-01T00:00:00Z","name_a2s":"Uncletopia | Sydney | 4 | All Maps","protocol":17,"map":"cp_process_final","folder":"tf","game":"Team Fortress","app_id":440,"player_count":0,"max_players":24,"Bots":0,"server_type":"Dedicated","server_os":"Linux","password":true,"vac":true,"version":"7961495","steam_id":85568392925397958,"keywords":["cp","nocrits","nodmgspread","uncletopia"],"game_id":440,"stv_port":27046,"stv_name":"Uncletopia | Sydney | 4 | All Maps | STV","players":null},{"server_id":58,"name":"Uncletopia | Sydney | 5 | Stopwatch","name_short":"syd-5","host":"syd-1.au.uncletopia.com","port":27055,"enabled":true,"region":"au","cc":"au","latitude":-33.865143,"longitude":151.2099,"reserved":0,"last_update":"0001-01-01T00:00:00Z","name_a2s":"Uncletopia | Sydney | 5 | Stopwatch","protocol":17,"map":"pl_frontier_final","folder":"tf","game":"Team Fortress","app_id":440,"player_count":0,"max_players":24,"Bots":0,"server_type":"Dedicated","server_os":"Linux","password":true,"vac":true,"version":"7961495","steam_id":85568392925397959,"keywords":["nocrits","nodmgspread","payload","uncletopia"],"game_id":440,"stv_port":27056,"stv_name":"Uncletopia | Sydney | 5 | Stopwatch | STV","players":null},{"server_id":59,"name":"Uncletopia | Sydney | 6 | Community","name_short":"syd-6","host":"syd-1.au.uncletopia.com","port":27065,"enabled":true,"region":"au","cc":"au","latitude":-33.865143,"longitude":151.2099,"reserved":0,"last_update":"0001-01-01T00:00:00Z","name_a2s":"Uncletopia | Sydney | 6 | Community","protocol":17,"map":"cp_sunshine","folder":"tf","game":"Team Fortress","app_id":440,"player_count":0,"max_players":24,"Bots":0,"server_type":"Dedicated","server_os":"Linux","password":true,"vac":true,"version":"7961495","steam_id":85568392925397960,"keywords":["cp","nocrits","nodmgspread","uncletopia"],"game_id":440,"stv_port":27066,"stv_name":"Uncletopia | Sydney | 6 | Community | STV","players":null},{"server_id":49,"name":"Uncletopia | Warsaw | 1 | One Thousand Uncles","name_short":"waw-1","host":"waw-1.pl.uncletopia.com","port":27015,"enabled":true,"region":"eu","cc":"pl","latitude":52.2297,"longitude":21.017532,"reserved":0,"last_update":"0001-01-01T00:00:00Z","name_a2s":"Uncletopia | Warsaw | 1 | One Thousand Uncles","protocol":17,"map":"pl_badwater","folder":"tf","game":"Team Fortress","app_id":440,"player_count":27,"max_players":32,"Bots":16,"server_type":"Dedicated","server_os":"Linux","password":true,"vac":true,"version":"7961495","steam_id":85568392925397850,"keywords":["alltalk","bots","danepve","increased_maxplayers","nocrits","norespawntime","payload","uncletopia"],"game_id":440,"stv_port":0,"stv_name":"","players":[{"user_id":827,"name":"Tispy","steam_id":76561199207410049,"connected_time":259000000000,"state":"active","ping":106},{"user_id":804,"name":"Magician Wen-li","steam_id":76561198189688217,"connected_time":643000000000,"state":"active","ping":143},{"user_id":828,"name":"Kaia Brodbecker","steam_id":76561198294109951,"connected_time":26000000000,"state":"active","ping":114},{"user_id":810,"name":"Isokaro","steam_id":76561198103276073,"connected_time":310000000000,"state":"active","ping":45},{"user_id":759,"name":"Scout","steam_id":76561198992898803,"connected_time":4277000000000,"state":"active","ping":76},{"user_id":748,"name":"the baddest boy in btd5","steam_id":76561199487914508,"connected_time":5249000000000,"state":"active","ping":39},{"user_id":795,"name":"hmm yes","steam_id":76561198170322809,"connected_time":2108000000000,"state":"active","ping":63},{"user_id":806,"name":"al.koll1212","steam_id":76561198410670217,"connected_time":534000000000,"state":"active","ping":60},{"user_id":797,"name":"BreadBread06","steam_id":76561198196914050,"connected_time":1922000000000,"state":"active","ping":195},{"user_id":808,"name":"Benzo Fury","steam_id":76561198025259336,"connected_time":421000000000,"state":"active","ping":74},{"user_id":744,"name":"DAMJANT2010","steam_id":76561199493932486,"connected_time":5656000000000,"state":"active","ping":96}]},{"server_id":50,"name":"Uncletopia | Warsaw | 2 | One Thousand Uncles","name_short":"waw-2","host":"waw-1.pl.uncletopia.com","port":27025,"enabled":true,"region":"eu","cc":"pl","latitude":52.2297,"longitude":21.017532,"reserved":0,"last_update":"0001-01-01T00:00:00Z","name_a2s":"Uncletopia | Warsaw | 2 | One Thousand Uncles","protocol":17,"map":"pl_goldrush","folder":"tf","game":"Team Fortress","app_id":440,"player_count":22,"max_players":32,"Bots":16,"server_type":"Dedicated","server_os":"Linux","password":true,"vac":true,"version":"7961495","steam_id":85568392925397851,"keywords":["alltalk","bots","danepve","increased_maxplayers","nocrits","norespawntime","payload","uncletopia"],"game_id":440,"stv_port":0,"stv_name":"","players":[{"user_id":591,"name":"Mario Bong","steam_id":76561198100898729,"connected_time":2192000000000,"state":"active","ping":174},{"user_id":633,"name":"Darkgege22","steam_id":76561198176636583,"connected_time":353000000000,"state":"active","ping":81},{"user_id":551,"name":"Max Power","steam_id":76561198019269089,"connected_time":4891000000000,"state":"active","ping":60},{"user_id":592,"name":"DarnRootinTootinBlootinScootin","steam_id":76561198126016824,"connected_time":2149000000000,"state":"active","ping":167},{"user_id":616,"name":"EULEROID","steam_id":76561198399191505,"connected_time":768000000000,"state":"active","ping":58},{"user_id":560,"name":"kakash","steam_id":76561199420637314,"connected_time":3755000000000,"state":"active","ping":76}]},{"server_id":51,"name":"Uncletopia | Warsaw | 3 | All Maps","name_short":"waw-3","host":"waw-1.pl.uncletopia.com","port":27035,"enabled":true,"region":"eu","cc":"pl","latitude":52.2297,"longitude":21.017532,"reserved":0,"last_update":"0001-01-01T00:00:00Z","name_a2s":"Uncletopia | Warsaw | 3 | All Maps","protocol":17,"map":"cp_dustbowl","folder":"tf","game":"Team Fortress","app_id":440,"player_count":18,"max_players":24,"Bots":0,"server_type":"Dedicated","server_os":"Linux","password":true,"vac":true,"version":"7961495","steam_id":85568392925397852,"keywords":["cp","nocrits","nodmgspread","uncletopia"],"game_id":440,"stv_port":27036,"stv_name":"Uncletopia | Warsaw | 3 | All Maps | STV","players":[{"user_id":119,"name":"Burrito","steam_id":76561198023919089,"connected_time":177000000000,"state":"active","ping":93},{"user_id":120,"name":"leo","steam_id":76561198090848620,"connected_time":159000000000,"state":"active","ping":93},{"user_id":122,"name":"Sad Ancient Gear Gadget","steam_id":76561198067107185,"connected_time":85000000000,"state":"active","ping":163},{"user_id":123,"name":"rower123","steam_id":76561198265062481,"connected_time":54000000000,"state":"active","ping":186},{"user_id":108,"name":"Lorenzo Lovers","steam_id":76561198073973581,"connected_time":1002000000000,"state":"active","ping":99},{"user_id":114,"name":"63756d","steam_id":76561198808699024,"connected_time":478000000000,"state":"active","ping":75},{"user_id":121,"name":"Narshil","steam_id":76561198069740584,"connected_time":106000000000,"state":"active","ping":150},{"user_id":91,"name":"swansong","steam_id":76561198082580561,"connected_time":1615000000000,"state":"active","ping":64},{"user_id":113,"name":"Domrix","steam_id":76561199112813880,"connected_time":550000000000,"state":"active","ping":35},{"user_id":110,"name":"dbl290","steam_id":76561199016925320,"connected_time":897000000000,"state":"active","ping":62},{"user_id":115,"name":"OhMyGrosch","steam_id":76561198361193051,"connected_time":409000000000,"state":"active","ping":65},{"user_id":80,"name":"burn1n9","steam_id":76561198264195521,"connected_time":2357000000000,"state":"active","ping":75},{"user_id":111,"name":"Viv","steam_id":76561198199110998,"connected_time":818000000000,"state":"active","ping":53},{"user_id":112,"name":"MEGOS","steam_id":76561198172740637,"connected_time":719000000000,"state":"active","ping":67},{"user_id":93,"name":"‚ò≠ybercat","steam_id":76561198014070417,"connected_time":1563000000000,"state":"active","ping":62},{"user_id":117,"name":"Lennox","steam_id":76561198069063554,"connected_time":373000000000,"state":"active","ping":59},{"user_id":118,"name":"redtails","steam_id":76561199093658521,"connected_time":334000000000,"state":"active","ping":111},{"user_id":94,"name":"Reflix Destiny","steam_id":76561198312109038,"connected_time":1551000000000,"state":"active","ping":75}]},{"server_id":52,"name":"Uncletopia | Warsaw | 4 | All Maps","name_short":"waw-4","host":"waw-1.pl.uncletopia.com","port":27045,"enabled":true,"region":"eu","cc":"pl","latitude":52.2297,"longitude":21.017532,"reserved":0,"last_update":"0001-01-01T00:00:00Z","name_a2s":"Uncletopia | Warsaw | 4 | All Maps","protocol":17,"map":"pl_snowycoast","folder":"tf","game":"Team Fortress","app_id":440,"player_count":0,"max_players":24,"Bots":0,"server_type":"Dedicated","server_os":"Linux","password":true,"vac":true,"version":"7961495","steam_id":85568392925397853,"keywords":["nocrits","nodmgspread","payload","uncletopia"],"game_id":440,"stv_port":27046,"stv_name":"Uncletopia | Warsaw | 4 | All Maps | STV","players":null},{"server_id":53,"name":"Uncletopia | Warsaw | 5 | Stopwatch","name_short":"waw-5","host":"waw-1.pl.uncletopia.com","port":27055,"enabled":true,"region":"eu","cc":"pl","latitude":52.2297,"longitude":21.017532,"reserved":0,"last_update":"0001-01-01T00:00:00Z","name_a2s":"Uncletopia | Warsaw | 5 | Stopwatch","protocol":17,"map":"workshop/pl_barnblitz_pro7.ugc582280235","folder":"tf","game":"Team Fortress","app_id":440,"player_count":0,"max_players":24,"Bots":0,"server_type":"Dedicated","server_os":"Linux","password":true,"vac":true,"version":"7961495","steam_id":85568392925397854,"keywords":["nocrits","nodmgspread","payload","uncletopia"],"game_id":440,"stv_port":27056,"stv_name":"Uncletopia | Warsaw | 5 | Stopwatch | STV","players":null},{"server_id":54,"name":"Uncletopia | Warsaw | 6 | Community","name_short":"waw-6","host":"waw-1.pl.uncletopia.com","port":27065,"enabled":true,"region":"eu","cc":"pl","latitude":52.2297,"longitude":21.017532,"reserved":0,"last_update":"0001-01-01T00:00:00Z","name_a2s":"Uncletopia | Warsaw | 6 | Community","protocol":17,"map":"workshop/koth_synthetic_rc6a.ugc1549817316","folder":"tf","game":"Team Fortress","app_id":440,"player_count":2,"max_players":24,"Bots":0,"server_type":"Dedicated","server_os":"Linux","password":true,"vac":true,"version":"7961495","steam_id":85568392925397856,"keywords":["cp","nocrits","nodmgspread","uncletopia"],"game_id":440,"stv_port":27066,"stv_name":"Uncletopia | Warsaw | 6 | Community | STV","players":[{"user_id":23,"name":"Amethyst","steam_id":76561198965322102,"connected_time":1909000000000,"state":"active","ping":50},{"user_id":24,"name":"Ritt","steam_id":76561199246275928,"connected_time":1872000000000,"state":"active","ping":44}]}]}