{"status":true,"message":"","result":[{"server_id":9,"name":"Uncletopia | Atlanta | 1 | All Maps","name_short":"atl-1","host":"atl-1.us.uncletopia.com","port":27015,"enabled":true,"region":"us-east","cc":"us","latitude":33.753746,"longitude":-84.38633,"reserved":0,"last_update":"0001-01-01T00:00:00Z","name_a2s":"Uncletopia | Atlanta | 1 | All Maps","protocol":17,"map":"pl_swiftwater_final1","folder":"tf","game":"Team Fortress","app_id":440,"player_count":0,"max_players":24,"Bots":0,"server_type":"Dedicated","server_os":"Linux","password":true,"vac":true,"version":"7932396","steam_id":85568392924469982,"keywords":["nocrits","nodmgspread","payload","uncletopia"],"game_id":440,"stv_port":27016,"stv_name":"Uncletopia | Atlanta | 1 | All Maps | STV","players":null},{"server_id":104,"name":"Uncletopia | Atlanta | 2 | All Maps","name_short":"atl-2","host":"atl-1.us.uncletopia.com","port":27025,"enabled":true,"region":"us-east","cc":"us","latitude":33.753746,"longitude":-84.38633,"reserved":0,"last_update":"0001-01-01T00:00:00Z","name_a2s":"Uncletopia | Atlanta | 2 | All Maps","protocol":17,"map":"cp_altitude","folder":"tf","game":"Team Fortress","app_id":440,"player_count":18,"max_players":24,"Bots":0,"server_type":"Dedicated","server_os":"Linux","password":true,"vac":true,"version":"7932396","steam_id":85568392924469983,"keywords":["cp","nocrits","nodmgspread","uncletopia"],"game_id":440,"stv_port":27026,"stv_name":"Uncletopia | Atlanta | 2 | All Maps | STV","players":[{"user_id":389,"name":"JohnnyGitGud","steam_id":76561198401455467,"connected_time":342000000000,"state":"active","ping":125},{"user_id":377,"name":"skent6621","steam_id":76561199210134404,"connected_time":597000000000,"state":"active","ping":81},{"user_id":387,"name":"presto.369","steam_id":76561198853852443,"connected_time":376000000000,"state":"active","ping":105},{"user_id":343,"name":"Zero","steam_id":76561198064142285,"connected_time":1423000000000,"state":"active","ping":105},{"user_id":376,"name":"Homewrecker Hobo","steam_id":76561199218800448,"connected_time":642000000000,"state":"active","ping":91},{"user_id":394,"name":"Sous-Chef","steam_id":76561198075705827,"connected_time":242000000000,"state":"active","ping":82},{"user_id":379,"name":"Gregor","steam_id":76561199474923376,"connected_time":525000000000,"state":"active","ping":199},{"user_id":391,"name":"fudge lord","steam_id":76561198118318422,"connected_time":300000000000,"state":"active","ping":84},{"user_id":345,"name":"AnnieM","steam_id":76561199435467297,"connected_time":1384000000000,"state":"active","ping":89},{"user_id":380,"name":"panziemniak466","steam_id":76561199140876865,"connected_time":507000000000,"state":"active","ping":251},{"user_id":392,"name":"noided","steam_id":76561198353924837,"connected_time":266000000000,"state":"active","ping":104},{"user_id":297,"name":"AGL Lr Nappa","steam_id":76561198313627753,"connected_time":2485000000000,"state":"active","ping":86},{"user_id":365,"name":"Chosen","steam_id":76561198443525987,"connected_time":874000000000,"state":"active","ping":104},{"user_id":393,"name":"Literally a Trans Woman","steam_id":76561198054639925,"connected_time":262000000000,"state":"active","ping":91},{"user_id":347,"name":"PileofPolygons","steam_id":76561199321343460,"connected_time":1283000000000,"state":"active","ping":79},{"user_id":395,"name":"A French Man With a Gun","steam_id":76561198373893302,"connected_time":200000000000,"state":"active","ping":76},{"user_id":352,"name":"Zixzs","steam_id":76561198055504126,"connected_time":1137000000000,"state":"active","ping":101},{"user_id":401,"name":"mencky","steam_id":76561198879636097,"connected_time":117000000000,"state":"active","ping":93}]},{"server_id":400,"name":"Uncletopia | Atlanta | 3 | Community","name_short":"atl-3","host":"atl-1.us.uncletopia.com","port":27035,"enabled":true,"region":"us-east","cc":"us","latitude":33.753746,"longitude":-84.38633,"reserved":0,"last_update":"0001-01-01T00:00:00Z","name_a2s":"Uncletopia | Atlanta | 3 | Community","protocol":17,"map":"workshop/pl_cashworks_final1.ugc2904065412","folder":"tf","game":"Team Fortress","app_id":440,"player_count":13,"max_players":24,"Bots":0,"server_type":"Dedicated","server_os":"Linux","password":true,"vac":true,"version":"7932396","steam_id":85568392924515187,"keywords":["nocrits","nodmgspread","payload","uncletopia"],"game_id":440,"stv_port":27036,"stv_name":"Uncletopia | Atlanta | 3 | Community | STV","players":[{"user_id":5,"name":"Smams","steam_id":76561198262368084,"connected_time":4367000000000,"state":"active","ping":218},{"user_id":59,"name":"Sup m8","steam_id":76561198081659121,"connected_time":254000000000,"state":"active","ping":70},{"user_id":60,"name":"Thot Police","steam_id":76561198084299100,"connected_time":220000000000,"state":"active","ping":90},{"user_id":9,"name":"Mr. Moron","steam_id":76561198051506011,"connected_time":2387000000000,"state":"active","ping":115},{"user_id":13,"name":"Atro","steam_id":76561198097994547,"connected_time":2321000000000,"state":"active","ping":130},{"user_id":61,"name":"Tobeyism","steam_id":76561199052406233,"connected_time":170000000000,"state":"active","ping":224},{"user_id":16,"name":"Skyrim killable children mod","steam_id":76561198862836173,"connected_time":1992000000000,"state":"active","ping":149},{"user_id":17,"name":"180p","steam_id":76561198342171751,"connected_time":1957000000000,"state":"active","ping":108},{"user_id":54,"name":"The Rizzard of Oz","steam_id":76561198844759286,"connected_time":362000000000,"state":"active","ping":100},{"user_id":24,"name":"Full Funny (Max Power)","steam_id":76561198409099827,"connected_time":1392000000000,"state":"active","ping":99},{"user_id":25,"name":"YoursTruely","steam_id":76561198072129131,"connected_time":1374000000000,"state":"active","ping":104},{"user_id":33,"name":"Firerise9402","steam_id":76561199158500661,"connected_time":923000000000,"state":"active","ping":76},{"user_id":48,"name":"Surgicalsubset","steam_id":76561198983418107,"connected_time":517000000000,"state":"active","ping":99}]},{"server_id":401,"name":"Uncletopia | Atlanta | 4 | No Payload","name_short":"atl-4","host":"atl-1.us.uncletopia.com","port":27045,"enabled":true,"region":"us-east","cc":"us","latitude":33.753746,"longitude":-84.38633,"reserved":0,"last_update":"0001-01-01T00:00:00Z","name_a2s":"","protocol":0,"map":"","folder":"","game":"","app_id":0,"player_count":0,"max_players":0,"Bots":0,"server_type":"","server_os":"","password":false,"vac":false,"version":"","steam_id":0,"keywords":null,"game_id":0,"stv_port":0,"stv_name":"","players":null},{"server_id":2,"name":"Uncletopia | Chicago | 1 | All Maps","name_short":"chi-1","host":"chi-1.us.uncletopia.com","port":27015,"enabled":true,"region":"us-central","cc":"us","latitude":41.881832,"longitude":-87.62318,"reserved":0,"last_update":"0001-01-01T00:00:00Z","name_a2s":"Uncletopia | Chicago | 1 | All Maps","protocol":17,"map":"ctf_2fort","folder":"tf","game":"Team Fortress","app_id":440,"player_count":24,"max_players":24,"Bots":0,"server_type":"Dedicated","server_os":"Linux","password":true,"vac":true,"version":"7932396","steam_id":85568392924469984,"keywords":["ctf","nocrits","nodmgspread","uncletopia"],"game_id":440,"stv_port":27016,"stv_name":"Uncletopia | Chicago | 1 | All Maps | STV","players":[{"user_id":321,"name":"msay","steam_id":76561198170888029,"connected_time":133000000000,"state":"active","ping":98},{"user_id":323,"name":"Temujin","steam_id":76561198030936583,"connected_time":70000000000,"state":"active","ping":48},{"user_id":308,"name":"mikegilkey2","steam_id":76561198118561757,"connected_time":1134000000000,"state":"active","ping":99},{"user_id":301,"name":"Ritzy","steam_id":76561198381955342,"connected_time":2648000000000,"state":"active","ping":139},{"user_id":319,"name":"blob","steam_id":76561198122375328,"connected_time":186000000000,"state":"active","ping":56},{"user_id":288,"name":"Unrefined Milk","steam_id":76561197986051713,"connected_time":3743000000000,"state":"active","ping":82},{"user_id":299,"name":"Ark","steam_id":76561198053000340,"connected_time":2663000000000,"state":"active","ping":58},{"user_id":287,"name":"Help! I'm Underwater!","steam_id":76561198030291655,"connected_time":4156000000000,"state":"active","ping":47},{"user_id":314,"name":"TeeTree","steam_id":76561198862307874,"connected_time":557000000000,"state":"active","ping":59},{"user_id":291,"name":"Doctor Emerald(real)","steam_id":76561199123003872,"connected_time":3731000000000,"state":"active","ping":89},{"user_id":313,"name":"your neighbour's garden gnome","steam_id":76561199037050183,"connected_time":571000000000,"state":"active","ping":91},{"user_id":322,"name":"[]{}#^*+=","steam_id":76561198127039453,"connected_time":110000000000,"state":"active","ping":98},{"user_id":294,"name":"Tomcouger","steam_id":76561198022866923,"connected_time":3564000000000,"state":"active","ping":133},{"user_id":271,"name":"TheDapperTaco","steam_id":76561199103076602,"connected_time":5189000000000,"state":"active","ping":153},{"user_id":278,"name":"‚ô•Bunny‚ô•Slut‚ô•","steam_id":76561198206376851,"connected_time":5040000000000,"state":"active","ping":81},{"user_id":317,"name":"Mr. Baseball","steam_id":76561198112635823,"connected_time":306000000000,"state":"active","ping":115},{"user_id":306,"name":"Jelo Waso","steam_id":76561198261929108,"connected_time":1543000000000,"state":"active","ping":89},{"user_id":302,"name":"Lego Yoda","steam_id":76561199008362890,"connected_time":2638000000000,"state":"active","ping":61},{"user_id":242,"name":"get scrongled, idiot","steam_id":76561198115874625,"connected_time":6944000000000,"state":"active","ping":63},{"user_id":257,"name":"Ashes!","steam_id":76561197998475441,"connected_time":6158000000000,"state":"active","ping":86},{"user_id":297,"name":"Oddo","steam_id":76561198044933428,"connected_time":2877000000000,"state":"active","ping":155},{"user_id":289,"name":"Barbados Slim","steam_id":76561199483183459,"connected_time":3742000000000,"state":"active","ping":88},{"user_id":312,"name":"Saucy Boy","steam_id":76561198178332031,"connected_time":1003000000000,"state":"active","ping":73},{"user_id":292,"name":"Aeonspassed","steam_id":76561198014016451,"connected_time":3731000000000,"state":"active","ping":48}]},{"server_id":106,"name":"Uncletopia | Chicago | 2 | All Maps","name_short":"chi-2","host":"chi-1.us.uncletopia.com","port":27025,"enabled":true,"region":"us-central","cc":"us","latitude":41.881832,"longitude":-87.62318,"reserved":0,"last_update":"0001-01-01T00:00:00Z","name_a2s":"Uncletopia | Chicago | 2 | All Maps","protocol":17,"map":"cp_process_final","folder":"tf","game":"Team Fortress","app_id":440,"player_count":25,"max_players":24,"Bots":0,"server_type":"Dedicated","server_os":"Linux","password":true,"vac":true,"version":"7932396","steam_id":85568392924469985,"keywords":["cp","nocrits","nodmgspread","uncletopia"],"game_id":440,"stv_port":27026,"stv_name":"Uncletopia | Chicago | 2 | All Maps | STV","players":[{"user_id":213,"name":"Argo","steam_id":76561198353725622,"connected_time":4901000000000,"state":"active","ping":72},{"user_id":217,"name":"Norman","steam_id":76561198154715990,"connected_time":4465000000000,"state":"active","ping":106},{"user_id":202,"name":"wack","steam_id":76561198095697330,"connected_time":5106000000000,"state":"active","ping":87},{"user_id":260,"name":"GaMeRbOi","steam_id":76561199094353617,"connected_time":1519000000000,"state":"active","ping":109},{"user_id":239,"name":"his flatulence","steam_id":76561198799404824,"connected_time":2749000000000,"state":"active","ping":74},{"user_id":258,"name":"Genuine","steam_id":76561198253471115,"connected_time":1731000000000,"state":"active","ping":69},{"user_id":251,"name":"asbestos","steam_id":76561198079178866,"connected_time":1939000000000,"state":"active","ping":70},{"user_id":276,"name":"sad boi","steam_id":76561198395577807,"connected_time":23000000000,"state":"active","ping":64},{"user_id":234,"name":"God","steam_id":76561198131089513,"connected_time":3039000000000,"state":"active","ping":52},{"user_id":261,"name":"Phantis_Squid","steam_id":76561199428864090,"connected_time":1514000000000,"state":"active","ping":69},{"user_id":273,"name":"ABZ Gamer","steam_id":76561199027227636,"connected_time":301000000000,"state":"active","ping":70},{"user_id":264,"name":"OttotheTomato","steam_id":76561198272610597,"connected_time":1469000000000,"state":"active","ping":67},{"user_id":248,"name":"gravid baby","steam_id":76561198318646867,"connected_time":2289000000000,"state":"active","ping":62},{"user_id":274,"name":"FishGod","steam_id":76561198056156434,"connected_time":148000000000,"state":"active","ping":65},{"user_id":252,"name":"Boomer Gaming","steam_id":76561198037803087,"connected_time":1922000000000,"state":"active","ping":71},{"user_id":246,"name":"1000000","steam_id":76561198360134800,"connected_time":2466000000000,"state":"active","ping":75},{"user_id":226,"name":"L + Ratio","steam_id":76561198263786953,"connected_time":3581000000000,"state":"active","ping":88},{"user_id":218,"name":"gerry0107","steam_id":76561198277578620,"connected_time":4323000000000,"state":"active","ping":72},{"user_id":242,"name":"Wigl","steam_id":76561198019324464,"connected_time":2682000000000,"state":"active","ping":55},{"user_id":275,"name":"Ranger Plague","steam_id":76561198174647666,"connected_time":137000000000,"state":"active","ping":90},{"user_id":201,"name":"Mr. Durian","steam_id":76561198093813212,"connected_time":5275000000000,"state":"active","ping":83},{"user_id":243,"name":"Bon Gripper","steam_id":76561198090074621,"connected_time":2625000000000,"state":"active","ping":63},{"user_id":272,"name":"Sir Loincloth","steam_id":76561198033073991,"connected_time":887000000000,"state":"active","ping":75},{"user_id":245,"name":"Brawns","steam_id":76561198045190199,"connected_time":2601000000000,"state":"active","ping":73},{"user_id":278,"name":"A_Malebolgia","steam_id":76561198097722818,"connected_time":7000000000,"state":"spawning","ping":75}]},{"server_id":402,"name":"Uncletopia | Chicago | 3 | All Maps","name_short":"chi-3","host":"chi-1.us.uncletopia.com","port":27035,"enabled":true,"region":"us-central","cc":"us","latitude":41.881832,"longitude":-87.62318,"reserved":0,"last_update":"0001-01-01T00:00:00Z","name_a2s":"Uncletopia | Chicago | 3 | All Maps","protocol":17,"map":"cp_mountainlab","folder":"tf","game":"Team Fortress","app_id":440,"player_count":0,"max_players":24,"Bots":0,"server_type":"Dedicated","server_os":"Linux","password":true,"vac":true,"version":"7932396","steam_id":85568392924515191,"keywords":["cp","nocrits","nodmgspread","uncletopia"],"game_id":440,"stv_port":27036,"stv_name":"Uncletopia | Chicago | 3 | All Maps | STV","players":null},{"server_id":403,"name":"Uncletopia | Chicago | 4 | All Maps","name_short":"chi-4","host":"chi-1.us.uncletopia.com","port":27045,"enabled":true,"region":"us-central","cc":"us","latitude":41.881832,"longitude":-87.62318,"reserved":0,"last_update":"0001-01-01T00:00:00Z","name_a2s":"Uncletopia | Chicago | 4 | All Maps","protocol":17,"map":"cp_sunshine","folder":"tf","game":"Team Fortress","app_id":440,"player_count":0,"max_players":24,"Bots":0,"server_type":"Dedicated","server_os":"Linux","password":true,"vac":true,"version":"7932396","steam_id":85568392924515193,"keywords":["cp","nocrits","nodmgspread","uncletopia"],"game_id":440,"stv_port":27046,"stv_name":"Uncletopia | Chicago | 4 | All Maps | STV","players":null},{"server_id":36,"name":"Uncletopia | Chicago | 5 | All Maps","name_short":"chi-5","host":"chi-2.us.uncletopia.com","port":27015,"enabled":true,"region":"us-central","cc":"us","latitude":41.881832,"longitude":-87.62318,"reserved":0,"last_update":"0001-01-01T00:00:00Z","name_a2s":"Uncletopia | Chicago | 5 | All Maps","protocol":17,"map":"pl_badwater","folder":"tf","game":"Team Fortress","app_id":440,"player_count":0,"max_players":24,"Bots":0,"server_type":"Dedicated","server_os":"Linux","password":true,"vac":true,"version":"7932396","steam_id":85568392924866362,"keywords":["nocrits","nodmgspread","payload","uncletopia"],"game_id":440,"stv_port":27016,"stv_name":"Uncletopia | Chicago | 5 | All Maps | STV","players":null},{"server_id":37,"name":"Uncletopia | Chicago | 6 | All Maps","name_short":"chi-6","host":"chi-2.us.uncletopia.com","port":27025,"enabled":true,"region":"us-central","cc":"us","latitude":41.881832,"longitude":-87.62318,"reserved":0,"last_update":"0001-01-01T00:00:00Z","name_a2s":"Uncletopia | Chicago | 6 | All Maps","protocol":17,"map":"pl_pier","folder":"tf","game":"Team Fortress","app_id":440,"player_count":19,"max_players":24,"Bots":0,"server_type":"Dedicated","server_os":"Linux","password":true,"vac":true,"version":"7932396","steam_id":85568392924866363,"keywords":["nocrits","nodmgspread","payload","uncletopia"],"game_id":440,"stv_port":27026,"stv_name":"Uncletopia | Chicago | 6 | All Maps | STV","players":[{"user_id":17,"name":"old birb man","steam_id":76561199410269097,"connected_time":939000000000,"state":"active","ping":163},{"user_id":20,"name":"xiii","steam_id":76561198079416036,"connected_time":724000000000,"state":"active","ping":44},{"user_id":7,"name":"doamgeo468","steam_id":76561199485287045,"connected_time":1944000000000,"state":"active","ping":81},{"user_id":19,"name":"freyja","steam_id":76561198249206656,"connected_time":891000000000,"state":"active","ping":74},{"user_id":21,"name":"SandBaked","steam_id":76561198134208585,"connected_time":579000000000,"state":"active","ping":58},{"user_id":22,"name":"swaj","steam_id":76561198171016351,"connected_time":573000000000,"state":"active","ping":55},{"user_id":23,"name":"Lou Dog","steam_id":76561198300510921,"connected_time":572000000000,"state":"active","ping":76},{"user_id":25,"name":"Guess I'm just popo","steam_id":76561197966419253,"connected_time":378000000000,"state":"active","ping":74},{"user_id":26,"name":"Yam Jazzy Jim","steam_id":76561198000788950,"connected_time":186000000000,"state":"active","ping":60},{"user_id":35,"name":"dak","steam_id":76561198076596506,"connected_time":43000000000,"state":"active","ping":60},{"user_id":28,"name":"Zeroast","steam_id":76561198314750115,"connected_time":126000000000,"state":"active","ping":69},{"user_id":29,"name":"Indigolake","steam_id":76561198202215807,"connected_time":114000000000,"state":"active","ping":87},{"user_id":30,"name":"Milkmur","steam_id":76561198210043821,"connected_time":92000000000,"state":"active","ping":67},{"user_id":31,"name":"ÈáåËäã - Tarooo","steam_id":76561198392986348,"connected_time":92000000000,"state":"active","ping":104},{"user_id":32,"name":"SleepyCanary","steam_id":76561198071770434,"connected_time":79000000000,"state":"active","ping":119},{"user_id":33,"name":"Wrench","steam_id":76561198132448838,"connected_time":69000000000,"state":"active","ping":68},{"user_id":34,"name":"Nephi","steam_id":76561198031525122,"connected_time":54000000000,"state":"active","ping":88},{"user_id":36,"name":"Patriarch","steam_id":76561198440302109,"connected_time":24000000000,"state":"spawning","ping":47},{"user_id":37,"name":"DoubleTee","steam_id":76561198018980347,"connected_time":4000000000,"state":"spawning","ping":55}]},{"server_id":38,"name":"Uncletopia | Chicago | 7 | Stopwatch Beta","name_short":"chi-7","host":"chi-2.us.uncletopia.com","port":27035,"enabled":true,"region":"us-central","cc":"us","latitude":41.881832,"longitude":-87.62318,"reserved":0,"last_update":"0001-01-01T00:00:00Z","name_a2s":"Uncletopia | Chicago | 7 | Stopwatch Beta","protocol":17,"map":"pl_borneo","folder":"tf","game":"Team Fortress","app_id":440,"player_count":0,"max_players":24,"Bots":0,"server_type":"Dedicated","server_os":"Linux","password":true,"vac":true,"version":"7932396","steam_id":85568392924866364,"keywords":["nocrits","nodmgspread","payload","uncletopia"],"game_id":440,"stv_port":27036,"stv_name":"Uncletopia | Chicago | 7 | Stopwatch Beta | STV","players":null},{"server_id":39,"name":"Uncletopia | Chicago | 8 | Community","name_short":"chi-8","host":"chi-2.us.uncletopia.com","port":27045,"enabled":true,"region":"us-central","cc":"us","latitude":41.881832,"longitude":-87.62318,"reserved":0,"last_update":"0001-01-01T00:00:00Z","name_a2s":"Uncletopia | Chicago | 8 | Community","protocol":17,"map":"workshop/pl_badwater_pro_v12.ugc2142942074","folder":"tf","game":"Team Fortress","app_id":440,"player_count":24,"max_players":24,"Bots":0,"server_type":"Dedicated","server_os":"Linux","password":true,"vac":true,"version":"7932396","steam_id":85568392924866365,"keywords":["nocrits","nodmgspread","payload","uncletopia"],"game_id":440,"stv_port":27046,"stv_name":"Uncletopia | Chicago | 8 | Community | STV","players":[{"user_id":79,"name":"jayzak24","steam_id":76561198354267509,"connected_time":1083000000000,"state":"active","ping":75},{"user_id":91,"name":"money maker","steam_id":76561198241948526,"connected_time":279000000000,"state":"active","ping":69},{"user_id":62,"name":"mogwaihudson","steam_id":76561199486770715,"connected_time":2504000000000,"state":"active","ping":135},{"user_id":84,"name":"Lemonade Juice","steam_id":76561198402892608,"connected_time":666000000000,"state":"active","ping":99},{"user_id":15,"name":"warm soda","steam_id":76561199221896617,"connected_time":5186000000000,"state":"active","ping":67},{"user_id":40,"name":"Rornir","steam_id":76561198081829615,"connected_time":3665000000000,"state":"active","ping":42},{"user_id":92,"name":"ADRIEN BRODY","steam_id":76561198009299473,"connected_time":152000000000,"state":"active","ping":68},{"user_id":80,"name":"gmaay","steam_id":76561199104911185,"connected_time":994000000000,"state":"active","ping":72},{"user_id":81,"name":"whimsical little creature","steam_id":76561198271710504,"connected_time":941000000000,"state":"active","ping":55},{"user_id":89,"name":"UnReLinked","steam_id":76561199366044663,"connected_time":410000000000,"state":"active","ping":103},{"user_id":86,"name":"Robert","steam_id":76561198133200895,"connected_time":650000000000,"state":"active","ping":60},{"user_id":55,"name":"Farm3rJh0nson","steam_id":76561199166153873,"connected_time":2928000000000,"state":"active","ping":87},{"user_id":76,"name":"LToschi","steam_id":76561198124099320,"connected_time":1300000000000,"state":"active","ping":67},{"user_id":50,"name":"gorf?","steam_id":76561198142286417,"connected_time":3320000000000,"state":"active","ping":59},{"user_id":67,"name":"CHAIRMAN MAO GAMING","steam_id":76561198066018972,"connected_time":2185000000000,"state":"active","ping":75},{"user_id":61,"name":"BoX_hEaD101","steam_id":76561198200875467,"connected_time":2576000000000,"state":"active","ping":118},{"user_id":87,"name":"Tlaloc","steam_id":76561198375215983,"connected_time":577000000000,"state":"active","ping":120},{"user_id":72,"name":"Hipster Killer","steam_id":76561198068569249,"connected_time":1549000000000,"state":"active","ping":105},{"user_id":88,"name":"cc","steam_id":76561199215821942,"connected_time":448000000000,"state":"active","ping":74},{"user_id":70,"name":"Colin102004","steam_id":76561198202384334,"connected_time":1751000000000,"state":"active","ping":57},{"user_id":90,"name":"selvhat","steam_id":76561198114225509,"connected_time":394000000000,"state":"active","ping":100},{"user_id":36,"name":"Young ZALES","steam_id":76561198114207768,"connected_time":3850000000000,"state":"active","ping":61},{"user_id":68,"name":"kiv","steam_id":76561198838223023,"connected_time":2179000000000,"state":"active","ping":59},{"user_id":77,"name":"peee pee man","steam_id":76561198044979205,"connected_time":1297000000000,"state":"active","ping":74}]},{"server_id":8,"name":"Uncletopia | Dallas | 1 | All Maps","name_short":"dal-1","host":"dal-1.us.uncletopia.com","port":27015,"enabled":true,"region":"us-central","cc":"us","latitude":32.779167,"longitude":-96.80889,"reserved":0,"last_update":"0001-01-01T00:00:00Z","name_a2s":"Uncletopia | Dallas | 1 | All Maps","protocol":17,"map":"koth_cascade","folder":"tf","game":"Team Fortress","app_id":440,"player_count":2,"max_players":24,"Bots":0,"server_type":"Dedicated","server_os":"Linux","password":true,"vac":true,"version":"7932396","steam_id":85568392924469986,"keywords":["cp","nocrits","nodmgspread","uncletopia"],"game_id":440,"stv_port":27016,"stv_name":"Uncletopia | Dallas | 1 | All Maps | STV","players":[{"user_id":19,"name":"„Ç∏Kiloe„Ç∏","steam_id":76561199084636926,"connected_time":317000000000,"state":"active","ping":109},{"user_id":15,"name":"stupid bastard","steam_id":76561199195104977,"connected_time":903000000000,"state":"active","ping":77}]},{"server_id":108,"name":"Uncletopia | Dallas | 2 | All Maps","name_short":"dal-2","host":"dal-1.us.uncletopia.com","port":27025,"enabled":true,"region":"us-central","cc":"us","latitude":32.779167,"longitude":-96.80889,"reserved":0,"last_update":"0001-01-01T00:00:00Z","name_a2s":"Uncletopia | Dallas | 2 | All Maps","protocol":17,"map":"pl_badwater","folder":"tf","game":"Team Fortress","app_id":440,"player_count":0,"max_players":24,"Bots":0,"server_type":"Dedicated","server_os":"Linux","password":true,"vac":true,"version":"7932396","steam_id":85568392924469988,"keywords":["nocrits","nodmgspread","payload","uncletopia"],"game_id":440,"stv_port":27026,"stv_name":"Uncletopia | Dallas | 2 | All Maps | STV","players":null},{"server_id":5,"name":"Uncletopia | Frankfurt | 1 | All Maps","name_short":"frk-1","host":"frk-1.de.uncletopia.com","port":27015,"enabled":true,"region":"eu","cc":"de","latitude":50.110924,"longitude":8.682127,"reserved":0,"last_update":"0001-01-01T00:00:00Z","name_a2s":"Uncletopia | Frankfurt | 1 | All Maps","protocol":17,"map":"pl_frontier_final","folder":"tf","game":"Team Fortress","app_id":440,"player_count":24,"max_players":24,"Bots":0,"server_type":"Dedicated","server_os":"Linux","password":true,"vac":true,"version":"7932396","steam_id":85568392924469989,"keywords":["nocrits","nodmgspread","payload","uncletopia"],"game_id":440,"stv_port":27016,"stv_name":"Uncletopia | Frankfurt | 1 | All Maps | STV","players":[{"user_id":398,"name":"Peter","steam_id":76561198165604007,"connected_time":3113000000000,"state":"active","ping":57},{"user_id":469,"name":"imrealylazy","steam_id":76561198878574518,"connected_time":429000000000,"state":"active","ping":61},{"user_id":453,"name":"askulap","steam_id":76561197992018795,"connected_time":788000000000,"state":"active","ping":75},{"user_id":472,"name":"Mr. Mustard","steam_id":76561198025185606,"connected_time":90000000000,"state":"active","ping":63},{"user_id":428,"name":"XuMuK","steam_id":76561198102102340,"connected_time":1310000000000,"state":"active","ping":76},{"user_id":437,"name":"Wdfrodo","steam_id":76561198985647263,"connected_time":1046000000000,"state":"active","ping":70},{"user_id":441,"name":"B19-PP","steam_id":76561198057733920,"connected_time":966000000000,"state":"active","ping":115},{"user_id":470,"name":"puck ist doof","steam_id":76561198121260981,"connected_time":419000000000,"state":"active","ping":75},{"user_id":429,"name":"Krefa12","steam_id":76561198268375393,"connected_time":1262000000000,"state":"active","ping":87},{"user_id":474,"name":"Invoker-sama","steam_id":76561198128470403,"connected_time":18000000000,"state":"spawning","ping":111},{"user_id":414,"name":"Poozie","steam_id":76561198075914947,"connected_time":2257000000000,"state":"active","ping":78},{"user_id":471,"name":"Leszy","steam_id":76561198372172135,"connected_time":384000000000,"state":"active","ping":61},{"user_id":465,"name":"BRICK TOP","steam_id":76561198014366715,"connected_time":523000000000,"state":"active","ping":56},{"user_id":473,"name":"EtoGeek","steam_id":76561198020304242,"connected_time":31000000000,"state":"active","ping":55},{"user_id":475,"name":"mr cock","steam_id":76561198857396812,"connected_time":15000000000,"state":"active","ping":44},{"user_id":442,"name":"One-Face","steam_id":76561197999384826,"connected_time":932000000000,"state":"active","ping":47},{"user_id":443,"name":"scarybroccoli","steam_id":76561198996934524,"connected_time":924000000000,"state":"active","ping":109},{"user_id":464,"name":"My left foot itches","steam_id":76561198078411001,"connected_time":546000000000,"state":"active","ping":80},{"user_id":477,"name":"miiq130","steam_id":76561198188010666,"connected_time":5000000000,"state":"spawning","ping":64},{"user_id":435,"name":"domek brexit geezerüá¨üáß","steam_id":76561198048447632,"connected_time":1132000000000,"state":"active","ping":60},{"user_id":456,"name":"Dadian1","steam_id":76561198294356761,"connected_time":728000000000,"state":"active","ping":121},{"user_id":434,"name":"socaramel","steam_id":76561197984480336,"connected_time":1153000000000,"state":"active","ping":110},{"user_id":436,"name":"Eqxd","steam_id":76561199055592635,"connected_time":1130000000000,"state":"active","ping":86},{"user_id":364,"name":"Kepucz","steam_id":76561197977634244,"connected_time":5246000000000,"state":"active","ping":57}]},{"server_id":110,"name":"Uncletopia | Frankfurt | 2 | All Maps","name_short":"frk-2","host":"frk-1.de.uncletopia.com","port":27025,"enabled":true,"region":"eu","cc":"de","latitude":50.110924,"longitude":8.682127,"reserved":0,"last_update":"0001-01-01T00:00:00Z","name_a2s":"Uncletopia | Frankfurt | 2 | All Maps","protocol":17,"map":"pl_pier","folder":"tf","game":"Team Fortress","app_id":440,"player_count":24,"max_players":24,"Bots":0,"server_type":"Dedicated","server_os":"Linux","password":true,"vac":true,"version":"7932396","steam_id":85568392924469990,"keywords":["nocrits","nodmgspread","payload","uncletopia"],"game_id":440,"stv_port":27026,"stv_name":"Uncletopia | Frankfurt | 2 | All Maps | STV","players":[{"user_id":232,"name":"EagleDeath","steam_id":76561198282441198,"connected_time":512000000000,"state":"active","ping":64},{"user_id":163,"name":"Hexagon","steam_id":76561198151205758,"connected_time":5378000000000,"state":"active","ping":47},{"user_id":197,"name":"Narwhal","steam_id":76561199489020776,"connected_time":2754000000000,"state":"active","ping":58},{"user_id":246,"name":"Doriian","steam_id":76561198071438810,"connected_time":2000000000,"state":"spawning","ping":69},{"user_id":235,"name":"Thors","steam_id":76561197968739075,"connected_time":449000000000,"state":"active","ping":46},{"user_id":229,"name":"Iva","steam_id":76561198254963150,"connected_time":1402000000000,"state":"active","ping":55},{"user_id":236,"name":"filo","steam_id":76561198103633797,"connected_time":422000000000,"state":"active","ping":77},{"user_id":230,"name":"MrClyde","steam_id":76561198132627420,"connected_time":1392000000000,"state":"active","ping":60},{"user_id":244,"name":"Nornia","steam_id":76561198040509712,"connected_time":160000000000,"state":"active","ping":60},{"user_id":200,"name":"Rizz","steam_id":76561198192135953,"connected_time":2464000000000,"state":"active","ping":84},{"user_id":203,"name":"Finnish Farmer","steam_id":76561198205366043,"connected_time":2391000000000,"state":"active","ping":80},{"user_id":237,"name":"Bill","steam_id":76561198293112566,"connected_time":421000000000,"state":"active","ping":81},{"user_id":193,"name":"AestheticalZ","steam_id":76561198269554197,"connected_time":2932000000000,"state":"active","ping":65},{"user_id":238,"name":"michinw","steam_id":76561199072541280,"connected_time":418000000000,"state":"active","ping":45},{"user_id":207,"name":"Wolfboy248","steam_id":76561199088257098,"connected_time":2358000000000,"state":"active","ping":60},{"user_id":231,"name":"Far ‚àû","steam_id":76561199166149359,"connected_time":1083000000000,"state":"active","ping":83},{"user_id":239,"name":"Marky","steam_id":76561199474556920,"connected_time":407000000000,"state":"active","ping":97},{"user_id":218,"name":"tallen","steam_id":76561198061708595,"connected_time":1994000000000,"state":"active","ping":87},{"user_id":240,"name":"Tywhip","steam_id":76561199207545191,"connected_time":394000000000,"state":"active","ping":59},{"user_id":241,"name":"Egor Pomidor","steam_id":76561199175688390,"connected_time":379000000000,"state":"active","ping":76},{"user_id":211,"name":"3 AM","steam_id":76561198410945277,"connected_time":2213000000000,"state":"active","ping":116},{"user_id":226,"name":"r06u3","steam_id":76561198254099253,"connected_time":1527000000000,"state":"active","ping":164},{"user_id":219,"name":"Check Your Posture!","steam_id":76561198097466136,"connected_time":1986000000000,"state":"active","ping":63},{"user_id":153,"name":"‚ôÇ Animan ‚ôÇ Studios ‚ôÇ","steam_id":76561198308302932,"connected_time":5620000000000,"state":"active","ping":105}]},{"server_id":308,"name":"Uncletopia | Frankfurt | 3 | All Maps","name_short":"frk-3","host":"frk-1.de.uncletopia.com","port":27035,"enabled":true,"region":"eu","cc":"de","latitude":50.110924,"longitude":8.682127,"reserved":0,"last_update":"0001-01-01T00:00:00Z","name_a2s":"Uncletopia | Frankfurt | 3 | All Maps","protocol":17,"map":"cp_altitude","folder":"tf","game":"Team Fortress","app_id":440,"player_count":0,"max_players":24,"Bots":0,"server_type":"Dedicated","server_os":"Linux","password":true,"vac":true,"version":"7932396","steam_id":85568392924504274,"keywords":["cp","nocrits","nodmgspread","uncletopia"],"game_id":440,"stv_port":27036,"stv_name":"Uncletopia | Frankfurt | 3 | All Maps | STV","players":null},{"server_id":309,"name":"Uncletopia | Frankfurt | 4 | All Maps","name_short":"frk-4","host":"frk-1.de.uncletopia.com","port":27045,"enabled":true,"region":"eu","cc":"de","latitude":50.110924,"longitude":8.682127,"reserved":0,"last_update":"0001-01-01T00:00:00Z","name_a2s":"Uncletopia | Frankfurt | 4 | All Maps","protocol":17,"map":"pl_frontier_final","folder":"tf","game":"Team Fortress","app_id":440,"player_count":24,"max_players":24,"Bots":0,"server_type":"Dedicated","server_os":"Linux","password":true,"vac":true,"version":"7932396","steam_id":85568392924504275,"keywords":["nocrits","nodmgspread","payload","uncletopia"],"game_id":440,"stv_port":27046,"stv_name":"Uncletopia | Frankfurt | 4 | All Maps | STV","players":[{"user_id":310,"name":"Valoxi","steam_id":76561197995042938,"connected_time":539000000000,"state":"active","ping":73},{"user_id":305,"name":"Moby Chick (F2P)","steam_id":76561198151152730,"connected_time":759000000000,"state":"active","ping":108},{"user_id":312,"name":"Lightboom","steam_id":76561198104645103,"connected_time":516000000000,"state":"active","ping":74},{"user_id":297,"name":"princess dvs","steam_id":76561198012901314,"connected_time":1299000000000,"state":"active","ping":97},{"user_id":216,"name":"Elsuedi","steam_id":76561198074722832,"connected_time":5924000000000,"state":"active","ping":54},{"user_id":306,"name":"wheatley","steam_id":76561199049838300,"connected_time":745000000000,"state":"active","ping":68},{"user_id":284,"name":"GrossViche","steam_id":76561198184620926,"connected_time":2052000000000,"state":"active","ping":59},{"user_id":252,"name":"Flamy?","steam_id":76561198024332838,"connected_time":3642000000000,"state":"active","ping":70},{"user_id":239,"name":"cuddles \u003c3","steam_id":76561198805181599,"connected_time":4315000000000,"state":"active","ping":69},{"user_id":275,"name":"Fat Pigeon","steam_id":76561198817940142,"connected_time":2419000000000,"state":"active","ping":54},{"user_id":301,"name":"StingyLettuce","steam_id":76561199010337406,"connected_time":1148000000000,"state":"active","ping":109},{"user_id":300,"name":"Sandvich","steam_id":76561199079493666,"connected_time":1191000000000,"state":"active","ping":128},{"user_id":313,"name":"t.tv/Montreetor","steam_id":76561198088729562,"connected_time":173000000000,"state":"active","ping":55},{"user_id":303,"name":"NonProphet","steam_id":76561198280149820,"connected_time":1001000000000,"state":"active","ping":75},{"user_id":307,"name":"r1ghty","steam_id":76561198022349611,"connected_time":736000000000,"state":"active","ping":122},{"user_id":308,"name":"CEO of Racism","steam_id":76561198211814371,"connected_time":726000000000,"state":"active","ping":81},{"user_id":288,"name":"kornetov.vitalya","steam_id":76561199286034833,"connected_time":1923000000000,"state":"active","ping":99},{"user_id":273,"name":"Eke","steam_id":76561198105248922,"connected_time":2864000000000,"state":"active","ping":98},{"user_id":309,"name":"kemor","steam_id":76561198027684291,"connected_time":688000000000,"state":"active","ping":47},{"user_id":292,"name":"Bloatlord","steam_id":76561198035821011,"connected_time":1791000000000,"state":"active","ping":61},{"user_id":304,"name":"skill based","steam_id":76561198341178432,"connected_time":818000000000,"state":"active","ping":51},{"user_id":278,"name":"nikkielmao","steam_id":76561198086229832,"connected_time":2367000000000,"state":"active","ping":62},{"user_id":291,"name":"Dolcelatte","steam_id":76561198038501770,"connected_time":1879000000000,"state":"active","ping":56},{"user_id":279,"name":"yuck","steam_id":76561197987249568,"connected_time":2327000000000,"state":"active","ping":104}]},{"server_id":310,"name":"Uncletopia | Frankfurt | 5 | All Maps","name_short":"frk-5","host":"frk-1.de.uncletopia.com","port":27055,"enabled":true,"region":"eu","cc":"de","latitude":50.110924,"longitude":8.682127,"reserved":0,"last_update":"0001-01-01T00:00:00Z","name_a2s":"Uncletopia | Frankfurt | 5 | All Maps","protocol":17,"map":"pl_barnblitz","folder":"tf","game":"Team Fortress","app_id":440,"player_count":24,"max_players":24,"Bots":0,"server_type":"Dedicated","server_os":"Linux","password":true,"vac":true,"version":"7932396","steam_id":85568392924504277,"keywords":["nocrits","nodmgspread","payload","uncletopia"],"game_id":440,"stv_port":27056,"stv_name":"Uncletopia | Frankfurt | 5 | All Maps | STV","players":[{"user_id":579,"name":"sareena","steam_id":76561198810194062,"connected_time":1297000000000,"state":"active","ping":74},{"user_id":597,"name":"Brap","steam_id":76561198410520287,"connected_time":579000000000,"state":"active","ping":141},{"user_id":598,"name":"go play rimworld","steam_id":76561199397932924,"connected_time":567000000000,"state":"active","ping":65},{"user_id":584,"name":"Urfangonultasadana","steam_id":76561199389286151,"connected_time":975000000000,"state":"active","ping":112},{"user_id":585,"name":"Mr.J","steam_id":76561199127439080,"connected_time":955000000000,"state":"active","ping":77},{"user_id":596,"name":"Mirandaws","steam_id":76561198930890710,"connected_time":606000000000,"state":"active","ping":72},{"user_id":504,"name":"NAHIDA","steam_id":76561198349648942,"connected_time":5779000000000,"state":"active","ping":92},{"user_id":605,"name":"Zank Frappa","steam_id":76561199227624104,"connected_time":230000000000,"state":"active","ping":54},{"user_id":575,"name":"Destinys","steam_id":76561198056132894,"connected_time":1398000000000,"state":"active","ping":61},{"user_id":604,"name":"etc","steam_id":76561197998394797,"connected_time":343000000000,"state":"active","ping":52},{"user_id":595,"name":"mp1mp2mp3","steam_id":76561198088967665,"connected_time":623000000000,"state":"active","ping":91},{"user_id":578,"name":"Acbh","steam_id":76561198158271672,"connected_time":1339000000000,"state":"active","ping":62},{"user_id":588,"name":"tamz","steam_id":76561198146873972,"connected_time":935000000000,"state":"active","ping":45},{"user_id":564,"name":"Qwertuss","steam_id":76561198026305366,"connected_time":3107000000000,"state":"active","ping":60},{"user_id":550,"name":"Na'vi Misato (by popular demand","steam_id":76561198130860698,"connected_time":3933000000000,"state":"active","ping":66},{"user_id":600,"name":"Akis—è–Ω","steam_id":76561198078706435,"connected_time":541000000000,"state":"active","ping":76},{"user_id":568,"name":"One-Eyed Dancer","steam_id":76561198872013525,"connected_time":1763000000000,"state":"active","ping":139},{"user_id":602,"name":"Jabussy","steam_id":76561198111148719,"connected_time":439000000000,"state":"active","ping":72},{"user_id":590,"name":"Milosz52","steam_id":76561199060940204,"connected_time":907000000000,"state":"active","ping":84},{"user_id":450,"name":"It's time","steam_id":76561198061197114,"connected_time":8619000000000,"state":"active","ping":66},{"user_id":594,"name":"Mav","steam_id":76561198004403881,"connected_time":780000000000,"state":"active","ping":65},{"user_id":603,"name":"Opti","steam_id":76561197968902518,"connected_time":439000000000,"state":"active","ping":63},{"user_id":591,"name":"TAFI03","steam_id":76561198213082089,"connected_time":899000000000,"state":"active","ping":56},{"user_id":593,"name":"madijo","steam_id":76561198012617400,"connected_time":823000000000,"state":"active","ping":59}]},{"server_id":311,"name":"Uncletopia | Frankfurt | 6 | All Maps","name_short":"frk-6","host":"frk-1.de.uncletopia.com","port":27065,"enabled":true,"region":"eu","cc":"de","latitude":50.110924,"longitude":8.682127,"reserved":0,"last_update":"0001-01-01T00:00:00Z","name_a2s":"Uncletopia | Frankfurt | 6 | All Maps","protocol":17,"map":"koth_viaduct","folder":"tf","game":"Team Fortress","app_id":440,"player_count":0,"max_players":24,"Bots":0,"server_type":"Dedicated","server_os":"Linux","password":true,"vac":true,"version":"7932396","steam_id":85568392924504278,"keywords":["cp","nocrits","nodmgspread","uncletopia"],"game_id":440,"stv_port":27066,"stv_name":"Uncletopia | Frankfurt | 6 | All Maps | STV","players":null},{"server_id":23,"name":"Uncletopia | Frankfurt | 7 | Stopwatch Beta","name_short":"frk-7","host":"frk-1.de.uncletopia.com","port":27075,"enabled":true,"region":"eu","cc":"de","latitude":50.110924,"longitude":8.682127,"reserved":0,"last_update":"0001-01-01T00:00:00Z","name_a2s":"Uncletopia | Frankfurt | 7 | Stopwatch Beta","protocol":17,"map":"pl_snowycoast","folder":"tf","game":"Team Fortress","app_id":440,"player_count":0,"max_players":24,"Bots":0,"server_type":"Dedicated","server_os":"Linux","password":true,"vac":true,"version":"7932396","steam_id":85568392924742827,"keywords":["nocrits","nodmgspread","payload","uncletopia"],"game_id":440,"stv_port":27076,"stv_name":"Uncletopia | Frankfurt | 7 | Stopwatch Beta | STV","players":null},{"server_id":24,"name":"Uncletopia | Frankfurt | 8 | Community","name_short":"frk-8","host":"frk-1.de.uncletopia.com","port":27085,"enabled":true,"region":"eu","cc":"de","latitude":50.110924,"longitude":8.682127,"reserved":0,"last_update":"0001-01-01T00:00:00Z","name_a2s":"Uncletopia | Frankfurt | 8 | Community","protocol":17,"map":"workshop/koth_bagel_rc6.ugc2514036946","folder":"tf","game":"Team Fortress","app_id":440,"player_count":0,"max_players":24,"Bots":0,"server_type":"Dedicated","server_os":"Linux","password":true,"vac":true,"version":"7932396","steam_id":85568392924742828,"keywords":["cp","nocrits","nodmgspread","uncletopia"],"game_id":440,"stv_port":27086,"stv_name":"Uncletopia | Frankfurt | 8 | Community | STV","players":null},{"server_id":202,"name":"Uncletopia | Hong Kong | 1 | All Maps","name_short":"hgk-1","host":"hgk-1.hk.uncletopia.com","port":27015,"enabled":true,"region":"asia","cc":"hk","latitude":22.302711,"longitude":114.177216,"reserved":0,"last_update":"0001-01-01T00:00:00Z","name_a2s":"Uncletopia | Hong Kong | 1 | All Maps","protocol":17,"map":"koth_highpass","folder":"tf","game":"Team Fortress","app_id":440,"player_count":0,"max_players":24,"Bots":0,"server_type":"Dedicated","server_os":"Linux","password":true,"vac":true,"version":"7932396","steam_id":85568392924494504,"keywords":["cp","nocrits","nodmgspread","uncletopia"],"game_id":440,"stv_port":27016,"stv_name":"Uncletopia | Hong Kong | 1 | All Maps | STV","players":null},{"server_id":1,"name":"Uncletopia | Los Angeles | 1 | All Maps","name_short":"lax-1","host":"lax-1.us.uncletopia.com","port":27015,"enabled":true,"region":"us-west","cc":"us","latitude":33.94279,"longitude":-118.41004,"reserved":0,"last_update":"0001-01-01T00:00:00Z","name_a2s":"Uncletopia | Los Angeles | 1 | All Maps","protocol":17,"map":"koth_highpass","folder":"tf","game":"Team Fortress","app_id":440,"player_count":0,"max_players":24,"Bots":0,"server_type":"Dedicated","server_os":"Linux","password":true,"vac":true,"version":"7932396","steam_id":85568392924469991,"keywords":["cp","nocrits","nodmgspread","uncletopia"],"game_id":440,"stv_port":27016,"stv_name":"Uncletopia | Los Angeles | 1 | All Maps | STV","players":null},{"server_id":112,"name":"Uncletopia | Los Angeles | 2 | All Maps","name_short":"lax-2","host":"lax-1.us.uncletopia.com","port":27025,"enabled":true,"region":"us-west","cc":"us","latitude":33.94279,"longitude":-118.41004,"reserved":0,"last_update":"0001-01-01T00:00:00Z","name_a2s":"Uncletopia | Los Angeles | 2 | All Maps","protocol":17,"map":"pl_borneo","folder":"tf","game":"Team Fortress","app_id":440,"player_count":0,"max_players":24,"Bots":0,"server_type":"Dedicated","server_os":"Linux","password":true,"vac":true,"version":"7932396","steam_id":85568392924469992,"keywords":["nocrits","nodmgspread","payload","uncletopia"],"game_id":440,"stv_port":27026,"stv_name":"Uncletopia | Los Angeles | 2 | All Maps | STV","players":null},{"server_id":324,"name":"Uncletopia | Los Angeles | 3 | All Maps","name_short":"lax-3","host":"lax-1.us.uncletopia.com","port":27035,"enabled":true,"region":"us-west","cc":"us","latitude":33.94279,"longitude":-118.41004,"reserved":0,"last_update":"0001-01-01T00:00:00Z","name_a2s":"Uncletopia | Los Angeles | 3 | All Maps","protocol":17,"map":"koth_highpass","folder":"tf","game":"Team Fortress","app_id":440,"player_count":0,"max_players":24,"Bots":0,"server_type":"Dedicated","server_os":"Linux","password":true,"vac":true,"version":"7932396","steam_id":85568392924510198,"keywords":["cp","nocrits","nodmgspread","uncletopia"],"game_id":440,"stv_port":27036,"stv_name":"Uncletopia | Los Angeles | 3 | All Maps | STV","players":null},{"server_id":25,"name":"Uncletopia | Los Angeles | 4 | Stopwatch Beta","name_short":"lax-4","host":"lax-1.us.uncletopia.com","port":27045,"enabled":true,"region":"us-west","cc":"us","latitude":33.94279,"longitude":-118.41004,"reserved":0,"last_update":"0001-01-01T00:00:00Z","name_a2s":"Uncletopia | Los Angeles | 4 | Stopwatch Beta","protocol":17,"map":"cp_altitude","folder":"tf","game":"Team Fortress","app_id":440,"player_count":0,"max_players":24,"Bots":0,"server_type":"Dedicated","server_os":"Linux","password":true,"vac":true,"version":"7932396","steam_id":85568392924510199,"keywords":["cp","nocrits","nodmgspread","uncletopia"],"game_id":440,"stv_port":27046,"stv_name":"Uncletopia | Los Angeles | 4 | Stopwatch Beta | STV","players":null},{"server_id":11,"name":"Uncletopia | London | 1 | All Maps","name_short":"lon-1","host":"lon-1.uk.uncletopia.com","port":27015,"enabled":true,"region":"eu","cc":"gb","latitude":51.509865,"longitude":-0.118092,"reserved":0,"last_update":"0001-01-01T00:00:00Z","name_a2s":"Uncletopia | London | 1 | All Maps","protocol":17,"map":"pl_upward","folder":"tf","game":"Team Fortress","app_id":440,"player_count":24,"max_players":24,"Bots":0,"server_type":"Dedicated","server_os":"Linux","password":true,"vac":true,"version":"7932396","steam_id":85568392924367362,"keywords":["nocrits","nodmgspread","payload","uncletopia"],"game_id":440,"stv_port":27016,"stv_name":"Uncletopia | London | 1 | All Maps | STV","players":[{"user_id":663,"name":"CptHavvock","steam_id":76561199189740651,"connected_time":2970000000000,"state":"active","ping":78},{"user_id":703,"name":"Night Fury","steam_id":76561197995207032,"connected_time":140000000000,"state":"active","ping":101},{"user_id":658,"name":"Salamon","steam_id":76561198280756561,"connected_time":3070000000000,"state":"active","ping":110},{"user_id":699,"name":"Fenty","steam_id":76561198044991858,"connected_time":590000000000,"state":"active","ping":71},{"user_id":697,"name":"Simon Ekpa","steam_id":76561198853658163,"connected_time":606000000000,"state":"active","ping":83},{"user_id":700,"name":"Archer","steam_id":76561197994239444,"connected_time":525000000000,"state":"active","ping":111},{"user_id":682,"name":"Glitch","steam_id":76561198801335846,"connected_time":1829000000000,"state":"active","ping":47},{"user_id":629,"name":"dr sex","steam_id":76561199487883321,"connected_time":4111000000000,"state":"active","ping":60},{"user_id":681,"name":"Lix","steam_id":76561198130779816,"connected_time":1873000000000,"state":"active","ping":56},{"user_id":694,"name":"Walter Black","steam_id":76561198833482123,"connected_time":1141000000000,"state":"active","ping":82},{"user_id":696,"name":"DrExplosive","steam_id":76561198063678579,"connected_time":651000000000,"state":"active","ping":59},{"user_id":704,"name":"rwota","steam_id":76561198385769722,"connected_time":75000000000,"state":"active","ping":119},{"user_id":692,"name":"Dr. Funkenstein","steam_id":76561197977816210,"connected_time":1290000000000,"state":"active","ping":60},{"user_id":689,"name":"cryptidTD","steam_id":76561199094314945,"connected_time":1575000000000,"state":"active","ping":57},{"user_id":701,"name":"Soaya","steam_id":76561199101510855,"connected_time":347000000000,"state":"active","ping":45},{"user_id":672,"name":"Auro","steam_id":76561198224421624,"connected_time":2575000000000,"state":"active","ping":48},{"user_id":693,"name":"Aximus","steam_id":76561198024575710,"connected_time":1189000000000,"state":"active","ping":72},{"user_id":616,"name":"unconditional love","steam_id":76561199026097466,"connected_time":5300000000000,"state":"active","ping":70},{"user_id":680,"name":"Dog ?","steam_id":76561198347020945,"connected_time":2149000000000,"state":"active","ping":92},{"user_id":690,"name":"Fish 'n' Chips","steam_id":76561198033476886,"connected_time":1557000000000,"state":"active","ping":48},{"user_id":674,"name":"f√©nix","steam_id":76561198083199151,"connected_time":2560000000000,"state":"active","ping":58},{"user_id":683,"name":"Bonchovie","steam_id":76561198112507817,"connected_time":1782000000000,"state":"active","ping":147},{"user_id":691,"name":"pine cone","steam_id":76561198168254686,"connected_time":1516000000000,"state":"active","ping":86},{"user_id":695,"name":"Wardruna96","steam_id":76561199057083828,"connected_time":1130000000000,"state":"active","ping":85}]},{"server_id":114,"name":"Uncletopia | London | 2 | All Maps","name_short":"lon-2","host":"lon-1.uk.uncletopia.com","port":27025,"enabled":true,"region":"eu","cc":"gb","latitude":51.509865,"longitude":-0.118092,"reserved":0,"last_update":"0001-01-01T00:00:00Z","name_a2s":"Uncletopia | London | 2 | All Maps","protocol":17,"map":"ctf_2fort","folder":"tf","game":"Team Fortress","app_id":440,"player_count":21,"max_players":24,"Bots":0,"server_type":"Dedicated","server_os":"Linux","password":true,"vac":true,"version":"7932396","steam_id":85568392924470941,"keywords":["ctf","nocrits","nodmgspread","uncletopia"],"game_id":440,"stv_port":27026,"stv_name":"Uncletopia | London | 2 | All Maps | STV","players":[{"user_id":179,"name":"spilskinanka","steam_id":76561198047390799,"connected_time":77000000000,"state":"active","ping":117},{"user_id":178,"name":"laza's boy","steam_id":76561199074095198,"connected_time":96000000000,"state":"active","ping":107},{"user_id":181,"name":"ender45","steam_id":76561198840955715,"connected_time":65000000000,"state":"active","ping":31},{"user_id":168,"name":"help","steam_id":76561199056338917,"connected_time":422000000000,"state":"active","ping":167},{"user_id":167,"name":"puskamies","steam_id":76561198972627411,"connected_time":462000000000,"state":"active","ping":84},{"user_id":130,"name":"Estrogen Overdoser","steam_id":76561199030306982,"connected_time":2086000000000,"state":"active","ping":71},{"user_id":95,"name":"Paladin","steam_id":76561198042593027,"connected_time":4889000000000,"state":"active","ping":96},{"user_id":122,"name":"Mymy","steam_id":76561198819871606,"connected_time":2252000000000,"state":"active","ping":95},{"user_id":151,"name":"Garmin of Salivation","steam_id":76561197995163245,"connected_time":789000000000,"state":"active","ping":66},{"user_id":163,"name":"mesi","steam_id":76561198152458174,"connected_time":498000000000,"state":"active","ping":78},{"user_id":96,"name":"Wade Wilson's Spoilt C4","steam_id":76561198013884709,"connected_time":4634000000000,"state":"active","ping":84},{"user_id":182,"name":"ugnstekt","steam_id":76561198128209264,"connected_time":18000000000,"state":"spawning","ping":143},{"user_id":164,"name":"V.Domov","steam_id":76561198799218046,"connected_time":482000000000,"state":"active","ping":68},{"user_id":149,"name":"Axy","steam_id":76561198244029740,"connected_time":809000000000,"state":"active","ping":85},{"user_id":170,"name":"Armok","steam_id":76561198972559096,"connected_time":367000000000,"state":"active","ping":74},{"user_id":177,"name":"Vitamin Weee","steam_id":76561199183937747,"connected_time":161000000000,"state":"active","ping":88},{"user_id":176,"name":"Maybe_Stunner","steam_id":76561199085822219,"connected_time":166000000000,"state":"active","ping":89},{"user_id":165,"name":"Darkstefxd","steam_id":76561198342416901,"connected_time":469000000000,"state":"active","ping":76},{"user_id":174,"name":"LuckLuster","steam_id":76561198092986647,"connected_time":251000000000,"state":"active","ping":110},{"user_id":121,"name":"Sylvanas","steam_id":76561198154904165,"connected_time":2256000000000,"state":"active","ping":115},{"user_id":120,"name":"ScudFXX","steam_id":76561198136603848,"connected_time":2418000000000,"state":"active","ping":79}]},{"server_id":320,"name":"Uncletopia | London | 3 | All Maps","name_short":"lon-3","host":"lon-1.uk.uncletopia.com","port":27035,"enabled":true,"region":"eu","cc":"gb","latitude":51.509865,"longitude":-0.118092,"reserved":0,"last_update":"0001-01-01T00:00:00Z","name_a2s":"Uncletopia | London | 3 | All Maps","protocol":17,"map":"koth_highpass","folder":"tf","game":"Team Fortress","app_id":440,"player_count":24,"max_players":24,"Bots":0,"server_type":"Dedicated","server_os":"Linux","password":true,"vac":true,"version":"7932396","steam_id":85568392924510192,"keywords":["cp","nocrits","nodmgspread","uncletopia"],"game_id":440,"stv_port":27036,"stv_name":"Uncletopia | London | 3 | All Maps | STV","players":[{"user_id":381,"name":"Yanniki","steam_id":76561197986058110,"connected_time":2126000000000,"state":"active","ping":62},{"user_id":413,"name":"quickfast","steam_id":76561199438900919,"connected_time":539000000000,"state":"active","ping":42},{"user_id":415,"name":"porngames","steam_id":76561198204620491,"connected_time":92000000000,"state":"active","ping":29},{"user_id":393,"name":"bigebi1","steam_id":76561198274724610,"connected_time":1288000000000,"state":"active","ping":86},{"user_id":414,"name":"why did you wanna be a titan?","steam_id":76561199438332812,"connected_time":295000000000,"state":"active","ping":111},{"user_id":396,"name":"MegaKEKER","steam_id":76561199485792353,"connected_time":1231000000000,"state":"active","ping":78},{"user_id":391,"name":"MyDoctorCalledMeACorpse","steam_id":76561199218184933,"connected_time":1384000000000,"state":"active","ping":84},{"user_id":411,"name":"kilo","steam_id":76561198015641339,"connected_time":599000000000,"state":"active","ping":79},{"user_id":398,"name":"Bottle O' Scrumpy","steam_id":76561199244250562,"connected_time":1203000000000,"state":"active","ping":105},{"user_id":399,"name":"zorze supreme.exe","steam_id":76561198996333022,"connected_time":1139000000000,"state":"active","ping":73},{"user_id":379,"name":"Luxotrics","steam_id":76561198053455161,"connected_time":2338000000000,"state":"active","ping":96},{"user_id":401,"name":"zoinks!","steam_id":76561198068645362,"connected_time":1049000000000,"state":"active","ping":45},{"user_id":402,"name":"Filliam","steam_id":76561198124028151,"connected_time":1037000000000,"state":"active","ping":115},{"user_id":333,"name":"Jospeh","steam_id":76561198120930790,"connected_time":4258000000000,"state":"active","ping":45},{"user_id":341,"name":":3","steam_id":76561198169471853,"connected_time":4148000000000,"state":"active","ping":43},{"user_id":403,"name":"joachym","steam_id":76561198428579761,"connected_time":992000000000,"state":"active","ping":71},{"user_id":404,"name":"Ledze Shuns Dope","steam_id":76561198049945010,"connected_time":987000000000,"state":"active","ping":50},{"user_id":299,"name":"Micha≈Ç","steam_id":76561198320346362,"connected_time":5803000000000,"state":"active","ping":69},{"user_id":337,"name":"Carter","steam_id":76561198005243938,"connected_time":4202000000000,"state":"active","ping":76},{"user_id":405,"name":"Marmew","steam_id":76561198014969237,"connected_time":984000000000,"state":"active","ping":39},{"user_id":346,"name":"SpyCrab  Erik Twice","steam_id":76561198009710309,"connected_time":3760000000000,"state":"active","ping":63},{"user_id":407,"name":"Blind","steam_id":76561198310295139,"connected_time":761000000000,"state":"active","ping":100},{"user_id":377,"name":"SwiftKarma","steam_id":76561199005694153,"connected_time":2454000000000,"state":"active","ping":64},{"user_id":409,"name":"Leifrü¶å","steam_id":76561198076271106,"connected_time":719000000000,"state":"active","ping":55}]},{"server_id":321,"name":"Uncletopia | London | 4 | All Maps","name_short":"lon-4","host":"lon-1.uk.uncletopia.com","port":27045,"enabled":true,"region":"eu","cc":"gb","latitude":51.509865,"longitude":-0.118092,"reserved":0,"last_update":"0001-01-01T00:00:00Z","name_a2s":"Uncletopia | London | 4 | All Maps","protocol":17,"map":"cp_mountainlab","folder":"tf","game":"Team Fortress","app_id":440,"player_count":16,"max_players":24,"Bots":0,"server_type":"Dedicated","server_os":"Linux","password":true,"vac":true,"version":"7932396","steam_id":85568392924510193,"keywords":["cp","nocrits","nodmgspread","uncletopia"],"game_id":440,"stv_port":27046,"stv_name":"Uncletopia | London | 4 | All Maps | STV","players":[{"user_id":231,"name":"PadrePockets","steam_id":76561197993251606,"connected_time":1848000000000,"state":"active","ping":130},{"user_id":262,"name":"Terminally Offline","steam_id":76561198146194820,"connected_time":76000000000,"state":"active","ping":47},{"user_id":254,"name":"DisguisedDumpling","steam_id":76561199195448962,"connected_time":655000000000,"state":"active","ping":38},{"user_id":258,"name":"Cerabond","steam_id":76561199230915333,"connected_time":392000000000,"state":"active","ping":130},{"user_id":233,"name":"Bob Sacamano","steam_id":76561198085610701,"connected_time":1829000000000,"state":"active","ping":97},{"user_id":235,"name":"WrytXander","steam_id":76561198067856323,"connected_time":1782000000000,"state":"active","ping":98},{"user_id":256,"name":"CarBombEnthusiast","steam_id":76561199448185434,"connected_time":601000000000,"state":"active","ping":70},{"user_id":263,"name":"Bred_Bone","steam_id":76561198179130475,"connected_time":72000000000,"state":"active","ping":76},{"user_id":260,"name":"Fucking Nep Nep","steam_id":76561198340419043,"connected_time":345000000000,"state":"active","ping":145},{"user_id":237,"name":"HawkBear","steam_id":76561198046062963,"connected_time":1776000000000,"state":"active","ping":137},{"user_id":239,"name":"Anonymous47007","steam_id":76561199005211417,"connected_time":1772000000000,"state":"active","ping":81},{"user_id":250,"name":"tori_spring","steam_id":76561199375975842,"connected_time":862000000000,"state":"active","ping":47},{"user_id":261,"name":"Greasy","steam_id":76561198868180366,"connected_time":224000000000,"state":"active","ping":60},{"user_id":205,"name":"night.s","steam_id":76561198326287823,"connected_time":4635000000000,"state":"active","ping":84},{"user_id":244,"name":"bigmazi","steam_id":76561198133276643,"connected_time":1670000000000,"state":"active","ping":93},{"user_id":253,"name":"Carlo","steam_id":76561198276491098,"connected_time":738000000000,"state":"active","ping":68}]},{"server_id":21,"name":"Uncletopia | London | 5 | All Maps","name_short":"lon-5","host":"lon-1.uk.uncletopia.com","port":27055,"enabled":true,"region":"eu","cc":"gb","latitude":51.509865,"longitude":-0.118092,"reserved":0,"last_update":"0001-01-01T00:00:00Z","name_a2s":"Uncletopia | London | 5 | All Maps","protocol":17,"map":"koth_highpass","folder":"tf","game":"Team Fortress","app_id":440,"player_count":7,"max_players":24,"Bots":0,"server_type":"Dedicated","server_os":"Linux","password":true,"vac":true,"version":"7932396","steam_id":85568392924742829,"keywords":["cp","nocrits","nodmgspread","uncletopia"],"game_id":440,"stv_port":27056,"stv_name":"Uncletopia | London | 5 | All Maps | STV","players":[{"user_id":15,"name":"FanFish","steam_id":76561199389558024,"connected_time":727000000000,"state":"active","ping":72},{"user_id":13,"name":"PrinsJohan","steam_id":76561198827496915,"connected_time":844000000000,"state":"active","ping":70},{"user_id":14,"name":"johncenx","steam_id":76561198366703672,"connected_time":814000000000,"state":"active","ping":85},{"user_id":16,"name":"ThaumielAT","steam_id":76561199488559560,"connected_time":612000000000,"state":"active","ping":110},{"user_id":18,"name":"cof","steam_id":76561199128417805,"connected_time":358000000000,"state":"active","ping":50},{"user_id":19,"name":"Mono","steam_id":76561198114569493,"connected_time":263000000000,"state":"active","ping":45},{"user_id":20,"name":"Spich","steam_id":76561199017245962,"connected_time":189000000000,"state":"active","ping":90}]},{"server_id":22,"name":"Uncletopia | London | 6 | All Maps","name_short":"lon-6","host":"lon-1.uk.uncletopia.com","port":27065,"enabled":true,"region":"eu","cc":"gb","latitude":51.509865,"longitude":-0.118092,"reserved":0,"last_update":"0001-01-01T00:00:00Z","name_a2s":"Uncletopia | London | 6 | All Maps","protocol":17,"map":"koth_lakeside_final","folder":"tf","game":"Team Fortress","app_id":440,"player_count":0,"max_players":24,"Bots":0,"server_type":"Dedicated","server_os":"Linux","password":true,"vac":true,"version":"7932396","steam_id":85568392924742830,"keywords":["cp","nocrits","nodmgspread","uncletopia"],"game_id":440,"stv_port":27066,"stv_name":"Uncletopia | London | 6 | All Maps | STV","players":null},{"server_id":40,"name":"Uncletopia | London | 7 | No Payload","name_short":"lon-7","host":"lon-1.uk.uncletopia.com","port":27075,"enabled":true,"region":"eu","cc":"gb","latitude":51.509865,"longitude":-0.118092,"reserved":0,"last_update":"0001-01-01T00:00:00Z","name_a2s":"Uncletopia | London | 7 | No Payload","protocol":17,"map":"cp_mercenarypark","folder":"tf","game":"Team Fortress","app_id":440,"player_count":0,"max_players":24,"Bots":0,"server_type":"Dedicated","server_os":"Linux","password":true,"vac":true,"version":"7932396","steam_id":85568392924964314,"keywords":["cp","nocrits","nodmgspread","uncletopia"],"game_id":440,"stv_port":27076,"stv_name":"Uncletopia | London | 7 | No Payload | STV","players":null},{"server_id":41,"name":"Uncletopia | London | 8 | Community","name_short":"lon-8","host":"lon-1.uk.uncletopia.com","port":27085,"enabled":true,"region":"eu","cc":"gb","latitude":51.509865,"longitude":-0.118092,"reserved":0,"last_update":"0001-01-01T00:00:00Z","name_a2s":"Uncletopia | London | 8 | Community","protocol":17,"map":"workshop/pl_cactuscanyon_redux_final2.ugc2579644293","folder":"tf","game":"Team Fortress","app_id":440,"player_count":0,"max_players":24,"Bots":0,"server_type":"Dedicated","server_os":"Linux","password":true,"vac":true,"version":"7932396","steam_id":85568392924964315,"keywords":["nocrits","nodmgspread","payload","uncletopia"],"game_id":440,"stv_port":27086,"stv_name":"Uncletopia | London | 8 | Community | STV","players":null},{"server_id":300,"name":"Uncletopia | Montr√©al | 1 | All Maps","name_short":"mtl-1","host":"mtl-1.ca.uncletopia.com","port":27015,"enabled":true,"region":"us-east","cc":"ca","latitude":45.50889,"longitude":-73.56167,"reserved":0,"last_update":"0001-01-01T00:00:00Z","name_a2s":"Uncletopia | Montr√©al | 1 | All Maps","protocol":17,"map":"cp_altitude","folder":"tf","game":"Team Fortress","app_id":440,"player_count":0,"max_players":24,"Bots":0,"server_type":"Dedicated","server_os":"Linux","password":true,"vac":true,"version":"7932396","steam_id":85568392924500087,"keywords":["cp","nocrits","nodmgspread","uncletopia"],"game_id":440,"stv_port":27016,"stv_name":"Uncletopia | Montr√©al | 1 | All Maps | STV","players":null},{"server_id":301,"name":"Uncletopia | Montr√©al | 2 | All Maps","name_short":"mtl-2","host":"mtl-1.ca.uncletopia.com","port":27025,"enabled":true,"region":"us-east","cc":"ca","latitude":45.50889,"longitude":-73.56167,"reserved":0,"last_update":"0001-01-01T00:00:00Z","name_a2s":"Uncletopia | Montr√©al | 2 | All Maps","protocol":17,"map":"koth_lakeside_final","folder":"tf","game":"Team Fortress","app_id":440,"player_count":0,"max_players":24,"Bots":0,"server_type":"Dedicated","server_os":"Linux","password":true,"vac":true,"version":"7932396","steam_id":85568392924500088,"keywords":["cp","nocrits","nodmgspread","uncletopia"],"game_id":440,"stv_port":27026,"stv_name":"Uncletopia | Montr√©al | 2 | All Maps | STV","players":null},{"server_id":302,"name":"Uncletopia | Montr√©al | 3 | All Maps","name_short":"mtl-3","host":"mtl-1.ca.uncletopia.com","port":27035,"enabled":true,"region":"us-east","cc":"ca","latitude":45.50889,"longitude":-73.56167,"reserved":0,"last_update":"0001-01-01T00:00:00Z","name_a2s":"Uncletopia | Montr√©al | 3 | All Maps","protocol":17,"map":"cp_process_final","folder":"tf","game":"Team Fortress","app_id":440,"player_count":0,"max_players":24,"Bots":0,"server_type":"Dedicated","server_os":"Linux","password":true,"vac":true,"version":"7932396","steam_id":85568392924500089,"keywords":["cp","nocrits","nodmgspread","uncletopia"],"game_id":440,"stv_port":27036,"stv_name":"Uncletopia | Montr√©al | 3 | All Maps | STV","players":null},{"server_id":303,"name":"Uncletopia | Montr√©al | 4 | No Payload","name_short":"mtl-4","host":"mtl-1.ca.uncletopia.com","port":27045,"enabled":true,"region":"us-east","cc":"ca","latitude":45.50889,"longitude":-73.56167,"reserved":0,"last_update":"0001-01-01T00:00:00Z","name_a2s":"Uncletopia | Montr√©al | 4 | No Payload","protocol":17,"map":"cp_snakewater_final1","folder":"tf","game":"Team Fortress","app_id":440,"player_count":0,"max_players":24,"Bots":0,"server_type":"Dedicated","server_os":"Linux","password":true,"vac":true,"version":"7932396","steam_id":85568392924500090,"keywords":["cp","nocrits","nodmgspread","uncletopia"],"game_id":440,"stv_port":27046,"stv_name":"Uncletopia | Montr√©al | 4 | No Payload | STV","players":null},{"server_id":13,"name":"Uncletopia | New York City | 1 | All Maps","name_short":"nyc-1","host":"nyc-1.us.uncletopia.com","port":27015,"enabled":true,"region":"us-east","cc":"us","latitude":40.73061,"longitude":-73.93524,"reserved":0,"last_update":"0001-01-01T00:00:00Z","name_a2s":"Uncletopia | New York City | 1 | All Maps","protocol":17,"map":"koth_viaduct","folder":"tf","game":"Team Fortress","app_id":440,"player_count":0,"max_players":24,"Bots":0,"server_type":"Dedicated","server_os":"Linux","password":true,"vac":true,"version":"7932396","steam_id":85568392924469993,"keywords":["cp","nocrits","nodmgspread","uncletopia"],"game_id":440,"stv_port":27016,"stv_name":"Uncletopia | New York City | 1 | All Maps | STV","players":null},{"server_id":14,"name":"Uncletopia | New York City | 2 | All Maps","name_short":"nyc-2","host":"nyc-1.us.uncletopia.com","port":27025,"enabled":true,"region":"us-east","cc":"us","latitude":40.73061,"longitude":-73.93524,"reserved":0,"last_update":"0001-01-01T00:00:00Z","name_a2s":"Uncletopia | New York City | 2 | All Maps","protocol":17,"map":"koth_lakeside_final","folder":"tf","game":"Team Fortress","app_id":440,"player_count":0,"max_players":24,"Bots":0,"server_type":"Dedicated","server_os":"Linux","password":true,"vac":true,"version":"7932396","steam_id":85568392924469994,"keywords":["cp","nocrits","nodmgspread","uncletopia"],"game_id":440,"stv_port":27026,"stv_name":"Uncletopia | New York City | 2 | All Maps | STV","players":null},{"server_id":15,"name":"Uncletopia | New York City | 3 | Stopwatch Beta","name_short":"nyc-3","host":"nyc-1.us.uncletopia.com","port":27035,"enabled":true,"region":"us-east","cc":"us","latitude":40.73061,"longitude":-73.93524,"reserved":0,"last_update":"0001-01-01T00:00:00Z","name_a2s":"Uncletopia | New York City | 3 | Stopwatch Beta","protocol":17,"map":"workshop/koth_clearcut_b15.ugc2107050255","folder":"tf","game":"Team Fortress","app_id":440,"player_count":0,"max_players":24,"Bots":0,"server_type":"Dedicated","server_os":"Linux","password":true,"vac":true,"version":"7932396","steam_id":85568392924742820,"keywords":["cp","nocrits","nodmgspread","uncletopia"],"game_id":440,"stv_port":27036,"stv_name":"Uncletopia | New York City | 3 | Stopwatch Beta | STV","players":null},{"server_id":16,"name":"Uncletopia | New York City | 4 | Community","name_short":"nyc-4","host":"nyc-1.us.uncletopia.com","port":27045,"enabled":true,"region":"us-east","cc":"us","latitude":40.73061,"longitude":-73.93524,"reserved":0,"last_update":"0001-01-01T00:00:00Z","name_a2s":"Uncletopia | New York City | 4 | Community","protocol":17,"map":"workshop/cp_glacier_rc6.ugc2905735376","folder":"tf","game":"Team Fortress","app_id":440,"player_count":3,"max_players":24,"Bots":0,"server_type":"Dedicated","server_os":"Linux","password":true,"vac":true,"version":"7932396","steam_id":85568392924742821,"keywords":["cp","nocrits","nodmgspread","uncletopia"],"game_id":440,"stv_port":27046,"stv_name":"Uncletopia | New York City | 4 | Community | STV","players":[{"user_id":4,"name":"Swedish Crowbar","steam_id":76561199105488936,"connected_time":1724000000000,"state":"active","ping":129},{"user_id":5,"name":"Spork","steam_id":76561199072431848,"connected_time":1441000000000,"state":"active","ping":52},{"user_id":9,"name":"Flowers","steam_id":76561198031669899,"connected_time":850000000000,"state":"active","ping":60}]},{"server_id":142,"name":"Uncletopia | S√£o Paulo | 1 | All Maps","name_short":"sao-1","host":"sao-1.br.uncletopia.com","port":27015,"enabled":true,"region":"sa","cc":"br","latitude":-23.533773,"longitude":-46.62529,"reserved":0,"last_update":"0001-01-01T00:00:00Z","name_a2s":"Uncletopia | S√£o Paulo | 1 | All Maps","protocol":17,"map":"pl_badwater","folder":"tf","game":"Team Fortress","app_id":440,"player_count":6,"max_players":24,"Bots":0,"server_type":"Dedicated","server_os":"Linux","password":true,"vac":true,"version":"7932396","steam_id":85568392924469996,"keywords":["nocrits","nodmgspread","payload","uncletopia"],"game_id":440,"stv_port":27016,"stv_name":"Uncletopia | S√£o Paulo | 1 | All Maps | STV","players":[{"user_id":21,"name":"‰∏≠ÂçéÊ∞ëÂõΩ‰∏áÂ≤Å","steam_id":76561198929868860,"connected_time":342000000000,"state":"active","ping":309},{"user_id":22,"name":"‚ú™ SPY","steam_id":76561199046430012,"connected_time":299000000000,"state":"active","ping":290},{"user_id":23,"name":"alpakin0832","steam_id":76561199321014189,"connected_time":267000000000,"state":"active","ping":309},{"user_id":24,"name":"mustinet323","steam_id":76561198135414921,"connected_time":178000000000,"state":"active","ping":307},{"user_id":25,"name":"KOH CN rg","steam_id":76561198313292120,"connected_time":162000000000,"state":"active","ping":307},{"user_id":26,"name":"revan","steam_id":76561199158088172,"connected_time":136000000000,"state":"active","ping":295}]},{"server_id":143,"name":"Uncletopia | S√£o Paulo | 2 | All Maps","name_short":"sao-2","host":"sao-2.br.uncletopia.com","port":27015,"enabled":true,"region":"sa","cc":"br","latitude":-23.533773,"longitude":-46.62529,"reserved":0,"last_update":"0001-01-01T00:00:00Z","name_a2s":"Uncletopia | S√£o Paulo | 2 | All Maps","protocol":17,"map":"pl_swiftwater_final1","folder":"tf","game":"Team Fortress","app_id":440,"player_count":0,"max_players":24,"Bots":0,"server_type":"Dedicated","server_os":"Linux","password":true,"vac":true,"version":"7932396","steam_id":85568392924485349,"keywords":["nocrits","nodmgspread","payload","uncletopia"],"game_id":440,"stv_port":27016,"stv_name":"Uncletopia | S√£o Paulo | 2 | All Maps | STV","players":null},{"server_id":7,"name":"Uncletopia | Seattle | 1 | All Maps","name_short":"sea-1","host":"sea-1.us.uncletopia.com","port":27015,"enabled":true,"region":"us-west","cc":"us","latitude":47.608013,"longitude":-122.33517,"reserved":0,"last_update":"0001-01-01T00:00:00Z","name_a2s":"Uncletopia | Seattle | 1 | All Maps","protocol":17,"map":"pl_barnblitz","folder":"tf","game":"Team Fortress","app_id":440,"player_count":0,"max_players":24,"Bots":0,"server_type":"Dedicated","server_os":"Linux","password":true,"vac":true,"version":"7932396","steam_id":85568392924469997,"keywords":["nocrits","nodmgspread","payload","uncletopia"],"game_id":440,"stv_port":27016,"stv_name":"Uncletopia | Seattle | 1 | All Maps | STV","players":null},{"server_id":119,"name":"Uncletopia | Seattle | 2 | All Maps","name_short":"sea-2","host":"sea-1.us.uncletopia.com","port":27025,"enabled":true,"region":"us-west","cc":"us","latitude":47.608013,"longitude":-122.33517,"reserved":0,"last_update":"0001-01-01T00:00:00Z","name_a2s":"Uncletopia | Seattle | 2 | All Maps","protocol":17,"map":"cp_gorge","folder":"tf","game":"Team Fortress","app_id":440,"player_count":24,"max_players":24,"Bots":0,"server_type":"Dedicated","server_os":"Linux","password":true,"vac":true,"version":"7932396","steam_id":85568392924469998,"keywords":["cp","nocrits","nodmgspread","uncletopia"],"game_id":440,"stv_port":27026,"stv_name":"Uncletopia | Seattle | 2 | All Maps | STV","players":[{"user_id":265,"name":"Mint Widget","steam_id":76561198036875245,"connected_time":1372000000000,"state":"active","ping":65},{"user_id":242,"name":"Flippityflop","steam_id":76561198086692908,"connected_time":3243000000000,"state":"active","ping":126},{"user_id":270,"name":"SpinetinglingToast","steam_id":76561198099470670,"connected_time":766000000000,"state":"active","ping":116},{"user_id":263,"name":"shelf","steam_id":76561198260021696,"connected_time":1596000000000,"state":"active","ping":45},{"user_id":266,"name":"‚ó•(‚ó•‚ñ∂_‚óÄ‚ó§)‚ó§","steam_id":76561198007464245,"connected_time":1356000000000,"state":"active","ping":124},{"user_id":267,"name":"Jesse","steam_id":76561198157305426,"connected_time":1282000000000,"state":"active","ping":113},{"user_id":259,"name":"Moon_Man","steam_id":76561199028500370,"connected_time":1738000000000,"state":"active","ping":45},{"user_id":277,"name":"Little Linguine","steam_id":76561198816986370,"connected_time":525000000000,"state":"active","ping":61},{"user_id":269,"name":"Wheaty","steam_id":76561198003553412,"connected_time":1258000000000,"state":"active","ping":48},{"user_id":255,"name":"I'mFromSpace","steam_id":76561198808969653,"connected_time":1893000000000,"state":"active","ping":61},{"user_id":228,"name":"MispyCo","steam_id":76561199126443129,"connected_time":4374000000000,"state":"active","ping":68},{"user_id":281,"name":"Daddy Topps","steam_id":76561198203594332,"connected_time":33000000000,"state":"active","ping":33},{"user_id":249,"name":"GuyInBronzeV","steam_id":76561198044922651,"connected_time":2471000000000,"state":"active","ping":45},{"user_id":268,"name":"Andy the Hoff","steam_id":76561198043115724,"connected_time":1272000000000,"state":"active","ping":74},{"user_id":159,"name":"Mattacam","steam_id":76561198862289471,"connected_time":8663000000000,"state":"active","ping":130},{"user_id":275,"name":"FI LO","steam_id":76561198976530881,"connected_time":530000000000,"state":"active","ping":69},{"user_id":276,"name":"jayeskae","steam_id":76561198144220801,"connected_time":530000000000,"state":"active","ping":45},{"user_id":252,"name":"Pissing'Runt","steam_id":76561198268078235,"connected_time":2339000000000,"state":"active","ping":64},{"user_id":246,"name":"Piogre","steam_id":76561198006182258,"connected_time":2798000000000,"state":"active","ping":98},{"user_id":206,"name":"Nibotshooter","steam_id":76561199284825579,"connected_time":5949000000000,"state":"active","ping":97},{"user_id":272,"name":"Zobozo","steam_id":76561198028954297,"connected_time":541000000000,"state":"active","ping":67},{"user_id":278,"name":"Phlogging Solly","steam_id":76561198020580071,"connected_time":525000000000,"state":"active","ping":97},{"user_id":243,"name":"Urbanzpinapple","steam_id":76561198115426938,"connected_time":3218000000000,"state":"active","ping":132},{"user_id":279,"name":"Luca","steam_id":76561198125087140,"connected_time":166000000000,"state":"active","ping":50}]},{"server_id":406,"name":"Uncletopia | Seattle | 3 | Stopwatch Beta","name_short":"sea-3","host":"sea-1.us.uncletopia.com","port":27035,"enabled":true,"region":"us-west","cc":"us","latitude":47.608013,"longitude":-122.33517,"reserved":0,"last_update":"0001-01-01T00:00:00Z","name_a2s":"Uncletopia | Seattle | 3 | Stopwatch Beta","protocol":17,"map":"workshop/koth_bagel_rc6.ugc2514036946","folder":"tf","game":"Team Fortress","app_id":440,"player_count":0,"max_players":24,"Bots":0,"server_type":"Dedicated","server_os":"Linux","password":true,"vac":true,"version":"7932396","steam_id":85568392924515217,"keywords":["cp","nocrits","nodmgspread","uncletopia"],"game_id":440,"stv_port":27036,"stv_name":"Uncletopia | Seattle | 3 | Stopwatch Beta | STV","players":null},{"server_id":17,"name":"Uncletopia | San Francisco | 1 | All Maps","name_short":"sfo-1","host":"sfo-1.us.uncletopia.com","port":27015,"enabled":true,"region":"us-west","cc":"us","latitude":37.77397,"longitude":-122.4313,"reserved":0,"last_update":"0001-01-01T00:00:00Z","name_a2s":"Uncletopia | San Francisco | 1 | All Maps","protocol":17,"map":"pl_badwater","folder":"tf","game":"Team Fortress","app_id":440,"player_count":0,"max_players":24,"Bots":0,"server_type":"Dedicated","server_os":"Linux","password":true,"vac":true,"version":"7932396","steam_id":85568392924469999,"keywords":["nocrits","nodmgspread","payload","uncletopia"],"game_id":440,"stv_port":27016,"stv_name":"Uncletopia | San Francisco | 1 | All Maps | STV","players":null},{"server_id":18,"name":"Uncletopia | San Francisco | 2 | All Maps","name_short":"sfo-2","host":"sfo-1.us.uncletopia.com","port":27025,"enabled":true,"region":"us-west","cc":"us","latitude":37.77397,"longitude":-122.4313,"reserved":0,"last_update":"0001-01-01T00:00:00Z","name_a2s":"Uncletopia | San Francisco | 2 | All Maps","protocol":17,"map":"cp_snakewater_final1","folder":"tf","game":"Team Fortress","app_id":440,"player_count":0,"max_players":24,"Bots":0,"server_type":"Dedicated","server_os":"Linux","password":true,"vac":true,"version":"7932396","steam_id":85568392924470000,"keywords":["cp","nocrits","nodmgspread","uncletopia"],"game_id":440,"stv_port":27026,"stv_name":"Uncletopia | San Francisco | 2 | All Maps | STV","players":null},{"server_id":19,"name":"Uncletopia | San Francisco | 3 | Stopwatch Beta","name_short":"sfo-3","host":"sfo-1.us.uncletopia.com","port":27035,"enabled":true,"region":"us-west","cc":"us","latitude":37.77397,"longitude":-122.4313,"reserved":0,"last_update":"0001-01-01T00:00:00Z","name_a2s":"Uncletopia | San Francisco | 3 | Stopwatch Beta","protocol":17,"map":"koth_lakeside_final","folder":"tf","game":"Team Fortress","app_id":440,"player_count":0,"max_players":24,"Bots":0,"server_type":"Dedicated","server_os":"Linux","password":true,"vac":true,"version":"7932396","steam_id":85568392924742824,"keywords":["cp","nocrits","nodmgspread","uncletopia"],"game_id":440,"stv_port":27036,"stv_name":"Uncletopia | San Francisco | 3 | Stopwatch Beta | STV","players":null},{"server_id":20,"name":"Uncletopia | San Francisco | 4 | Community","name_short":"sfo-4","host":"sfo-1.us.uncletopia.com","port":27045,"enabled":true,"region":"us-west","cc":"us","latitude":37.77397,"longitude":-122.4313,"reserved":0,"last_update":"0001-01-01T00:00:00Z","name_a2s":"Uncletopia | San Francisco | 4 | Community","protocol":17,"map":"pl_borneo","folder":"tf","game":"Team Fortress","app_id":440,"player_count":0,"max_players":24,"Bots":0,"server_type":"Dedicated","server_os":"Linux","password":true,"vac":true,"version":"7932396","steam_id":85568392924742826,"keywords":["nocrits","nodmgspread","payload","uncletopia"],"game_id":440,"stv_port":27046,"stv_name":"Uncletopia | San Francisco | 4 | Community | STV","players":null},{"server_id":141,"name":"Uncletopia | Sydney | 1 | All Maps","name_short":"syd-1","host":"syd-1.au.uncletopia.com","port":27015,"enabled":true,"region":"au","cc":"au","latitude":-33.865143,"longitude":151.2099,"reserved":0,"last_update":"0001-01-01T00:00:00Z","name_a2s":"Uncletopia | Sydney | 1 | All Maps","protocol":17,"map":"koth_cascade","folder":"tf","game":"Team Fortress","app_id":440,"player_count":0,"max_players":24,"Bots":0,"server_type":"Dedicated","server_os":"Linux","password":true,"vac":true,"version":"7932396","steam_id":85568392924470001,"keywords":["cp","nocrits","nodmgspread","uncletopia"],"game_id":440,"stv_port":27016,"stv_name":"Uncletopia | Sydney | 1 | All Maps | STV","players":null},{"server_id":123,"name":"Uncletopia | Sydney | 2 | All Maps","name_short":"syd-2","host":"syd-1.au.uncletopia.com","port":27025,"enabled":true,"region":"au","cc":"au","latitude":-33.865143,"longitude":151.2099,"reserved":0,"last_update":"0001-01-01T00:00:00Z","name_a2s":"Uncletopia | Sydney | 2 | All Maps","protocol":17,"map":"koth_cascade","folder":"tf","game":"Team Fortress","app_id":440,"player_count":0,"max_players":24,"Bots":0,"server_type":"Dedicated","server_os":"Linux","password":true,"vac":true,"version":"7932396","steam_id":85568392924470002,"keywords":["cp","nocrits","nodmgspread","uncletopia"],"game_id":440,"stv_port":27026,"stv_name":"Uncletopia | Sydney | 2 | All Maps | STV","players":null},{"server_id":395,"name":"Uncletopia | Sydney | 3 | All Maps","name_short":"syd-3","host":"syd-1.au.uncletopia.com","port":27035,"enabled":true,"region":"au","cc":"au","latitude":-33.865143,"longitude":151.2099,"reserved":0,"last_update":"0001-01-01T00:00:00Z","name_a2s":"Uncletopia | Sydney | 3 | All Maps","protocol":17,"map":"cp_sunshine","folder":"tf","game":"Team Fortress","app_id":440,"player_count":0,"max_players":24,"Bots":0,"server_type":"Dedicated","server_os":"Linux","password":true,"vac":true,"version":"7932396","steam_id":85568392925194467,"keywords":["cp","nocrits","nodmgspread","uncletopia"],"game_id":440,"stv_port":27036,"stv_name":"Uncletopia | Sydney | 3 | All Maps | STV","players":null},{"server_id":396,"name":"Uncletopia | Sydney | 4 | All Maps","name_short":"syd-4","host":"syd-1.au.uncletopia.com","port":27045,"enabled":true,"region":"au","cc":"au","latitude":-33.865143,"longitude":151.2099,"reserved":0,"last_update":"0001-01-01T00:00:00Z","name_a2s":"Uncletopia | Sydney | 4 | All Maps","protocol":17,"map":"pl_swiftwater_final1","folder":"tf","game":"Team Fortress","app_id":440,"player_count":0,"max_players":24,"Bots":0,"server_type":"Dedicated","server_os":"Linux","password":true,"vac":true,"version":"7932396","steam_id":85568392925397958,"keywords":["nocrits","nodmgspread","payload","uncletopia"],"game_id":440,"stv_port":27046,"stv_name":"Uncletopia | Sydney | 4 | All Maps | STV","players":null},{"server_id":58,"name":"Uncletopia | Sydney | 5 | Stopwatch Beta","name_short":"syd-5","host":"syd-1.au.uncletopia.com","port":27055,"enabled":true,"region":"au","cc":"au","latitude":-33.865143,"longitude":151.2099,"reserved":0,"last_update":"0001-01-01T00:00:00Z","name_a2s":"Uncletopia | Sydney | 5 | Stopwatch Beta","protocol":17,"map":"pl_borneo","folder":"tf","game":"Team Fortress","app_id":440,"player_count":0,"max_players":24,"Bots":0,"server_type":"Dedicated","server_os":"Linux","password":true,"vac":true,"version":"7932396","steam_id":85568392925397959,"keywords":["nocrits","nodmgspread","payload","uncletopia"],"game_id":440,"stv_port":27056,"stv_name":"Uncletopia | Sydney | 5 | Stopwatch Beta | STV","players":null},{"server_id":59,"name":"Uncletopia | Sydney | 6 | Community","name_short":"syd-6","host":"syd-1.au.uncletopia.com","port":27065,"enabled":true,"region":"au","cc":"au","latitude":-33.865143,"longitude":151.2099,"reserved":0,"last_update":"0001-01-01T00:00:00Z","name_a2s":"Uncletopia | Sydney | 6 | Community","protocol":17,"map":"workshop/pl_barnblitz_pro7.ugc582280235","folder":"tf","game":"Team Fortress","app_id":440,"player_count":0,"max_players":24,"Bots":0,"server_type":"Dedicated","server_os":"Linux","password":true,"vac":true,"version":"7932396","steam_id":85568392925397960,"keywords":["nocrits","nodmgspread","payload","uncletopia"],"game_id":440,"stv_port":27066,"stv_name":"Uncletopia | Sydney | 6 | Community | STV","players":null},{"server_id":49,"name":"Uncletopia | Warsaw | 1 | All Maps","name_short":"waw-1","host":"waw-1.pl.uncletopia.com","port":27015,"enabled":true,"region":"eu","cc":"pl","latitude":52.2297,"longitude":21.017532,"reserved":0,"last_update":"0001-01-01T00:00:00Z","name_a2s":"","protocol":0,"map":"","folder":"","game":"","app_id":0,"player_count":0,"max_players":0,"Bots":0,"server_type":"","server_os":"","password":false,"vac":false,"version":"","steam_id":0,"keywords":null,"game_id":0,"stv_port":0,"stv_name":"","players":null},{"server_id":50,"name":"Uncletopia | Warsaw | 2 | All Maps","name_short":"waw-2","host":"waw-1.pl.uncletopia.com","port":27025,"enabled":true,"region":"eu","cc":"pl","latitude":52.2297,"longitude":21.017532,"reserved":0,"last_update":"0001-01-01T00:00:00Z","name_a2s":"Uncletopia | Warsaw | 2 | All Maps","protocol":17,"map":"pl_borneo","folder":"tf","game":"Team Fortress","app_id":440,"player_count":24,"max_players":24,"Bots":0,"server_type":"Dedicated","server_os":"Linux","password":true,"vac":true,"version":"7932396","steam_id":85568392925397851,"keywords":["nocrits","nodmgspread","payload","uncletopia"],"game_id":440,"stv_port":27026,"stv_name":"Uncletopia | Warsaw | 2 | All Maps | STV","players":[{"user_id":125,"name":"siarczan (VI) miedzi (II)","steam_id":76561198327848460,"connected_time":368000000000,"state":"active","ping":51},{"user_id":34,"name":"lagzer","steam_id":76561198029295449,"connected_time":5605000000000,"state":"active","ping":50},{"user_id":123,"name":"khyrmie","steam_id":76561198148821722,"connected_time":508000000000,"state":"active","ping":41},{"user_id":124,"name":"Crusader","steam_id":76561198239172686,"connected_time":462000000000,"state":"active","ping":41},{"user_id":21,"name":"bitkomet","steam_id":76561198058232147,"connected_time":9793000000000,"state":"active","ping":90},{"user_id":94,"name":"Lilliputt","steam_id":76561198090146457,"connected_time":2420000000000,"state":"active","ping":74},{"user_id":73,"name":"Mischail","steam_id":76561198016127010,"connected_time":3884000000000,"state":"active","ping":91},{"user_id":70,"name":"Ixsus\u003c3","steam_id":76561198094756869,"connected_time":4169000000000,"state":"active","ping":75},{"user_id":119,"name":"Ewelinka Zniszczenia","steam_id":76561198307374456,"connected_time":1589000000000,"state":"active","ping":49},{"user_id":100,"name":"WIND TURBINE TECHNOLOGY","steam_id":76561198798803845,"connected_time":2335000000000,"state":"active","ping":72},{"user_id":122,"name":"SpaceCake","steam_id":76561198151394497,"connected_time":527000000000,"state":"active","ping":71},{"user_id":103,"name":"NOMAN","steam_id":76561198413049358,"connected_time":2151000000000,"state":"active","ping":84},{"user_id":106,"name":"V1","steam_id":76561198860424456,"connected_time":2113000000000,"state":"active","ping":102},{"user_id":121,"name":"EMAIQ","steam_id":76561198109018340,"connected_time":950000000000,"state":"active","ping":49},{"user_id":84,"name":"Samus","steam_id":76561198045943019,"connected_time":2958000000000,"state":"active","ping":63},{"user_id":85,"name":"TurboTabs","steam_id":76561198009785131,"connected_time":2934000000000,"state":"active","ping":80},{"user_id":126,"name":"NO end to POOTIS","steam_id":76561198144879361,"connected_time":337000000000,"state":"active","ping":97},{"user_id":118,"name":"Wattseyy","steam_id":76561198248567360,"connected_time":1725000000000,"state":"active","ping":70},{"user_id":99,"name":"n//?!bu","steam_id":76561198307037169,"connected_time":2354000000000,"state":"active","ping":86},{"user_id":129,"name":"hot guy","steam_id":76561198083063005,"connected_time":145000000000,"state":"active","ping":67},{"user_id":108,"name":"nightcore car crash","steam_id":76561198088624259,"connected_time":2091000000000,"state":"active","ping":78},{"user_id":128,"name":"Goodmouth","steam_id":76561198097645042,"connected_time":253000000000,"state":"active","ping":90},{"user_id":127,"name":"rabbitface26","steam_id":76561198327540113,"connected_time":315000000000,"state":"active","ping":72},{"user_id":120,"name":"APELOR","steam_id":76561198436284444,"connected_time":1582000000000,"state":"active","ping":72}]},{"server_id":51,"name":"Uncletopia | Warsaw | 3 | All Maps","name_short":"waw-3","host":"waw-1.pl.uncletopia.com","port":27035,"enabled":true,"region":"eu","cc":"pl","latitude":52.2297,"longitude":21.017532,"reserved":0,"last_update":"0001-01-01T00:00:00Z","name_a2s":"Uncletopia | Warsaw | 3 | All Maps","protocol":17,"map":"koth_lakeside_final","folder":"tf","game":"Team Fortress","app_id":440,"player_count":0,"max_players":24,"Bots":0,"server_type":"Dedicated","server_os":"Linux","password":true,"vac":true,"version":"7932396","steam_id":85568392925397852,"keywords":["cp","nocrits","nodmgspread","uncletopia"],"game_id":440,"stv_port":27036,"stv_name":"Uncletopia | Warsaw | 3 | All Maps | STV","players":null},{"server_id":52,"name":"Uncletopia | Warsaw | 4 | All Maps","name_short":"waw-4","host":"waw-1.pl.uncletopia.com","port":27045,"enabled":true,"region":"eu","cc":"pl","latitude":52.2297,"longitude":21.017532,"reserved":0,"last_update":"0001-01-01T00:00:00Z","name_a2s":"Uncletopia | Warsaw | 4 | All Maps","protocol":17,"map":"cp_mountainlab","folder":"tf","game":"Team Fortress","app_id":440,"player_count":0,"max_players":24,"Bots":0,"server_type":"Dedicated","server_os":"Linux","password":true,"vac":true,"version":"7932396","steam_id":85568392925397853,"keywords":["cp","nocrits","nodmgspread","uncletopia"],"game_id":440,"stv_port":27046,"stv_name":"Uncletopia | Warsaw | 4 | All Maps | STV","players":null},{"server_id":53,"name":"Uncletopia | Warsaw | 5 | Stopwatch Beta","name_short":"waw-5","host":"waw-1.pl.uncletopia.com","port":27055,"enabled":true,"region":"eu","cc":"pl","latitude":52.2297,"longitude":21.017532,"reserved":0,"last_update":"0001-01-01T00:00:00Z","name_a2s":"Uncletopia | Warsaw | 5 | Stopwatch Beta","protocol":17,"map":"pl_upward","folder":"tf","game":"Team Fortress","app_id":440,"player_count":0,"max_players":24,"Bots":0,"server_type":"Dedicated","server_os":"Linux","password":true,"vac":true,"version":"7932396","steam_id":85568392925397854,"keywords":["nocrits","nodmgspread","payload","uncletopia"],"game_id":440,"stv_port":27056,"stv_name":"Uncletopia | Warsaw | 5 | Stopwatch Beta | STV","players":null},{"server_id":54,"name":"Uncletopia | Warsaw | 6 | Community","name_short":"waw-6","host":"waw-1.pl.uncletopia.com","port":27065,"enabled":true,"region":"eu","cc":"pl","latitude":52.2297,"longitude":21.017532,"reserved":0,"last_update":"0001-01-01T00:00:00Z","name_a2s":"Uncletopia | Warsaw | 6 | Community","protocol":17,"map":"pl_upward","folder":"tf","game":"Team Fortress","app_id":440,"player_count":0,"max_players":24,"Bots":0,"server_type":"Dedicated","server_os":"Linux","password":true,"vac":true,"version":"7932396","steam_id":85568392925397856,"keywords":["nocrits","nodmgspread","payload","uncletopia"],"game_id":440,"stv_port":27066,"stv_name":"Uncletopia | Warsaw | 6 | Community | STV","players":null}]}