{"status":true,"message":"","result":[{"server_id":9,"name":"Uncletopia | Atlanta | 1 | All Maps","name_short":"atl-1","host":"atl-1.us.uncletopia.com","port":27015,"enabled":true,"region":"us-east","cc":"us","latitude":33.753746,"longitude":-84.38633,"reserved":0,"last_update":"0001-01-01T00:00:00Z","name_a2s":"Uncletopia | Atlanta | 1 | All Maps","protocol":17,"map":"pl_swiftwater_final1","folder":"tf","game":"Team Fortress","app_id":440,"player_count":24,"max_players":24,"Bots":0,"server_type":"Dedicated","server_os":"Linux","password":true,"vac":true,"version":"7723704","steam_id":85568392924469982,"keywords":["nocrits","nodmgspread","payload","uncletopia"],"game_id":440,"stv_port":27016,"stv_name":"Uncletopia | Atlanta | 1 | All Maps | STV","players":[{"user_id":596,"name":"festive pork trooper","steam_id":76561198150327877,"connected_time":1399000000000,"state":"active","ping":36},{"user_id":601,"name":"faye","steam_id":76561198044176988,"connected_time":1109000000000,"state":"active","ping":66},{"user_id":597,"name":"illious","steam_id":76561198169925494,"connected_time":1336000000000,"state":"active","ping":65},{"user_id":598,"name":"LinkFromDaPast","steam_id":76561198211437197,"connected_time":1302000000000,"state":"active","ping":58},{"user_id":599,"name":"KillerGodzilla","steam_id":76561198049361161,"connected_time":1194000000000,"state":"active","ping":83},{"user_id":600,"name":"Ena","steam_id":76561198948701334,"connected_time":1133000000000,"state":"active","ping":82},{"user_id":622,"name":"Kaluka","steam_id":76561198036861445,"connected_time":691000000000,"state":"active","ping":59},{"user_id":602,"name":"Bottom Trans Cowgirl","steam_id":76561198304239680,"connected_time":1107000000000,"state":"active","ping":78},{"user_id":603,"name":"bo3 zombies pro","steam_id":76561198446283223,"connected_time":1095000000000,"state":"active","ping":42},{"user_id":623,"name":"StickyWicket","steam_id":76561198000155177,"connected_time":654000000000,"state":"active","ping":67},{"user_id":618,"name":"Harold","steam_id":76561198057317770,"connected_time":771000000000,"state":"active","ping":98},{"user_id":624,"name":"CorbanClyffe","steam_id":76561198154114994,"connected_time":596000000000,"state":"active","ping":69},{"user_id":608,"name":"PurpOwl","steam_id":76561198979416718,"connected_time":936000000000,"state":"active","ping":70},{"user_id":621,"name":"adam0o0","steam_id":76561198052250279,"connected_time":728000000000,"state":"active","ping":76},{"user_id":612,"name":"KnightMan","steam_id":76561198143531192,"connected_time":849000000000,"state":"active","ping":61},{"user_id":610,"name":"limlermite","steam_id":76561197967761582,"connected_time":879000000000,"state":"active","ping":75},{"user_id":611,"name":"valtiel","steam_id":76561198165212575,"connected_time":856000000000,"state":"active","ping":81},{"user_id":613,"name":"ATL1 | Lancer Fan Club","steam_id":76561198355495948,"connected_time":833000000000,"state":"active","ping":82},{"user_id":614,"name":"Michaelpc1","steam_id":76561198088365519,"connected_time":819000000000,"state":"active","ping":64},{"user_id":616,"name":"ATL1 | S4tisfactoree","steam_id":76561198088337557,"connected_time":786000000000,"state":"active","ping":50},{"user_id":628,"name":"Stampdawg","steam_id":76561198050500060,"connected_time":147000000000,"state":"active","ping":77},{"user_id":619,"name":"DAS SCHNITZELSTIEN","steam_id":76561198051137159,"connected_time":762000000000,"state":"active","ping":104},{"user_id":620,"name":"Spike Bones","steam_id":76561198234926120,"connected_time":754000000000,"state":"active","ping":75},{"user_id":626,"name":"MMAD","steam_id":76561198026446420,"connected_time":588000000000,"state":"active","ping":74}]},{"server_id":400,"name":"Uncletopia | Atlanta | 3 | All Maps","name_short":"atl-3","host":"atl-1.us.uncletopia.com","port":27035,"enabled":true,"region":"us-east","cc":"us","latitude":33.753746,"longitude":-84.38633,"reserved":0,"last_update":"0001-01-01T00:00:00Z","name_a2s":"Uncletopia | Atlanta | 3 | All Maps","protocol":17,"map":"koth_lakeside_final","folder":"tf","game":"Team Fortress","app_id":440,"player_count":0,"max_players":24,"Bots":0,"server_type":"Dedicated","server_os":"Linux","password":true,"vac":true,"version":"7723704","steam_id":85568392924515187,"keywords":["cp","nocrits","nodmgspread","uncletopia"],"game_id":440,"stv_port":27036,"stv_name":"Uncletopia | Atlanta | 3 | All Maps | STV","players":null},{"server_id":401,"name":"Uncletopia | Atlanta | 4 | No Payload","name_short":"atl-4","host":"atl-1.us.uncletopia.com","port":27045,"enabled":true,"region":"us-east","cc":"us","latitude":33.753746,"longitude":-84.38633,"reserved":0,"last_update":"0001-01-01T00:00:00Z","name_a2s":"Uncletopia | Atlanta | 4 | No Payload","protocol":17,"map":"koth_harvest_final","folder":"tf","game":"Team Fortress","app_id":440,"player_count":0,"max_players":24,"Bots":0,"server_type":"Dedicated","server_os":"Linux","password":true,"vac":true,"version":"7723704","steam_id":85568392924515188,"keywords":["cp","nocrits","nodmgspread","uncletopia"],"game_id":440,"stv_port":27046,"stv_name":"Uncletopia | Atlanta | 4 | No Payload | STV","players":null},{"server_id":2,"name":"Uncletopia | Chicago | 1 | All Maps","name_short":"chi-1","host":"chi-1.us.uncletopia.com","port":27015,"enabled":true,"region":"us-central","cc":"us","latitude":41.881832,"longitude":-87.62318,"reserved":0,"last_update":"0001-01-01T00:00:00Z","name_a2s":"Uncletopia | Chicago | 1 | All Maps","protocol":17,"map":"cp_dustbowl","folder":"tf","game":"Team Fortress","app_id":440,"player_count":24,"max_players":24,"Bots":0,"server_type":"Dedicated","server_os":"Linux","password":true,"vac":true,"version":"7723704","steam_id":85568392924469984,"keywords":["cp","nocrits","nodmgspread","uncletopia"],"game_id":440,"stv_port":27016,"stv_name":"Uncletopia | Chicago | 1 | All Maps | STV","players":[{"user_id":737,"name":"blindentity","steam_id":76561199240783683,"connected_time":916000000000,"state":"active","ping":100},{"user_id":654,"name":"Hooked","steam_id":76561198007302139,"connected_time":6978000000000,"state":"active","ping":75},{"user_id":723,"name":"Sootyquill","steam_id":76561198186883927,"connected_time":2606000000000,"state":"active","ping":96},{"user_id":717,"name":"waru","steam_id":76561198044251420,"connected_time":3149000000000,"state":"active","ping":60},{"user_id":733,"name":"Transbian mommy GF","steam_id":76561198153233822,"connected_time":1755000000000,"state":"active","ping":55},{"user_id":729,"name":"never stop gambling","steam_id":76561198021224745,"connected_time":1845000000000,"state":"active","ping":59},{"user_id":734,"name":"O'brien","steam_id":76561198289339403,"connected_time":1744000000000,"state":"active","ping":82},{"user_id":718,"name":"grape juice -rng","steam_id":76561198093829623,"connected_time":3072000000000,"state":"active","ping":79},{"user_id":702,"name":"Ras","steam_id":76561198123546775,"connected_time":3869000000000,"state":"active","ping":59},{"user_id":712,"name":"motherfucker 2.0","steam_id":76561198141189209,"connected_time":3490000000000,"state":"active","ping":54},{"user_id":680,"name":"ella üéÄ","steam_id":76561199123532358,"connected_time":4776000000000,"state":"active","ping":56},{"user_id":740,"name":"Chezburgures","steam_id":76561198173043730,"connected_time":120000000000,"state":"active","ping":97},{"user_id":728,"name":"Elena Manetta","steam_id":76561197998344054,"connected_time":2186000000000,"state":"active","ping":56},{"user_id":730,"name":"mastermind","steam_id":76561198127783432,"connected_time":1818000000000,"state":"active","ping":75},{"user_id":677,"name":"Ademar","steam_id":76561199391802581,"connected_time":4793000000000,"state":"active","ping":59},{"user_id":727,"name":"sardien","steam_id":76561198256184467,"connected_time":2197000000000,"state":"active","ping":45},{"user_id":685,"name":"psy","steam_id":76561198013195018,"connected_time":4745000000000,"state":"active","ping":76},{"user_id":679,"name":"Mixomin","steam_id":76561198295061570,"connected_time":4790000000000,"state":"active","ping":55},{"user_id":705,"name":"Barack Hussein Obama","steam_id":76561198285509527,"connected_time":3738000000000,"state":"active","ping":70},{"user_id":707,"name":"Listify","steam_id":76561198315688753,"connected_time":3688000000000,"state":"active","ping":84},{"user_id":710,"name":"Goofball","steam_id":76561198074189084,"connected_time":3635000000000,"state":"active","ping":57},{"user_id":736,"name":"Loogey03","steam_id":76561198155483586,"connected_time":936000000000,"state":"active","ping":63},{"user_id":731,"name":"Cucumber Gaming","steam_id":76561198982680715,"connected_time":1802000000000,"state":"active","ping":51},{"user_id":631,"name":"Lia_Rein","steam_id":76561198151569597,"connected_time":8948000000000,"state":"active","ping":143}]},{"server_id":106,"name":"Uncletopia | Chicago | 2 | All Maps","name_short":"chi-2","host":"chi-1.us.uncletopia.com","port":27025,"enabled":true,"region":"us-central","cc":"us","latitude":41.881832,"longitude":-87.62318,"reserved":0,"last_update":"0001-01-01T00:00:00Z","name_a2s":"Uncletopia | Chicago | 2 | All Maps","protocol":17,"map":"pl_upward","folder":"tf","game":"Team Fortress","app_id":440,"player_count":24,"max_players":24,"Bots":0,"server_type":"Dedicated","server_os":"Linux","password":true,"vac":true,"version":"7723704","steam_id":85568392924469985,"keywords":["nocrits","nodmgspread","payload","uncletopia"],"game_id":440,"stv_port":27026,"stv_name":"Uncletopia | Chicago | 2 | All Maps | STV","players":[{"user_id":622,"name":"Huevo Frito","steam_id":76561198896811394,"connected_time":1007000000000,"state":"active","ping":54},{"user_id":620,"name":"LazyKoala99","steam_id":76561199183623672,"connected_time":1014000000000,"state":"active","ping":72},{"user_id":621,"name":"rainwarden","steam_id":76561198085183458,"connected_time":1011000000000,"state":"active","ping":63},{"user_id":637,"name":"Lord of the Moon","steam_id":76561198014115769,"connected_time":395000000000,"state":"active","ping":60},{"user_id":638,"name":"Dullahan","steam_id":76561198119668908,"connected_time":304000000000,"state":"active","ping":95},{"user_id":599,"name":"deepmeta","steam_id":76561199053600691,"connected_time":2752000000000,"state":"active","ping":63},{"user_id":623,"name":"Fancyassasin","steam_id":76561198331864258,"connected_time":1004000000000,"state":"active","ping":46},{"user_id":625,"name":"ChainsawGuy","steam_id":76561198971626811,"connected_time":970000000000,"state":"active","ping":67},{"user_id":604,"name":"gyozaking","steam_id":76561197972312696,"connected_time":2312000000000,"state":"active","ping":48},{"user_id":645,"name":"BALLS OREGANO","steam_id":76561198004409118,"connected_time":86000000000,"state":"active","ping":69},{"user_id":627,"name":"Egyptian amogus","steam_id":76561198320353510,"connected_time":950000000000,"state":"active","ping":136},{"user_id":641,"name":"Anime Sucks","steam_id":76561199121487532,"connected_time":244000000000,"state":"active","ping":82},{"user_id":617,"name":"big guapo","steam_id":76561198103228695,"connected_time":1426000000000,"state":"active","ping":66},{"user_id":642,"name":"Mr.Friendly Reminders","steam_id":76561199067294491,"connected_time":207000000000,"state":"active","ping":45},{"user_id":629,"name":"big g","steam_id":76561198067496197,"connected_time":934000000000,"state":"active","ping":47},{"user_id":630,"name":"Magneto","steam_id":76561199151206130,"connected_time":924000000000,"state":"active","ping":52},{"user_id":644,"name":"Lots0","steam_id":76561198043143145,"connected_time":127000000000,"state":"active","ping":81},{"user_id":639,"name":"ZoranTheBear","steam_id":76561198026500247,"connected_time":295000000000,"state":"active","ping":78},{"user_id":631,"name":"Skeech","steam_id":76561198119215388,"connected_time":917000000000,"state":"active","ping":79},{"user_id":640,"name":"Level 1 Crook","steam_id":76561198441098132,"connected_time":282000000000,"state":"active","ping":54},{"user_id":632,"name":"rlty","steam_id":76561198009395055,"connected_time":911000000000,"state":"active","ping":63},{"user_id":643,"name":"Tech","steam_id":76561198177869755,"connected_time":150000000000,"state":"active","ping":68},{"user_id":633,"name":"pikachu fake","steam_id":76561198405189349,"connected_time":898000000000,"state":"active","ping":50},{"user_id":478,"name":"Sire Salty","steam_id":76561198079639072,"connected_time":11271000000000,"state":"active","ping":62}]},{"server_id":402,"name":"Uncletopia | Chicago | 3 | All Maps","name_short":"chi-3","host":"chi-1.us.uncletopia.com","port":27035,"enabled":true,"region":"us-central","cc":"us","latitude":41.881832,"longitude":-87.62318,"reserved":0,"last_update":"0001-01-01T00:00:00Z","name_a2s":"Uncletopia | Chicago | 3 | All Maps","protocol":17,"map":"koth_lakeside_final","folder":"tf","game":"Team Fortress","app_id":440,"player_count":0,"max_players":24,"Bots":0,"server_type":"Dedicated","server_os":"Linux","password":true,"vac":true,"version":"7723704","steam_id":85568392924515191,"keywords":["cp","nocrits","nodmgspread","uncletopia"],"game_id":440,"stv_port":27036,"stv_name":"Uncletopia | Chicago | 3 | All Maps | STV","players":null},{"server_id":403,"name":"Uncletopia | Chicago | 4 | All Maps","name_short":"chi-4","host":"chi-1.us.uncletopia.com","port":27045,"enabled":true,"region":"us-central","cc":"us","latitude":41.881832,"longitude":-87.62318,"reserved":0,"last_update":"0001-01-01T00:00:00Z","name_a2s":"Uncletopia | Chicago | 4 | All Maps","protocol":17,"map":"pl_snowycoast","folder":"tf","game":"Team Fortress","app_id":440,"player_count":24,"max_players":24,"Bots":0,"server_type":"Dedicated","server_os":"Linux","password":true,"vac":true,"version":"7723704","steam_id":85568392924515193,"keywords":["nocrits","nodmgspread","payload","uncletopia"],"game_id":440,"stv_port":27046,"stv_name":"Uncletopia | Chicago | 4 | All Maps | STV","players":[{"user_id":143,"name":"ImNotPete","steam_id":76561199354935347,"connected_time":201000000000,"state":"active","ping":79},{"user_id":21,"name":"ruff n rugged","steam_id":76561197961299302,"connected_time":9762000000000,"state":"active","ping":40},{"user_id":123,"name":"Zero","steam_id":76561199383267408,"connected_time":1896000000000,"state":"active","ping":73},{"user_id":144,"name":"kablong","steam_id":76561199094392047,"connected_time":198000000000,"state":"active","ping":120},{"user_id":121,"name":"RaddahRaddah","steam_id":76561198194462829,"connected_time":1903000000000,"state":"active","ping":54},{"user_id":142,"name":"yari","steam_id":76561198154183700,"connected_time":306000000000,"state":"active","ping":47},{"user_id":145,"name":"EvilMrPotoo ÔΩ°‚óï‚Äø‚óïÔΩ°","steam_id":76561198012566870,"connected_time":192000000000,"state":"active","ping":57},{"user_id":95,"name":"Space‚≠êTaffy","steam_id":76561198002271720,"connected_time":4850000000000,"state":"active","ping":58},{"user_id":146,"name":"bobby peanstalk","steam_id":76561198040495463,"connected_time":190000000000,"state":"active","ping":64},{"user_id":96,"name":"namaste at home dad","steam_id":76561198056971063,"connected_time":4768000000000,"state":"active","ping":57},{"user_id":136,"name":"Lumpy","steam_id":76561198058840585,"connected_time":373000000000,"state":"active","ping":74},{"user_id":147,"name":"Bandit","steam_id":76561198328421159,"connected_time":190000000000,"state":"active","ping":61},{"user_id":103,"name":"Rukks","steam_id":76561197993918954,"connected_time":3046000000000,"state":"active","ping":60},{"user_id":119,"name":"ÿßŸÜÿ™ÿ≠ÿ± Ÿäÿß ÿßÿ®ŸÜ ÿßŸÑŸÖÿ™","steam_id":76561198326987939,"connected_time":2322000000000,"state":"active","ping":82},{"user_id":149,"name":"disguy123","steam_id":76561198408966876,"connected_time":163000000000,"state":"active","ping":57},{"user_id":150,"name":"leumas","steam_id":76561198240408540,"connected_time":132000000000,"state":"active","ping":81},{"user_id":151,"name":"ck_rene","steam_id":76561199079260488,"connected_time":114000000000,"state":"active","ping":71},{"user_id":152,"name":"[247]Cpl.A GlutenFreeStudmuffin","steam_id":76561198063189855,"connected_time":112000000000,"state":"active","ping":59},{"user_id":97,"name":"bubbles","steam_id":76561198054693706,"connected_time":4443000000000,"state":"active","ping":64},{"user_id":153,"name":"poey","steam_id":76561198865346767,"connected_time":111000000000,"state":"active","ping":98},{"user_id":154,"name":"foxlot11","steam_id":76561198796198788,"connected_time":96000000000,"state":"active","ping":57},{"user_id":138,"name":"Qucumber","steam_id":76561198067801269,"connected_time":365000000000,"state":"active","ping":85},{"user_id":155,"name":"DuckMann","steam_id":76561198197058638,"connected_time":95000000000,"state":"active","ping":78},{"user_id":139,"name":"Maxxycat","steam_id":76561198194062681,"connected_time":363000000000,"state":"active","ping":62}]},{"server_id":36,"name":"Uncletopia | Chicago | 5 | All Maps","name_short":"chi-5","host":"chi-2.us.uncletopia.com","port":27015,"enabled":true,"region":"us-central","cc":"us","latitude":41.881832,"longitude":-87.62318,"reserved":0,"last_update":"0001-01-01T00:00:00Z","name_a2s":"Uncletopia | Chicago | 5 | All Maps","protocol":17,"map":"pl_upward","folder":"tf","game":"Team Fortress","app_id":440,"player_count":0,"max_players":24,"Bots":0,"server_type":"Dedicated","server_os":"Linux","password":true,"vac":true,"version":"7723704","steam_id":85568392924866362,"keywords":["nocrits","nodmgspread","payload","uncletopia"],"game_id":440,"stv_port":27016,"stv_name":"Uncletopia | Chicago | 5 | All Maps | STV","players":null},{"server_id":37,"name":"Uncletopia | Chicago | 6 | All Maps","name_short":"chi-6","host":"chi-2.us.uncletopia.com","port":27025,"enabled":true,"region":"us-central","cc":"us","latitude":41.881832,"longitude":-87.62318,"reserved":0,"last_update":"0001-01-01T00:00:00Z","name_a2s":"Uncletopia | Chicago | 6 | All Maps","protocol":17,"map":"cp_snakewater_final1","folder":"tf","game":"Team Fortress","app_id":440,"player_count":2,"max_players":24,"Bots":0,"server_type":"Dedicated","server_os":"Linux","password":true,"vac":true,"version":"7723704","steam_id":85568392924866363,"keywords":["cp","nocrits","nodmgspread","uncletopia"],"game_id":440,"stv_port":27026,"stv_name":"Uncletopia | Chicago | 6 | All Maps | STV","players":[{"user_id":9,"name":"carbon-based lifeform","steam_id":76561199187226776,"connected_time":56000000000,"state":"active","ping":63},{"user_id":25,"name":"jerma enthusiast","steam_id":76561198359466264,"connected_time":10000000000,"state":"active","ping":65}]},{"server_id":38,"name":"Uncletopia | Chicago | 7 | Stopwatch Beta","name_short":"chi-7","host":"chi-2.us.uncletopia.com","port":27035,"enabled":true,"region":"us-central","cc":"us","latitude":41.881832,"longitude":-87.62318,"reserved":0,"last_update":"0001-01-01T00:00:00Z","name_a2s":"Uncletopia | Chicago | 7 | Stopwatch Beta","protocol":17,"map":"cp_sunshine","folder":"tf","game":"Team Fortress","app_id":440,"player_count":0,"max_players":24,"Bots":0,"server_type":"Dedicated","server_os":"Linux","password":true,"vac":true,"version":"7723704","steam_id":85568392924866364,"keywords":["cp","nocrits","nodmgspread","uncletopia"],"game_id":440,"stv_port":27036,"stv_name":"Uncletopia | Chicago | 7 | Stopwatch Beta | STV","players":null},{"server_id":39,"name":"Uncletopia | Chicago | 8 | Community","name_short":"chi-8","host":"chi-2.us.uncletopia.com","port":27045,"enabled":true,"region":"us-central","cc":"us","latitude":41.881832,"longitude":-87.62318,"reserved":0,"last_update":"0001-01-01T00:00:00Z","name_a2s":"Uncletopia | Chicago | 8 | Community","protocol":17,"map":"koth_viaduct","folder":"tf","game":"Team Fortress","app_id":440,"player_count":8,"max_players":24,"Bots":0,"server_type":"Dedicated","server_os":"Linux","password":true,"vac":true,"version":"7723704","steam_id":85568392924866365,"keywords":["cp","nocrits","nodmgspread","uncletopia"],"game_id":440,"stv_port":27046,"stv_name":"Uncletopia | Chicago | 8 | Community | STV","players":[{"user_id":3,"name":"CD Cyber Dragon","steam_id":76561198275727749,"connected_time":49000000000,"state":"active","ping":75},{"user_id":4,"name":"Lord Scrubling","steam_id":76561198263744445,"connected_time":42000000000,"state":"active","ping":73},{"user_id":5,"name":"Jules","steam_id":76561199065191952,"connected_time":37000000000,"state":"active","ping":97},{"user_id":6,"name":"MINION Jamillia 4heck","steam_id":76561198069079902,"connected_time":31000000000,"state":"active","ping":105},{"user_id":7,"name":"R5-D4","steam_id":76561198025196439,"connected_time":22000000000,"state":"active","ping":91},{"user_id":8,"name":"Volcano","steam_id":76561198137264104,"connected_time":20000000000,"state":"active","ping":67},{"user_id":9,"name":"Festive Companion Cube","steam_id":76561198169913041,"connected_time":16000000000,"state":"active","ping":58},{"user_id":10,"name":"Strat70","steam_id":76561198065606569,"connected_time":14000000000,"state":"active","ping":70}]},{"server_id":8,"name":"Uncletopia | Dallas | 1 | All Maps","name_short":"dal-1","host":"dal-1.us.uncletopia.com","port":27015,"enabled":true,"region":"us-central","cc":"us","latitude":32.779167,"longitude":-96.80889,"reserved":0,"last_update":"0001-01-01T00:00:00Z","name_a2s":"Uncletopia | Dallas | 1 | All Maps","protocol":17,"map":"pl_enclosure_final","folder":"tf","game":"Team Fortress","app_id":440,"player_count":24,"max_players":24,"Bots":0,"server_type":"Dedicated","server_os":"Linux","password":true,"vac":true,"version":"7723704","steam_id":85568392924469986,"keywords":["nocrits","nodmgspread","payload","uncletopia"],"game_id":440,"stv_port":27016,"stv_name":"Uncletopia | Dallas | 1 | All Maps | STV","players":[{"user_id":497,"name":"I'm playing on a controller","steam_id":76561199056046991,"connected_time":67000000000,"state":"active","ping":36},{"user_id":460,"name":"???","steam_id":76561198200155343,"connected_time":4933000000000,"state":"active","ping":43},{"user_id":482,"name":"Brishen","steam_id":76561197993494992,"connected_time":1738000000000,"state":"active","ping":108},{"user_id":496,"name":"kilroy_39","steam_id":76561198205173325,"connected_time":74000000000,"state":"active","ping":79},{"user_id":494,"name":"Sylvaris","steam_id":76561198156678773,"connected_time":137000000000,"state":"active","ping":62},{"user_id":453,"name":"rat smacker","steam_id":76561198053164901,"connected_time":5868000000000,"state":"active","ping":57},{"user_id":449,"name":"Eavesdropping","steam_id":76561198062977783,"connected_time":5943000000000,"state":"active","ping":180},{"user_id":490,"name":"chunkysquare","steam_id":76561199076468383,"connected_time":1382000000000,"state":"active","ping":94},{"user_id":447,"name":"derpy","steam_id":76561198047193993,"connected_time":6157000000000,"state":"active","ping":179},{"user_id":485,"name":"SHADOW (he/him)","steam_id":76561198207768148,"connected_time":1692000000000,"state":"active","ping":93},{"user_id":498,"name":"Tom","steam_id":76561198258980884,"connected_time":64000000000,"state":"active","ping":110},{"user_id":493,"name":"Empala","steam_id":76561198130473446,"connected_time":492000000000,"state":"active","ping":60},{"user_id":499,"name":"cameronbrke","steam_id":76561199072426363,"connected_time":62000000000,"state":"active","ping":96},{"user_id":481,"name":"Murrdogg","steam_id":76561198210491188,"connected_time":2134000000000,"state":"active","ping":76},{"user_id":479,"name":"Whizzo the Clown","steam_id":76561197995910627,"connected_time":2645000000000,"state":"active","ping":93},{"user_id":500,"name":"Omni","steam_id":76561198035774007,"connected_time":43000000000,"state":"active","ping":53},{"user_id":486,"name":"xenolith","steam_id":76561198041496496,"connected_time":1686000000000,"state":"active","ping":89},{"user_id":491,"name":"Krow","steam_id":76561198010392099,"connected_time":892000000000,"state":"active","ping":51},{"user_id":501,"name":"BabaGhanoush53","steam_id":76561198169025765,"connected_time":19000000000,"state":"spawning","ping":85},{"user_id":473,"name":"The Ultimate Coomer","steam_id":76561199128833757,"connected_time":3602000000000,"state":"active","ping":44},{"user_id":502,"name":"MidSobbes08","steam_id":76561199013101925,"connected_time":17000000000,"state":"spawning","ping":94},{"user_id":484,"name":"El Benjador","steam_id":76561198345883103,"connected_time":1732000000000,"state":"active","ping":68},{"user_id":399,"name":"Drakon","steam_id":76561198078210822,"connected_time":9946000000000,"state":"active","ping":88},{"user_id":380,"name":"Fishstall","steam_id":76561198038126034,"connected_time":12008000000000,"state":"active","ping":72}]},{"server_id":108,"name":"Uncletopia | Dallas | 2 | All Maps","name_short":"dal-2","host":"dal-1.us.uncletopia.com","port":27025,"enabled":true,"region":"us-central","cc":"us","latitude":32.779167,"longitude":-96.80889,"reserved":0,"last_update":"0001-01-01T00:00:00Z","name_a2s":"Uncletopia | Dallas | 2 | All Maps","protocol":17,"map":"pl_pier","folder":"tf","game":"Team Fortress","app_id":440,"player_count":23,"max_players":24,"Bots":0,"server_type":"Dedicated","server_os":"Linux","password":true,"vac":true,"version":"7723704","steam_id":85568392924469988,"keywords":["nocrits","nodmgspread","payload","uncletopia"],"game_id":440,"stv_port":27026,"stv_name":"Uncletopia | Dallas | 2 | All Maps | STV","players":[{"user_id":385,"name":"Unionized Gnoll","steam_id":76561198005577021,"connected_time":409000000000,"state":"active","ping":60},{"user_id":377,"name":"Viperbro_FGC #SaveTF2","steam_id":76561198140863068,"connected_time":1688000000000,"state":"active","ping":67},{"user_id":382,"name":"cinna.gamer.2007","steam_id":76561198309760791,"connected_time":1187000000000,"state":"active","ping":163},{"user_id":367,"name":"FUSION","steam_id":76561197972659738,"connected_time":2251000000000,"state":"active","ping":77},{"user_id":316,"name":"gallowsCalibrator","steam_id":76561198404707578,"connected_time":6254000000000,"state":"active","ping":85},{"user_id":387,"name":"bladees saddest, realest verse","steam_id":76561198098099826,"connected_time":341000000000,"state":"active","ping":66},{"user_id":351,"name":"Lion","steam_id":76561198848879603,"connected_time":3941000000000,"state":"active","ping":81},{"user_id":388,"name":"pipe bag","steam_id":76561198307845869,"connected_time":317000000000,"state":"active","ping":95},{"user_id":375,"name":"Lynxdeer","steam_id":76561198928938065,"connected_time":1808000000000,"state":"active","ping":71},{"user_id":354,"name":"A Hard Boiled Egg","steam_id":76561197979078330,"connected_time":3865000000000,"state":"active","ping":82},{"user_id":381,"name":"CheeseCake488","steam_id":76561199407617942,"connected_time":1403000000000,"state":"active","ping":100},{"user_id":350,"name":"Fuzzy Toast","steam_id":76561198028067781,"connected_time":3982000000000,"state":"active","ping":82},{"user_id":389,"name":"butkraken","steam_id":76561197965937409,"connected_time":285000000000,"state":"active","ping":87},{"user_id":305,"name":"TheBrocklobster","steam_id":76561198039682984,"connected_time":7108000000000,"state":"active","ping":85},{"user_id":363,"name":"karbomb","steam_id":76561198120744480,"connected_time":2741000000000,"state":"active","ping":46},{"user_id":369,"name":"Squishybrick","steam_id":76561198029526606,"connected_time":2239000000000,"state":"active","ping":102},{"user_id":390,"name":"That one gamer boy","steam_id":76561199166485004,"connected_time":157000000000,"state":"active","ping":73},{"user_id":361,"name":"tingle shitmouth","steam_id":76561198055109192,"connected_time":3208000000000,"state":"active","ping":92},{"user_id":365,"name":"Smuggley","steam_id":76561198078130271,"connected_time":2638000000000,"state":"active","ping":76},{"user_id":380,"name":"raduski","steam_id":76561198795699119,"connected_time":1452000000000,"state":"active","ping":86},{"user_id":384,"name":"Lezabel","steam_id":76561198970753261,"connected_time":513000000000,"state":"active","ping":76},{"user_id":386,"name":"The Potato Romancer","steam_id":76561198204197648,"connected_time":368000000000,"state":"active","ping":74},{"user_id":313,"name":"Derply","steam_id":76561198871211642,"connected_time":6557000000000,"state":"active","ping":81}]},{"server_id":5,"name":"Uncletopia | Frankfurt | 1 | All Maps","name_short":"frk-1","host":"frk-1.de.uncletopia.com","port":27015,"enabled":true,"region":"eu","cc":"de","latitude":50.110924,"longitude":8.682127,"reserved":0,"last_update":"0001-01-01T00:00:00Z","name_a2s":"Uncletopia | Frankfurt | 1 | All Maps","protocol":17,"map":"pl_upward","folder":"tf","game":"Team Fortress","app_id":440,"player_count":21,"max_players":24,"Bots":0,"server_type":"Dedicated","server_os":"Linux","password":true,"vac":true,"version":"7723704","steam_id":85568392924469989,"keywords":["nocrits","nodmgspread","payload","uncletopia"],"game_id":440,"stv_port":27016,"stv_name":"Uncletopia | Frankfurt | 1 | All Maps | STV","players":[{"user_id":822,"name":"√æe lox","steam_id":76561199093964226,"connected_time":553000000000,"state":"active","ping":76},{"user_id":812,"name":"MrClyde","steam_id":76561198132627420,"connected_time":1215000000000,"state":"active","ping":62},{"user_id":814,"name":"Magiprest","steam_id":76561197998450712,"connected_time":1097000000000,"state":"active","ping":81},{"user_id":807,"name":"Mr Lambert","steam_id":76561199049855408,"connected_time":1627000000000,"state":"active","ping":120},{"user_id":805,"name":"Psychicpie","steam_id":76561198126065206,"connected_time":1989000000000,"state":"active","ping":53},{"user_id":823,"name":"worry about it","steam_id":76561199414716848,"connected_time":358000000000,"state":"active","ping":72},{"user_id":811,"name":"saad566622146","steam_id":76561199445509533,"connected_time":1571000000000,"state":"active","ping":122},{"user_id":815,"name":"Ynkev","steam_id":76561197998778232,"connected_time":1064000000000,"state":"active","ping":71},{"user_id":757,"name":"dec","steam_id":76561198009660168,"connected_time":6269000000000,"state":"active","ping":65},{"user_id":816,"name":"arnold","steam_id":76561198048763335,"connected_time":1059000000000,"state":"active","ping":59},{"user_id":754,"name":"DrHappiness","steam_id":76561198132854516,"connected_time":6341000000000,"state":"active","ping":50},{"user_id":829,"name":"kbbq","steam_id":76561198346638308,"connected_time":149000000000,"state":"active","ping":60},{"user_id":830,"name":"Guardian","steam_id":76561198098932840,"connected_time":4000000000,"state":"spawning","ping":89},{"user_id":818,"name":"omarawsome1","steam_id":76561198098790593,"connected_time":954000000000,"state":"active","ping":177},{"user_id":819,"name":"Regan","steam_id":76561198100631086,"connected_time":950000000000,"state":"active","ping":62},{"user_id":787,"name":"PlebCord","steam_id":76561198120685803,"connected_time":3498000000000,"state":"active","ping":79},{"user_id":795,"name":"Nosyam","steam_id":76561198110297821,"connected_time":3230000000000,"state":"active","ping":98},{"user_id":820,"name":"barnkalassoldat","steam_id":76561198025513190,"connected_time":893000000000,"state":"active","ping":67},{"user_id":827,"name":"E_WM","steam_id":76561198283432737,"connected_time":285000000000,"state":"active","ping":82},{"user_id":782,"name":"Malte","steam_id":76561198326324739,"connected_time":3774000000000,"state":"active","ping":68},{"user_id":791,"name":"(Hu$tl3r) E1s","steam_id":76561198894958917,"connected_time":3285000000000,"state":"active","ping":47}]},{"server_id":110,"name":"Uncletopia | Frankfurt | 2 | All Maps","name_short":"frk-2","host":"frk-1.de.uncletopia.com","port":27025,"enabled":true,"region":"eu","cc":"de","latitude":50.110924,"longitude":8.682127,"reserved":0,"last_update":"0001-01-01T00:00:00Z","name_a2s":"Uncletopia | Frankfurt | 2 | All Maps","protocol":17,"map":"koth_viaduct","folder":"tf","game":"Team Fortress","app_id":440,"player_count":0,"max_players":24,"Bots":0,"server_type":"Dedicated","server_os":"Linux","password":true,"vac":true,"version":"7723704","steam_id":85568392924469990,"keywords":["cp","nocrits","nodmgspread","uncletopia"],"game_id":440,"stv_port":27026,"stv_name":"Uncletopia | Frankfurt | 2 | All Maps | STV","players":null},{"server_id":308,"name":"Uncletopia | Frankfurt | 3 | All Maps","name_short":"frk-3","host":"frk-1.de.uncletopia.com","port":27035,"enabled":true,"region":"eu","cc":"de","latitude":50.110924,"longitude":8.682127,"reserved":0,"last_update":"0001-01-01T00:00:00Z","name_a2s":"Uncletopia | Frankfurt | 3 | All Maps","protocol":17,"map":"pl_snowycoast","folder":"tf","game":"Team Fortress","app_id":440,"player_count":1,"max_players":24,"Bots":0,"server_type":"Dedicated","server_os":"Linux","password":true,"vac":true,"version":"7723704","steam_id":85568392924504274,"keywords":["nocrits","nodmgspread","payload","uncletopia"],"game_id":440,"stv_port":27036,"stv_name":"Uncletopia | Frankfurt | 3 | All Maps | STV","players":[{"user_id":671,"name":"Yuoni","steam_id":76561198088645803,"connected_time":33000000000,"state":"active","ping":65}]},{"server_id":309,"name":"Uncletopia | Frankfurt | 4 | All Maps","name_short":"frk-4","host":"frk-1.de.uncletopia.com","port":27045,"enabled":true,"region":"eu","cc":"de","latitude":50.110924,"longitude":8.682127,"reserved":0,"last_update":"0001-01-01T00:00:00Z","name_a2s":"Uncletopia | Frankfurt | 4 | All Maps","protocol":17,"map":"cp_altitude","folder":"tf","game":"Team Fortress","app_id":440,"player_count":0,"max_players":24,"Bots":0,"server_type":"Dedicated","server_os":"Linux","password":true,"vac":true,"version":"7723704","steam_id":85568392924504275,"keywords":["cp","nocrits","nodmgspread","uncletopia"],"game_id":440,"stv_port":27046,"stv_name":"Uncletopia | Frankfurt | 4 | All Maps | STV","players":null},{"server_id":310,"name":"Uncletopia | Frankfurt | 5 | All Maps","name_short":"frk-5","host":"frk-1.de.uncletopia.com","port":27055,"enabled":true,"region":"eu","cc":"de","latitude":50.110924,"longitude":8.682127,"reserved":0,"last_update":"0001-01-01T00:00:00Z","name_a2s":"Uncletopia | Frankfurt | 5 | All Maps","protocol":17,"map":"pl_pier","folder":"tf","game":"Team Fortress","app_id":440,"player_count":0,"max_players":24,"Bots":0,"server_type":"Dedicated","server_os":"Linux","password":true,"vac":true,"version":"7723704","steam_id":85568392924504277,"keywords":["nocrits","nodmgspread","payload","uncletopia"],"game_id":440,"stv_port":27056,"stv_name":"Uncletopia | Frankfurt | 5 | All Maps | STV","players":null},{"server_id":311,"name":"Uncletopia | Frankfurt | 6 | All Maps","name_short":"frk-6","host":"frk-1.de.uncletopia.com","port":27065,"enabled":true,"region":"eu","cc":"de","latitude":50.110924,"longitude":8.682127,"reserved":0,"last_update":"0001-01-01T00:00:00Z","name_a2s":"Uncletopia | Frankfurt | 6 | All Maps","protocol":17,"map":"pl_barnblitz","folder":"tf","game":"Team Fortress","app_id":440,"player_count":0,"max_players":24,"Bots":0,"server_type":"Dedicated","server_os":"Linux","password":true,"vac":true,"version":"7723704","steam_id":85568392924504278,"keywords":["nocrits","nodmgspread","payload","uncletopia"],"game_id":440,"stv_port":27066,"stv_name":"Uncletopia | Frankfurt | 6 | All Maps | STV","players":null},{"server_id":23,"name":"Uncletopia | Frankfurt | 7 | No Payload","name_short":"frk-7","host":"frk-1.de.uncletopia.com","port":27075,"enabled":true,"region":"eu","cc":"de","latitude":50.110924,"longitude":8.682127,"reserved":0,"last_update":"0001-01-01T00:00:00Z","name_a2s":"Uncletopia | Frankfurt | 7 | No Payload","protocol":17,"map":"cp_mountainlab","folder":"tf","game":"Team Fortress","app_id":440,"player_count":0,"max_players":24,"Bots":0,"server_type":"Dedicated","server_os":"Linux","password":true,"vac":true,"version":"7723704","steam_id":85568392924742827,"keywords":["cp","nocrits","nodmgspread","uncletopia"],"game_id":440,"stv_port":27076,"stv_name":"Uncletopia | Frankfurt | 7 | No Payload | STV","players":null},{"server_id":24,"name":"Uncletopia | Frankfurt | 8 | Community","name_short":"frk-8","host":"frk-1.de.uncletopia.com","port":27085,"enabled":true,"region":"eu","cc":"de","latitude":50.110924,"longitude":8.682127,"reserved":0,"last_update":"0001-01-01T00:00:00Z","name_a2s":"Uncletopia | Frankfurt | 8 | Community","protocol":17,"map":"workshop/koth_ashville_final.ugc2130459942","folder":"tf","game":"Team Fortress","app_id":440,"player_count":0,"max_players":24,"Bots":0,"server_type":"Dedicated","server_os":"Linux","password":true,"vac":true,"version":"7723704","steam_id":85568392924742828,"keywords":["cp","nocrits","nodmgspread","uncletopia"],"game_id":440,"stv_port":27086,"stv_name":"Uncletopia | Frankfurt | 8 | Community | STV","players":null},{"server_id":202,"name":"Uncletopia | Hong Kong | 1 | All Maps","name_short":"hgk-1","host":"hgk-1.hk.uncletopia.com","port":27015,"enabled":true,"region":"asia","cc":"hk","latitude":22.302711,"longitude":114.177216,"reserved":0,"last_update":"0001-01-01T00:00:00Z","name_a2s":"Uncletopia | Hong Kong | 1 | All Maps","protocol":17,"map":"cp_dustbowl","folder":"tf","game":"Team Fortress","app_id":440,"player_count":17,"max_players":24,"Bots":0,"server_type":"Dedicated","server_os":"Linux","password":true,"vac":true,"version":"7723704","steam_id":85568392924494504,"keywords":["cp","nocrits","nodmgspread","uncletopia"],"game_id":440,"stv_port":27016,"stv_name":"Uncletopia | Hong Kong | 1 | All Maps | STV","players":[{"user_id":12,"name":"Du57Y","steam_id":76561198120973476,"connected_time":2185000000000,"state":"active","ping":89},{"user_id":34,"name":"cat","steam_id":76561198404718200,"connected_time":606000000000,"state":"active","ping":105},{"user_id":29,"name":"Firefang099","steam_id":76561198136685157,"connected_time":1009000000000,"state":"active","ping":55},{"user_id":39,"name":"SoldiaKnight","steam_id":76561199140856672,"connected_time":298000000000,"state":"active","ping":72},{"user_id":14,"name":"TomProPlayer","steam_id":76561199223292521,"connected_time":2145000000000,"state":"active","ping":64},{"user_id":35,"name":"mikkusu","steam_id":76561198306574432,"connected_time":550000000000,"state":"active","ping":107},{"user_id":33,"name":"MR. BUTTER","steam_id":76561198329902657,"connected_time":661000000000,"state":"active","ping":102},{"user_id":37,"name":"no more half measures waltuh","steam_id":76561199232769556,"connected_time":388000000000,"state":"active","ping":124},{"user_id":18,"name":"Bertengkar","steam_id":76561198213031155,"connected_time":1887000000000,"state":"active","ping":98},{"user_id":36,"name":"KyzoFx","steam_id":76561199080668426,"connected_time":549000000000,"state":"active","ping":59},{"user_id":45,"name":"Bingsu","steam_id":76561199385814973,"connected_time":94000000000,"state":"active","ping":73},{"user_id":40,"name":"Corn_Archer","steam_id":76561199185044554,"connected_time":250000000000,"state":"active","ping":61},{"user_id":24,"name":"Goofy Goober","steam_id":76561199096209863,"connected_time":1454000000000,"state":"active","ping":97},{"user_id":42,"name":"‚≠êA Random Guy „ÉÑ","steam_id":76561199076452888,"connected_time":227000000000,"state":"active","ping":91},{"user_id":27,"name":"CoatedInFire","steam_id":76561199070760845,"connected_time":1098000000000,"state":"active","ping":104},{"user_id":28,"name":"yonkers","steam_id":76561199061052792,"connected_time":1081000000000,"state":"active","ping":93},{"user_id":44,"name":"Vintage Spehy","steam_id":76561198967821432,"connected_time":126000000000,"state":"active","ping":60}]},{"server_id":1,"name":"Uncletopia | Los Angeles | 1 | All Maps","name_short":"lax-1","host":"lax-1.us.uncletopia.com","port":27015,"enabled":true,"region":"us-west","cc":"us","latitude":33.94279,"longitude":-118.41004,"reserved":0,"last_update":"0001-01-01T00:00:00Z","name_a2s":"Uncletopia | Los Angeles | 1 | All Maps","protocol":17,"map":"koth_lakeside_final","folder":"tf","game":"Team Fortress","app_id":440,"player_count":7,"max_players":24,"Bots":0,"server_type":"Dedicated","server_os":"Linux","password":true,"vac":true,"version":"7723704","steam_id":85568392924469991,"keywords":["cp","nocrits","nodmgspread","uncletopia"],"game_id":440,"stv_port":27016,"stv_name":"Uncletopia | Los Angeles | 1 | All Maps | STV","players":[{"user_id":19,"name":"KnockOutClock","steam_id":76561199436877307,"connected_time":2347000000000,"state":"active","ping":56},{"user_id":27,"name":"Youmu","steam_id":76561198290751647,"connected_time":441000000000,"state":"active","ping":93},{"user_id":24,"name":"Ninjalion245","steam_id":76561198376605350,"connected_time":1183000000000,"state":"active","ping":110},{"user_id":26,"name":"tobo","steam_id":76561199366968526,"connected_time":1025000000000,"state":"active","ping":48},{"user_id":28,"name":"Hergz","steam_id":76561199183439371,"connected_time":337000000000,"state":"active","ping":47},{"user_id":29,"name":"S p a f f y","steam_id":76561198047892151,"connected_time":336000000000,"state":"active","ping":52},{"user_id":30,"name":"name420","steam_id":76561198129374525,"connected_time":210000000000,"state":"active","ping":90}]},{"server_id":112,"name":"Uncletopia | Los Angeles | 2 | All Maps","name_short":"lax-2","host":"lax-1.us.uncletopia.com","port":27025,"enabled":true,"region":"us-west","cc":"us","latitude":33.94279,"longitude":-118.41004,"reserved":0,"last_update":"0001-01-01T00:00:00Z","name_a2s":"Uncletopia | Los Angeles | 2 | All Maps","protocol":17,"map":"pl_borneo","folder":"tf","game":"Team Fortress","app_id":440,"player_count":0,"max_players":24,"Bots":0,"server_type":"Dedicated","server_os":"Linux","password":true,"vac":true,"version":"7723704","steam_id":85568392924469992,"keywords":["nocrits","nodmgspread","payload","uncletopia"],"game_id":440,"stv_port":27026,"stv_name":"Uncletopia | Los Angeles | 2 | All Maps | STV","players":null},{"server_id":324,"name":"Uncletopia | Los Angeles | 3 | All Maps","name_short":"lax-3","host":"lax-1.us.uncletopia.com","port":27035,"enabled":true,"region":"us-west","cc":"us","latitude":33.94279,"longitude":-118.41004,"reserved":0,"last_update":"0001-01-01T00:00:00Z","name_a2s":"Uncletopia | Los Angeles | 3 | All Maps","protocol":17,"map":"koth_highpass","folder":"tf","game":"Team Fortress","app_id":440,"player_count":0,"max_players":24,"Bots":0,"server_type":"Dedicated","server_os":"Linux","password":true,"vac":true,"version":"7723704","steam_id":85568392924510198,"keywords":["cp","nocrits","nodmgspread","uncletopia"],"game_id":440,"stv_port":27036,"stv_name":"Uncletopia | Los Angeles | 3 | All Maps | STV","players":null},{"server_id":25,"name":"Uncletopia | Los Angeles | 4 | No Payload","name_short":"lax-4","host":"lax-1.us.uncletopia.com","port":27045,"enabled":true,"region":"us-west","cc":"us","latitude":33.94279,"longitude":-118.41004,"reserved":0,"last_update":"0001-01-01T00:00:00Z","name_a2s":"Uncletopia | Los Angeles | 4 | No Payload","protocol":17,"map":"cp_egypt_final","folder":"tf","game":"Team Fortress","app_id":440,"player_count":0,"max_players":24,"Bots":0,"server_type":"Dedicated","server_os":"Linux","password":true,"vac":true,"version":"7723704","steam_id":85568392924510199,"keywords":["cp","nocrits","nodmgspread","uncletopia"],"game_id":440,"stv_port":27046,"stv_name":"Uncletopia | Los Angeles | 4 | No Payload | STV","players":null},{"server_id":11,"name":"Uncletopia | London | 1 | All Maps","name_short":"lon-1","host":"lon-1.uk.uncletopia.com","port":27015,"enabled":true,"region":"eu","cc":"gb","latitude":51.509865,"longitude":-0.118092,"reserved":0,"last_update":"0001-01-01T00:00:00Z","name_a2s":"Uncletopia | London | 1 | All Maps","protocol":17,"map":"ctf_doublecross_snowy","folder":"tf","game":"Team Fortress","app_id":440,"player_count":24,"max_players":24,"Bots":0,"server_type":"Dedicated","server_os":"Linux","password":true,"vac":true,"version":"7723704","steam_id":85568392924367362,"keywords":["ctf","nocrits","nodmgspread","uncletopia"],"game_id":440,"stv_port":27016,"stv_name":"Uncletopia | London | 1 | All Maps | STV","players":[{"user_id":731,"name":"Sonnakai","steam_id":76561198051688749,"connected_time":4943000000000,"state":"active","ping":42},{"user_id":775,"name":"Yilow","steam_id":76561198040036642,"connected_time":327000000000,"state":"active","ping":75},{"user_id":674,"name":"VeeSukz","steam_id":76561198432159276,"connected_time":9455000000000,"state":"active","ping":131},{"user_id":758,"name":"d0wn2e4rth","steam_id":76561198019323937,"connected_time":1939000000000,"state":"active","ping":147},{"user_id":770,"name":"Œ© Compu","steam_id":76561198041397577,"connected_time":748000000000,"state":"active","ping":122},{"user_id":713,"name":"Tsuruko","steam_id":76561198063618114,"connected_time":6566000000000,"state":"active","ping":74},{"user_id":757,"name":"Kanny","steam_id":76561198058810184,"connected_time":2022000000000,"state":"active","ping":66},{"user_id":746,"name":"DUSTY_","steam_id":76561197971095392,"connected_time":3397000000000,"state":"active","ping":47},{"user_id":769,"name":"Krismas","steam_id":76561198021772843,"connected_time":980000000000,"state":"active","ping":56},{"user_id":715,"name":"Mafour","steam_id":76561197994581337,"connected_time":6183000000000,"state":"active","ping":87},{"user_id":771,"name":"Kirby","steam_id":76561199262904047,"connected_time":707000000000,"state":"active","ping":40},{"user_id":777,"name":"stewart_unioncrema","steam_id":76561199445089332,"connected_time":113000000000,"state":"active","ping":180},{"user_id":669,"name":"Dangerousbros","steam_id":76561198088952519,"connected_time":9698000000000,"state":"active","ping":41},{"user_id":747,"name":"Har-V","steam_id":76561197988595276,"connected_time":3348000000000,"state":"active","ping":42},{"user_id":759,"name":"ender45","steam_id":76561198840955715,"connected_time":1813000000000,"state":"active","ping":48},{"user_id":727,"name":"Penis Contortionist","steam_id":76561198073663784,"connected_time":5396000000000,"state":"active","ping":35},{"user_id":773,"name":"Arlondzs","steam_id":76561199077151848,"connected_time":411000000000,"state":"active","ping":60},{"user_id":762,"name":"george B","steam_id":76561198104933135,"connected_time":1480000000000,"state":"active","ping":62},{"user_id":776,"name":"qt wavyz","steam_id":76561199060668138,"connected_time":302000000000,"state":"active","ping":154},{"user_id":741,"name":"joseph lean cool joe","steam_id":76561198023211417,"connected_time":3661000000000,"state":"active","ping":49},{"user_id":691,"name":"ra","steam_id":76561198147277460,"connected_time":8876000000000,"state":"active","ping":64},{"user_id":739,"name":"unfortunate lady","steam_id":76561198049479647,"connected_time":4673000000000,"state":"active","ping":60},{"user_id":755,"name":"Aaron","steam_id":76561197990046953,"connected_time":2483000000000,"state":"active","ping":56},{"user_id":764,"name":"greg","steam_id":76561198047388059,"connected_time":1391000000000,"state":"active","ping":87}]},{"server_id":114,"name":"Uncletopia | London | 2 | All Maps","name_short":"lon-2","host":"lon-1.uk.uncletopia.com","port":27025,"enabled":true,"region":"eu","cc":"gb","latitude":51.509865,"longitude":-0.118092,"reserved":0,"last_update":"0001-01-01T00:00:00Z","name_a2s":"Uncletopia | London | 2 | All Maps","protocol":17,"map":"pl_upward","folder":"tf","game":"Team Fortress","app_id":440,"player_count":7,"max_players":24,"Bots":0,"server_type":"Dedicated","server_os":"Linux","password":true,"vac":true,"version":"7723704","steam_id":85568392924470941,"keywords":["nocrits","nodmgspread","payload","uncletopia"],"game_id":440,"stv_port":27026,"stv_name":"Uncletopia | London | 2 | All Maps | STV","players":[{"user_id":976,"name":"Calsim","steam_id":76561198164877219,"connected_time":334000000000,"state":"active","ping":38},{"user_id":975,"name":"The Irish Eejit","steam_id":76561198027738057,"connected_time":913000000000,"state":"active","ping":80},{"user_id":957,"name":"Mr.Cupcake","steam_id":76561198152711174,"connected_time":3319000000000,"state":"active","ping":80},{"user_id":873,"name":"Unstable Goat","steam_id":76561197985788557,"connected_time":9641000000000,"state":"active","ping":77},{"user_id":872,"name":"CV\u003cDeaD\u003e","steam_id":76561198001816577,"connected_time":9705000000000,"state":"active","ping":75},{"user_id":871,"name":"Can I get a Beep Beep","steam_id":76561198010730967,"connected_time":9723000000000,"state":"active","ping":45},{"user_id":960,"name":"cook","steam_id":76561197991390984,"connected_time":2787000000000,"state":"active","ping":76}]},{"server_id":320,"name":"Uncletopia | London | 3 | All Maps","name_short":"lon-3","host":"lon-1.uk.uncletopia.com","port":27035,"enabled":true,"region":"eu","cc":"gb","latitude":51.509865,"longitude":-0.118092,"reserved":0,"last_update":"0001-01-01T00:00:00Z","name_a2s":"Uncletopia | London | 3 | All Maps","protocol":17,"map":"pl_pier","folder":"tf","game":"Team Fortress","app_id":440,"player_count":23,"max_players":24,"Bots":0,"server_type":"Dedicated","server_os":"Linux","password":true,"vac":true,"version":"7723704","steam_id":85568392924510192,"keywords":["nocrits","nodmgspread","payload","uncletopia"],"game_id":440,"stv_port":27036,"stv_name":"Uncletopia | London | 3 | All Maps | STV","players":[{"user_id":524,"name":"Manlet_King","steam_id":76561198047873374,"connected_time":1896000000000,"state":"active","ping":76},{"user_id":529,"name":"Room (gunspy arc)","steam_id":76561199174579733,"connected_time":872000000000,"state":"active","ping":126},{"user_id":493,"name":"spyamongus","steam_id":76561198880772755,"connected_time":4438000000000,"state":"active","ping":133},{"user_id":512,"name":"Not Sussy Tanuki","steam_id":76561198137289375,"connected_time":3329000000000,"state":"active","ping":103},{"user_id":522,"name":"man","steam_id":76561199365643094,"connected_time":2074000000000,"state":"active","ping":172},{"user_id":527,"name":"|SoW| IgI","steam_id":76561198001541383,"connected_time":1718000000000,"state":"active","ping":81},{"user_id":530,"name":"Average Dlive Streamer","steam_id":76561198903969123,"connected_time":852000000000,"state":"active","ping":77},{"user_id":532,"name":"susq","steam_id":76561198405547143,"connected_time":503000000000,"state":"active","ping":79},{"user_id":498,"name":"justbag","steam_id":76561198223854708,"connected_time":3903000000000,"state":"active","ping":121},{"user_id":487,"name":"üíñYoshiiüíñ","steam_id":76561198174049277,"connected_time":5053000000000,"state":"active","ping":71},{"user_id":499,"name":"Vyachkoslav","steam_id":76561198340530854,"connected_time":3875000000000,"state":"active","ping":77},{"user_id":427,"name":"Grey","steam_id":76561198187190267,"connected_time":9043000000000,"state":"active","ping":45},{"user_id":533,"name":"Kamanie","steam_id":76561198135448255,"connected_time":496000000000,"state":"active","ping":61},{"user_id":528,"name":"Weezer Reference","steam_id":76561199064771019,"connected_time":1439000000000,"state":"active","ping":51},{"user_id":471,"name":"i am bread","steam_id":76561199180277321,"connected_time":6377000000000,"state":"active","ping":53},{"user_id":539,"name":"xX_GamingGilf_Xx","steam_id":76561199118876157,"connected_time":248000000000,"state":"active","ping":60},{"user_id":537,"name":"800A","steam_id":76561199233979726,"connected_time":418000000000,"state":"active","ping":90},{"user_id":502,"name":"luser","steam_id":76561199186893169,"connected_time":3758000000000,"state":"active","ping":194},{"user_id":536,"name":"cinny","steam_id":76561198832112629,"connected_time":423000000000,"state":"active","ping":84},{"user_id":504,"name":"Spinca","steam_id":76561198078559802,"connected_time":3706000000000,"state":"active","ping":93},{"user_id":505,"name":"Cherry Coke","steam_id":76561198531978435,"connected_time":3693000000000,"state":"active","ping":57},{"user_id":521,"name":"bobjr0262","steam_id":76561199136367018,"connected_time":2122000000000,"state":"active","ping":88},{"user_id":511,"name":"Pinkchup","steam_id":76561198106802803,"connected_time":3375000000000,"state":"active","ping":78}]},{"server_id":321,"name":"Uncletopia | London | 4 | All Maps","name_short":"lon-4","host":"lon-1.uk.uncletopia.com","port":27045,"enabled":true,"region":"eu","cc":"gb","latitude":51.509865,"longitude":-0.118092,"reserved":0,"last_update":"0001-01-01T00:00:00Z","name_a2s":"Uncletopia | London | 4 | All Maps","protocol":17,"map":"koth_highpass","folder":"tf","game":"Team Fortress","app_id":440,"player_count":0,"max_players":24,"Bots":0,"server_type":"Dedicated","server_os":"Linux","password":true,"vac":true,"version":"7723704","steam_id":85568392924510193,"keywords":["cp","nocrits","nodmgspread","uncletopia"],"game_id":440,"stv_port":27046,"stv_name":"Uncletopia | London | 4 | All Maps | STV","players":null},{"server_id":21,"name":"Uncletopia | London | 5 | All Maps","name_short":"lon-5","host":"lon-1.uk.uncletopia.com","port":27055,"enabled":true,"region":"eu","cc":"gb","latitude":51.509865,"longitude":-0.118092,"reserved":0,"last_update":"0001-01-01T00:00:00Z","name_a2s":"Uncletopia | London | 5 | All Maps","protocol":17,"map":"koth_cascade","folder":"tf","game":"Team Fortress","app_id":440,"player_count":0,"max_players":24,"Bots":0,"server_type":"Dedicated","server_os":"Linux","password":true,"vac":true,"version":"7723704","steam_id":85568392924742829,"keywords":["cp","nocrits","nodmgspread","uncletopia"],"game_id":440,"stv_port":27056,"stv_name":"Uncletopia | London | 5 | All Maps | STV","players":null},{"server_id":22,"name":"Uncletopia | London | 6 | All Maps","name_short":"lon-6","host":"lon-1.uk.uncletopia.com","port":27065,"enabled":true,"region":"eu","cc":"gb","latitude":51.509865,"longitude":-0.118092,"reserved":0,"last_update":"0001-01-01T00:00:00Z","name_a2s":"Uncletopia | London | 6 | All Maps","protocol":17,"map":"cp_dustbowl","folder":"tf","game":"Team Fortress","app_id":440,"player_count":0,"max_players":24,"Bots":0,"server_type":"Dedicated","server_os":"Linux","password":true,"vac":true,"version":"7723704","steam_id":85568392924742830,"keywords":["cp","nocrits","nodmgspread","uncletopia"],"game_id":440,"stv_port":27066,"stv_name":"Uncletopia | London | 6 | All Maps | STV","players":null},{"server_id":40,"name":"Uncletopia | London | 7 | No Payload","name_short":"lon-7","host":"lon-1.uk.uncletopia.com","port":27075,"enabled":true,"region":"eu","cc":"gb","latitude":51.509865,"longitude":-0.118092,"reserved":0,"last_update":"0001-01-01T00:00:00Z","name_a2s":"Uncletopia | London | 7 | No Payload","protocol":17,"map":"plr_hightower","folder":"tf","game":"Team Fortress","app_id":440,"player_count":0,"max_players":24,"Bots":0,"server_type":"Dedicated","server_os":"Linux","password":true,"vac":true,"version":"7723704","steam_id":85568392924964314,"keywords":["nocrits","nodmgspread","payload","uncletopia"],"game_id":440,"stv_port":27076,"stv_name":"Uncletopia | London | 7 | No Payload | STV","players":null},{"server_id":41,"name":"Uncletopia | London | 8 | Community","name_short":"lon-8","host":"lon-1.uk.uncletopia.com","port":27085,"enabled":true,"region":"eu","cc":"gb","latitude":51.509865,"longitude":-0.118092,"reserved":0,"last_update":"0001-01-01T00:00:00Z","name_a2s":"Uncletopia | London | 8 | Community","protocol":17,"map":"workshop/koth_bagel_rc5.ugc2514036946","folder":"tf","game":"Team Fortress","app_id":440,"player_count":0,"max_players":24,"Bots":0,"server_type":"Dedicated","server_os":"Linux","password":true,"vac":true,"version":"7723704","steam_id":85568392924964315,"keywords":["cp","nocrits","nodmgspread","uncletopia"],"game_id":440,"stv_port":27086,"stv_name":"Uncletopia | London | 8 | Community | STV","players":null},{"server_id":300,"name":"Uncletopia | Montr√©al | 1 | All Maps","name_short":"mtl-1","host":"mtl-1.ca.uncletopia.com","port":27015,"enabled":true,"region":"us-east","cc":"ca","latitude":45.50889,"longitude":-73.56167,"reserved":0,"last_update":"0001-01-01T00:00:00Z","name_a2s":"Uncletopia | Montr√©al | 1 | All Maps","protocol":17,"map":"pl_borneo","folder":"tf","game":"Team Fortress","app_id":440,"player_count":0,"max_players":24,"Bots":0,"server_type":"Dedicated","server_os":"Linux","password":true,"vac":true,"version":"7723704","steam_id":85568392924500087,"keywords":["nocrits","nodmgspread","payload","uncletopia"],"game_id":440,"stv_port":27016,"stv_name":"Uncletopia | Montr√©al | 1 | All Maps | STV","players":null},{"server_id":301,"name":"Uncletopia | Montr√©al | 2 | All Maps","name_short":"mtl-2","host":"mtl-1.ca.uncletopia.com","port":27025,"enabled":true,"region":"us-east","cc":"ca","latitude":45.50889,"longitude":-73.56167,"reserved":0,"last_update":"0001-01-01T00:00:00Z","name_a2s":"Uncletopia | Montr√©al | 2 | All Maps","protocol":17,"map":"cp_sunshine","folder":"tf","game":"Team Fortress","app_id":440,"player_count":0,"max_players":24,"Bots":0,"server_type":"Dedicated","server_os":"Linux","password":true,"vac":true,"version":"7723704","steam_id":85568392924500088,"keywords":["cp","nocrits","nodmgspread","uncletopia"],"game_id":440,"stv_port":27026,"stv_name":"Uncletopia | Montr√©al | 2 | All Maps | STV","players":null},{"server_id":302,"name":"Uncletopia | Montr√©al | 3 | All Maps","name_short":"mtl-3","host":"mtl-1.ca.uncletopia.com","port":27035,"enabled":true,"region":"us-east","cc":"ca","latitude":45.50889,"longitude":-73.56167,"reserved":0,"last_update":"0001-01-01T00:00:00Z","name_a2s":"Uncletopia | Montr√©al | 3 | All Maps","protocol":17,"map":"koth_viaduct","folder":"tf","game":"Team Fortress","app_id":440,"player_count":0,"max_players":24,"Bots":0,"server_type":"Dedicated","server_os":"Linux","password":true,"vac":true,"version":"7723704","steam_id":85568392924500089,"keywords":["cp","nocrits","nodmgspread","uncletopia"],"game_id":440,"stv_port":27036,"stv_name":"Uncletopia | Montr√©al | 3 | All Maps | STV","players":null},{"server_id":303,"name":"Uncletopia | Montr√©al | 4 | No Payload","name_short":"mtl-4","host":"mtl-1.ca.uncletopia.com","port":27045,"enabled":true,"region":"us-east","cc":"ca","latitude":45.50889,"longitude":-73.56167,"reserved":0,"last_update":"0001-01-01T00:00:00Z","name_a2s":"Uncletopia | Montr√©al | 4 | No Payload","protocol":17,"map":"pl_swiftwater_final1","folder":"tf","game":"Team Fortress","app_id":440,"player_count":0,"max_players":24,"Bots":0,"server_type":"Dedicated","server_os":"Linux","password":true,"vac":true,"version":"7723704","steam_id":85568392924500090,"keywords":["nocrits","nodmgspread","payload","uncletopia"],"game_id":440,"stv_port":27046,"stv_name":"Uncletopia | Montr√©al | 4 | No Payload | STV","players":null},{"server_id":13,"name":"Uncletopia | New York City | 1 | All Maps","name_short":"nyc-1","host":"nyc-1.us.uncletopia.com","port":27015,"enabled":true,"region":"us-east","cc":"us","latitude":40.73061,"longitude":-73.93524,"reserved":0,"last_update":"0001-01-01T00:00:00Z","name_a2s":"Uncletopia | New York City | 1 | All Maps","protocol":17,"map":"ctf_turbine","folder":"tf","game":"Team Fortress","app_id":440,"player_count":19,"max_players":24,"Bots":0,"server_type":"Dedicated","server_os":"Linux","password":true,"vac":true,"version":"7723704","steam_id":85568392924469993,"keywords":["cp","nocrits","nodmgspread","uncletopia"],"game_id":440,"stv_port":27016,"stv_name":"Uncletopia | New York City | 1 | All Maps | STV","players":[{"user_id":521,"name":"Player_X_YT","steam_id":76561198377711617,"connected_time":4099000000000,"state":"connecting","ping":107},{"user_id":569,"name":"bad player","steam_id":76561198957233710,"connected_time":1205000000000,"state":"connecting","ping":139},{"user_id":574,"name":"Buttons :)","steam_id":76561198139478534,"connected_time":124000000000,"state":"connecting","ping":145},{"user_id":529,"name":"Korra \u003c3","steam_id":76561198044991497,"connected_time":3452000000000,"state":"connecting","ping":52},{"user_id":523,"name":"Chewbacca","steam_id":76561198041927925,"connected_time":3910000000000,"state":"connecting","ping":70},{"user_id":565,"name":"ZekeThePlumber","steam_id":76561197995016724,"connected_time":1775000000000,"state":"connecting","ping":62},{"user_id":525,"name":"Snugboo","steam_id":76561198147970327,"connected_time":3864000000000,"state":"connecting","ping":60},{"user_id":572,"name":"posse","steam_id":76561198294281809,"connected_time":856000000000,"state":"connecting","ping":153},{"user_id":527,"name":"stewfat","steam_id":76561198084066964,"connected_time":3707000000000,"state":"connecting","ping":94},{"user_id":528,"name":"Hank","steam_id":76561198094830509,"connected_time":3631000000000,"state":"connecting","ping":84},{"user_id":573,"name":"Uber","steam_id":76561198139793532,"connected_time":300000000000,"state":"connecting","ping":48},{"user_id":532,"name":"basil","steam_id":76561198075758026,"connected_time":3264000000000,"state":"connecting","ping":102},{"user_id":534,"name":"Noelle Holiday","steam_id":76561198359994674,"connected_time":3231000000000,"state":"connecting","ping":151},{"user_id":535,"name":"Nespreco","steam_id":76561198252035336,"connected_time":3154000000000,"state":"connecting","ping":67},{"user_id":566,"name":"PinkLemonade","steam_id":76561198799286228,"connected_time":1709000000000,"state":"connecting","ping":65},{"user_id":545,"name":"Xavibite","steam_id":76561198209380493,"connected_time":2839000000000,"state":"connecting","ping":57},{"user_id":571,"name":"trashed","steam_id":76561197961095970,"connected_time":1003000000000,"state":"connecting","ping":75},{"user_id":564,"name":"Xx_PR3TTY_R4VE_G!R1_xX","steam_id":76561199059016425,"connected_time":1877000000000,"state":"connecting","ping":95},{"user_id":563,"name":"sometimesshow","steam_id":76561198999843667,"connected_time":2030000000000,"state":"connecting","ping":78}]},{"server_id":14,"name":"Uncletopia | New York City | 2 | All Maps","name_short":"nyc-2","host":"nyc-1.us.uncletopia.com","port":27025,"enabled":true,"region":"us-east","cc":"us","latitude":40.73061,"longitude":-73.93524,"reserved":0,"last_update":"0001-01-01T00:00:00Z","name_a2s":"Uncletopia | New York City | 2 | All Maps","protocol":17,"map":"koth_sawmill","folder":"tf","game":"Team Fortress","app_id":440,"player_count":23,"max_players":24,"Bots":0,"server_type":"Dedicated","server_os":"Linux","password":true,"vac":true,"version":"7723704","steam_id":85568392924469994,"keywords":["cp","nocrits","nodmgspread","uncletopia"],"game_id":440,"stv_port":27026,"stv_name":"Uncletopia | New York City | 2 | All Maps | STV","players":[{"user_id":614,"name":"bardy","steam_id":76561198043639662,"connected_time":4437000000000,"state":"active","ping":61},{"user_id":665,"name":"give me your baby faces blaster","steam_id":76561199013442982,"connected_time":1575000000000,"state":"active","ping":78},{"user_id":656,"name":"lost in spaaaaace","steam_id":76561199085974120,"connected_time":2145000000000,"state":"active","ping":73},{"user_id":678,"name":"GoldWasHere","steam_id":76561199233572406,"connected_time":600000000000,"state":"active","ping":163},{"user_id":603,"name":"coffee bagel","steam_id":76561198141198352,"connected_time":4701000000000,"state":"active","ping":66},{"user_id":615,"name":"The Rambler","steam_id":76561198109648603,"connected_time":4186000000000,"state":"active","ping":75},{"user_id":677,"name":"VerSaKa","steam_id":76561198052392540,"connected_time":646000000000,"state":"active","ping":63},{"user_id":613,"name":"Mr Lestat","steam_id":76561198061118758,"connected_time":4451000000000,"state":"active","ping":63},{"user_id":606,"name":"stealthy","steam_id":76561198071386492,"connected_time":4698000000000,"state":"active","ping":52},{"user_id":682,"name":"Grundle Thunder","steam_id":76561197960790338,"connected_time":526000000000,"state":"active","ping":60},{"user_id":679,"name":"abbo","steam_id":76561198079440621,"connected_time":569000000000,"state":"active","ping":48},{"user_id":680,"name":"Kevin the Chicken God","steam_id":76561198049834485,"connected_time":569000000000,"state":"active","ping":54},{"user_id":675,"name":"IPlayGamez","steam_id":76561198041387508,"connected_time":703000000000,"state":"active","ping":49},{"user_id":688,"name":"nalezinik","steam_id":76561198030026119,"connected_time":101000000000,"state":"active","ping":68},{"user_id":683,"name":"ADHDking","steam_id":76561198116099017,"connected_time":525000000000,"state":"active","ping":45},{"user_id":629,"name":"Pegway","steam_id":76561198044303814,"connected_time":3505000000000,"state":"active","ping":45},{"user_id":684,"name":"DiscoTraveler","steam_id":76561199240168088,"connected_time":487000000000,"state":"active","ping":55},{"user_id":685,"name":"BlackLynx","steam_id":76561198290299822,"connected_time":480000000000,"state":"active","ping":80},{"user_id":687,"name":"regular milk","steam_id":76561198813251405,"connected_time":241000000000,"state":"active","ping":53},{"user_id":686,"name":"kibsta","steam_id":76561198991982630,"connected_time":441000000000,"state":"active","ping":55},{"user_id":609,"name":"Skelitor ‚ú™","steam_id":76561198043885634,"connected_time":4669000000000,"state":"active","ping":54},{"user_id":674,"name":"Scott","steam_id":76561198090949228,"connected_time":802000000000,"state":"active","ping":57},{"user_id":663,"name":"neet","steam_id":76561197968115168,"connected_time":1741000000000,"state":"active","ping":45}]},{"server_id":15,"name":"Uncletopia | New York City | 3 | All Maps","name_short":"nyc-3","host":"nyc-1.us.uncletopia.com","port":27035,"enabled":true,"region":"us-east","cc":"us","latitude":40.73061,"longitude":-73.93524,"reserved":0,"last_update":"0001-01-01T00:00:00Z","name_a2s":"Uncletopia | New York City | 3 | All Maps","protocol":17,"map":"cp_gorge","folder":"tf","game":"Team Fortress","app_id":440,"player_count":11,"max_players":24,"Bots":0,"server_type":"Dedicated","server_os":"Linux","password":true,"vac":true,"version":"7723704","steam_id":85568392924742820,"keywords":["cp","nocrits","nodmgspread","uncletopia"],"game_id":440,"stv_port":27036,"stv_name":"Uncletopia | New York City | 3 | All Maps | STV","players":[{"user_id":446,"name":"kosher salt","steam_id":76561198171099271,"connected_time":126000000000,"state":"active","ping":57},{"user_id":445,"name":"rayblack36","steam_id":76561199057051807,"connected_time":274000000000,"state":"active","ping":73},{"user_id":408,"name":"Totouri","steam_id":76561198004229789,"connected_time":3626000000000,"state":"active","ping":63},{"user_id":448,"name":"coms","steam_id":76561198359456881,"connected_time":104000000000,"state":"active","ping":62},{"user_id":449,"name":"nhbiker","steam_id":76561198081277675,"connected_time":82000000000,"state":"active","ping":45},{"user_id":420,"name":"Shockie","steam_id":76561198071539731,"connected_time":2467000000000,"state":"active","ping":56},{"user_id":450,"name":"Red_Hatkins","steam_id":76561198214004105,"connected_time":53000000000,"state":"active","ping":74},{"user_id":452,"name":"a zephyr","steam_id":76561198182506001,"connected_time":20000000000,"state":"active","ping":45},{"user_id":411,"name":"FingOr","steam_id":76561198188294277,"connected_time":3090000000000,"state":"active","ping":31},{"user_id":375,"name":"Fudgely","steam_id":76561198039425862,"connected_time":6115000000000,"state":"active","ping":49},{"user_id":434,"name":"ExtraSoap","steam_id":76561198008712409,"connected_time":1196000000000,"state":"active","ping":45}]},{"server_id":16,"name":"Uncletopia | New York City | 4 | Community","name_short":"nyc-4","host":"nyc-1.us.uncletopia.com","port":27045,"enabled":true,"region":"us-east","cc":"us","latitude":40.73061,"longitude":-73.93524,"reserved":0,"last_update":"0001-01-01T00:00:00Z","name_a2s":"Uncletopia | New York City | 4 | Community","protocol":17,"map":"workshop/koth_ramjam_v2_b2.ugc2865676487","folder":"tf","game":"Team Fortress","app_id":440,"player_count":0,"max_players":24,"Bots":0,"server_type":"Dedicated","server_os":"Linux","password":true,"vac":true,"version":"7723704","steam_id":85568392924742821,"keywords":["cp","nocrits","nodmgspread","uncletopia"],"game_id":440,"stv_port":27046,"stv_name":"Uncletopia | New York City | 4 | Community | STV","players":null},{"server_id":142,"name":"Uncletopia | S√£o Paulo | 1 | All Maps","name_short":"sao-1","host":"sao-1.br.uncletopia.com","port":27015,"enabled":true,"region":"sa","cc":"br","latitude":-23.533773,"longitude":-46.62529,"reserved":0,"last_update":"0001-01-01T00:00:00Z","name_a2s":"Uncletopia | S√£o Paulo | 1 | All Maps","protocol":17,"map":"cp_process_final","folder":"tf","game":"Team Fortress","app_id":440,"player_count":0,"max_players":24,"Bots":0,"server_type":"Dedicated","server_os":"Linux","password":true,"vac":true,"version":"7723704","steam_id":85568392924469996,"keywords":["cp","nocrits","nodmgspread","uncletopia"],"game_id":440,"stv_port":27016,"stv_name":"Uncletopia | S√£o Paulo | 1 | All Maps | STV","players":null},{"server_id":143,"name":"Uncletopia | S√£o Paulo | 2 | All Maps","name_short":"sao-2","host":"sao-2.br.uncletopia.com","port":27015,"enabled":true,"region":"sa","cc":"br","latitude":-23.533773,"longitude":-46.62529,"reserved":0,"last_update":"0001-01-01T00:00:00Z","name_a2s":"Uncletopia | S√£o Paulo | 2 | All Maps","protocol":17,"map":"koth_cascade","folder":"tf","game":"Team Fortress","app_id":440,"player_count":0,"max_players":24,"Bots":0,"server_type":"Dedicated","server_os":"Linux","password":true,"vac":true,"version":"7723704","steam_id":85568392924485349,"keywords":["cp","nocrits","nodmgspread","uncletopia"],"game_id":440,"stv_port":27016,"stv_name":"Uncletopia | S√£o Paulo | 2 | All Maps | STV","players":null},{"server_id":7,"name":"Uncletopia | Seattle | 1 | All Maps","name_short":"sea-1","host":"sea-1.us.uncletopia.com","port":27015,"enabled":true,"region":"us-west","cc":"us","latitude":47.608013,"longitude":-122.33517,"reserved":0,"last_update":"0001-01-01T00:00:00Z","name_a2s":"Uncletopia | Seattle | 1 | All Maps","protocol":17,"map":"pl_snowycoast","folder":"tf","game":"Team Fortress","app_id":440,"player_count":24,"max_players":24,"Bots":0,"server_type":"Dedicated","server_os":"Linux","password":true,"vac":true,"version":"7723704","steam_id":85568392924469997,"keywords":["nocrits","nodmgspread","payload","uncletopia"],"game_id":440,"stv_port":27016,"stv_name":"Uncletopia | Seattle | 1 | All Maps | STV","players":[{"user_id":402,"name":"asterismz","steam_id":76561198271895997,"connected_time":1406000000000,"state":"active","ping":51},{"user_id":380,"name":"Sir Galahad","steam_id":76561198195999859,"connected_time":2622000000000,"state":"active","ping":45},{"user_id":416,"name":"Madrox Who?","steam_id":76561197988859134,"connected_time":478000000000,"state":"active","ping":124},{"user_id":406,"name":"IridescentFish","steam_id":76561199090007482,"connected_time":1112000000000,"state":"active","ping":103},{"user_id":386,"name":"horse plinko","steam_id":76561198433345421,"connected_time":2357000000000,"state":"active","ping":86},{"user_id":384,"name":"Seagoll","steam_id":76561198017953606,"connected_time":2408000000000,"state":"active","ping":56},{"user_id":418,"name":"video games","steam_id":76561198334059206,"connected_time":377000000000,"state":"active","ping":75},{"user_id":420,"name":"Nim","steam_id":76561198041236943,"connected_time":340000000000,"state":"active","ping":106},{"user_id":374,"name":"rat gets the cheese","steam_id":76561198031234032,"connected_time":2890000000000,"state":"active","ping":99},{"user_id":417,"name":"Diegorkus","steam_id":76561198076956980,"connected_time":422000000000,"state":"active","ping":64},{"user_id":379,"name":"west_coast_hume","steam_id":76561199117076288,"connected_time":2690000000000,"state":"active","ping":52},{"user_id":419,"name":"GJDon","steam_id":76561199026755019,"connected_time":349000000000,"state":"active","ping":115},{"user_id":397,"name":"Everfrost Samoyed","steam_id":76561198072580699,"connected_time":1835000000000,"state":"active","ping":136},{"user_id":404,"name":"Ben Shapiro","steam_id":76561198861436861,"connected_time":1320000000000,"state":"active","ping":67},{"user_id":415,"name":"|-HyperCube-|","steam_id":76561198167133597,"connected_time":526000000000,"state":"active","ping":89},{"user_id":390,"name":"Goldfish Cum","steam_id":76561198046621770,"connected_time":2125000000000,"state":"active","ping":49},{"user_id":392,"name":"Medical Asshat","steam_id":76561198004584315,"connected_time":2037000000000,"state":"active","ping":95},{"user_id":408,"name":"help","steam_id":76561198171840525,"connected_time":1100000000000,"state":"active","ping":47},{"user_id":400,"name":"DSM-IVCE","steam_id":76561199438515797,"connected_time":1529000000000,"state":"active","ping":170},{"user_id":340,"name":"suspiciouslyBee","steam_id":76561198165933984,"connected_time":5564000000000,"state":"active","ping":50},{"user_id":410,"name":"Joseph Stalin","steam_id":76561198126234142,"connected_time":1006000000000,"state":"active","ping":64},{"user_id":369,"name":"resting neutral face","steam_id":76561197999259502,"connected_time":3098000000000,"state":"active","ping":72},{"user_id":414,"name":"CampinCarl","steam_id":76561197997373624,"connected_time":549000000000,"state":"active","ping":66},{"user_id":394,"name":"Human_Duck_Box","steam_id":76561199216572071,"connected_time":2010000000000,"state":"active","ping":55}]},{"server_id":119,"name":"Uncletopia | Seattle | 2 | All Maps","name_short":"sea-2","host":"sea-1.us.uncletopia.com","port":27025,"enabled":true,"region":"us-west","cc":"us","latitude":47.608013,"longitude":-122.33517,"reserved":0,"last_update":"0001-01-01T00:00:00Z","name_a2s":"Uncletopia | Seattle | 2 | All Maps","protocol":17,"map":"cp_altitude","folder":"tf","game":"Team Fortress","app_id":440,"player_count":24,"max_players":24,"Bots":0,"server_type":"Dedicated","server_os":"Linux","password":true,"vac":true,"version":"7723704","steam_id":85568392924469998,"keywords":["cp","nocrits","nodmgspread","uncletopia"],"game_id":440,"stv_port":27026,"stv_name":"Uncletopia | Seattle | 2 | All Maps | STV","players":[{"user_id":530,"name":"aslan","steam_id":76561198126546221,"connected_time":219000000000,"state":"active","ping":75},{"user_id":496,"name":"blessed yule","steam_id":76561198146228439,"connected_time":1915000000000,"state":"active","ping":48},{"user_id":484,"name":"BoomieMcBoomPants","steam_id":76561198144516828,"connected_time":3655000000000,"state":"active","ping":76},{"user_id":526,"name":"Grunga","steam_id":76561198129145299,"connected_time":640000000000,"state":"active","ping":79},{"user_id":500,"name":"livingtntman","steam_id":76561199122637406,"connected_time":1704000000000,"state":"active","ping":86},{"user_id":510,"name":"BootyEatinBandit","steam_id":76561199117756257,"connected_time":1317000000000,"state":"active","ping":82},{"user_id":501,"name":"sammy","steam_id":76561199001307670,"connected_time":1539000000000,"state":"active","ping":52},{"user_id":534,"name":"tim E","steam_id":76561198401800919,"connected_time":94000000000,"state":"active","ping":416},{"user_id":518,"name":"Marz","steam_id":76561198799364911,"connected_time":917000000000,"state":"active","ping":88},{"user_id":533,"name":"reymundo","steam_id":76561197989412830,"connected_time":98000000000,"state":"active","ping":87},{"user_id":528,"name":"Furry Femboy Hooters","steam_id":76561198097745857,"connected_time":487000000000,"state":"active","ping":90},{"user_id":523,"name":"Morbius","steam_id":76561198387984694,"connected_time":739000000000,"state":"active","ping":68},{"user_id":512,"name":"ydanay","steam_id":76561198088375486,"connected_time":1296000000000,"state":"active","ping":60},{"user_id":507,"name":"Idontknow","steam_id":76561199207044048,"connected_time":1420000000000,"state":"active","ping":54},{"user_id":535,"name":"Pure Gunk","steam_id":76561198072319989,"connected_time":93000000000,"state":"active","ping":75},{"user_id":508,"name":"Ayayahuasca","steam_id":76561199002906056,"connected_time":1402000000000,"state":"active","ping":54},{"user_id":519,"name":"Mignyanne :3","steam_id":76561198048754056,"connected_time":902000000000,"state":"active","ping":66},{"user_id":468,"name":"a crazy hobo","steam_id":76561198289650060,"connected_time":5008000000000,"state":"active","ping":77},{"user_id":529,"name":"booch","steam_id":76561198017030029,"connected_time":297000000000,"state":"active","ping":74},{"user_id":341,"name":"lili.winters","steam_id":76561199391478575,"connected_time":14148000000000,"state":"active","ping":78},{"user_id":509,"name":"non_ai","steam_id":76561198270951938,"connected_time":1398000000000,"state":"active","ping":118},{"user_id":527,"name":"es","steam_id":76561198006892337,"connected_time":580000000000,"state":"active","ping":75},{"user_id":489,"name":"Morse","steam_id":76561198039944542,"connected_time":3409000000000,"state":"active","ping":56},{"user_id":531,"name":"Number28","steam_id":76561198315018819,"connected_time":201000000000,"state":"active","ping":88}]},{"server_id":17,"name":"Uncletopia | San Francisco | 1 | All Maps","name_short":"sfo-1","host":"sfo-1.us.uncletopia.com","port":27015,"enabled":true,"region":"us-west","cc":"us","latitude":37.77397,"longitude":-122.4313,"reserved":0,"last_update":"0001-01-01T00:00:00Z","name_a2s":"Uncletopia | San Francisco | 1 | All Maps","protocol":17,"map":"koth_viaduct","folder":"tf","game":"Team Fortress","app_id":440,"player_count":0,"max_players":24,"Bots":0,"server_type":"Dedicated","server_os":"Linux","password":true,"vac":true,"version":"7723704","steam_id":85568392924469999,"keywords":["cp","nocrits","nodmgspread","uncletopia"],"game_id":440,"stv_port":27016,"stv_name":"Uncletopia | San Francisco | 1 | All Maps | STV","players":null},{"server_id":18,"name":"Uncletopia | San Francisco | 2 | All Maps","name_short":"sfo-2","host":"sfo-1.us.uncletopia.com","port":27025,"enabled":true,"region":"us-west","cc":"us","latitude":37.77397,"longitude":-122.4313,"reserved":0,"last_update":"0001-01-01T00:00:00Z","name_a2s":"Uncletopia | San Francisco | 2 | All Maps","protocol":17,"map":"koth_viaduct","folder":"tf","game":"Team Fortress","app_id":440,"player_count":0,"max_players":24,"Bots":0,"server_type":"Dedicated","server_os":"Linux","password":true,"vac":true,"version":"7723704","steam_id":85568392924470000,"keywords":["cp","nocrits","nodmgspread","uncletopia"],"game_id":440,"stv_port":27026,"stv_name":"Uncletopia | San Francisco | 2 | All Maps | STV","players":null},{"server_id":19,"name":"Uncletopia | San Francisco | 3 | No Payload","name_short":"sfo-3","host":"sfo-1.us.uncletopia.com","port":27035,"enabled":true,"region":"us-west","cc":"us","latitude":37.77397,"longitude":-122.4313,"reserved":0,"last_update":"0001-01-01T00:00:00Z","name_a2s":"Uncletopia | San Francisco | 3 | No Payload","protocol":17,"map":"koth_viaduct","folder":"tf","game":"Team Fortress","app_id":440,"player_count":4,"max_players":24,"Bots":0,"server_type":"Dedicated","server_os":"Linux","password":true,"vac":true,"version":"7723704","steam_id":85568392924742824,"keywords":["cp","nocrits","nodmgspread","uncletopia"],"game_id":440,"stv_port":27036,"stv_name":"Uncletopia | San Francisco | 3 | No Payload | STV","players":[{"user_id":177,"name":"FerroDeus","steam_id":76561198294143707,"connected_time":401000000000,"state":"active","ping":57},{"user_id":174,"name":"Mom","steam_id":76561198207936000,"connected_time":532000000000,"state":"active","ping":45},{"user_id":176,"name":"Furious George","steam_id":76561198405111646,"connected_time":431000000000,"state":"active","ping":33},{"user_id":169,"name":"Sabag3D","steam_id":76561198094402240,"connected_time":999000000000,"state":"active","ping":77}]},{"server_id":20,"name":"Uncletopia | San Francisco | 4 | Community","name_short":"sfo-4","host":"sfo-1.us.uncletopia.com","port":27045,"enabled":true,"region":"us-west","cc":"us","latitude":37.77397,"longitude":-122.4313,"reserved":0,"last_update":"0001-01-01T00:00:00Z","name_a2s":"Uncletopia | San Francisco | 4 | Community","protocol":17,"map":"workshop/cp_overgrown_rc7b.ugc503939302","folder":"tf","game":"Team Fortress","app_id":440,"player_count":0,"max_players":24,"Bots":0,"server_type":"Dedicated","server_os":"Linux","password":true,"vac":true,"version":"7723704","steam_id":85568392924742826,"keywords":["cp","nocrits","nodmgspread","uncletopia"],"game_id":440,"stv_port":27046,"stv_name":"Uncletopia | San Francisco | 4 | Community | STV","players":null},{"server_id":141,"name":"Uncletopia | Sydney | 1 | All Maps","name_short":"syd-1","host":"syd-1.au.uncletopia.com","port":27015,"enabled":true,"region":"au","cc":"au","latitude":-33.865143,"longitude":151.2099,"reserved":0,"last_update":"0001-01-01T00:00:00Z","name_a2s":"Uncletopia | Sydney | 1 | All Maps","protocol":17,"map":"plr_bananabay","folder":"tf","game":"Team Fortress","app_id":440,"player_count":0,"max_players":24,"Bots":0,"server_type":"Dedicated","server_os":"Linux","password":true,"vac":true,"version":"7723704","steam_id":85568392924470001,"keywords":["nocrits","nodmgspread","payload","uncletopia"],"game_id":440,"stv_port":27016,"stv_name":"Uncletopia | Sydney | 1 | All Maps | STV","players":null},{"server_id":123,"name":"Uncletopia | Sydney | 2 | All Maps","name_short":"syd-2","host":"syd-1.au.uncletopia.com","port":27025,"enabled":true,"region":"au","cc":"au","latitude":-33.865143,"longitude":151.2099,"reserved":0,"last_update":"0001-01-01T00:00:00Z","name_a2s":"Uncletopia | Sydney | 2 | All Maps","protocol":17,"map":"plr_bananabay","folder":"tf","game":"Team Fortress","app_id":440,"player_count":0,"max_players":24,"Bots":0,"server_type":"Dedicated","server_os":"Linux","password":true,"vac":true,"version":"7723704","steam_id":85568392924470002,"keywords":["nocrits","nodmgspread","payload","uncletopia"],"game_id":440,"stv_port":27026,"stv_name":"Uncletopia | Sydney | 2 | All Maps | STV","players":null},{"server_id":395,"name":"Uncletopia | Sydney | 3 | All Maps","name_short":"syd-3","host":"syd-1.au.uncletopia.com","port":27035,"enabled":true,"region":"au","cc":"au","latitude":-33.865143,"longitude":151.2099,"reserved":0,"last_update":"0001-01-01T00:00:00Z","name_a2s":"Uncletopia | Sydney | 3 | All Maps","protocol":17,"map":"plr_bananabay","folder":"tf","game":"Team Fortress","app_id":440,"player_count":1,"max_players":24,"Bots":0,"server_type":"Dedicated","server_os":"Linux","password":true,"vac":true,"version":"7723704","steam_id":85568392925194467,"keywords":["nocrits","nodmgspread","payload","uncletopia"],"game_id":440,"stv_port":27036,"stv_name":"Uncletopia | Sydney | 3 | All Maps | STV","players":[{"user_id":46,"name":"grammerca2","steam_id":76561198993241319,"connected_time":22000000000,"state":"active","ping":302}]},{"server_id":396,"name":"Uncletopia | Sydney | 4 | All Maps","name_short":"syd-4","host":"syd-1.au.uncletopia.com","port":27045,"enabled":true,"region":"au","cc":"au","latitude":-33.865143,"longitude":151.2099,"reserved":0,"last_update":"0001-01-01T00:00:00Z","name_a2s":"Uncletopia | Sydney | 4 | All Maps","protocol":17,"map":"pl_swiftwater_final1","folder":"tf","game":"Team Fortress","app_id":440,"player_count":0,"max_players":24,"Bots":0,"server_type":"Dedicated","server_os":"Linux","password":true,"vac":true,"version":"7723704","steam_id":85568392925397958,"keywords":["nocrits","nodmgspread","payload","uncletopia"],"game_id":440,"stv_port":27046,"stv_name":"Uncletopia | Sydney | 4 | All Maps | STV","players":null},{"server_id":58,"name":"Uncletopia | Sydney | 5 | No Payload","name_short":"syd-5","host":"syd-1.au.uncletopia.com","port":27055,"enabled":true,"region":"au","cc":"au","latitude":-33.865143,"longitude":151.2099,"reserved":0,"last_update":"0001-01-01T00:00:00Z","name_a2s":"Uncletopia | Sydney | 5 | No Payload","protocol":17,"map":"koth_cascade","folder":"tf","game":"Team Fortress","app_id":440,"player_count":3,"max_players":24,"Bots":0,"server_type":"Dedicated","server_os":"Linux","password":true,"vac":true,"version":"7723704","steam_id":85568392925397959,"keywords":["cp","nocrits","nodmgspread","uncletopia"],"game_id":440,"stv_port":27056,"stv_name":"Uncletopia | Sydney | 5 | No Payload | STV","players":[{"user_id":3,"name":"SQUIDDISH_FELLOW","steam_id":76561199176864107,"connected_time":1253000000000,"state":"active","ping":69},{"user_id":4,"name":"dragonfruitconsumer22","steam_id":76561198042198744,"connected_time":762000000000,"state":"active","ping":45},{"user_id":5,"name":"Professional Model Railroader","steam_id":76561199249059042,"connected_time":643000000000,"state":"active","ping":98}]},{"server_id":59,"name":"Uncletopia | Sydney | 6 | Community","name_short":"syd-6","host":"syd-1.au.uncletopia.com","port":27065,"enabled":true,"region":"au","cc":"au","latitude":-33.865143,"longitude":151.2099,"reserved":0,"last_update":"0001-01-01T00:00:00Z","name_a2s":"Uncletopia | Sydney | 6 | Community","protocol":17,"map":"koth_lakeside_final","folder":"tf","game":"Team Fortress","app_id":440,"player_count":0,"max_players":24,"Bots":0,"server_type":"Dedicated","server_os":"Linux","password":true,"vac":true,"version":"7723704","steam_id":85568392925397960,"keywords":["cp","nocrits","nodmgspread","uncletopia"],"game_id":440,"stv_port":27066,"stv_name":"Uncletopia | Sydney | 6 | Community | STV","players":null},{"server_id":49,"name":"Uncletopia | Warsaw | 1 | All Maps","name_short":"waw-1","host":"waw-1.pl.uncletopia.com","port":27015,"enabled":true,"region":"eu","cc":"pl","latitude":52.2297,"longitude":21.017532,"reserved":0,"last_update":"0001-01-01T00:00:00Z","name_a2s":"Uncletopia | Warsaw | 1 | All Maps","protocol":17,"map":"koth_viaduct","folder":"tf","game":"Team Fortress","app_id":440,"player_count":0,"max_players":24,"Bots":0,"server_type":"Dedicated","server_os":"Linux","password":true,"vac":true,"version":"7723704","steam_id":85568392925397850,"keywords":["cp","nocrits","nodmgspread","uncletopia"],"game_id":440,"stv_port":27016,"stv_name":"Uncletopia | Warsaw | 1 | All Maps | STV","players":null},{"server_id":50,"name":"Uncletopia | Warsaw | 2 | All Maps","name_short":"waw-2","host":"waw-1.pl.uncletopia.com","port":27025,"enabled":true,"region":"eu","cc":"pl","latitude":52.2297,"longitude":21.017532,"reserved":0,"last_update":"0001-01-01T00:00:00Z","name_a2s":"Uncletopia | Warsaw | 2 | All Maps","protocol":17,"map":"pl_snowycoast","folder":"tf","game":"Team Fortress","app_id":440,"player_count":0,"max_players":24,"Bots":0,"server_type":"Dedicated","server_os":"Linux","password":true,"vac":true,"version":"7723704","steam_id":85568392925397851,"keywords":["nocrits","nodmgspread","payload","uncletopia"],"game_id":440,"stv_port":27026,"stv_name":"Uncletopia | Warsaw | 2 | All Maps | STV","players":null},{"server_id":51,"name":"Uncletopia | Warsaw | 3 | All Maps","name_short":"waw-3","host":"waw-1.pl.uncletopia.com","port":27035,"enabled":true,"region":"eu","cc":"pl","latitude":52.2297,"longitude":21.017532,"reserved":0,"last_update":"0001-01-01T00:00:00Z","name_a2s":"Uncletopia | Warsaw | 3 | All Maps","protocol":17,"map":"cp_dustbowl","folder":"tf","game":"Team Fortress","app_id":440,"player_count":0,"max_players":24,"Bots":0,"server_type":"Dedicated","server_os":"Linux","password":true,"vac":true,"version":"7723704","steam_id":85568392925397852,"keywords":["cp","nocrits","nodmgspread","uncletopia"],"game_id":440,"stv_port":27036,"stv_name":"Uncletopia | Warsaw | 3 | All Maps | STV","players":null},{"server_id":52,"name":"Uncletopia | Warsaw | 4 | All Maps","name_short":"waw-4","host":"waw-1.pl.uncletopia.com","port":27045,"enabled":true,"region":"eu","cc":"pl","latitude":52.2297,"longitude":21.017532,"reserved":0,"last_update":"0001-01-01T00:00:00Z","name_a2s":"Uncletopia | Warsaw | 4 | All Maps","protocol":17,"map":"cp_snakewater_final1","folder":"tf","game":"Team Fortress","app_id":440,"player_count":0,"max_players":24,"Bots":0,"server_type":"Dedicated","server_os":"Linux","password":true,"vac":true,"version":"7723704","steam_id":85568392925397853,"keywords":["cp","nocrits","nodmgspread","uncletopia"],"game_id":440,"stv_port":27046,"stv_name":"Uncletopia | Warsaw | 4 | All Maps | STV","players":null},{"server_id":53,"name":"Uncletopia | Warsaw | 5 | No Payload","name_short":"waw-5","host":"waw-1.pl.uncletopia.com","port":27055,"enabled":true,"region":"eu","cc":"pl","latitude":52.2297,"longitude":21.017532,"reserved":0,"last_update":"0001-01-01T00:00:00Z","name_a2s":"Uncletopia | Warsaw | 5 | No Payload","protocol":17,"map":"cp_freight_final1","folder":"tf","game":"Team Fortress","app_id":440,"player_count":0,"max_players":24,"Bots":0,"server_type":"Dedicated","server_os":"Linux","password":true,"vac":true,"version":"7723704","steam_id":85568392925397854,"keywords":["cp","nocrits","nodmgspread","uncletopia"],"game_id":440,"stv_port":27056,"stv_name":"Uncletopia | Warsaw | 5 | No Payload | STV","players":null},{"server_id":54,"name":"Uncletopia | Warsaw | 6 | Community","name_short":"waw-6","host":"waw-1.pl.uncletopia.com","port":27065,"enabled":true,"region":"eu","cc":"pl","latitude":52.2297,"longitude":21.017532,"reserved":0,"last_update":"0001-01-01T00:00:00Z","name_a2s":"Uncletopia | Warsaw | 6 | Community","protocol":17,"map":"workshop/koth_ashville_final.ugc2130459942","folder":"tf","game":"Team Fortress","app_id":440,"player_count":2,"max_players":24,"Bots":0,"server_type":"Dedicated","server_os":"Linux","password":true,"vac":true,"version":"7723704","steam_id":85568392925397856,"keywords":["cp","nocrits","nodmgspread","uncletopia"],"game_id":440,"stv_port":27066,"stv_name":"Uncletopia | Warsaw | 6 | Community | STV","players":[{"user_id":17,"name":"ÍßÅ‡ºí ‚Ä¢ Xx_Red_xX ‚Ä¢‡ºíÍßÇ","steam_id":76561199230923075,"connected_time":440000000000,"state":"active","ping":343},{"user_id":18,"name":"adrianmillones1","steam_id":76561199274711212,"connected_time":431000000000,"state":"active","ping":251}]}]}