{"status":true,"message":"","result":[{"server_id":9,"name":"Uncletopia | Atlanta | 1 | All Maps","name_short":"atl-1","host":"atl-1.us.uncletopia.com","port":27015,"enabled":true,"region":"us-east","cc":"us","latitude":33.753746,"longitude":-84.38633,"reserved":0,"last_update":"0001-01-01T00:00:00Z","name_a2s":"Uncletopia | Atlanta | 1 | All Maps","protocol":17,"map":"cp_snakewater_final1","folder":"tf","game":"Team Fortress","app_id":440,"player_count":0,"max_players":24,"Bots":0,"server_type":"Dedicated","server_os":"Linux","password":true,"vac":true,"version":"7757534","steam_id":85568392924469982,"keywords":["cp","nocrits","nodmgspread","uncletopia"],"game_id":440,"stv_port":27016,"stv_name":"Uncletopia | Atlanta | 1 | All Maps | STV","players":null},{"server_id":400,"name":"Uncletopia | Atlanta | 3 | Community","name_short":"atl-3","host":"atl-1.us.uncletopia.com","port":27035,"enabled":true,"region":"us-east","cc":"us","latitude":33.753746,"longitude":-84.38633,"reserved":0,"last_update":"0001-01-01T00:00:00Z","name_a2s":"Uncletopia | Atlanta | 3 | Community","protocol":17,"map":"workshop/koth_kemptown_rc1.ugc767410655","folder":"tf","game":"Team Fortress","app_id":440,"player_count":0,"max_players":32,"Bots":0,"server_type":"Dedicated","server_os":"Linux","password":true,"vac":true,"version":"7757534","steam_id":85568392924515187,"keywords":["cp","increased_maxplayers","nocrits","nodmgspread","uncletopia"],"game_id":440,"stv_port":27036,"stv_name":"Uncletopia | Atlanta | 3 | Community | STV","players":null},{"server_id":401,"name":"Uncletopia | Atlanta | 4 | No Payload","name_short":"atl-4","host":"atl-1.us.uncletopia.com","port":27045,"enabled":true,"region":"us-east","cc":"us","latitude":33.753746,"longitude":-84.38633,"reserved":0,"last_update":"0001-01-01T00:00:00Z","name_a2s":"","protocol":0,"map":"","folder":"","game":"","app_id":0,"player_count":0,"max_players":0,"Bots":0,"server_type":"","server_os":"","password":false,"vac":false,"version":"","steam_id":0,"keywords":null,"game_id":0,"stv_port":0,"stv_name":"","players":null},{"server_id":2,"name":"Uncletopia | Chicago | 1 | All Maps","name_short":"chi-1","host":"chi-1.us.uncletopia.com","port":27015,"enabled":true,"region":"us-central","cc":"us","latitude":41.881832,"longitude":-87.62318,"reserved":0,"last_update":"0001-01-01T00:00:00Z","name_a2s":"Uncletopia | Chicago | 1 | All Maps","protocol":17,"map":"cp_dustbowl","folder":"tf","game":"Team Fortress","app_id":440,"player_count":24,"max_players":24,"Bots":0,"server_type":"Dedicated","server_os":"Linux","password":true,"vac":true,"version":"7757534","steam_id":85568392924469984,"keywords":["cp","nocrits","nodmgspread","uncletopia"],"game_id":440,"stv_port":27016,"stv_name":"Uncletopia | Chicago | 1 | All Maps | STV","players":[{"user_id":1099,"name":"DededeMain | trade.tf","steam_id":76561198310951632,"connected_time":1746000000000,"state":"active","ping":71},{"user_id":926,"name":"C papi","steam_id":76561198027779564,"connected_time":15250000000000,"state":"active","ping":54},{"user_id":1019,"name":"Bliztank | RGL.gg","steam_id":76561198019252798,"connected_time":7416000000000,"state":"active","ping":58},{"user_id":1025,"name":"gasparmx","steam_id":76561197998611994,"connected_time":6815000000000,"state":"active","ping":105},{"user_id":982,"name":"daemon","steam_id":76561198001541433,"connected_time":9303000000000,"state":"active","ping":55},{"user_id":1086,"name":"CobyNoH0es","steam_id":76561198122236594,"connected_time":2949000000000,"state":"active","ping":81},{"user_id":1035,"name":"MoonWolf","steam_id":76561198095735033,"connected_time":6024000000000,"state":"active","ping":84},{"user_id":1070,"name":"oohho","steam_id":76561198073707607,"connected_time":3576000000000,"state":"active","ping":88},{"user_id":1026,"name":"Slippery","steam_id":76561199469441947,"connected_time":6809000000000,"state":"active","ping":54},{"user_id":1087,"name":"Chuck Finley","steam_id":76561198027411284,"connected_time":2925000000000,"state":"active","ping":71},{"user_id":1083,"name":"dash23™","steam_id":76561198314951185,"connected_time":3071000000000,"state":"active","ping":106},{"user_id":1051,"name":"Bocchi the Rock","steam_id":76561198025668771,"connected_time":4876000000000,"state":"active","ping":124},{"user_id":1098,"name":"oh dear...I gained weight...","steam_id":76561198035698704,"connected_time":2238000000000,"state":"active","ping":104},{"user_id":1053,"name":"Largelad","steam_id":76561198024042970,"connected_time":4733000000000,"state":"active","ping":78},{"user_id":886,"name":"trappy (showered)","steam_id":76561198402801140,"connected_time":17891000000000,"state":"active","ping":62},{"user_id":1103,"name":"Afghanistan Monkey Balls","steam_id":76561198402333738,"connected_time":964000000000,"state":"active","ping":86},{"user_id":1074,"name":"Shnakes","steam_id":76561198201649518,"connected_time":3490000000000,"state":"active","ping":116},{"user_id":1078,"name":"Jello","steam_id":76561198890633732,"connected_time":3390000000000,"state":"active","ping":78},{"user_id":1094,"name":"phyonic","steam_id":76561198059183301,"connected_time":2679000000000,"state":"active","ping":50},{"user_id":1061,"name":"JUNE (Personal Medic GF)","steam_id":76561198975039481,"connected_time":4112000000000,"state":"active","ping":82},{"user_id":1095,"name":"Akers","steam_id":76561198181793815,"connected_time":2656000000000,"state":"active","ping":113},{"user_id":1101,"name":"NAKO_PAKO","steam_id":76561198835379014,"connected_time":1704000000000,"state":"active","ping":104},{"user_id":1104,"name":"Strength!!","steam_id":76561198001241984,"connected_time":265000000000,"state":"active","ping":91},{"user_id":1084,"name":"Vladikr1","steam_id":76561198401495362,"connected_time":3046000000000,"state":"active","ping":59}]},{"server_id":106,"name":"Uncletopia | Chicago | 2 | All Maps","name_short":"chi-2","host":"chi-1.us.uncletopia.com","port":27025,"enabled":true,"region":"us-central","cc":"us","latitude":41.881832,"longitude":-87.62318,"reserved":0,"last_update":"0001-01-01T00:00:00Z","name_a2s":"Uncletopia | Chicago | 2 | All Maps","protocol":17,"map":"pl_pier","folder":"tf","game":"Team Fortress","app_id":440,"player_count":22,"max_players":24,"Bots":0,"server_type":"Dedicated","server_os":"Linux","password":true,"vac":true,"version":"7757534","steam_id":85568392924469985,"keywords":["nocrits","nodmgspread","payload","uncletopia"],"game_id":440,"stv_port":27026,"stv_name":"Uncletopia | Chicago | 2 | All Maps | STV","players":[{"user_id":863,"name":"mommy","steam_id":76561198129195009,"connected_time":851000000000,"state":"active","ping":71},{"user_id":840,"name":"flora","steam_id":76561197994492154,"connected_time":2566000000000,"state":"active","ping":166},{"user_id":873,"name":"Skrungly","steam_id":76561198072550443,"connected_time":267000000000,"state":"active","ping":66},{"user_id":856,"name":"TheGreatDong","steam_id":76561198000634178,"connected_time":1664000000000,"state":"active","ping":109},{"user_id":860,"name":"Lennu","steam_id":76561198060730154,"connected_time":1106000000000,"state":"active","ping":72},{"user_id":808,"name":"years","steam_id":76561197994098627,"connected_time":5295000000000,"state":"active","ping":120},{"user_id":862,"name":"Greeble","steam_id":76561198000283892,"connected_time":892000000000,"state":"active","ping":103},{"user_id":869,"name":"ensign.88","steam_id":76561198819867043,"connected_time":534000000000,"state":"active","ping":64},{"user_id":864,"name":"broos","steam_id":76561198061648271,"connected_time":839000000000,"state":"active","ping":101},{"user_id":820,"name":"Luxcraz","steam_id":76561198035278349,"connected_time":4941000000000,"state":"active","ping":55},{"user_id":795,"name":"Big Dirty Uncle","steam_id":76561198077098268,"connected_time":6441000000000,"state":"active","ping":74},{"user_id":870,"name":"Ender w","steam_id":76561198160747515,"connected_time":493000000000,"state":"active","ping":167},{"user_id":852,"name":"Underscore","steam_id":76561198374209415,"connected_time":1730000000000,"state":"active","ping":59},{"user_id":867,"name":"jelderjr","steam_id":76561198208862897,"connected_time":723000000000,"state":"active","ping":101},{"user_id":857,"name":"BudTuggly","steam_id":76561198026873580,"connected_time":1586000000000,"state":"active","ping":49},{"user_id":875,"name":"paisano","steam_id":76561198065575472,"connected_time":217000000000,"state":"active","ping":59},{"user_id":850,"name":"Dappana","steam_id":76561199442820274,"connected_time":2087000000000,"state":"active","ping":151},{"user_id":872,"name":"The Professor","steam_id":76561198113760863,"connected_time":357000000000,"state":"active","ping":60},{"user_id":801,"name":"AzuriousAlex","steam_id":76561198158026405,"connected_time":5935000000000,"state":"active","ping":88},{"user_id":858,"name":"Nate Dogg","steam_id":76561198118760077,"connected_time":1554000000000,"state":"active","ping":67},{"user_id":871,"name":"Juice Councilmen","steam_id":76561198312125574,"connected_time":460000000000,"state":"active","ping":76},{"user_id":868,"name":"milk #savetf2","steam_id":76561199054144269,"connected_time":592000000000,"state":"active","ping":73}]},{"server_id":402,"name":"Uncletopia | Chicago | 3 | All Maps","name_short":"chi-3","host":"chi-1.us.uncletopia.com","port":27035,"enabled":true,"region":"us-central","cc":"us","latitude":41.881832,"longitude":-87.62318,"reserved":0,"last_update":"0001-01-01T00:00:00Z","name_a2s":"Uncletopia | Chicago | 3 | All Maps","protocol":17,"map":"pl_upward","folder":"tf","game":"Team Fortress","app_id":440,"player_count":0,"max_players":24,"Bots":0,"server_type":"Dedicated","server_os":"Linux","password":true,"vac":true,"version":"7757534","steam_id":85568392924515191,"keywords":["nocrits","nodmgspread","payload","uncletopia"],"game_id":440,"stv_port":27036,"stv_name":"Uncletopia | Chicago | 3 | All Maps | STV","players":null},{"server_id":403,"name":"Uncletopia | Chicago | 4 | All Maps","name_short":"chi-4","host":"chi-1.us.uncletopia.com","port":27045,"enabled":true,"region":"us-central","cc":"us","latitude":41.881832,"longitude":-87.62318,"reserved":0,"last_update":"0001-01-01T00:00:00Z","name_a2s":"Uncletopia | Chicago | 4 | All Maps","protocol":17,"map":"koth_viaduct","folder":"tf","game":"Team Fortress","app_id":440,"player_count":0,"max_players":24,"Bots":0,"server_type":"Dedicated","server_os":"Linux","password":true,"vac":true,"version":"7757534","steam_id":85568392924515193,"keywords":["cp","nocrits","nodmgspread","uncletopia"],"game_id":440,"stv_port":27046,"stv_name":"Uncletopia | Chicago | 4 | All Maps | STV","players":null},{"server_id":36,"name":"Uncletopia | Chicago | 5 | All Maps","name_short":"chi-5","host":"chi-2.us.uncletopia.com","port":27015,"enabled":true,"region":"us-central","cc":"us","latitude":41.881832,"longitude":-87.62318,"reserved":0,"last_update":"0001-01-01T00:00:00Z","name_a2s":"Uncletopia | Chicago | 5 | All Maps","protocol":17,"map":"cp_mountainlab","folder":"tf","game":"Team Fortress","app_id":440,"player_count":0,"max_players":24,"Bots":0,"server_type":"Dedicated","server_os":"Linux","password":true,"vac":true,"version":"7757534","steam_id":85568392924866362,"keywords":["cp","nocrits","nodmgspread","uncletopia"],"game_id":440,"stv_port":27016,"stv_name":"Uncletopia | Chicago | 5 | All Maps | STV","players":null},{"server_id":37,"name":"Uncletopia | Chicago | 6 | All Maps","name_short":"chi-6","host":"chi-2.us.uncletopia.com","port":27025,"enabled":true,"region":"us-central","cc":"us","latitude":41.881832,"longitude":-87.62318,"reserved":0,"last_update":"0001-01-01T00:00:00Z","name_a2s":"Uncletopia | Chicago | 6 | All Maps","protocol":17,"map":"cp_altitude","folder":"tf","game":"Team Fortress","app_id":440,"player_count":0,"max_players":24,"Bots":0,"server_type":"Dedicated","server_os":"Linux","password":true,"vac":true,"version":"7757534","steam_id":85568392924866363,"keywords":["cp","nocrits","nodmgspread","uncletopia"],"game_id":440,"stv_port":27026,"stv_name":"Uncletopia | Chicago | 6 | All Maps | STV","players":null},{"server_id":38,"name":"Uncletopia | Chicago | 7 | Stopwatch Beta","name_short":"chi-7","host":"chi-2.us.uncletopia.com","port":27035,"enabled":true,"region":"us-central","cc":"us","latitude":41.881832,"longitude":-87.62318,"reserved":0,"last_update":"0001-01-01T00:00:00Z","name_a2s":"Uncletopia | Chicago | 7 | Stopwatch Beta","protocol":17,"map":"pl_upward","folder":"tf","game":"Team Fortress","app_id":440,"player_count":0,"max_players":24,"Bots":0,"server_type":"Dedicated","server_os":"Linux","password":true,"vac":true,"version":"7757534","steam_id":85568392924866364,"keywords":["nocrits","nodmgspread","payload","uncletopia"],"game_id":440,"stv_port":27036,"stv_name":"Uncletopia | Chicago | 7 | Stopwatch Beta | STV","players":null},{"server_id":39,"name":"Uncletopia | Chicago | 8 | Community","name_short":"chi-8","host":"chi-2.us.uncletopia.com","port":27045,"enabled":true,"region":"us-central","cc":"us","latitude":41.881832,"longitude":-87.62318,"reserved":0,"last_update":"0001-01-01T00:00:00Z","name_a2s":"Uncletopia | Chicago | 8 | Community","protocol":17,"map":"workshop/cp_snowbase_b18.ugc2081770490","folder":"tf","game":"Team Fortress","app_id":440,"player_count":0,"max_players":24,"Bots":0,"server_type":"Dedicated","server_os":"Linux","password":true,"vac":true,"version":"7757534","steam_id":85568392924866365,"keywords":["cp","nocrits","nodmgspread","uncletopia"],"game_id":440,"stv_port":27046,"stv_name":"Uncletopia | Chicago | 8 | Community | STV","players":null},{"server_id":8,"name":"Uncletopia | Dallas | 1 | All Maps","name_short":"dal-1","host":"dal-1.us.uncletopia.com","port":27015,"enabled":true,"region":"us-central","cc":"us","latitude":32.779167,"longitude":-96.80889,"reserved":0,"last_update":"0001-01-01T00:00:00Z","name_a2s":"Uncletopia | Dallas | 1 | All Maps","protocol":17,"map":"cp_steel","folder":"tf","game":"Team Fortress","app_id":440,"player_count":0,"max_players":24,"Bots":0,"server_type":"Dedicated","server_os":"Linux","password":true,"vac":true,"version":"7757534","steam_id":85568392924469986,"keywords":["cp","nocrits","nodmgspread","uncletopia"],"game_id":440,"stv_port":27016,"stv_name":"Uncletopia | Dallas | 1 | All Maps | STV","players":null},{"server_id":108,"name":"Uncletopia | Dallas | 2 | All Maps","name_short":"dal-2","host":"dal-1.us.uncletopia.com","port":27025,"enabled":true,"region":"us-central","cc":"us","latitude":32.779167,"longitude":-96.80889,"reserved":0,"last_update":"0001-01-01T00:00:00Z","name_a2s":"Uncletopia | Dallas | 2 | All Maps","protocol":17,"map":"koth_cascade","folder":"tf","game":"Team Fortress","app_id":440,"player_count":0,"max_players":24,"Bots":0,"server_type":"Dedicated","server_os":"Linux","password":true,"vac":true,"version":"7757534","steam_id":85568392924469988,"keywords":["cp","nocrits","nodmgspread","uncletopia"],"game_id":440,"stv_port":27026,"stv_name":"Uncletopia | Dallas | 2 | All Maps | STV","players":null},{"server_id":5,"name":"Uncletopia | Frankfurt | 1 | All Maps","name_short":"frk-1","host":"frk-1.de.uncletopia.com","port":27015,"enabled":true,"region":"eu","cc":"de","latitude":50.110924,"longitude":8.682127,"reserved":0,"last_update":"0001-01-01T00:00:00Z","name_a2s":"Uncletopia | Frankfurt | 1 | All Maps","protocol":17,"map":"pl_borneo","folder":"tf","game":"Team Fortress","app_id":440,"player_count":24,"max_players":24,"Bots":0,"server_type":"Dedicated","server_os":"Linux","password":true,"vac":true,"version":"7757534","steam_id":85568392924469989,"keywords":["nocrits","nodmgspread","payload","uncletopia"],"game_id":440,"stv_port":27016,"stv_name":"Uncletopia | Frankfurt | 1 | All Maps | STV","players":[{"user_id":15,"name":"TheShadowScribe","steam_id":76561199037525945,"connected_time":7482000000000,"state":"active","ping":85},{"user_id":74,"name":"Bundle of Sticks","steam_id":76561198133782205,"connected_time":3372000000000,"state":"active","ping":130},{"user_id":103,"name":"r06u3","steam_id":76561198254099253,"connected_time":1850000000000,"state":"active","ping":173},{"user_id":116,"name":"on1on (pickled)","steam_id":76561197995304137,"connected_time":1308000000000,"state":"active","ping":66},{"user_id":100,"name":"Tryrn","steam_id":76561198075487436,"connected_time":1905000000000,"state":"active","ping":104},{"user_id":69,"name":"Sim","steam_id":76561198086641180,"connected_time":3737000000000,"state":"active","ping":102},{"user_id":115,"name":"Wattseyy","steam_id":76561198248567360,"connected_time":1317000000000,"state":"active","ping":52},{"user_id":121,"name":"Baki ツ","steam_id":76561198193615529,"connected_time":525000000000,"state":"active","ping":50},{"user_id":108,"name":"Józef Piłsudski","steam_id":76561198084049405,"connected_time":1642000000000,"state":"active","ping":91},{"user_id":97,"name":"kornetov.vitalya","steam_id":76561199286034833,"connected_time":2159000000000,"state":"active","ping":88},{"user_id":117,"name":"sun Tzu","steam_id":76561198243029698,"connected_time":1176000000000,"state":"active","ping":105},{"user_id":106,"name":"568","steam_id":76561198167675482,"connected_time":1755000000000,"state":"active","ping":75},{"user_id":126,"name":"Lukas","steam_id":76561198009118452,"connected_time":88000000000,"state":"active","ping":54},{"user_id":58,"name":"Wario","steam_id":76561198356089255,"connected_time":4845000000000,"state":"active","ping":67},{"user_id":98,"name":"Sweetcheesus","steam_id":76561198022299033,"connected_time":2157000000000,"state":"active","ping":54},{"user_id":119,"name":"dob:cob","steam_id":76561198253323044,"connected_time":582000000000,"state":"active","ping":71},{"user_id":120,"name":"Dzan50","steam_id":76561198059758591,"connected_time":576000000000,"state":"active","ping":85},{"user_id":118,"name":"TK","steam_id":76561199384193338,"connected_time":978000000000,"state":"active","ping":55},{"user_id":114,"name":"IdrinkPiss54577","steam_id":76561199445614723,"connected_time":1371000000000,"state":"active","ping":67},{"user_id":127,"name":"Alfred Schroom","steam_id":76561198117990411,"connected_time":78000000000,"state":"active","ping":167},{"user_id":125,"name":"Spetse","steam_id":76561197990649972,"connected_time":364000000000,"state":"active","ping":85},{"user_id":128,"name":"jmp","steam_id":76561198168283286,"connected_time":71000000000,"state":"active","ping":75},{"user_id":84,"name":"HelwiiHill","steam_id":76561198066730552,"connected_time":3163000000000,"state":"active","ping":84},{"user_id":92,"name":"Wilbur soup","steam_id":76561199086849378,"connected_time":2355000000000,"state":"active","ping":87}]},{"server_id":110,"name":"Uncletopia | Frankfurt | 2 | All Maps","name_short":"frk-2","host":"frk-1.de.uncletopia.com","port":27025,"enabled":true,"region":"eu","cc":"de","latitude":50.110924,"longitude":8.682127,"reserved":0,"last_update":"0001-01-01T00:00:00Z","name_a2s":"Uncletopia | Frankfurt | 2 | All Maps","protocol":17,"map":"pl_borneo","folder":"tf","game":"Team Fortress","app_id":440,"player_count":24,"max_players":24,"Bots":0,"server_type":"Dedicated","server_os":"Linux","password":true,"vac":true,"version":"7757534","steam_id":85568392924469990,"keywords":["nocrits","nodmgspread","payload","uncletopia"],"game_id":440,"stv_port":27026,"stv_name":"Uncletopia | Frankfurt | 2 | All Maps | STV","players":[{"user_id":54,"name":"estrogen deliver","steam_id":76561198190259726,"connected_time":5041000000000,"state":"active","ping":80},{"user_id":81,"name":"Sophie","steam_id":76561198970075085,"connected_time":2569000000000,"state":"active","ping":60},{"user_id":102,"name":"ike","steam_id":76561198039573338,"connected_time":397000000000,"state":"active","ping":93},{"user_id":95,"name":"Your Lovely Medic","steam_id":76561198039326848,"connected_time":1799000000000,"state":"active","ping":64},{"user_id":103,"name":"£blz","steam_id":76561198084804183,"connected_time":304000000000,"state":"active","ping":59},{"user_id":84,"name":"joni","steam_id":76561198413766717,"connected_time":2302000000000,"state":"active","ping":70},{"user_id":99,"name":"САНЯ ВОДІЛА","steam_id":76561198343380238,"connected_time":1228000000000,"state":"active","ping":70},{"user_id":50,"name":"ZazyLou_","steam_id":76561198411134617,"connected_time":5348000000000,"state":"active","ping":65},{"user_id":101,"name":"goblin mode","steam_id":76561198891698133,"connected_time":978000000000,"state":"active","ping":100},{"user_id":85,"name":"Jack","steam_id":76561198325505238,"connected_time":2148000000000,"state":"active","ping":71},{"user_id":86,"name":"many thanks","steam_id":76561198089003514,"connected_time":2121000000000,"state":"active","ping":44},{"user_id":57,"name":"xenia","steam_id":76561198062107879,"connected_time":4985000000000,"state":"active","ping":75},{"user_id":94,"name":"poorchel","steam_id":76561198056905953,"connected_time":2044000000000,"state":"active","ping":121},{"user_id":19,"name":"night.s","steam_id":76561198326287823,"connected_time":7360000000000,"state":"active","ping":82},{"user_id":104,"name":"heartburn","steam_id":76561198875472890,"connected_time":77000000000,"state":"active","ping":76},{"user_id":83,"name":"aura","steam_id":76561197991687793,"connected_time":2530000000000,"state":"active","ping":63},{"user_id":73,"name":"AfroCookie","steam_id":76561198138362851,"connected_time":4016000000000,"state":"active","ping":72},{"user_id":75,"name":"fmdi","steam_id":76561199433879329,"connected_time":3616000000000,"state":"active","ping":71},{"user_id":72,"name":"Cu713","steam_id":76561198175463442,"connected_time":4089000000000,"state":"active","ping":75},{"user_id":80,"name":"Churaq Cyril","steam_id":76561198125381319,"connected_time":2886000000000,"state":"active","ping":89},{"user_id":38,"name":"John Fortress","steam_id":76561198043743881,"connected_time":6608000000000,"state":"active","ping":59},{"user_id":62,"name":"XeniasPimp","steam_id":76561198126398022,"connected_time":4806000000000,"state":"active","ping":69},{"user_id":98,"name":"Dragon","steam_id":76561198163255365,"connected_time":1490000000000,"state":"active","ping":90},{"user_id":48,"name":"G/3","steam_id":76561198234844188,"connected_time":5667000000000,"state":"active","ping":62}]},{"server_id":308,"name":"Uncletopia | Frankfurt | 3 | All Maps","name_short":"frk-3","host":"frk-1.de.uncletopia.com","port":27035,"enabled":true,"region":"eu","cc":"de","latitude":50.110924,"longitude":8.682127,"reserved":0,"last_update":"0001-01-01T00:00:00Z","name_a2s":"Uncletopia | Frankfurt | 3 | All Maps","protocol":17,"map":"pl_barnblitz","folder":"tf","game":"Team Fortress","app_id":440,"player_count":0,"max_players":24,"Bots":0,"server_type":"Dedicated","server_os":"Linux","password":true,"vac":true,"version":"7757534","steam_id":85568392924504274,"keywords":["nocrits","nodmgspread","payload","uncletopia"],"game_id":440,"stv_port":27036,"stv_name":"Uncletopia | Frankfurt | 3 | All Maps | STV","players":null},{"server_id":309,"name":"Uncletopia | Frankfurt | 4 | All Maps","name_short":"frk-4","host":"frk-1.de.uncletopia.com","port":27045,"enabled":true,"region":"eu","cc":"de","latitude":50.110924,"longitude":8.682127,"reserved":0,"last_update":"0001-01-01T00:00:00Z","name_a2s":"Uncletopia | Frankfurt | 4 | All Maps","protocol":17,"map":"cp_altitude","folder":"tf","game":"Team Fortress","app_id":440,"player_count":0,"max_players":24,"Bots":0,"server_type":"Dedicated","server_os":"Linux","password":true,"vac":true,"version":"7757534","steam_id":85568392924504275,"keywords":["cp","nocrits","nodmgspread","uncletopia"],"game_id":440,"stv_port":27046,"stv_name":"Uncletopia | Frankfurt | 4 | All Maps | STV","players":null},{"server_id":310,"name":"Uncletopia | Frankfurt | 5 | All Maps","name_short":"frk-5","host":"frk-1.de.uncletopia.com","port":27055,"enabled":true,"region":"eu","cc":"de","latitude":50.110924,"longitude":8.682127,"reserved":0,"last_update":"0001-01-01T00:00:00Z","name_a2s":"Uncletopia | Frankfurt | 5 | All Maps","protocol":17,"map":"pl_badwater","folder":"tf","game":"Team Fortress","app_id":440,"player_count":24,"max_players":24,"Bots":0,"server_type":"Dedicated","server_os":"Linux","password":true,"vac":true,"version":"7757534","steam_id":85568392924504277,"keywords":["nocrits","nodmgspread","payload","uncletopia"],"game_id":440,"stv_port":27056,"stv_name":"Uncletopia | Frankfurt | 5 | All Maps | STV","players":[{"user_id":41,"name":"-makina","steam_id":76561198273042780,"connected_time":679000000000,"state":"active","ping":60},{"user_id":42,"name":"Laki","steam_id":76561198126078953,"connected_time":679000000000,"state":"active","ping":106},{"user_id":8,"name":"Hindmost","steam_id":76561199081837220,"connected_time":3031000000000,"state":"active","ping":187},{"user_id":37,"name":"Mr.Fix","steam_id":76561199017362445,"connected_time":1166000000000,"state":"active","ping":89},{"user_id":24,"name":"Engineer gaming","steam_id":76561198798657045,"connected_time":1605000000000,"state":"active","ping":75},{"user_id":22,"name":"Däcka-Lasse Reborn","steam_id":76561198018609677,"connected_time":1724000000000,"state":"active","ping":58},{"user_id":15,"name":"Soulman25 (FIN)","steam_id":76561198103611974,"connected_time":2028000000000,"state":"active","ping":98},{"user_id":14,"name":"I'm too high for this","steam_id":76561198080053422,"connected_time":2384000000000,"state":"active","ping":58},{"user_id":44,"name":"♫★Xriasp★♫","steam_id":76561198104721321,"connected_time":186000000000,"state":"active","ping":71},{"user_id":45,"name":"mezzo","steam_id":76561198059887260,"connected_time":93000000000,"state":"active","ping":53},{"user_id":18,"name":"Zepta","steam_id":76561199001659666,"connected_time":1884000000000,"state":"active","ping":87},{"user_id":23,"name":"daanvanliempt05","steam_id":76561198355398948,"connected_time":1696000000000,"state":"active","ping":52},{"user_id":21,"name":"Na'vi Misato (by popular demand","steam_id":76561198130860698,"connected_time":1796000000000,"state":"active","ping":56},{"user_id":25,"name":"*cough*","steam_id":76561198179908677,"connected_time":1587000000000,"state":"active","ping":175},{"user_id":43,"name":"Covetousix","steam_id":76561198293936824,"connected_time":490000000000,"state":"active","ping":75},{"user_id":27,"name":"fucking awesome gangster minion","steam_id":76561198796600155,"connected_time":1562000000000,"state":"active","ping":86},{"user_id":28,"name":"Sheerluck Holmes","steam_id":76561198051161936,"connected_time":1557000000000,"state":"active","ping":68},{"user_id":38,"name":"Chambersite","steam_id":76561198197022399,"connected_time":1134000000000,"state":"active","ping":70},{"user_id":31,"name":"mtyxrst","steam_id":76561198057256978,"connected_time":1536000000000,"state":"active","ping":45},{"user_id":32,"name":"The 4th Doctor","steam_id":76561198191516706,"connected_time":1487000000000,"state":"active","ping":74},{"user_id":33,"name":"Marcos","steam_id":76561198798925721,"connected_time":1487000000000,"state":"active","ping":71},{"user_id":34,"name":"Bulyto","steam_id":76561198043205202,"connected_time":1475000000000,"state":"active","ping":66},{"user_id":35,"name":"JonTurn","steam_id":76561198128323383,"connected_time":1465000000000,"state":"active","ping":96},{"user_id":39,"name":"T1 (ted1)","steam_id":76561199229022826,"connected_time":1129000000000,"state":"active","ping":111}]},{"server_id":311,"name":"Uncletopia | Frankfurt | 6 | All Maps","name_short":"frk-6","host":"frk-1.de.uncletopia.com","port":27065,"enabled":true,"region":"eu","cc":"de","latitude":50.110924,"longitude":8.682127,"reserved":0,"last_update":"0001-01-01T00:00:00Z","name_a2s":"Uncletopia | Frankfurt | 6 | All Maps","protocol":17,"map":"cp_dustbowl","folder":"tf","game":"Team Fortress","app_id":440,"player_count":0,"max_players":24,"Bots":0,"server_type":"Dedicated","server_os":"Linux","password":true,"vac":true,"version":"7757534","steam_id":85568392924504278,"keywords":["cp","nocrits","nodmgspread","uncletopia"],"game_id":440,"stv_port":27066,"stv_name":"Uncletopia | Frankfurt | 6 | All Maps | STV","players":null},{"server_id":23,"name":"Uncletopia | Frankfurt | 7 | Stopwatch Beta","name_short":"frk-7","host":"frk-1.de.uncletopia.com","port":27075,"enabled":true,"region":"eu","cc":"de","latitude":50.110924,"longitude":8.682127,"reserved":0,"last_update":"0001-01-01T00:00:00Z","name_a2s":"Uncletopia | Frankfurt | 7 | Stopwatch Beta","protocol":17,"map":"pl_frontier_final","folder":"tf","game":"Team Fortress","app_id":440,"player_count":0,"max_players":24,"Bots":0,"server_type":"Dedicated","server_os":"Linux","password":true,"vac":true,"version":"7757534","steam_id":85568392924742827,"keywords":["nocrits","nodmgspread","payload","uncletopia"],"game_id":440,"stv_port":27076,"stv_name":"Uncletopia | Frankfurt | 7 | Stopwatch Beta | STV","players":null},{"server_id":24,"name":"Uncletopia | Frankfurt | 8 | Community","name_short":"frk-8","host":"frk-1.de.uncletopia.com","port":27085,"enabled":true,"region":"eu","cc":"de","latitude":50.110924,"longitude":8.682127,"reserved":0,"last_update":"0001-01-01T00:00:00Z","name_a2s":"Uncletopia | Frankfurt | 8 | Community","protocol":17,"map":"workshop/koth_bagel_rc5.ugc2514036946","folder":"tf","game":"Team Fortress","app_id":440,"player_count":0,"max_players":24,"Bots":0,"server_type":"Dedicated","server_os":"Linux","password":true,"vac":true,"version":"7757534","steam_id":85568392924742828,"keywords":["cp","nocrits","nodmgspread","uncletopia"],"game_id":440,"stv_port":27086,"stv_name":"Uncletopia | Frankfurt | 8 | Community | STV","players":null},{"server_id":202,"name":"Uncletopia | Hong Kong | 1 | All Maps","name_short":"hgk-1","host":"hgk-1.hk.uncletopia.com","port":27015,"enabled":true,"region":"asia","cc":"hk","latitude":22.302711,"longitude":114.177216,"reserved":0,"last_update":"0001-01-01T00:00:00Z","name_a2s":"Uncletopia | Hong Kong | 1 | All Maps","protocol":17,"map":"pl_enclosure_final","folder":"tf","game":"Team Fortress","app_id":440,"player_count":19,"max_players":24,"Bots":0,"server_type":"Dedicated","server_os":"Linux","password":true,"vac":true,"version":"7757534","steam_id":85568392924494504,"keywords":["nocrits","nodmgspread","payload","uncletopia"],"game_id":440,"stv_port":27016,"stv_name":"Uncletopia | Hong Kong | 1 | All Maps | STV","players":[{"user_id":347,"name":"Telekhine","steam_id":76561198387120618,"connected_time":1839000000000,"state":"active","ping":101},{"user_id":303,"name":"silverhouse7","steam_id":76561198349634906,"connected_time":5164000000000,"state":"active","ping":60},{"user_id":357,"name":"只玩间谍","steam_id":76561198143829267,"connected_time":1355000000000,"state":"active","ping":99},{"user_id":374,"name":"Aerotronics","steam_id":76561198821190704,"connected_time":441000000000,"state":"active","ping":171},{"user_id":349,"name":"P","steam_id":76561198304514505,"connected_time":1758000000000,"state":"active","ping":110},{"user_id":367,"name":"zzz","steam_id":76561198219926077,"connected_time":1183000000000,"state":"active","ping":44},{"user_id":307,"name":"Windmill","steam_id":76561199230997986,"connected_time":5032000000000,"state":"active","ping":75},{"user_id":368,"name":"corpse_cadaver","steam_id":76561199225360457,"connected_time":1136000000000,"state":"active","ping":67},{"user_id":344,"name":"timmy.1366","steam_id":76561199065433547,"connected_time":2494000000000,"state":"active","ping":79},{"user_id":377,"name":"8illY","steam_id":76561198143092870,"connected_time":239000000000,"state":"active","ping":41},{"user_id":378,"name":"sloth of the fragment clan","steam_id":76561198214192048,"connected_time":201000000000,"state":"active","ping":100},{"user_id":380,"name":"Shinobimono","steam_id":76561198343322788,"connected_time":91000000000,"state":"active","ping":130},{"user_id":370,"name":"Corhix","steam_id":76561198968706355,"connected_time":1100000000000,"state":"active","ping":52},{"user_id":348,"name":"laptopgaming2003","steam_id":76561198796036009,"connected_time":1794000000000,"state":"active","ping":83},{"user_id":369,"name":"razetime","steam_id":76561198093904557,"connected_time":1128000000000,"state":"active","ping":133},{"user_id":350,"name":"Hexer","steam_id":76561199206467556,"connected_time":1727000000000,"state":"active","ping":91},{"user_id":381,"name":"mmhhr2009","steam_id":76561199222486715,"connected_time":13000000000,"state":"spawning","ping":106},{"user_id":375,"name":"cinderacefan500","steam_id":76561198981987710,"connected_time":434000000000,"state":"active","ping":100},{"user_id":341,"name":"マグナス","steam_id":76561198208990721,"connected_time":2797000000000,"state":"active","ping":146}]},{"server_id":1,"name":"Uncletopia | Los Angeles | 1 | All Maps","name_short":"lax-1","host":"lax-1.us.uncletopia.com","port":27015,"enabled":true,"region":"us-west","cc":"us","latitude":33.94279,"longitude":-118.41004,"reserved":0,"last_update":"0001-01-01T00:00:00Z","name_a2s":"Uncletopia | Los Angeles | 1 | All Maps","protocol":17,"map":"pl_pier","folder":"tf","game":"Team Fortress","app_id":440,"player_count":5,"max_players":24,"Bots":0,"server_type":"Dedicated","server_os":"Linux","password":true,"vac":true,"version":"7757534","steam_id":85568392924469991,"keywords":["nocrits","nodmgspread","payload","uncletopia"],"game_id":440,"stv_port":27016,"stv_name":"Uncletopia | Los Angeles | 1 | All Maps | STV","players":[{"user_id":706,"name":"Momma_Milky123","steam_id":76561199149697526,"connected_time":432000000000,"state":"active","ping":80},{"user_id":705,"name":"Baldcoin","steam_id":76561198079193722,"connected_time":1525000000000,"state":"active","ping":34},{"user_id":700,"name":"Lily","steam_id":76561199042285614,"connected_time":3125000000000,"state":"active","ping":138},{"user_id":675,"name":"MarcyGengar","steam_id":76561198315829482,"connected_time":4364000000000,"state":"active","ping":61},{"user_id":655,"name":"Malkoma","steam_id":76561199004465543,"connected_time":5996000000000,"state":"active","ping":57}]},{"server_id":112,"name":"Uncletopia | Los Angeles | 2 | All Maps","name_short":"lax-2","host":"lax-1.us.uncletopia.com","port":27025,"enabled":true,"region":"us-west","cc":"us","latitude":33.94279,"longitude":-118.41004,"reserved":0,"last_update":"0001-01-01T00:00:00Z","name_a2s":"Uncletopia | Los Angeles | 2 | All Maps","protocol":17,"map":"koth_cascade","folder":"tf","game":"Team Fortress","app_id":440,"player_count":0,"max_players":24,"Bots":0,"server_type":"Dedicated","server_os":"Linux","password":true,"vac":true,"version":"7757534","steam_id":85568392924469992,"keywords":["cp","nocrits","nodmgspread","uncletopia"],"game_id":440,"stv_port":27026,"stv_name":"Uncletopia | Los Angeles | 2 | All Maps | STV","players":null},{"server_id":324,"name":"Uncletopia | Los Angeles | 3 | All Maps","name_short":"lax-3","host":"lax-1.us.uncletopia.com","port":27035,"enabled":true,"region":"us-west","cc":"us","latitude":33.94279,"longitude":-118.41004,"reserved":0,"last_update":"0001-01-01T00:00:00Z","name_a2s":"Uncletopia | Los Angeles | 3 | All Maps","protocol":17,"map":"koth_highpass","folder":"tf","game":"Team Fortress","app_id":440,"player_count":0,"max_players":24,"Bots":0,"server_type":"Dedicated","server_os":"Linux","password":true,"vac":true,"version":"7757534","steam_id":85568392924510198,"keywords":["cp","nocrits","nodmgspread","uncletopia"],"game_id":440,"stv_port":27036,"stv_name":"Uncletopia | Los Angeles | 3 | All Maps | STV","players":null},{"server_id":25,"name":"Uncletopia | Los Angeles | 4 | Stopwatch Beta","name_short":"lax-4","host":"lax-1.us.uncletopia.com","port":27045,"enabled":true,"region":"us-west","cc":"us","latitude":33.94279,"longitude":-118.41004,"reserved":0,"last_update":"0001-01-01T00:00:00Z","name_a2s":"Uncletopia | Los Angeles | 4 | Stopwatch Beta","protocol":17,"map":"pl_frontier_final","folder":"tf","game":"Team Fortress","app_id":440,"player_count":0,"max_players":24,"Bots":0,"server_type":"Dedicated","server_os":"Linux","password":true,"vac":true,"version":"7757534","steam_id":85568392924510199,"keywords":["nocrits","nodmgspread","payload","uncletopia"],"game_id":440,"stv_port":27046,"stv_name":"Uncletopia | Los Angeles | 4 | Stopwatch Beta | STV","players":null},{"server_id":11,"name":"Uncletopia | London | 1 | All Maps","name_short":"lon-1","host":"lon-1.uk.uncletopia.com","port":27015,"enabled":true,"region":"eu","cc":"gb","latitude":51.509865,"longitude":-0.118092,"reserved":0,"last_update":"0001-01-01T00:00:00Z","name_a2s":"Uncletopia | London | 1 | All Maps","protocol":17,"map":"cp_mountainlab","folder":"tf","game":"Team Fortress","app_id":440,"player_count":23,"max_players":24,"Bots":0,"server_type":"Dedicated","server_os":"Linux","password":true,"vac":true,"version":"7757534","steam_id":85568392924367362,"keywords":["cp","nocrits","nodmgspread","uncletopia"],"game_id":440,"stv_port":27016,"stv_name":"Uncletopia | London | 1 | All Maps | STV","players":[{"user_id":148,"name":"Pablo","steam_id":76561199367806352,"connected_time":1199000000000,"state":"active","ping":105},{"user_id":57,"name":"The Wolf Leader","steam_id":76561198038007462,"connected_time":8480000000000,"state":"active","ping":82},{"user_id":157,"name":"Rezolt","steam_id":76561198069074807,"connected_time":953000000000,"state":"active","ping":128},{"user_id":147,"name":"Grim the lemon","steam_id":76561199083433988,"connected_time":1203000000000,"state":"active","ping":45},{"user_id":165,"name":"Hegyi tahó F2P","steam_id":76561199219150356,"connected_time":446000000000,"state":"active","ping":91},{"user_id":160,"name":"Guru","steam_id":76561198093853069,"connected_time":903000000000,"state":"active","ping":70},{"user_id":156,"name":"Lexiss","steam_id":76561198086211346,"connected_time":1007000000000,"state":"active","ping":85},{"user_id":109,"name":"Laru","steam_id":76561197998838438,"connected_time":4203000000000,"state":"active","ping":76},{"user_id":127,"name":"Miczu555PL","steam_id":76561198058500895,"connected_time":2901000000000,"state":"active","ping":75},{"user_id":167,"name":"Jimmy","steam_id":76561198133680783,"connected_time":10000000000,"state":"spawning","ping":73},{"user_id":153,"name":"Overhaul","steam_id":76561198878610347,"connected_time":1069000000000,"state":"active","ping":109},{"user_id":154,"name":"fried","steam_id":76561198307522022,"connected_time":1063000000000,"state":"active","ping":58},{"user_id":131,"name":"MrXtr","steam_id":76561198966247397,"connected_time":2551000000000,"state":"active","ping":68},{"user_id":155,"name":"Dolcelatte","steam_id":76561198038501770,"connected_time":1047000000000,"state":"active","ping":67},{"user_id":94,"name":"AnonTron","steam_id":76561199031895493,"connected_time":6115000000000,"state":"active","ping":181},{"user_id":166,"name":"963 frequency of gods","steam_id":76561199088506542,"connected_time":409000000000,"state":"active","ping":73},{"user_id":145,"name":"Bruh","steam_id":76561198269997109,"connected_time":1511000000000,"state":"active","ping":90},{"user_id":135,"name":"MAKENTAKEN","steam_id":76561199127359587,"connected_time":2330000000000,"state":"active","ping":106},{"user_id":158,"name":"Boltingstorm","steam_id":76561199068433052,"connected_time":951000000000,"state":"active","ping":72},{"user_id":99,"name":"ciliorkun18","steam_id":76561198228942500,"connected_time":5797000000000,"state":"active","ping":91},{"user_id":161,"name":"FANTANO MELON HEAD","steam_id":76561198146194820,"connected_time":669000000000,"state":"active","ping":76},{"user_id":130,"name":"Bone","steam_id":76561198073117364,"connected_time":2563000000000,"state":"active","ping":127},{"user_id":163,"name":"fox^","steam_id":76561198173355995,"connected_time":551000000000,"state":"active","ping":90}]},{"server_id":114,"name":"Uncletopia | London | 2 | All Maps","name_short":"lon-2","host":"lon-1.uk.uncletopia.com","port":27025,"enabled":true,"region":"eu","cc":"gb","latitude":51.509865,"longitude":-0.118092,"reserved":0,"last_update":"0001-01-01T00:00:00Z","name_a2s":"Uncletopia | London | 2 | All Maps","protocol":17,"map":"pl_frontier_final","folder":"tf","game":"Team Fortress","app_id":440,"player_count":23,"max_players":24,"Bots":0,"server_type":"Dedicated","server_os":"Linux","password":true,"vac":true,"version":"7757534","steam_id":85568392924470941,"keywords":["nocrits","nodmgspread","payload","uncletopia"],"game_id":440,"stv_port":27026,"stv_name":"Uncletopia | London | 2 | All Maps | STV","players":[{"user_id":76,"name":"John Daly","steam_id":76561197993849325,"connected_time":827000000000,"state":"active","ping":69},{"user_id":62,"name":"dafydd","steam_id":76561198052200325,"connected_time":1883000000000,"state":"active","ping":90},{"user_id":70,"name":"Bill Green","steam_id":76561199472138537,"connected_time":1195000000000,"state":"active","ping":73},{"user_id":18,"name":"tactical783","steam_id":76561199051688560,"connected_time":3576000000000,"state":"active","ping":61},{"user_id":20,"name":"Sverhrazym","steam_id":76561198868708664,"connected_time":3541000000000,"state":"active","ping":104},{"user_id":34,"name":"gGABEsz","steam_id":76561198117199068,"connected_time":3051000000000,"state":"active","ping":75},{"user_id":68,"name":"MyFirstTimeeeeelel","steam_id":76561199235376543,"connected_time":1229000000000,"state":"active","ping":71},{"user_id":63,"name":"Pancakes","steam_id":76561198196259989,"connected_time":1764000000000,"state":"active","ping":45},{"user_id":26,"name":"ӋԼן.maS","steam_id":76561198114953928,"connected_time":3425000000000,"state":"active","ping":66},{"user_id":27,"name":"t0ksi","steam_id":76561198107240798,"connected_time":3424000000000,"state":"active","ping":85},{"user_id":75,"name":"ComedianGoat","steam_id":76561199006805659,"connected_time":932000000000,"state":"active","ping":193},{"user_id":40,"name":"Farmercy","steam_id":76561198000038039,"connected_time":2957000000000,"state":"active","ping":74},{"user_id":79,"name":"Daaniosamigos","steam_id":76561198080672142,"connected_time":360000000000,"state":"active","ping":67},{"user_id":74,"name":"'Tis but a scratch","steam_id":76561198118517671,"connected_time":1032000000000,"state":"active","ping":122},{"user_id":81,"name":"Aneťák","steam_id":76561198159294906,"connected_time":212000000000,"state":"active","ping":69},{"user_id":69,"name":"Wise Mystical Oak","steam_id":76561197988395035,"connected_time":1226000000000,"state":"active","ping":85},{"user_id":72,"name":"Lössö","steam_id":76561197994254413,"connected_time":1192000000000,"state":"active","ping":83},{"user_id":78,"name":"LettuceJunkie","steam_id":76561198287445544,"connected_time":368000000000,"state":"active","ping":57},{"user_id":43,"name":"youmme95","steam_id":76561198049802823,"connected_time":2914000000000,"state":"active","ping":71},{"user_id":44,"name":"Exe_Red","steam_id":76561198154952759,"connected_time":2906000000000,"state":"active","ping":101},{"user_id":82,"name":"kotamine","steam_id":76561198068907991,"connected_time":15000000000,"state":"spawning","ping":75},{"user_id":47,"name":"Denialman (Muted)","steam_id":76561198309182092,"connected_time":2783000000000,"state":"active","ping":67},{"user_id":73,"name":"ඞbominasus 2137  #SaveTF2","steam_id":76561198030062981,"connected_time":1165000000000,"state":"active","ping":79}]},{"server_id":320,"name":"Uncletopia | London | 3 | All Maps","name_short":"lon-3","host":"lon-1.uk.uncletopia.com","port":27035,"enabled":true,"region":"eu","cc":"gb","latitude":51.509865,"longitude":-0.118092,"reserved":0,"last_update":"0001-01-01T00:00:00Z","name_a2s":"Uncletopia | London | 3 | All Maps","protocol":17,"map":"pl_badwater","folder":"tf","game":"Team Fortress","app_id":440,"player_count":0,"max_players":24,"Bots":0,"server_type":"Dedicated","server_os":"Linux","password":true,"vac":true,"version":"7757534","steam_id":85568392924510192,"keywords":["nocrits","nodmgspread","payload","uncletopia"],"game_id":440,"stv_port":27036,"stv_name":"Uncletopia | London | 3 | All Maps | STV","players":null},{"server_id":321,"name":"Uncletopia | London | 4 | All Maps","name_short":"lon-4","host":"lon-1.uk.uncletopia.com","port":27045,"enabled":true,"region":"eu","cc":"gb","latitude":51.509865,"longitude":-0.118092,"reserved":0,"last_update":"0001-01-01T00:00:00Z","name_a2s":"Uncletopia | London | 4 | All Maps","protocol":17,"map":"koth_viaduct","folder":"tf","game":"Team Fortress","app_id":440,"player_count":0,"max_players":24,"Bots":0,"server_type":"Dedicated","server_os":"Linux","password":true,"vac":true,"version":"7757534","steam_id":85568392924510193,"keywords":["cp","nocrits","nodmgspread","uncletopia"],"game_id":440,"stv_port":27046,"stv_name":"Uncletopia | London | 4 | All Maps | STV","players":null},{"server_id":21,"name":"Uncletopia | London | 5 | All Maps","name_short":"lon-5","host":"lon-1.uk.uncletopia.com","port":27055,"enabled":true,"region":"eu","cc":"gb","latitude":51.509865,"longitude":-0.118092,"reserved":0,"last_update":"0001-01-01T00:00:00Z","name_a2s":"Uncletopia | London | 5 | All Maps","protocol":17,"map":"cp_snakewater_final1","folder":"tf","game":"Team Fortress","app_id":440,"player_count":0,"max_players":24,"Bots":0,"server_type":"Dedicated","server_os":"Linux","password":true,"vac":true,"version":"7757534","steam_id":85568392924742829,"keywords":["cp","nocrits","nodmgspread","uncletopia"],"game_id":440,"stv_port":27056,"stv_name":"Uncletopia | London | 5 | All Maps | STV","players":null},{"server_id":22,"name":"Uncletopia | London | 6 | All Maps","name_short":"lon-6","host":"lon-1.uk.uncletopia.com","port":27065,"enabled":true,"region":"eu","cc":"gb","latitude":51.509865,"longitude":-0.118092,"reserved":0,"last_update":"0001-01-01T00:00:00Z","name_a2s":"Uncletopia | London | 6 | All Maps","protocol":17,"map":"koth_cascade","folder":"tf","game":"Team Fortress","app_id":440,"player_count":0,"max_players":24,"Bots":0,"server_type":"Dedicated","server_os":"Linux","password":true,"vac":true,"version":"7757534","steam_id":85568392924742830,"keywords":["cp","nocrits","nodmgspread","uncletopia"],"game_id":440,"stv_port":27066,"stv_name":"Uncletopia | London | 6 | All Maps | STV","players":null},{"server_id":40,"name":"Uncletopia | London | 7 | No Payload","name_short":"lon-7","host":"lon-1.uk.uncletopia.com","port":27075,"enabled":true,"region":"eu","cc":"gb","latitude":51.509865,"longitude":-0.118092,"reserved":0,"last_update":"0001-01-01T00:00:00Z","name_a2s":"Uncletopia | London | 7 | No Payload","protocol":17,"map":"ctf_2fort","folder":"tf","game":"Team Fortress","app_id":440,"player_count":0,"max_players":24,"Bots":0,"server_type":"Dedicated","server_os":"Linux","password":true,"vac":true,"version":"7757534","steam_id":85568392924964314,"keywords":["ctf","nocrits","nodmgspread","uncletopia"],"game_id":440,"stv_port":27076,"stv_name":"Uncletopia | London | 7 | No Payload | STV","players":null},{"server_id":41,"name":"Uncletopia | London | 8 | Community","name_short":"lon-8","host":"lon-1.uk.uncletopia.com","port":27085,"enabled":true,"region":"eu","cc":"gb","latitude":51.509865,"longitude":-0.118092,"reserved":0,"last_update":"0001-01-01T00:00:00Z","name_a2s":"Uncletopia | London | 8 | Community","protocol":17,"map":"workshop/pl_highwood_b13.ugc1769496557","folder":"tf","game":"Team Fortress","app_id":440,"player_count":0,"max_players":24,"Bots":0,"server_type":"Dedicated","server_os":"Linux","password":true,"vac":true,"version":"7757534","steam_id":85568392924964315,"keywords":["nocrits","nodmgspread","payload","uncletopia"],"game_id":440,"stv_port":27086,"stv_name":"Uncletopia | London | 8 | Community | STV","players":null},{"server_id":300,"name":"Uncletopia | Montréal | 1 | All Maps","name_short":"mtl-1","host":"mtl-1.ca.uncletopia.com","port":27015,"enabled":true,"region":"us-east","cc":"ca","latitude":45.50889,"longitude":-73.56167,"reserved":0,"last_update":"0001-01-01T00:00:00Z","name_a2s":"Uncletopia | Montréal | 1 | All Maps","protocol":17,"map":"koth_lakeside_final","folder":"tf","game":"Team Fortress","app_id":440,"player_count":0,"max_players":24,"Bots":0,"server_type":"Dedicated","server_os":"Linux","password":true,"vac":true,"version":"7757534","steam_id":85568392924500087,"keywords":["cp","nocrits","nodmgspread","uncletopia"],"game_id":440,"stv_port":27016,"stv_name":"Uncletopia | Montréal | 1 | All Maps | STV","players":null},{"server_id":301,"name":"Uncletopia | Montréal | 2 | All Maps","name_short":"mtl-2","host":"mtl-1.ca.uncletopia.com","port":27025,"enabled":true,"region":"us-east","cc":"ca","latitude":45.50889,"longitude":-73.56167,"reserved":0,"last_update":"0001-01-01T00:00:00Z","name_a2s":"Uncletopia | Montréal | 2 | All Maps","protocol":17,"map":"pl_pier","folder":"tf","game":"Team Fortress","app_id":440,"player_count":0,"max_players":24,"Bots":0,"server_type":"Dedicated","server_os":"Linux","password":true,"vac":true,"version":"7757534","steam_id":85568392924500088,"keywords":["nocrits","nodmgspread","payload","uncletopia"],"game_id":440,"stv_port":27026,"stv_name":"Uncletopia | Montréal | 2 | All Maps | STV","players":null},{"server_id":302,"name":"Uncletopia | Montréal | 3 | All Maps","name_short":"mtl-3","host":"mtl-1.ca.uncletopia.com","port":27035,"enabled":true,"region":"us-east","cc":"ca","latitude":45.50889,"longitude":-73.56167,"reserved":0,"last_update":"0001-01-01T00:00:00Z","name_a2s":"Uncletopia | Montréal | 3 | All Maps","protocol":17,"map":"pl_upward","folder":"tf","game":"Team Fortress","app_id":440,"player_count":0,"max_players":24,"Bots":0,"server_type":"Dedicated","server_os":"Linux","password":true,"vac":true,"version":"7757534","steam_id":85568392924500089,"keywords":["nocrits","nodmgspread","payload","uncletopia"],"game_id":440,"stv_port":27036,"stv_name":"Uncletopia | Montréal | 3 | All Maps | STV","players":null},{"server_id":303,"name":"Uncletopia | Montréal | 4 | No Payload","name_short":"mtl-4","host":"mtl-1.ca.uncletopia.com","port":27045,"enabled":true,"region":"us-east","cc":"ca","latitude":45.50889,"longitude":-73.56167,"reserved":0,"last_update":"0001-01-01T00:00:00Z","name_a2s":"Uncletopia | Montréal | 4 | No Payload","protocol":17,"map":"koth_viaduct","folder":"tf","game":"Team Fortress","app_id":440,"player_count":0,"max_players":24,"Bots":0,"server_type":"Dedicated","server_os":"Linux","password":true,"vac":true,"version":"7757534","steam_id":85568392924500090,"keywords":["cp","nocrits","nodmgspread","uncletopia"],"game_id":440,"stv_port":27046,"stv_name":"Uncletopia | Montréal | 4 | No Payload | STV","players":null},{"server_id":13,"name":"Uncletopia | New York City | 1 | All Maps","name_short":"nyc-1","host":"nyc-1.us.uncletopia.com","port":27015,"enabled":true,"region":"us-east","cc":"us","latitude":40.73061,"longitude":-73.93524,"reserved":0,"last_update":"0001-01-01T00:00:00Z","name_a2s":"Uncletopia | New York City | 1 | All Maps","protocol":17,"map":"cp_sunshine","folder":"tf","game":"Team Fortress","app_id":440,"player_count":0,"max_players":24,"Bots":0,"server_type":"Dedicated","server_os":"Linux","password":true,"vac":true,"version":"7757534","steam_id":85568392924469993,"keywords":["cp","nocrits","nodmgspread","uncletopia"],"game_id":440,"stv_port":27016,"stv_name":"Uncletopia | New York City | 1 | All Maps | STV","players":null},{"server_id":14,"name":"Uncletopia | New York City | 2 | All Maps","name_short":"nyc-2","host":"nyc-1.us.uncletopia.com","port":27025,"enabled":true,"region":"us-east","cc":"us","latitude":40.73061,"longitude":-73.93524,"reserved":0,"last_update":"0001-01-01T00:00:00Z","name_a2s":"Uncletopia | New York City | 2 | All Maps","protocol":17,"map":"pl_badwater","folder":"tf","game":"Team Fortress","app_id":440,"player_count":0,"max_players":24,"Bots":0,"server_type":"Dedicated","server_os":"Linux","password":true,"vac":true,"version":"7757534","steam_id":85568392924469994,"keywords":["nocrits","nodmgspread","payload","uncletopia"],"game_id":440,"stv_port":27026,"stv_name":"Uncletopia | New York City | 2 | All Maps | STV","players":null},{"server_id":15,"name":"Uncletopia | New York City | 3 | Stopwatch Beta","name_short":"nyc-3","host":"nyc-1.us.uncletopia.com","port":27035,"enabled":true,"region":"us-east","cc":"us","latitude":40.73061,"longitude":-73.93524,"reserved":0,"last_update":"0001-01-01T00:00:00Z","name_a2s":"Uncletopia | New York City | 3 | Stopwatch Beta","protocol":17,"map":"workshop/koth_ramjam_rc1.ugc459778887","folder":"tf","game":"Team Fortress","app_id":440,"player_count":0,"max_players":24,"Bots":0,"server_type":"Dedicated","server_os":"Linux","password":true,"vac":true,"version":"7757534","steam_id":85568392924742820,"keywords":["cp","nocrits","nodmgspread","uncletopia"],"game_id":440,"stv_port":27036,"stv_name":"Uncletopia | New York City | 3 | Stopwatch Beta | STV","players":null},{"server_id":16,"name":"Uncletopia | New York City | 4 | Community","name_short":"nyc-4","host":"nyc-1.us.uncletopia.com","port":27045,"enabled":true,"region":"us-east","cc":"us","latitude":40.73061,"longitude":-73.93524,"reserved":0,"last_update":"0001-01-01T00:00:00Z","name_a2s":"Uncletopia | New York City | 4 | Community","protocol":17,"map":"workshop/pl_barnblitz_pro7.ugc582280235","folder":"tf","game":"Team Fortress","app_id":440,"player_count":0,"max_players":24,"Bots":0,"server_type":"Dedicated","server_os":"Linux","password":true,"vac":true,"version":"7757534","steam_id":85568392924742821,"keywords":["nocrits","nodmgspread","payload","uncletopia"],"game_id":440,"stv_port":27046,"stv_name":"Uncletopia | New York City | 4 | Community | STV","players":null},{"server_id":142,"name":"Uncletopia | São Paulo | 1 | All Maps","name_short":"sao-1","host":"sao-1.br.uncletopia.com","port":27015,"enabled":true,"region":"sa","cc":"br","latitude":-23.533773,"longitude":-46.62529,"reserved":0,"last_update":"0001-01-01T00:00:00Z","name_a2s":"Uncletopia | São Paulo | 1 | All Maps","protocol":17,"map":"pl_badwater","folder":"tf","game":"Team Fortress","app_id":440,"player_count":0,"max_players":24,"Bots":0,"server_type":"Dedicated","server_os":"Linux","password":true,"vac":true,"version":"7757534","steam_id":85568392924469996,"keywords":["nocrits","nodmgspread","payload","uncletopia"],"game_id":440,"stv_port":27016,"stv_name":"Uncletopia | São Paulo | 1 | All Maps | STV","players":null},{"server_id":143,"name":"Uncletopia | São Paulo | 2 | All Maps","name_short":"sao-2","host":"sao-2.br.uncletopia.com","port":27015,"enabled":true,"region":"sa","cc":"br","latitude":-23.533773,"longitude":-46.62529,"reserved":0,"last_update":"0001-01-01T00:00:00Z","name_a2s":"Uncletopia | São Paulo | 2 | All Maps","protocol":17,"map":"pl_borneo","folder":"tf","game":"Team Fortress","app_id":440,"player_count":0,"max_players":24,"Bots":0,"server_type":"Dedicated","server_os":"Linux","password":true,"vac":true,"version":"7757534","steam_id":85568392924485349,"keywords":["nocrits","nodmgspread","payload","uncletopia"],"game_id":440,"stv_port":27016,"stv_name":"Uncletopia | São Paulo | 2 | All Maps | STV","players":null},{"server_id":7,"name":"Uncletopia | Seattle | 1 | All Maps","name_short":"sea-1","host":"sea-1.us.uncletopia.com","port":27015,"enabled":true,"region":"us-west","cc":"us","latitude":47.608013,"longitude":-122.33517,"reserved":0,"last_update":"0001-01-01T00:00:00Z","name_a2s":"Uncletopia | Seattle | 1 | All Maps","protocol":17,"map":"pl_barnblitz","folder":"tf","game":"Team Fortress","app_id":440,"player_count":24,"max_players":24,"Bots":0,"server_type":"Dedicated","server_os":"Linux","password":true,"vac":true,"version":"7757534","steam_id":85568392924469997,"keywords":["nocrits","nodmgspread","payload","uncletopia"],"game_id":440,"stv_port":27016,"stv_name":"Uncletopia | Seattle | 1 | All Maps | STV","players":[{"user_id":827,"name":"delight","steam_id":76561197980280272,"connected_time":9308000000000,"state":"active","ping":44},{"user_id":883,"name":"Kuma","steam_id":76561199100813140,"connected_time":3460000000000,"state":"active","ping":89},{"user_id":886,"name":"DH","steam_id":76561198199217834,"connected_time":2881000000000,"state":"active","ping":106},{"user_id":887,"name":"p9 Doctor™","steam_id":76561198134309750,"connected_time":2835000000000,"state":"active","ping":97},{"user_id":841,"name":"Florist","steam_id":76561198009121060,"connected_time":7579000000000,"state":"active","ping":40},{"user_id":898,"name":"Rocketface","steam_id":76561198043679540,"connected_time":1361000000000,"state":"active","ping":84},{"user_id":899,"name":"FCKGW-RHQQ2-YXRKT-8TG6W-2B7Q8","steam_id":76561197993138592,"connected_time":1358000000000,"state":"active","ping":46},{"user_id":912,"name":"lavender","steam_id":76561199069518286,"connected_time":313000000000,"state":"active","ping":67},{"user_id":911,"name":"Mozz","steam_id":76561198132892873,"connected_time":625000000000,"state":"active","ping":99},{"user_id":910,"name":"so-and-so","steam_id":76561198325306660,"connected_time":798000000000,"state":"active","ping":50},{"user_id":870,"name":"milfs hmu","steam_id":76561198123477485,"connected_time":4175000000000,"state":"active","ping":75},{"user_id":861,"name":"smeasly","steam_id":76561198028718812,"connected_time":4674000000000,"state":"active","ping":43},{"user_id":900,"name":"LostVoid","steam_id":76561198259983156,"connected_time":1333000000000,"state":"active","ping":63},{"user_id":904,"name":"MG.Z-Blitz","steam_id":76561198028577473,"connected_time":1267000000000,"state":"active","ping":134},{"user_id":890,"name":"profile name","steam_id":76561198032625036,"connected_time":2524000000000,"state":"active","ping":60},{"user_id":902,"name":"teh mummy","steam_id":76561198044123636,"connected_time":1318000000000,"state":"active","ping":61},{"user_id":903,"name":"the bipolar express","steam_id":76561198841587511,"connected_time":1285000000000,"state":"active","ping":127},{"user_id":815,"name":"squash","steam_id":76561198150281353,"connected_time":11963000000000,"state":"active","ping":59},{"user_id":908,"name":"rorywashere /ᐠ - ˕ -マ Ⳋ","steam_id":76561198065825165,"connected_time":978000000000,"state":"active","ping":121},{"user_id":906,"name":"riri ᗜᴗᗜ","steam_id":76561198055462404,"connected_time":1227000000000,"state":"active","ping":74},{"user_id":891,"name":"[TrC] Dackstrus","steam_id":76561197973518509,"connected_time":2276000000000,"state":"active","ping":60},{"user_id":896,"name":"[TrC] Nosy","steam_id":76561197978859310,"connected_time":1796000000000,"state":"active","ping":58},{"user_id":892,"name":"Bryce Gobo","steam_id":76561199411560141,"connected_time":2240000000000,"state":"active","ping":47},{"user_id":836,"name":"grey","steam_id":76561198050618142,"connected_time":8597000000000,"state":"active","ping":50}]},{"server_id":119,"name":"Uncletopia | Seattle | 2 | All Maps","name_short":"sea-2","host":"sea-1.us.uncletopia.com","port":27025,"enabled":true,"region":"us-west","cc":"us","latitude":47.608013,"longitude":-122.33517,"reserved":0,"last_update":"0001-01-01T00:00:00Z","name_a2s":"Uncletopia | Seattle | 2 | All Maps","protocol":17,"map":"pl_barnblitz","folder":"tf","game":"Team Fortress","app_id":440,"player_count":2,"max_players":24,"Bots":0,"server_type":"Dedicated","server_os":"Linux","password":true,"vac":true,"version":"7757534","steam_id":85568392924469998,"keywords":["nocrits","nodmgspread","payload","uncletopia"],"game_id":440,"stv_port":27026,"stv_name":"Uncletopia | Seattle | 2 | All Maps | STV","players":[{"user_id":787,"name":"too funky ᗜˬᗜ","steam_id":76561199120399776,"connected_time":7268000000000,"state":"active","ping":65},{"user_id":869,"name":"bruxing and boggling","steam_id":76561198204169516,"connected_time":3413000000000,"state":"active","ping":87}]},{"server_id":406,"name":"Uncletopia | Seattle | 3 | Stopwatch Beta","name_short":"sea-3","host":"sea-1.us.uncletopia.com","port":27035,"enabled":true,"region":"us-west","cc":"us","latitude":47.608013,"longitude":-122.33517,"reserved":0,"last_update":"0001-01-01T00:00:00Z","name_a2s":"Uncletopia | Seattle | 3 | Stopwatch Beta","protocol":17,"map":"workshop/koth_product_final.ugc454272353","folder":"tf","game":"Team Fortress","app_id":440,"player_count":0,"max_players":24,"Bots":0,"server_type":"Dedicated","server_os":"Linux","password":true,"vac":true,"version":"7757534","steam_id":85568392924515217,"keywords":["cp","nocrits","nodmgspread","uncletopia"],"game_id":440,"stv_port":27036,"stv_name":"Uncletopia | Seattle | 3 | Stopwatch Beta | STV","players":null},{"server_id":17,"name":"Uncletopia | San Francisco | 1 | All Maps","name_short":"sfo-1","host":"sfo-1.us.uncletopia.com","port":27015,"enabled":true,"region":"us-west","cc":"us","latitude":37.77397,"longitude":-122.4313,"reserved":0,"last_update":"0001-01-01T00:00:00Z","name_a2s":"Uncletopia | San Francisco | 1 | All Maps","protocol":17,"map":"koth_cascade","folder":"tf","game":"Team Fortress","app_id":440,"player_count":0,"max_players":24,"Bots":0,"server_type":"Dedicated","server_os":"Linux","password":true,"vac":true,"version":"7757534","steam_id":85568392924469999,"keywords":["cp","nocrits","nodmgspread","uncletopia"],"game_id":440,"stv_port":27016,"stv_name":"Uncletopia | San Francisco | 1 | All Maps | STV","players":null},{"server_id":18,"name":"Uncletopia | San Francisco | 2 | All Maps","name_short":"sfo-2","host":"sfo-1.us.uncletopia.com","port":27025,"enabled":true,"region":"us-west","cc":"us","latitude":37.77397,"longitude":-122.4313,"reserved":0,"last_update":"0001-01-01T00:00:00Z","name_a2s":"Uncletopia | San Francisco | 2 | All Maps","protocol":17,"map":"cp_process_final","folder":"tf","game":"Team Fortress","app_id":440,"player_count":0,"max_players":24,"Bots":0,"server_type":"Dedicated","server_os":"Linux","password":true,"vac":true,"version":"7757534","steam_id":85568392924470000,"keywords":["cp","nocrits","nodmgspread","uncletopia"],"game_id":440,"stv_port":27026,"stv_name":"Uncletopia | San Francisco | 2 | All Maps | STV","players":null},{"server_id":19,"name":"Uncletopia | San Francisco | 3 | Stopwatch Beta","name_short":"sfo-3","host":"sfo-1.us.uncletopia.com","port":27035,"enabled":true,"region":"us-west","cc":"us","latitude":37.77397,"longitude":-122.4313,"reserved":0,"last_update":"0001-01-01T00:00:00Z","name_a2s":"Uncletopia | San Francisco | 3 | Stopwatch Beta","protocol":17,"map":"pl_borneo","folder":"tf","game":"Team Fortress","app_id":440,"player_count":0,"max_players":24,"Bots":0,"server_type":"Dedicated","server_os":"Linux","password":true,"vac":true,"version":"7757534","steam_id":85568392924742824,"keywords":["nocrits","nodmgspread","payload","uncletopia"],"game_id":440,"stv_port":27036,"stv_name":"Uncletopia | San Francisco | 3 | Stopwatch Beta | STV","players":null},{"server_id":20,"name":"Uncletopia | San Francisco | 4 | Community","name_short":"sfo-4","host":"sfo-1.us.uncletopia.com","port":27045,"enabled":true,"region":"us-west","cc":"us","latitude":37.77397,"longitude":-122.4313,"reserved":0,"last_update":"0001-01-01T00:00:00Z","name_a2s":"Uncletopia | San Francisco | 4 | Community","protocol":17,"map":"workshop/koth_bagel_rc5.ugc2514036946","folder":"tf","game":"Team Fortress","app_id":440,"player_count":0,"max_players":24,"Bots":0,"server_type":"Dedicated","server_os":"Linux","password":true,"vac":true,"version":"7757534","steam_id":85568392924742826,"keywords":["cp","nocrits","nodmgspread","uncletopia"],"game_id":440,"stv_port":27046,"stv_name":"Uncletopia | San Francisco | 4 | Community | STV","players":null},{"server_id":141,"name":"Uncletopia | Sydney | 1 | All Maps","name_short":"syd-1","host":"syd-1.au.uncletopia.com","port":27015,"enabled":true,"region":"au","cc":"au","latitude":-33.865143,"longitude":151.2099,"reserved":0,"last_update":"0001-01-01T00:00:00Z","name_a2s":"Uncletopia | Sydney | 1 | All Maps","protocol":17,"map":"pl_barnblitz","folder":"tf","game":"Team Fortress","app_id":440,"player_count":22,"max_players":24,"Bots":0,"server_type":"Dedicated","server_os":"Linux","password":true,"vac":true,"version":"7757534","steam_id":85568392924470001,"keywords":["nocrits","nodmgspread","payload","uncletopia"],"game_id":440,"stv_port":27016,"stv_name":"Uncletopia | Sydney | 1 | All Maps | STV","players":[{"user_id":488,"name":"certified disciple of Allah","steam_id":76561199205171109,"connected_time":1679000000000,"state":"active","ping":69},{"user_id":480,"name":"SinisterMagnus","steam_id":76561198133867907,"connected_time":2755000000000,"state":"active","ping":67},{"user_id":435,"name":"Fresh Produce Gaming","steam_id":76561198358483352,"connected_time":5916000000000,"state":"active","ping":106},{"user_id":494,"name":"Fuzz","steam_id":76561198063077180,"connected_time":1195000000000,"state":"active","ping":47},{"user_id":482,"name":"blortzoing","steam_id":76561198063481761,"connected_time":2597000000000,"state":"active","ping":45},{"user_id":511,"name":"Halla875","steam_id":76561198371206561,"connected_time":242000000000,"state":"active","ping":66},{"user_id":505,"name":"WinterPizza850","steam_id":76561199043352840,"connected_time":489000000000,"state":"active","ping":84},{"user_id":475,"name":"Mac","steam_id":76561198063407128,"connected_time":3285000000000,"state":"active","ping":47},{"user_id":513,"name":"The Bisoneer TF2","steam_id":76561199446773766,"connected_time":174000000000,"state":"active","ping":85},{"user_id":498,"name":"pablo.rodriguez.2015","steam_id":76561198166909147,"connected_time":916000000000,"state":"active","ping":37},{"user_id":501,"name":"Tenous","steam_id":76561198143631024,"connected_time":777000000000,"state":"active","ping":60},{"user_id":358,"name":"saudi ambassador messi","steam_id":76561198031293430,"connected_time":11079000000000,"state":"active","ping":86},{"user_id":508,"name":"Butcher Pete","steam_id":76561198137335569,"connected_time":361000000000,"state":"active","ping":59},{"user_id":499,"name":"Barry Bougar M.D.","steam_id":76561198301282416,"connected_time":859000000000,"state":"active","ping":67},{"user_id":422,"name":"jim :)","steam_id":76561198127508905,"connected_time":6540000000000,"state":"active","ping":42},{"user_id":447,"name":"CypressFluff (She/Her)","steam_id":76561198174667818,"connected_time":4923000000000,"state":"active","ping":62},{"user_id":317,"name":"Tantei Rotana","steam_id":76561198041204323,"connected_time":15900000000000,"state":"active","ping":62},{"user_id":464,"name":"LightningBlock","steam_id":76561198289997742,"connected_time":3618000000000,"state":"active","ping":30},{"user_id":428,"name":"Vortex Morez","steam_id":76561198833527091,"connected_time":6225000000000,"state":"active","ping":151},{"user_id":461,"name":"freek","steam_id":76561198406237673,"connected_time":3745000000000,"state":"active","ping":58},{"user_id":503,"name":"Wolf","steam_id":76561198067256350,"connected_time":608000000000,"state":"active","ping":58},{"user_id":509,"name":"had  ever","steam_id":76561198165731344,"connected_time":342000000000,"state":"active","ping":69}]},{"server_id":123,"name":"Uncletopia | Sydney | 2 | All Maps","name_short":"syd-2","host":"syd-1.au.uncletopia.com","port":27025,"enabled":true,"region":"au","cc":"au","latitude":-33.865143,"longitude":151.2099,"reserved":0,"last_update":"0001-01-01T00:00:00Z","name_a2s":"Uncletopia | Sydney | 2 | All Maps","protocol":17,"map":"pl_badwater","folder":"tf","game":"Team Fortress","app_id":440,"player_count":24,"max_players":24,"Bots":0,"server_type":"Dedicated","server_os":"Linux","password":true,"vac":true,"version":"7757534","steam_id":85568392924470002,"keywords":["nocrits","nodmgspread","payload","uncletopia"],"game_id":440,"stv_port":27026,"stv_name":"Uncletopia | Sydney | 2 | All Maps | STV","players":[{"user_id":284,"name":"Oysenberry","steam_id":76561198125443335,"connected_time":149000000000,"state":"active","ping":41},{"user_id":239,"name":"Cheeseluvr","steam_id":76561198095940638,"connected_time":2128000000000,"state":"active","ping":65},{"user_id":285,"name":"SassnCheeky","steam_id":76561197993875592,"connected_time":22000000000,"state":"active","ping":61},{"user_id":264,"name":"SoundlessPlum","steam_id":76561198077872547,"connected_time":884000000000,"state":"active","ping":53},{"user_id":281,"name":"Abraham Lincoln","steam_id":76561198095292515,"connected_time":270000000000,"state":"active","ping":75},{"user_id":255,"name":"wombraider","steam_id":76561199375834537,"connected_time":1654000000000,"state":"active","ping":131},{"user_id":280,"name":"Soldier of Allah","steam_id":76561199262196710,"connected_time":301000000000,"state":"active","ping":42},{"user_id":272,"name":"steame17","steam_id":76561199387872784,"connected_time":524000000000,"state":"active","ping":175},{"user_id":148,"name":"until yawn","steam_id":76561198170693338,"connected_time":7525000000000,"state":"active","ping":84},{"user_id":185,"name":"Robert Feigen","steam_id":76561198038261903,"connected_time":5772000000000,"state":"active","ping":45},{"user_id":222,"name":"Apteryx","steam_id":76561197976460834,"connected_time":2812000000000,"state":"active","ping":61},{"user_id":235,"name":"Raypest","steam_id":76561197980678745,"connected_time":2416000000000,"state":"active","ping":35},{"user_id":256,"name":"SkoKiE","steam_id":76561198283542986,"connected_time":1505000000000,"state":"active","ping":71},{"user_id":283,"name":"Dabloon","steam_id":76561198115876475,"connected_time":217000000000,"state":"active","ping":57},{"user_id":275,"name":"twinheads1","steam_id":76561198369386915,"connected_time":511000000000,"state":"active","ping":79},{"user_id":231,"name":"humph","steam_id":76561198083730533,"connected_time":2604000000000,"state":"active","ping":55},{"user_id":278,"name":"Lincoln2603","steam_id":76561198170236666,"connected_time":444000000000,"state":"active","ping":38},{"user_id":282,"name":"alex","steam_id":76561198053382248,"connected_time":231000000000,"state":"active","ping":45},{"user_id":276,"name":"ginemenasaurus","steam_id":76561198025225448,"connected_time":504000000000,"state":"active","ping":77},{"user_id":270,"name":"CouldBeKarlos","steam_id":76561198956180767,"connected_time":724000000000,"state":"active","ping":55},{"user_id":262,"name":"Corrupt","steam_id":76561198008567328,"connected_time":959000000000,"state":"active","ping":112},{"user_id":268,"name":"zzzzzzz","steam_id":76561198066726621,"connected_time":784000000000,"state":"active","ping":56},{"user_id":277,"name":"세 번째의 눈을 떠","steam_id":76561198027629227,"connected_time":468000000000,"state":"active","ping":44},{"user_id":251,"name":"dinxie","steam_id":76561199448765541,"connected_time":1830000000000,"state":"active","ping":81}]},{"server_id":395,"name":"Uncletopia | Sydney | 3 | All Maps","name_short":"syd-3","host":"syd-1.au.uncletopia.com","port":27035,"enabled":true,"region":"au","cc":"au","latitude":-33.865143,"longitude":151.2099,"reserved":0,"last_update":"0001-01-01T00:00:00Z","name_a2s":"Uncletopia | Sydney | 3 | All Maps","protocol":17,"map":"pl_badwater","folder":"tf","game":"Team Fortress","app_id":440,"player_count":1,"max_players":24,"Bots":0,"server_type":"Dedicated","server_os":"Linux","password":true,"vac":true,"version":"7757534","steam_id":85568392925194467,"keywords":["nocrits","nodmgspread","payload","uncletopia"],"game_id":440,"stv_port":27036,"stv_name":"Uncletopia | Sydney | 3 | All Maps | STV","players":[{"user_id":14,"name":"floop flub","steam_id":76561198418968979,"connected_time":151000000000,"state":"active","ping":100}]},{"server_id":396,"name":"Uncletopia | Sydney | 4 | All Maps","name_short":"syd-4","host":"syd-1.au.uncletopia.com","port":27045,"enabled":true,"region":"au","cc":"au","latitude":-33.865143,"longitude":151.2099,"reserved":0,"last_update":"0001-01-01T00:00:00Z","name_a2s":"Uncletopia | Sydney | 4 | All Maps","protocol":17,"map":"koth_viaduct","folder":"tf","game":"Team Fortress","app_id":440,"player_count":0,"max_players":24,"Bots":0,"server_type":"Dedicated","server_os":"Linux","password":true,"vac":true,"version":"7757534","steam_id":85568392925397958,"keywords":["cp","nocrits","nodmgspread","uncletopia"],"game_id":440,"stv_port":27046,"stv_name":"Uncletopia | Sydney | 4 | All Maps | STV","players":null},{"server_id":58,"name":"Uncletopia | Sydney | 5 | Stopwatch Beta","name_short":"syd-5","host":"syd-1.au.uncletopia.com","port":27055,"enabled":true,"region":"au","cc":"au","latitude":-33.865143,"longitude":151.2099,"reserved":0,"last_update":"0001-01-01T00:00:00Z","name_a2s":"Uncletopia | Sydney | 5 | Stopwatch Beta","protocol":17,"map":"workshop/koth_ramjam_rc1.ugc459778887","folder":"tf","game":"Team Fortress","app_id":440,"player_count":0,"max_players":24,"Bots":0,"server_type":"Dedicated","server_os":"Linux","password":true,"vac":true,"version":"7757534","steam_id":85568392925397959,"keywords":["cp","nocrits","nodmgspread","uncletopia"],"game_id":440,"stv_port":27056,"stv_name":"Uncletopia | Sydney | 5 | Stopwatch Beta | STV","players":null},{"server_id":59,"name":"Uncletopia | Sydney | 6 | Community","name_short":"syd-6","host":"syd-1.au.uncletopia.com","port":27065,"enabled":true,"region":"au","cc":"au","latitude":-33.865143,"longitude":151.2099,"reserved":0,"last_update":"0001-01-01T00:00:00Z","name_a2s":"Uncletopia | Sydney | 6 | Community","protocol":17,"map":"cp_sunshine","folder":"tf","game":"Team Fortress","app_id":440,"player_count":0,"max_players":24,"Bots":0,"server_type":"Dedicated","server_os":"Linux","password":true,"vac":true,"version":"7757534","steam_id":85568392925397960,"keywords":["cp","nocrits","nodmgspread","uncletopia"],"game_id":440,"stv_port":27066,"stv_name":"Uncletopia | Sydney | 6 | Community | STV","players":null},{"server_id":49,"name":"Uncletopia | Warsaw | 1 | All Maps","name_short":"waw-1","host":"waw-1.pl.uncletopia.com","port":27015,"enabled":true,"region":"eu","cc":"pl","latitude":52.2297,"longitude":21.017532,"reserved":0,"last_update":"0001-01-01T00:00:00Z","name_a2s":"","protocol":0,"map":"","folder":"","game":"","app_id":0,"player_count":0,"max_players":0,"Bots":0,"server_type":"","server_os":"","password":false,"vac":false,"version":"","steam_id":0,"keywords":null,"game_id":0,"stv_port":0,"stv_name":"","players":null},{"server_id":50,"name":"Uncletopia | Warsaw | 2 | All Maps","name_short":"waw-2","host":"waw-1.pl.uncletopia.com","port":27025,"enabled":true,"region":"eu","cc":"pl","latitude":52.2297,"longitude":21.017532,"reserved":0,"last_update":"0001-01-01T00:00:00Z","name_a2s":"Uncletopia | Warsaw | 2 | All Maps","protocol":17,"map":"cp_sunshine","folder":"tf","game":"Team Fortress","app_id":440,"player_count":0,"max_players":24,"Bots":0,"server_type":"Dedicated","server_os":"Linux","password":true,"vac":true,"version":"7757534","steam_id":85568392925397851,"keywords":["cp","nocrits","nodmgspread","uncletopia"],"game_id":440,"stv_port":27026,"stv_name":"Uncletopia | Warsaw | 2 | All Maps | STV","players":null},{"server_id":51,"name":"Uncletopia | Warsaw | 3 | All Maps","name_short":"waw-3","host":"waw-1.pl.uncletopia.com","port":27035,"enabled":true,"region":"eu","cc":"pl","latitude":52.2297,"longitude":21.017532,"reserved":0,"last_update":"0001-01-01T00:00:00Z","name_a2s":"Uncletopia | Warsaw | 3 | All Maps","protocol":17,"map":"pl_barnblitz","folder":"tf","game":"Team Fortress","app_id":440,"player_count":0,"max_players":24,"Bots":0,"server_type":"Dedicated","server_os":"Linux","password":true,"vac":true,"version":"7757534","steam_id":85568392925397852,"keywords":["nocrits","nodmgspread","payload","uncletopia"],"game_id":440,"stv_port":27036,"stv_name":"Uncletopia | Warsaw | 3 | All Maps | STV","players":null},{"server_id":52,"name":"Uncletopia | Warsaw | 4 | All Maps","name_short":"waw-4","host":"waw-1.pl.uncletopia.com","port":27045,"enabled":true,"region":"eu","cc":"pl","latitude":52.2297,"longitude":21.017532,"reserved":0,"last_update":"0001-01-01T00:00:00Z","name_a2s":"Uncletopia | Warsaw | 4 | All Maps","protocol":17,"map":"pl_snowycoast","folder":"tf","game":"Team Fortress","app_id":440,"player_count":0,"max_players":24,"Bots":0,"server_type":"Dedicated","server_os":"Linux","password":true,"vac":true,"version":"7757534","steam_id":85568392925397853,"keywords":["nocrits","nodmgspread","payload","uncletopia"],"game_id":440,"stv_port":27046,"stv_name":"Uncletopia | Warsaw | 4 | All Maps | STV","players":null},{"server_id":53,"name":"Uncletopia | Warsaw | 5 | Stopwatch Beta","name_short":"waw-5","host":"waw-1.pl.uncletopia.com","port":27055,"enabled":true,"region":"eu","cc":"pl","latitude":52.2297,"longitude":21.017532,"reserved":0,"last_update":"0001-01-01T00:00:00Z","name_a2s":"Uncletopia | Warsaw | 5 | Stopwatch Beta","protocol":17,"map":"pl_barnblitz","folder":"tf","game":"Team Fortress","app_id":440,"player_count":0,"max_players":24,"Bots":0,"server_type":"Dedicated","server_os":"Linux","password":true,"vac":true,"version":"7757534","steam_id":85568392925397854,"keywords":["nocrits","nodmgspread","payload","uncletopia"],"game_id":440,"stv_port":27056,"stv_name":"Uncletopia | Warsaw | 5 | Stopwatch Beta | STV","players":null},{"server_id":54,"name":"Uncletopia | Warsaw | 6 | Community","name_short":"waw-6","host":"waw-1.pl.uncletopia.com","port":27065,"enabled":true,"region":"eu","cc":"pl","latitude":52.2297,"longitude":21.017532,"reserved":0,"last_update":"0001-01-01T00:00:00Z","name_a2s":"Uncletopia | Warsaw | 6 | Community","protocol":17,"map":"pl_swiftwater_final1","folder":"tf","game":"Team Fortress","app_id":440,"player_count":0,"max_players":24,"Bots":0,"server_type":"Dedicated","server_os":"Linux","password":true,"vac":true,"version":"7757534","steam_id":85568392925397856,"keywords":["nocrits","nodmgspread","payload","uncletopia"],"game_id":440,"stv_port":27066,"stv_name":"Uncletopia | Warsaw | 6 | Community | STV","players":null}]}