{"status":true,"message":"","result":[{"server_id":9,"name":"Uncletopia | Atlanta | 1 | All Maps","name_short":"atl-1","host":"atl-1.us.uncletopia.com","port":27015,"enabled":true,"region":"us-east","cc":"us","latitude":33.753746,"longitude":-84.38633,"reserved":0,"last_update":"0001-01-01T00:00:00Z","name_a2s":"Uncletopia | Atlanta | 1 | All Maps","protocol":17,"map":"pl_barnblitz","folder":"tf","game":"Team Fortress","app_id":440,"player_count":24,"max_players":24,"Bots":0,"server_type":"Dedicated","server_os":"Linux","password":true,"vac":true,"version":"7695204","steam_id":85568392924469982,"keywords":["nocrits","nodmgspread","payload","uncletopia"],"game_id":440,"stv_port":27016,"stv_name":"Uncletopia | Atlanta | 1 | All Maps | STV","players":[{"user_id":124,"name":"üå∏Redüå∏","steam_id":76561198037346199,"connected_time":927000000000,"state":"active","ping":149},{"user_id":106,"name":"The Land Admiral","steam_id":76561198159356609,"connected_time":1766000000000,"state":"active","ping":68},{"user_id":132,"name":"Mr.Indian Jokar","steam_id":76561198381343086,"connected_time":455000000000,"state":"active","ping":104},{"user_id":126,"name":"bungtheshikigami","steam_id":76561198253198503,"connected_time":854000000000,"state":"active","ping":41},{"user_id":17,"name":"Jin Gulilo","steam_id":76561198065151242,"connected_time":6539000000000,"state":"active","ping":69},{"user_id":121,"name":"iHateOverwatchiLoveTf2","steam_id":76561198081617990,"connected_time":1244000000000,"state":"active","ping":108},{"user_id":137,"name":"sys","steam_id":76561198300912581,"connected_time":386000000000,"state":"active","ping":60},{"user_id":101,"name":"xyt0nix","steam_id":76561199437938235,"connected_time":2131000000000,"state":"active","ping":49},{"user_id":131,"name":"Takumi Fujiwara","steam_id":76561198146281101,"connected_time":472000000000,"state":"active","ping":76},{"user_id":136,"name":"Greg","steam_id":76561198299543780,"connected_time":414000000000,"state":"active","ping":135},{"user_id":123,"name":"citrus","steam_id":76561198294606679,"connected_time":1183000000000,"state":"active","ping":90},{"user_id":109,"name":"greydog","steam_id":76561198165934551,"connected_time":1513000000000,"state":"active","ping":61},{"user_id":107,"name":"Huge eevee fan","steam_id":76561198128057732,"connected_time":1745000000000,"state":"active","ping":110},{"user_id":99,"name":"Cresant Ape","steam_id":76561198127425559,"connected_time":2407000000000,"state":"active","ping":59},{"user_id":70,"name":"Luucyf3r","steam_id":76561198141820085,"connected_time":3910000000000,"state":"active","ping":58},{"user_id":67,"name":"Eightyy  Fourr","steam_id":76561197960374225,"connected_time":4054000000000,"state":"active","ping":74},{"user_id":128,"name":"frid","steam_id":76561198005806915,"connected_time":569000000000,"state":"active","ping":83},{"user_id":119,"name":"sansa musa","steam_id":76561198163723555,"connected_time":1442000000000,"state":"active","ping":74},{"user_id":129,"name":"xanny_xorido","steam_id":76561198288202783,"connected_time":483000000000,"state":"active","ping":58},{"user_id":135,"name":"Clint is wood","steam_id":76561198078798799,"connected_time":418000000000,"state":"active","ping":152},{"user_id":94,"name":"passa passa","steam_id":76561199238923581,"connected_time":2830000000000,"state":"active","ping":109},{"user_id":130,"name":"DMM","steam_id":76561198065426171,"connected_time":474000000000,"state":"active","ping":67},{"user_id":51,"name":"JustSomeInternetGuy","steam_id":76561199066037843,"connected_time":5005000000000,"state":"active","ping":78},{"user_id":134,"name":"i will defenestrate your skull","steam_id":76561198067994868,"connected_time":439000000000,"state":"active","ping":87}]},{"server_id":400,"name":"Uncletopia | Atlanta | 3 | All Maps","name_short":"atl-3","host":"atl-1.us.uncletopia.com","port":27035,"enabled":true,"region":"us-east","cc":"us","latitude":33.753746,"longitude":-84.38633,"reserved":0,"last_update":"0001-01-01T00:00:00Z","name_a2s":"Uncletopia | Atlanta | 3 | All Maps","protocol":17,"map":"pl_frontier_final","folder":"tf","game":"Team Fortress","app_id":440,"player_count":0,"max_players":24,"Bots":0,"server_type":"Dedicated","server_os":"Linux","password":true,"vac":true,"version":"7695204","steam_id":85568392924515187,"keywords":["nocrits","nodmgspread","payload","uncletopia"],"game_id":440,"stv_port":0,"stv_name":"","players":null},{"server_id":401,"name":"Uncletopia | Atlanta | 4 | No Payload","name_short":"atl-4","host":"atl-1.us.uncletopia.com","port":27045,"enabled":true,"region":"us-east","cc":"us","latitude":33.753746,"longitude":-84.38633,"reserved":0,"last_update":"0001-01-01T00:00:00Z","name_a2s":"Uncletopia | Atlanta | 4 | No Payload","protocol":17,"map":"cp_snakewater_final1","folder":"tf","game":"Team Fortress","app_id":440,"player_count":0,"max_players":24,"Bots":0,"server_type":"Dedicated","server_os":"Linux","password":true,"vac":true,"version":"7695204","steam_id":85568392924515188,"keywords":["cp","nocrits","nodmgspread","uncletopia"],"game_id":440,"stv_port":0,"stv_name":"","players":null},{"server_id":2,"name":"Uncletopia | Chicago | 1 | All Maps","name_short":"chi-1","host":"chi-1.us.uncletopia.com","port":27015,"enabled":true,"region":"us-central","cc":"us","latitude":41.881832,"longitude":-87.62318,"reserved":0,"last_update":"0001-01-01T00:00:00Z","name_a2s":"Uncletopia | Chicago | 1 | All Maps","protocol":17,"map":"pl_badwater","folder":"tf","game":"Team Fortress","app_id":440,"player_count":24,"max_players":24,"Bots":0,"server_type":"Dedicated","server_os":"Linux","password":true,"vac":true,"version":"7695204","steam_id":85568392924469984,"keywords":["nocrits","nodmgspread","payload","uncletopia"],"game_id":440,"stv_port":27016,"stv_name":"Uncletopia | Chicago | 1 | All Maps | STV","players":[{"user_id":300,"name":"Tpoyo","steam_id":76561198049951724,"connected_time":2057000000000,"state":"active","ping":62},{"user_id":305,"name":"Austone64","steam_id":76561199067218272,"connected_time":1189000000000,"state":"active","ping":59},{"user_id":307,"name":"defs98","steam_id":76561198134813102,"connected_time":1134000000000,"state":"active","ping":56},{"user_id":282,"name":"The Potato Romancer","steam_id":76561198204197648,"connected_time":2850000000000,"state":"active","ping":94},{"user_id":306,"name":"Local","steam_id":76561198170915102,"connected_time":1187000000000,"state":"active","ping":74},{"user_id":276,"name":"SumrandomS","steam_id":76561199208168857,"connected_time":3412000000000,"state":"active","ping":102},{"user_id":311,"name":"No Binary","steam_id":76561198835593895,"connected_time":784000000000,"state":"active","ping":60},{"user_id":304,"name":"Femboy apparently","steam_id":76561198426986425,"connected_time":1281000000000,"state":"active","ping":163},{"user_id":270,"name":"O PANA","steam_id":76561198129682583,"connected_time":3622000000000,"state":"active","ping":62},{"user_id":292,"name":"MineAGK","steam_id":76561198128372943,"connected_time":2455000000000,"state":"active","ping":79},{"user_id":275,"name":"CAdaverOusPRophet","steam_id":76561198045304110,"connected_time":3484000000000,"state":"active","ping":46},{"user_id":308,"name":"Cloudtrotter","steam_id":76561198141975528,"connected_time":1130000000000,"state":"active","ping":54},{"user_id":287,"name":"mrs. business","steam_id":76561198025454291,"connected_time":2652000000000,"state":"active","ping":78},{"user_id":264,"name":"A tree","steam_id":76561198309065247,"connected_time":3925000000000,"state":"active","ping":68},{"user_id":256,"name":"Greencoffee","steam_id":76561198842090589,"connected_time":4633000000000,"state":"active","ping":151},{"user_id":283,"name":"Dajer","steam_id":76561198321675742,"connected_time":2689000000000,"state":"active","ping":76},{"user_id":301,"name":"Sasha Vandal (YT)","steam_id":76561198063448831,"connected_time":2039000000000,"state":"active","ping":84},{"user_id":314,"name":"SirJellyRolls","steam_id":76561198119277244,"connected_time":151000000000,"state":"active","ping":66},{"user_id":302,"name":"idiot","steam_id":76561198270926835,"connected_time":2028000000000,"state":"active","ping":96},{"user_id":259,"name":"Ogre Tele Co","steam_id":76561198041909269,"connected_time":4130000000000,"state":"active","ping":92},{"user_id":312,"name":"Cecil","steam_id":76561199309028776,"connected_time":624000000000,"state":"active","ping":70},{"user_id":257,"name":"Tyler\u0026Fingers","steam_id":76561198085154485,"connected_time":4617000000000,"state":"active","ping":76},{"user_id":244,"name":"Drakon","steam_id":76561198078210822,"connected_time":4881000000000,"state":"active","ping":113},{"user_id":310,"name":"‚í∑‚ì™‚ì™‚ì£‚ì®‚ìí‚ìê‚ìö‚ìî‚ì¢","steam_id":76561198088776421,"connected_time":1107000000000,"state":"active","ping":72}]},{"server_id":106,"name":"Uncletopia | Chicago | 2 | All Maps","name_short":"chi-2","host":"chi-1.us.uncletopia.com","port":27025,"enabled":true,"region":"us-central","cc":"us","latitude":41.881832,"longitude":-87.62318,"reserved":0,"last_update":"0001-01-01T00:00:00Z","name_a2s":"Uncletopia | Chicago | 2 | All Maps","protocol":17,"map":"pl_goldrush","folder":"tf","game":"Team Fortress","app_id":440,"player_count":24,"max_players":24,"Bots":0,"server_type":"Dedicated","server_os":"Linux","password":true,"vac":true,"version":"7695204","steam_id":85568392924469985,"keywords":["nocrits","nodmgspread","payload","uncletopia"],"game_id":440,"stv_port":27026,"stv_name":"Uncletopia | Chicago | 2 | All Maps | STV","players":[{"user_id":218,"name":"[dB]BONG","steam_id":76561198199344313,"connected_time":1917000000000,"state":"active","ping":132},{"user_id":240,"name":"Timmura","steam_id":76561199050084290,"connected_time":225000000000,"state":"active","ping":78},{"user_id":223,"name":"lexusbechus","steam_id":76561198087403668,"connected_time":1657000000000,"state":"active","ping":103},{"user_id":229,"name":"the12xu","steam_id":76561198197086561,"connected_time":1227000000000,"state":"active","ping":59},{"user_id":226,"name":"voidpuppy","steam_id":76561198799922000,"connected_time":1505000000000,"state":"active","ping":105},{"user_id":214,"name":"stewfat","steam_id":76561198084066964,"connected_time":2148000000000,"state":"active","ping":61},{"user_id":225,"name":"Unfunny","steam_id":76561198336411847,"connected_time":1554000000000,"state":"active","ping":66},{"user_id":236,"name":"bdkaine1","steam_id":76561198133545467,"connected_time":425000000000,"state":"active","ping":66},{"user_id":235,"name":"SketchERRR","steam_id":76561198045994572,"connected_time":471000000000,"state":"active","ping":72},{"user_id":157,"name":"id rather you not","steam_id":76561198161824724,"connected_time":6325000000000,"state":"active","ping":76},{"user_id":152,"name":"Rornir","steam_id":76561198081829615,"connected_time":6679000000000,"state":"active","ping":42},{"user_id":231,"name":"Ginger Powder","steam_id":76561198082650449,"connected_time":1074000000000,"state":"active","ping":60},{"user_id":221,"name":"Goku‚Ñ¢ From Disney¬©","steam_id":76561198015327152,"connected_time":1873000000000,"state":"active","ping":65},{"user_id":204,"name":"[„èà] Pup de la Babe","steam_id":76561199170203468,"connected_time":3122000000000,"state":"active","ping":75},{"user_id":165,"name":"Fiammetta","steam_id":76561198044183173,"connected_time":5074000000000,"state":"active","ping":68},{"user_id":196,"name":"ScornfulVeil","steam_id":76561199177642251,"connected_time":3456000000000,"state":"active","ping":77},{"user_id":209,"name":"[„èà] Bumpercars","steam_id":76561198061591743,"connected_time":2585000000000,"state":"active","ping":68},{"user_id":230,"name":"CHIPS","steam_id":76561199085414584,"connected_time":1197000000000,"state":"active","ping":67},{"user_id":234,"name":"StroopDoop","steam_id":76561198045654000,"connected_time":640000000000,"state":"active","ping":84},{"user_id":239,"name":"Ok","steam_id":76561198356826506,"connected_time":319000000000,"state":"active","ping":167},{"user_id":238,"name":"t","steam_id":76561198175988929,"connected_time":346000000000,"state":"active","ping":83},{"user_id":222,"name":"‚ô´ kobold ‚ô´","steam_id":76561198038330881,"connected_time":1870000000000,"state":"active","ping":55},{"user_id":208,"name":"Chol","steam_id":76561198122054259,"connected_time":2872000000000,"state":"active","ping":75},{"user_id":237,"name":"toph","steam_id":76561197987782351,"connected_time":407000000000,"state":"active","ping":83}]},{"server_id":402,"name":"Uncletopia | Chicago | 3 | All Maps","name_short":"chi-3","host":"chi-1.us.uncletopia.com","port":27035,"enabled":true,"region":"us-central","cc":"us","latitude":41.881832,"longitude":-87.62318,"reserved":0,"last_update":"0001-01-01T00:00:00Z","name_a2s":"Uncletopia | Chicago | 3 | All Maps","protocol":17,"map":"cp_mountainlab","folder":"tf","game":"Team Fortress","app_id":440,"player_count":0,"max_players":24,"Bots":0,"server_type":"Dedicated","server_os":"Linux","password":true,"vac":true,"version":"7695204","steam_id":85568392924515191,"keywords":["cp","nocrits","nodmgspread","uncletopia"],"game_id":440,"stv_port":27036,"stv_name":"Uncletopia | Chicago | 3 | All Maps | STV","players":null},{"server_id":403,"name":"Uncletopia | Chicago | 4 | All Maps","name_short":"chi-4","host":"chi-1.us.uncletopia.com","port":27045,"enabled":true,"region":"us-central","cc":"us","latitude":41.881832,"longitude":-87.62318,"reserved":0,"last_update":"0001-01-01T00:00:00Z","name_a2s":"Uncletopia | Chicago | 4 | All Maps","protocol":17,"map":"koth_highpass","folder":"tf","game":"Team Fortress","app_id":440,"player_count":0,"max_players":24,"Bots":0,"server_type":"Dedicated","server_os":"Linux","password":true,"vac":true,"version":"7695204","steam_id":85568392924515193,"keywords":["cp","nocrits","nodmgspread","uncletopia"],"game_id":440,"stv_port":0,"stv_name":"","players":null},{"server_id":36,"name":"Uncletopia | Chicago | 5 | All Maps","name_short":"chi-5","host":"chi-2.us.uncletopia.com","port":27015,"enabled":true,"region":"us-central","cc":"us","latitude":41.881832,"longitude":-87.62318,"reserved":0,"last_update":"0001-01-01T00:00:00Z","name_a2s":"Uncletopia | Chicago | 5 | All Maps","protocol":17,"map":"cp_mercenarypark","folder":"tf","game":"Team Fortress","app_id":440,"player_count":22,"max_players":24,"Bots":0,"server_type":"Dedicated","server_os":"Linux","password":true,"vac":true,"version":"7695204","steam_id":85568392924866362,"keywords":["cp","nocrits","nodmgspread","uncletopia"],"game_id":440,"stv_port":27016,"stv_name":"Uncletopia | Chicago | 5 | All Maps | STV","players":[{"user_id":159,"name":"L0gicz","steam_id":76561198082466196,"connected_time":2887000000000,"state":"active","ping":73},{"user_id":171,"name":"3-13","steam_id":76561198063929021,"connected_time":1889000000000,"state":"active","ping":70},{"user_id":150,"name":"LeBron James","steam_id":76561198097160898,"connected_time":3879000000000,"state":"active","ping":45},{"user_id":193,"name":"THRILLHO","steam_id":76561198371663047,"connected_time":1182000000000,"state":"active","ping":60},{"user_id":174,"name":"PapaBluss","steam_id":76561198023499564,"connected_time":1852000000000,"state":"active","ping":50},{"user_id":152,"name":"t4rkus","steam_id":76561198233984300,"connected_time":3841000000000,"state":"active","ping":46},{"user_id":176,"name":"McNamJam","steam_id":76561198028128686,"connected_time":1825000000000,"state":"active","ping":96},{"user_id":196,"name":"spaaaaace","steam_id":76561199085974120,"connected_time":8000000000,"state":"spawning","ping":59},{"user_id":185,"name":"Beef Wellington","steam_id":76561197995635241,"connected_time":1592000000000,"state":"active","ping":59},{"user_id":165,"name":"Soap Man","steam_id":76561198000490235,"connected_time":2800000000000,"state":"active","ping":106},{"user_id":187,"name":"Chrome Knight","steam_id":76561198851348871,"connected_time":1460000000000,"state":"active","ping":65},{"user_id":192,"name":"Cheer!","steam_id":76561199031085479,"connected_time":1265000000000,"state":"active","ping":71},{"user_id":158,"name":"robbob","steam_id":76561198137375391,"connected_time":2920000000000,"state":"active","ping":152},{"user_id":151,"name":"Callawe","steam_id":76561198129785792,"connected_time":3875000000000,"state":"active","ping":143},{"user_id":181,"name":"Scorpie Doodle","steam_id":76561198021845763,"connected_time":1758000000000,"state":"active","ping":47},{"user_id":153,"name":"RUSSELL","steam_id":76561197984579630,"connected_time":3786000000000,"state":"active","ping":101},{"user_id":188,"name":"Mythical Lag","steam_id":76561198347031281,"connected_time":1456000000000,"state":"active","ping":68},{"user_id":194,"name":"monke 0.0","steam_id":76561198035138859,"connected_time":1170000000000,"state":"active","ping":71},{"user_id":195,"name":"All 24 Pok√©mon movies at once","steam_id":76561198164738311,"connected_time":514000000000,"state":"active","ping":50},{"user_id":189,"name":"matkaster","steam_id":76561197998546486,"connected_time":1418000000000,"state":"active","ping":54},{"user_id":169,"name":"kebo","steam_id":76561198237159430,"connected_time":2633000000000,"state":"active","ping":106},{"user_id":190,"name":"Genius Meme","steam_id":76561198162911254,"connected_time":1388000000000,"state":"active","ping":102}]},{"server_id":37,"name":"Uncletopia | Chicago | 6 | All Maps","name_short":"chi-6","host":"chi-2.us.uncletopia.com","port":27025,"enabled":true,"region":"us-central","cc":"us","latitude":41.881832,"longitude":-87.62318,"reserved":0,"last_update":"0001-01-01T00:00:00Z","name_a2s":"Uncletopia | Chicago | 6 | All Maps","protocol":17,"map":"cp_snakewater_final1","folder":"tf","game":"Team Fortress","app_id":440,"player_count":0,"max_players":24,"Bots":0,"server_type":"Dedicated","server_os":"Linux","password":true,"vac":true,"version":"7695204","steam_id":85568392924866363,"keywords":["cp","nocrits","nodmgspread","uncletopia"],"game_id":440,"stv_port":0,"stv_name":"","players":null},{"server_id":38,"name":"Uncletopia | Chicago | 7 | No Payload","name_short":"chi-7","host":"chi-2.us.uncletopia.com","port":27035,"enabled":true,"region":"us-central","cc":"us","latitude":41.881832,"longitude":-87.62318,"reserved":0,"last_update":"0001-01-01T00:00:00Z","name_a2s":"Uncletopia | Chicago | 7 | No Payload","protocol":17,"map":"koth_sawmill","folder":"tf","game":"Team Fortress","app_id":440,"player_count":0,"max_players":24,"Bots":0,"server_type":"Dedicated","server_os":"Linux","password":true,"vac":true,"version":"7695204","steam_id":85568392924866364,"keywords":["cp","nocrits","nodmgspread","uncletopia"],"game_id":440,"stv_port":27036,"stv_name":"Uncletopia | Chicago | 7 | No Payload | STV","players":null},{"server_id":39,"name":"Uncletopia | Chicago | 8 | Community","name_short":"chi-8","host":"chi-2.us.uncletopia.com","port":27045,"enabled":true,"region":"us-central","cc":"us","latitude":41.881832,"longitude":-87.62318,"reserved":0,"last_update":"0001-01-01T00:00:00Z","name_a2s":"Uncletopia | Chicago | 8 | Community","protocol":17,"map":"cp_altitude","folder":"tf","game":"Team Fortress","app_id":440,"player_count":0,"max_players":24,"Bots":0,"server_type":"Dedicated","server_os":"Linux","password":true,"vac":true,"version":"7695204","steam_id":85568392924866365,"keywords":["cp","nocrits","nodmgspread","uncletopia"],"game_id":440,"stv_port":0,"stv_name":"","players":null},{"server_id":8,"name":"Uncletopia | Dallas | 1 | All Maps","name_short":"dal-1","host":"dal-1.us.uncletopia.com","port":27015,"enabled":true,"region":"us-central","cc":"us","latitude":32.779167,"longitude":-96.80889,"reserved":0,"last_update":"0001-01-01T00:00:00Z","name_a2s":"Uncletopia | Dallas | 1 | All Maps","protocol":17,"map":"pl_snowycoast","folder":"tf","game":"Team Fortress","app_id":440,"player_count":3,"max_players":24,"Bots":0,"server_type":"Dedicated","server_os":"Linux","password":true,"vac":true,"version":"7695204","steam_id":85568392924469986,"keywords":["nocrits","nodmgspread","payload","uncletopia"],"game_id":440,"stv_port":0,"stv_name":"","players":[{"user_id":7,"name":"ThePriceIsRice","steam_id":76561198079069543,"connected_time":204000000000,"state":"active","ping":104},{"user_id":5,"name":"Kamin","steam_id":76561198255299559,"connected_time":467000000000,"state":"active","ping":52},{"user_id":6,"name":"Hyden da kobobl","steam_id":76561198837931725,"connected_time":465000000000,"state":"active","ping":78}]},{"server_id":108,"name":"Uncletopia | Dallas | 2 | All Maps","name_short":"dal-2","host":"dal-1.us.uncletopia.com","port":27025,"enabled":true,"region":"us-central","cc":"us","latitude":32.779167,"longitude":-96.80889,"reserved":0,"last_update":"0001-01-01T00:00:00Z","name_a2s":"Uncletopia | Dallas | 2 | All Maps","protocol":17,"map":"cp_dustbowl","folder":"tf","game":"Team Fortress","app_id":440,"player_count":0,"max_players":24,"Bots":0,"server_type":"Dedicated","server_os":"Linux","password":true,"vac":true,"version":"7695204","steam_id":85568392924469988,"keywords":["cp","nocrits","nodmgspread","uncletopia"],"game_id":440,"stv_port":27026,"stv_name":"Uncletopia | Dallas | 2 | All Maps | STV","players":null},{"server_id":5,"name":"Uncletopia | Frankfurt | 1 | All Maps","name_short":"frk-1","host":"frk-1.de.uncletopia.com","port":27015,"enabled":true,"region":"eu","cc":"de","latitude":50.110924,"longitude":8.682127,"reserved":0,"last_update":"0001-01-01T00:00:00Z","name_a2s":"Uncletopia | Frankfurt | 1 | All Maps","protocol":17,"map":"pl_snowycoast","folder":"tf","game":"Team Fortress","app_id":440,"player_count":24,"max_players":24,"Bots":0,"server_type":"Dedicated","server_os":"Linux","password":true,"vac":true,"version":"7695204","steam_id":85568392924469989,"keywords":["nocrits","nodmgspread","payload","uncletopia"],"game_id":440,"stv_port":27016,"stv_name":"Uncletopia | Frankfurt | 1 | All Maps | STV","players":[{"user_id":433,"name":"The Spookster","steam_id":76561198122072252,"connected_time":3876000000000,"state":"active","ping":40},{"user_id":465,"name":"M4R1O","steam_id":76561198050528464,"connected_time":787000000000,"state":"active","ping":59},{"user_id":467,"name":"Cazulas","steam_id":76561198027460283,"connected_time":733000000000,"state":"active","ping":63},{"user_id":414,"name":"Appelflap64","steam_id":76561198012819017,"connected_time":5178000000000,"state":"active","ping":65},{"user_id":470,"name":"Fome","steam_id":76561198180241217,"connected_time":684000000000,"state":"active","ping":67},{"user_id":478,"name":"Recurracy","steam_id":76561197993421597,"connected_time":67000000000,"state":"active","ping":42},{"user_id":477,"name":"cool dude 4 life","steam_id":76561198102378933,"connected_time":243000000000,"state":"active","ping":122},{"user_id":461,"name":"Doriian","steam_id":76561198071438810,"connected_time":915000000000,"state":"active","ping":75},{"user_id":446,"name":"Gay Potato","steam_id":76561198018859519,"connected_time":2115000000000,"state":"active","ping":75},{"user_id":296,"name":"][yoG","steam_id":76561197992271834,"connected_time":14183000000000,"state":"active","ping":96},{"user_id":427,"name":"i am bread","steam_id":76561199180277321,"connected_time":4679000000000,"state":"active","ping":47},{"user_id":417,"name":"fogings","steam_id":76561198044165284,"connected_time":5027000000000,"state":"active","ping":45},{"user_id":447,"name":"gajo","steam_id":76561199172260370,"connected_time":2105000000000,"state":"active","ping":78},{"user_id":469,"name":"Sir Grey The Ranger","steam_id":76561198096235582,"connected_time":700000000000,"state":"active","ping":149},{"user_id":471,"name":"Shawty","steam_id":76561198256704286,"connected_time":677000000000,"state":"active","ping":60},{"user_id":449,"name":"i stan b4nny on tftv","steam_id":76561198869806001,"connected_time":2099000000000,"state":"active","ping":93},{"user_id":472,"name":"Enforcer02","steam_id":76561197966045944,"connected_time":676000000000,"state":"active","ping":52},{"user_id":438,"name":"cultured","steam_id":76561198188647690,"connected_time":2985000000000,"state":"active","ping":74},{"user_id":466,"name":"ToyTolga","steam_id":76561199021867253,"connected_time":780000000000,"state":"active","ping":116},{"user_id":439,"name":"fake jordans","steam_id":76561199250808808,"connected_time":2861000000000,"state":"active","ping":76},{"user_id":434,"name":"Carl","steam_id":76561198045638738,"connected_time":3318000000000,"state":"active","ping":67},{"user_id":462,"name":"hud_saytext_time 0","steam_id":76561198010327228,"connected_time":912000000000,"state":"active","ping":68},{"user_id":474,"name":"sHIFTINGvORTEX","steam_id":76561198231648332,"connected_time":652000000000,"state":"active","ping":78},{"user_id":475,"name":"Gui","steam_id":76561198072054467,"connected_time":642000000000,"state":"active","ping":83}]},{"server_id":110,"name":"Uncletopia | Frankfurt | 2 | All Maps","name_short":"frk-2","host":"frk-1.de.uncletopia.com","port":27025,"enabled":true,"region":"eu","cc":"de","latitude":50.110924,"longitude":8.682127,"reserved":0,"last_update":"0001-01-01T00:00:00Z","name_a2s":"Uncletopia | Frankfurt | 2 | All Maps","protocol":17,"map":"pl_snowycoast","folder":"tf","game":"Team Fortress","app_id":440,"player_count":24,"max_players":24,"Bots":0,"server_type":"Dedicated","server_os":"Linux","password":true,"vac":true,"version":"7695204","steam_id":85568392924469990,"keywords":["nocrits","nodmgspread","payload","uncletopia"],"game_id":440,"stv_port":27026,"stv_name":"Uncletopia | Frankfurt | 2 | All Maps | STV","players":[{"user_id":378,"name":"steve","steam_id":76561198076135756,"connected_time":2318000000000,"state":"active","ping":45},{"user_id":403,"name":"ash","steam_id":76561198004728744,"connected_time":55000000000,"state":"active","ping":45},{"user_id":408,"name":"bAdmon","steam_id":76561197961785793,"connected_time":29000000000,"state":"active","ping":51},{"user_id":324,"name":"Tao","steam_id":76561198036750896,"connected_time":5893000000000,"state":"active","ping":57},{"user_id":402,"name":"EggsWithBacon","steam_id":76561198122977654,"connected_time":91000000000,"state":"active","ping":59},{"user_id":405,"name":"Cat the businessman","steam_id":76561198879330791,"connected_time":47000000000,"state":"active","ping":79},{"user_id":406,"name":"Benpl","steam_id":76561198084890757,"connected_time":37000000000,"state":"spawning","ping":66},{"user_id":393,"name":"alien","steam_id":76561197968892194,"connected_time":1206000000000,"state":"active","ping":53},{"user_id":356,"name":"Kard","steam_id":76561198191894926,"connected_time":4034000000000,"state":"active","ping":109},{"user_id":364,"name":"Baanis","steam_id":76561198082869860,"connected_time":3686000000000,"state":"active","ping":90},{"user_id":387,"name":"Charmedelf","steam_id":76561197993611881,"connected_time":1767000000000,"state":"active","ping":55},{"user_id":371,"name":"Vectre","steam_id":76561198129397548,"connected_time":3549000000000,"state":"active","ping":94},{"user_id":407,"name":"Fox","steam_id":76561198079364100,"connected_time":34000000000,"state":"active","ping":86},{"user_id":398,"name":"from the shadows","steam_id":76561198322217890,"connected_time":121000000000,"state":"active","ping":64},{"user_id":352,"name":"Mclovin567","steam_id":76561198799105302,"connected_time":4045000000000,"state":"active","ping":52},{"user_id":382,"name":"jo","steam_id":76561198109074418,"connected_time":1794000000000,"state":"active","ping":74},{"user_id":391,"name":"Saint","steam_id":76561198003296382,"connected_time":1456000000000,"state":"active","ping":63},{"user_id":394,"name":"freemantel30","steam_id":76561198065669800,"connected_time":1131000000000,"state":"active","ping":50},{"user_id":396,"name":"Duda","steam_id":76561198306177608,"connected_time":716000000000,"state":"active","ping":71},{"user_id":375,"name":"4th","steam_id":76561198146081601,"connected_time":2475000000000,"state":"active","ping":41},{"user_id":409,"name":"Juno4","steam_id":76561198034518616,"connected_time":22000000000,"state":"spawning","ping":88},{"user_id":410,"name":"Ongestealth","steam_id":76561198044188720,"connected_time":12000000000,"state":"spawning","ping":62},{"user_id":411,"name":"SaltyCupcakes","steam_id":76561198256386417,"connected_time":11000000000,"state":"active","ping":184},{"user_id":373,"name":"Mr. Huntsman","steam_id":76561197981910397,"connected_time":3430000000000,"state":"active","ping":66}]},{"server_id":308,"name":"Uncletopia | Frankfurt | 3 | All Maps","name_short":"frk-3","host":"frk-1.de.uncletopia.com","port":27035,"enabled":true,"region":"eu","cc":"de","latitude":50.110924,"longitude":8.682127,"reserved":0,"last_update":"0001-01-01T00:00:00Z","name_a2s":"Uncletopia | Frankfurt | 3 | All Maps","protocol":17,"map":"koth_harvest_final","folder":"tf","game":"Team Fortress","app_id":440,"player_count":0,"max_players":24,"Bots":0,"server_type":"Dedicated","server_os":"Linux","password":true,"vac":true,"version":"7695204","steam_id":85568392924504274,"keywords":["cp","nocrits","nodmgspread","uncletopia"],"game_id":440,"stv_port":27036,"stv_name":"Uncletopia | Frankfurt | 3 | All Maps | STV","players":null},{"server_id":309,"name":"Uncletopia | Frankfurt | 4 | All Maps","name_short":"frk-4","host":"frk-1.de.uncletopia.com","port":27045,"enabled":true,"region":"eu","cc":"de","latitude":50.110924,"longitude":8.682127,"reserved":0,"last_update":"0001-01-01T00:00:00Z","name_a2s":"Uncletopia | Frankfurt | 4 | All Maps","protocol":17,"map":"koth_viaduct","folder":"tf","game":"Team Fortress","app_id":440,"player_count":22,"max_players":24,"Bots":0,"server_type":"Dedicated","server_os":"Linux","password":true,"vac":true,"version":"7695204","steam_id":85568392924504275,"keywords":["cp","nocrits","nodmgspread","uncletopia"],"game_id":440,"stv_port":27046,"stv_name":"Uncletopia | Frankfurt | 4 | All Maps | STV","players":[{"user_id":221,"name":"angel","steam_id":76561198121408313,"connected_time":369000000000,"state":"active","ping":73},{"user_id":227,"name":"FackaYou","steam_id":76561198193036090,"connected_time":286000000000,"state":"active","ping":80},{"user_id":234,"name":"[aiming with a pencil] FLXY","steam_id":76561198254679263,"connected_time":125000000000,"state":"active","ping":46},{"user_id":228,"name":"„Ç¢„É≥„Éê„Éº„Ç∞","steam_id":76561199137927878,"connected_time":242000000000,"state":"active","ping":111},{"user_id":217,"name":"SIGMA BALLS","steam_id":76561198302623594,"connected_time":397000000000,"state":"active","ping":90},{"user_id":200,"name":"nwp?","steam_id":76561198082516068,"connected_time":953000000000,"state":"active","ping":79},{"user_id":219,"name":"enca55","steam_id":76561198348725257,"connected_time":390000000000,"state":"active","ping":93},{"user_id":85,"name":"VK2124 :D","steam_id":76561198111130688,"connected_time":6408000000000,"state":"active","ping":45},{"user_id":96,"name":"player","steam_id":76561198054474684,"connected_time":6165000000000,"state":"active","ping":75},{"user_id":194,"name":"Lucoa Enjoyer","steam_id":76561198842622419,"connected_time":1950000000000,"state":"active","ping":89},{"user_id":84,"name":"Carry Krypl","steam_id":76561198136938121,"connected_time":6494000000000,"state":"active","ping":56},{"user_id":220,"name":"i love vtubers","steam_id":76561199104039945,"connected_time":389000000000,"state":"active","ping":91},{"user_id":204,"name":"DrExplosive","steam_id":76561198063678579,"connected_time":873000000000,"state":"active","ping":55},{"user_id":208,"name":"PI (3.14)","steam_id":76561198129463258,"connected_time":755000000000,"state":"active","ping":152},{"user_id":195,"name":"kamekame","steam_id":76561198047108054,"connected_time":1891000000000,"state":"active","ping":90},{"user_id":205,"name":"Ashley?!","steam_id":76561198056152479,"connected_time":870000000000,"state":"active","ping":59},{"user_id":167,"name":"leonardini.w #SaveTF2","steam_id":76561199097963071,"connected_time":3993000000000,"state":"active","ping":86},{"user_id":226,"name":"thekoolest88","steam_id":76561199022415672,"connected_time":321000000000,"state":"active","ping":160},{"user_id":212,"name":"Wardruna96","steam_id":76561199057083828,"connected_time":614000000000,"state":"active","ping":86},{"user_id":235,"name":"highwayman","steam_id":76561199230709660,"connected_time":102000000000,"state":"active","ping":45},{"user_id":231,"name":"Rasmusson [29th ID]","steam_id":76561198191451713,"connected_time":190000000000,"state":"active","ping":81},{"user_id":225,"name":"dafydd","steam_id":76561198052200325,"connected_time":348000000000,"state":"active","ping":80}]},{"server_id":310,"name":"Uncletopia | Frankfurt | 5 | All Maps","name_short":"frk-5","host":"frk-1.de.uncletopia.com","port":27055,"enabled":true,"region":"eu","cc":"de","latitude":50.110924,"longitude":8.682127,"reserved":0,"last_update":"0001-01-01T00:00:00Z","name_a2s":"Uncletopia | Frankfurt | 5 | All Maps","protocol":17,"map":"koth_highpass","folder":"tf","game":"Team Fortress","app_id":440,"player_count":0,"max_players":24,"Bots":0,"server_type":"Dedicated","server_os":"Linux","password":true,"vac":true,"version":"7695204","steam_id":85568392924504277,"keywords":["cp","nocrits","nodmgspread","uncletopia"],"game_id":440,"stv_port":27056,"stv_name":"Uncletopia | Frankfurt | 5 | All Maps | STV","players":null},{"server_id":311,"name":"Uncletopia | Frankfurt | 6 | All Maps","name_short":"frk-6","host":"frk-1.de.uncletopia.com","port":27065,"enabled":true,"region":"eu","cc":"de","latitude":50.110924,"longitude":8.682127,"reserved":0,"last_update":"0001-01-01T00:00:00Z","name_a2s":"Uncletopia | Frankfurt | 6 | All Maps","protocol":17,"map":"pl_badwater","folder":"tf","game":"Team Fortress","app_id":440,"player_count":24,"max_players":24,"Bots":0,"server_type":"Dedicated","server_os":"Linux","password":true,"vac":true,"version":"7695204","steam_id":85568392924504278,"keywords":["nocrits","nodmgspread","payload","uncletopia"],"game_id":440,"stv_port":27066,"stv_name":"Uncletopia | Frankfurt | 6 | All Maps | STV","players":[{"user_id":316,"name":"Rodia","steam_id":76561197968293161,"connected_time":4683000000000,"state":"active","ping":62},{"user_id":353,"name":"Marty‚Ñ¢","steam_id":76561198060073673,"connected_time":2298000000000,"state":"active","ping":63},{"user_id":369,"name":"AforeKingDwarf","steam_id":76561198043562926,"connected_time":578000000000,"state":"active","ping":57},{"user_id":347,"name":"Soerlssoelss√∂en","steam_id":76561197993060585,"connected_time":2564000000000,"state":"active","ping":66},{"user_id":352,"name":"mt","steam_id":76561197961319303,"connected_time":2319000000000,"state":"active","ping":59},{"user_id":345,"name":"Herzeleid","steam_id":76561198148668665,"connected_time":2626000000000,"state":"active","ping":75},{"user_id":368,"name":"ambatukam!!!","steam_id":76561198197304886,"connected_time":587000000000,"state":"active","ping":113},{"user_id":364,"name":"hotdog","steam_id":76561198044465070,"connected_time":1116000000000,"state":"active","ping":89},{"user_id":363,"name":"JustNoSkill","steam_id":76561198399115995,"connected_time":1752000000000,"state":"active","ping":58},{"user_id":377,"name":"Nyarley","steam_id":76561197961152751,"connected_time":412000000000,"state":"active","ping":50},{"user_id":356,"name":"BarrackOmaha","steam_id":76561198027922724,"connected_time":2263000000000,"state":"active","ping":71},{"user_id":294,"name":"Rin-Nakaret","steam_id":76561197971051188,"connected_time":5881000000000,"state":"active","ping":67},{"user_id":357,"name":"trexwithlasereyes ü•ö","steam_id":76561198417276908,"connected_time":2259000000000,"state":"active","ping":65},{"user_id":318,"name":"ChesseKnight","steam_id":76561198102476339,"connected_time":4516000000000,"state":"active","ping":85},{"user_id":370,"name":"Birne","steam_id":76561198001335120,"connected_time":555000000000,"state":"active","ping":64},{"user_id":375,"name":"tets","steam_id":76561198154734428,"connected_time":480000000000,"state":"active","ping":105},{"user_id":358,"name":"*DEAD* dusty","steam_id":76561199011977567,"connected_time":2255000000000,"state":"active","ping":64},{"user_id":372,"name":"Rerken","steam_id":76561199201353504,"connected_time":523000000000,"state":"active","ping":112},{"user_id":333,"name":"Heavy Box","steam_id":76561198053624882,"connected_time":3372000000000,"state":"active","ping":98},{"user_id":373,"name":"chilemann","steam_id":76561199006812725,"connected_time":509000000000,"state":"active","ping":49},{"user_id":360,"name":"miko csgofast.com","steam_id":76561198167085293,"connected_time":2245000000000,"state":"active","ping":78},{"user_id":252,"name":"tempLimit","steam_id":76561199158363470,"connected_time":9661000000000,"state":"active","ping":78},{"user_id":315,"name":"Pastill","steam_id":76561198067484436,"connected_time":4869000000000,"state":"active","ping":94},{"user_id":376,"name":"peams","steam_id":76561198343328308,"connected_time":479000000000,"state":"active","ping":59}]},{"server_id":23,"name":"Uncletopia | Frankfurt | 7 | No Payload","name_short":"frk-7","host":"frk-1.de.uncletopia.com","port":27075,"enabled":true,"region":"eu","cc":"de","latitude":50.110924,"longitude":8.682127,"reserved":0,"last_update":"0001-01-01T00:00:00Z","name_a2s":"Uncletopia | Frankfurt | 7 | No Payload","protocol":17,"map":"cp_altitude","folder":"tf","game":"Team Fortress","app_id":440,"player_count":0,"max_players":24,"Bots":0,"server_type":"Dedicated","server_os":"Linux","password":true,"vac":true,"version":"7695204","steam_id":85568392924742827,"keywords":["cp","nocrits","nodmgspread","uncletopia"],"game_id":440,"stv_port":27076,"stv_name":"Uncletopia | Frankfurt | 7 | No Payload | STV","players":null},{"server_id":24,"name":"Uncletopia | Frankfurt | 8 | Community","name_short":"frk-8","host":"frk-1.de.uncletopia.com","port":27085,"enabled":true,"region":"eu","cc":"de","latitude":50.110924,"longitude":8.682127,"reserved":0,"last_update":"0001-01-01T00:00:00Z","name_a2s":"Uncletopia | Frankfurt | 8 | Community","protocol":17,"map":"workshop/pl_fifthcurve_rc1.ugc648227046","folder":"tf","game":"Team Fortress","app_id":440,"player_count":24,"max_players":24,"Bots":0,"server_type":"Dedicated","server_os":"Linux","password":true,"vac":true,"version":"7695204","steam_id":85568392924742828,"keywords":["nocrits","nodmgspread","payload","uncletopia"],"game_id":440,"stv_port":27086,"stv_name":"Uncletopia | Frankfurt | 8 | Community | STV","players":[{"user_id":35,"name":"viziborju","steam_id":76561199145340529,"connected_time":4247000000000,"state":"active","ping":75},{"user_id":48,"name":"Milton","steam_id":76561198448357238,"connected_time":2720000000000,"state":"active","ping":77},{"user_id":105,"name":"noobdestroyer420","steam_id":76561199249569889,"connected_time":441000000000,"state":"active","ping":75},{"user_id":50,"name":"askulap","steam_id":76561197992018795,"connected_time":2523000000000,"state":"active","ping":79},{"user_id":47,"name":"Torben","steam_id":76561198377574408,"connected_time":3012000000000,"state":"active","ping":51},{"user_id":108,"name":"Slinch-LP","steam_id":76561198388832753,"connected_time":155000000000,"state":"active","ping":51},{"user_id":41,"name":"Banana Dispenser","steam_id":76561198446549451,"connected_time":3740000000000,"state":"active","ping":67},{"user_id":52,"name":"Kainalokarvahaju","steam_id":76561198335349304,"connected_time":2413000000000,"state":"active","ping":80},{"user_id":92,"name":"SirNeeco \u003c3","steam_id":76561198103014203,"connected_time":1025000000000,"state":"active","ping":57},{"user_id":106,"name":"zdichuqs","steam_id":76561199123346048,"connected_time":435000000000,"state":"active","ping":62},{"user_id":107,"name":"Miton","steam_id":76561197970323209,"connected_time":355000000000,"state":"active","ping":78},{"user_id":56,"name":"M2rtRa","steam_id":76561198111036466,"connected_time":2305000000000,"state":"active","ping":75},{"user_id":70,"name":"loser","steam_id":76561198874129419,"connected_time":1783000000000,"state":"active","ping":123},{"user_id":99,"name":"tob:ias","steam_id":76561198832146626,"connected_time":711000000000,"state":"active","ping":53},{"user_id":60,"name":"Tshi","steam_id":76561198043757194,"connected_time":2153000000000,"state":"active","ping":57},{"user_id":103,"name":"smug prick","steam_id":76561197996718813,"connected_time":554000000000,"state":"active","ping":45},{"user_id":101,"name":"BMJ","steam_id":76561198256866267,"connected_time":692000000000,"state":"active","ping":93},{"user_id":87,"name":"Ablativus","steam_id":76561198025698470,"connected_time":1201000000000,"state":"active","ping":75},{"user_id":88,"name":"Dr. Oetker","steam_id":76561198202668788,"connected_time":1197000000000,"state":"active","ping":65},{"user_id":65,"name":"Hansiboo","steam_id":76561198332823809,"connected_time":1999000000000,"state":"active","ping":56},{"user_id":102,"name":"B3B","steam_id":76561198987445493,"connected_time":682000000000,"state":"active","ping":102},{"user_id":93,"name":"Mor'du","steam_id":76561198274105878,"connected_time":1011000000000,"state":"active","ping":76},{"user_id":74,"name":"MasonYaBoi","steam_id":76561199224184878,"connected_time":1676000000000,"state":"active","ping":48},{"user_id":100,"name":"GangstarThom","steam_id":76561199108952571,"connected_time":705000000000,"state":"active","ping":77}]},{"server_id":202,"name":"Uncletopia | Hong Kong | 1 | All Maps","name_short":"hgk-1","host":"hgk-1.hk.uncletopia.com","port":27015,"enabled":true,"region":"asia","cc":"hk","latitude":22.302711,"longitude":114.177216,"reserved":0,"last_update":"0001-01-01T00:00:00Z","name_a2s":"Uncletopia | Hong Kong | 1 | All Maps","protocol":17,"map":"koth_cascade","folder":"tf","game":"Team Fortress","app_id":440,"player_count":0,"max_players":24,"Bots":0,"server_type":"Dedicated","server_os":"Linux","password":true,"vac":true,"version":"7695204","steam_id":85568392924494504,"keywords":["cp","nocrits","nodmgspread","uncletopia"],"game_id":440,"stv_port":27016,"stv_name":"Uncletopia | Hong Kong | 1 | All Maps | STV","players":null},{"server_id":1,"name":"Uncletopia | Los Angeles | 1 | All Maps","name_short":"lax-1","host":"lax-1.us.uncletopia.com","port":27015,"enabled":true,"region":"us-west","cc":"us","latitude":33.94279,"longitude":-118.41004,"reserved":0,"last_update":"0001-01-01T00:00:00Z","name_a2s":"Uncletopia | Los Angeles | 1 | All Maps","protocol":17,"map":"koth_viaduct","folder":"tf","game":"Team Fortress","app_id":440,"player_count":12,"max_players":24,"Bots":0,"server_type":"Dedicated","server_os":"Linux","password":true,"vac":true,"version":"7695204","steam_id":85568392924469991,"keywords":["cp","nocrits","nodmgspread","uncletopia"],"game_id":440,"stv_port":27016,"stv_name":"Uncletopia | Los Angeles | 1 | All Maps | STV","players":[{"user_id":3,"name":"Altruisticailuridae","steam_id":76561198335295596,"connected_time":3121000000000,"state":"active","ping":49},{"user_id":7,"name":"dust","steam_id":76561198045218909,"connected_time":1915000000000,"state":"active","ping":61},{"user_id":8,"name":"BODIE","steam_id":76561198079474904,"connected_time":1772000000000,"state":"active","ping":83},{"user_id":10,"name":"Nibotshooter","steam_id":76561199284825579,"connected_time":987000000000,"state":"active","ping":71},{"user_id":11,"name":"Jesus Loves You57","steam_id":76561199058833769,"connected_time":952000000000,"state":"active","ping":58},{"user_id":15,"name":"mrepicdog","steam_id":76561198427634350,"connected_time":332000000000,"state":"active","ping":154},{"user_id":16,"name":"RIT Obelix","steam_id":76561198274715109,"connected_time":246000000000,"state":"active","ping":100},{"user_id":17,"name":"Quaffle","steam_id":76561198280694195,"connected_time":243000000000,"state":"active","ping":88},{"user_id":19,"name":"Frank","steam_id":76561198126681511,"connected_time":199000000000,"state":"active","ping":220},{"user_id":20,"name":"lamadre07","steam_id":76561198067337453,"connected_time":145000000000,"state":"active","ping":99},{"user_id":21,"name":"pee","steam_id":76561198186398809,"connected_time":71000000000,"state":"active","ping":37},{"user_id":22,"name":"VerociousVee","steam_id":76561198289106015,"connected_time":25000000000,"state":"spawning","ping":86}]},{"server_id":112,"name":"Uncletopia | Los Angeles | 2 | All Maps","name_short":"lax-2","host":"lax-1.us.uncletopia.com","port":27025,"enabled":true,"region":"us-west","cc":"us","latitude":33.94279,"longitude":-118.41004,"reserved":0,"last_update":"0001-01-01T00:00:00Z","name_a2s":"Uncletopia | Los Angeles | 2 | All Maps","protocol":17,"map":"cp_dustbowl","folder":"tf","game":"Team Fortress","app_id":440,"player_count":0,"max_players":24,"Bots":0,"server_type":"Dedicated","server_os":"Linux","password":true,"vac":true,"version":"7695204","steam_id":85568392924469992,"keywords":["cp","nocrits","nodmgspread","uncletopia"],"game_id":440,"stv_port":0,"stv_name":"","players":null},{"server_id":324,"name":"Uncletopia | Los Angeles | 3 | All Maps","name_short":"lax-3","host":"lax-1.us.uncletopia.com","port":27035,"enabled":true,"region":"us-west","cc":"us","latitude":33.94279,"longitude":-118.41004,"reserved":0,"last_update":"0001-01-01T00:00:00Z","name_a2s":"Uncletopia | Los Angeles | 3 | All Maps","protocol":17,"map":"cp_mountainlab","folder":"tf","game":"Team Fortress","app_id":440,"player_count":0,"max_players":24,"Bots":0,"server_type":"Dedicated","server_os":"Linux","password":true,"vac":true,"version":"7695204","steam_id":85568392924510198,"keywords":["cp","nocrits","nodmgspread","uncletopia"],"game_id":440,"stv_port":0,"stv_name":"","players":null},{"server_id":25,"name":"Uncletopia | Los Angeles | 4 | No Payload","name_short":"lax-4","host":"lax-1.us.uncletopia.com","port":27045,"enabled":true,"region":"us-west","cc":"us","latitude":33.94279,"longitude":-118.41004,"reserved":0,"last_update":"0001-01-01T00:00:00Z","name_a2s":"Uncletopia | Los Angeles | 4 | No Payload","protocol":17,"map":"pl_barnblitz","folder":"tf","game":"Team Fortress","app_id":440,"player_count":0,"max_players":24,"Bots":0,"server_type":"Dedicated","server_os":"Linux","password":true,"vac":true,"version":"7695204","steam_id":85568392924510199,"keywords":["nocrits","nodmgspread","payload","uncletopia"],"game_id":440,"stv_port":0,"stv_name":"","players":null},{"server_id":11,"name":"Uncletopia | London | 1 | All Maps","name_short":"lon-1","host":"lon-1.uk.uncletopia.com","port":27015,"enabled":true,"region":"eu","cc":"gb","latitude":51.509865,"longitude":-0.118092,"reserved":0,"last_update":"0001-01-01T00:00:00Z","name_a2s":"Uncletopia | London | 1 | All Maps","protocol":17,"map":"pl_barnblitz","folder":"tf","game":"Team Fortress","app_id":440,"player_count":23,"max_players":24,"Bots":0,"server_type":"Dedicated","server_os":"Linux","password":true,"vac":true,"version":"7695204","steam_id":85568392924367362,"keywords":["nocrits","nodmgspread","payload","uncletopia"],"game_id":440,"stv_port":27016,"stv_name":"Uncletopia | London | 1 | All Maps | STV","players":[{"user_id":242,"name":"Pikiuwu","steam_id":76561198868487646,"connected_time":1136000000000,"state":"active","ping":165},{"user_id":255,"name":"stepbro","steam_id":76561198119607160,"connected_time":451000000000,"state":"active","ping":71},{"user_id":233,"name":"VictorCG","steam_id":76561198070118014,"connected_time":1569000000000,"state":"active","ping":86},{"user_id":251,"name":"Menty","steam_id":76561198036748212,"connected_time":920000000000,"state":"active","ping":38},{"user_id":223,"name":"Cave Johnson","steam_id":76561198366456565,"connected_time":2400000000000,"state":"active","ping":72},{"user_id":218,"name":"Alexandre","steam_id":76561198121784446,"connected_time":2676000000000,"state":"active","ping":44},{"user_id":241,"name":"jams","steam_id":76561198010380786,"connected_time":1213000000000,"state":"active","ping":34},{"user_id":190,"name":"goblinninja110","steam_id":76561198269159354,"connected_time":4923000000000,"state":"active","ping":55},{"user_id":246,"name":"Daginberth","steam_id":76561198043811437,"connected_time":1104000000000,"state":"active","ping":67},{"user_id":200,"name":"UltimateSlayer","steam_id":76561198384109309,"connected_time":4092000000000,"state":"active","ping":55},{"user_id":224,"name":"JOHN GAMING (based)","steam_id":76561199085822219,"connected_time":2345000000000,"state":"active","ping":86},{"user_id":250,"name":"sylphid","steam_id":76561198043601838,"connected_time":1028000000000,"state":"active","ping":69},{"user_id":244,"name":"Brandoncoyle","steam_id":76561199013364336,"connected_time":1131000000000,"state":"active","ping":51},{"user_id":258,"name":"mat","steam_id":76561198824697295,"connected_time":64000000000,"state":"active","ping":94},{"user_id":235,"name":"Kernel Panic","steam_id":76561198215811047,"connected_time":1411000000000,"state":"active","ping":38},{"user_id":257,"name":"Hoodiebud","steam_id":76561198335687042,"connected_time":129000000000,"state":"active","ping":81},{"user_id":252,"name":"ack","steam_id":76561198139796077,"connected_time":698000000000,"state":"active","ping":54},{"user_id":259,"name":"Druid5333","steam_id":76561198348066287,"connected_time":48000000000,"state":"spawning","ping":60},{"user_id":260,"name":"Varsity Athlete","steam_id":76561198012296395,"connected_time":33000000000,"state":"active","ping":43},{"user_id":247,"name":"lookbrood","steam_id":76561198025592834,"connected_time":1103000000000,"state":"active","ping":52},{"user_id":249,"name":"(„Å£‚óî‚ó°‚óî)„Å£ ‚ô•","steam_id":76561199026097466,"connected_time":1096000000000,"state":"active","ping":74},{"user_id":254,"name":"ÁâõÂ¥éÊΩ§Áæé‚ÑÆ","steam_id":76561198089132060,"connected_time":535000000000,"state":"active","ping":56},{"user_id":174,"name":"'Tis but a scratch","steam_id":76561198118517671,"connected_time":5596000000000,"state":"active","ping":120}]},{"server_id":114,"name":"Uncletopia | London | 2 | All Maps","name_short":"lon-2","host":"lon-1.uk.uncletopia.com","port":27025,"enabled":true,"region":"eu","cc":"gb","latitude":51.509865,"longitude":-0.118092,"reserved":0,"last_update":"0001-01-01T00:00:00Z","name_a2s":"Uncletopia | London | 2 | All Maps","protocol":17,"map":"pl_upward","folder":"tf","game":"Team Fortress","app_id":440,"player_count":24,"max_players":24,"Bots":0,"server_type":"Dedicated","server_os":"Linux","password":true,"vac":true,"version":"7695204","steam_id":85568392924470941,"keywords":["nocrits","nodmgspread","payload","uncletopia"],"game_id":440,"stv_port":27026,"stv_name":"Uncletopia | London | 2 | All Maps | STV","players":[{"user_id":120,"name":"obi","steam_id":76561198040154461,"connected_time":442000000000,"state":"active","ping":61},{"user_id":100,"name":"War Ren","steam_id":76561198301524251,"connected_time":836000000000,"state":"active","ping":52},{"user_id":61,"name":"Silent Person","steam_id":76561198107763537,"connected_time":1838000000000,"state":"active","ping":71},{"user_id":68,"name":"jp-karam","steam_id":76561198048947685,"connected_time":1459000000000,"state":"active","ping":52},{"user_id":16,"name":"garbage mikuknight","steam_id":76561198361819054,"connected_time":3204000000000,"state":"active","ping":100},{"user_id":36,"name":"Taska","steam_id":76561198807325888,"connected_time":2834000000000,"state":"active","ping":84},{"user_id":54,"name":"Muffin Mcswagot ‡∂û","steam_id":76561198055394835,"connected_time":2192000000000,"state":"active","ping":79},{"user_id":57,"name":"Nobaddy","steam_id":76561198037871007,"connected_time":1959000000000,"state":"active","ping":73},{"user_id":53,"name":"crazycalumrock","steam_id":76561198049890080,"connected_time":2205000000000,"state":"active","ping":45},{"user_id":121,"name":"Dakkafex","steam_id":76561198020254869,"connected_time":414000000000,"state":"active","ping":44},{"user_id":52,"name":"Zeylik","steam_id":76561198112938014,"connected_time":2216000000000,"state":"active","ping":50},{"user_id":58,"name":"washed up","steam_id":76561198275742101,"connected_time":1909000000000,"state":"active","ping":71},{"user_id":42,"name":"Just_chris","steam_id":76561199086468479,"connected_time":2686000000000,"state":"active","ping":68},{"user_id":80,"name":"Moxy Blossom","steam_id":76561199250547724,"connected_time":1170000000000,"state":"active","ping":53},{"user_id":94,"name":"COOLGUY007","steam_id":76561199075244155,"connected_time":954000000000,"state":"active","ping":70},{"user_id":85,"name":"default","steam_id":76561198186182298,"connected_time":1075000000000,"state":"active","ping":56},{"user_id":96,"name":"pablo.gonzalez.2005","steam_id":76561198971389390,"connected_time":931000000000,"state":"active","ping":71},{"user_id":59,"name":"swallowed 10 pennies please hel","steam_id":76561198055816412,"connected_time":1907000000000,"state":"active","ping":57},{"user_id":123,"name":"|20BB)\u003eMach","steam_id":76561198952487564,"connected_time":266000000000,"state":"active","ping":93},{"user_id":122,"name":"–¢–Ø–ñ–ï–õ–´–ï –ò–ì–†–´","steam_id":76561198413545609,"connected_time":346000000000,"state":"active","ping":55},{"user_id":97,"name":"Wangel","steam_id":76561199116413509,"connected_time":927000000000,"state":"active","ping":52},{"user_id":109,"name":"hmscole09","steam_id":76561198811362788,"connected_time":663000000000,"state":"active","ping":48},{"user_id":44,"name":"Noob_with_source","steam_id":76561198870362103,"connected_time":2660000000000,"state":"active","ping":59},{"user_id":104,"name":"daanvanliempt05","steam_id":76561198355398948,"connected_time":745000000000,"state":"active","ping":54}]},{"server_id":320,"name":"Uncletopia | London | 3 | All Maps","name_short":"lon-3","host":"lon-1.uk.uncletopia.com","port":27035,"enabled":true,"region":"eu","cc":"gb","latitude":51.509865,"longitude":-0.118092,"reserved":0,"last_update":"0001-01-01T00:00:00Z","name_a2s":"Uncletopia | London | 3 | All Maps","protocol":17,"map":"cp_process_final","folder":"tf","game":"Team Fortress","app_id":440,"player_count":24,"max_players":24,"Bots":0,"server_type":"Dedicated","server_os":"Linux","password":true,"vac":true,"version":"7695204","steam_id":85568392924510192,"keywords":["cp","nocrits","nodmgspread","uncletopia"],"game_id":440,"stv_port":27036,"stv_name":"Uncletopia | London | 3 | All Maps | STV","players":[{"user_id":653,"name":"I can't stop loving you","steam_id":76561198020035960,"connected_time":2614000000000,"state":"active","ping":46},{"user_id":667,"name":"dan","steam_id":76561198800662675,"connected_time":1578000000000,"state":"active","ping":58},{"user_id":654,"name":"the catboy","steam_id":76561198236015506,"connected_time":2596000000000,"state":"active","ping":102},{"user_id":647,"name":"Soviet Onion","steam_id":76561198299693038,"connected_time":3016000000000,"state":"active","ping":63},{"user_id":689,"name":"ÀπFate's¬∑MarionetteÀº","steam_id":76561198034197381,"connected_time":387000000000,"state":"active","ping":54},{"user_id":687,"name":"k","steam_id":76561198089342103,"connected_time":454000000000,"state":"active","ping":93},{"user_id":690,"name":"Jonathan","steam_id":76561198087988880,"connected_time":386000000000,"state":"active","ping":59},{"user_id":670,"name":"PotatoeChisps","steam_id":76561198142556383,"connected_time":1547000000000,"state":"active","ping":150},{"user_id":688,"name":"Warpzel65","steam_id":76561198799303596,"connected_time":446000000000,"state":"active","ping":108},{"user_id":691,"name":"LasagnaLarry22","steam_id":76561198089478290,"connected_time":362000000000,"state":"active","ping":40},{"user_id":699,"name":"Krabs","steam_id":76561198161679477,"connected_time":269000000000,"state":"active","ping":44},{"user_id":692,"name":"Vincent Van Glock‚Ñ¢","steam_id":76561198095925116,"connected_time":356000000000,"state":"active","ping":47},{"user_id":675,"name":"METhOphetamine","steam_id":76561198068216224,"connected_time":1408000000000,"state":"active","ping":60},{"user_id":694,"name":"medick","steam_id":76561199380849468,"connected_time":335000000000,"state":"active","ping":60},{"user_id":650,"name":"busgrabb","steam_id":76561198055768465,"connected_time":2899000000000,"state":"active","ping":60},{"user_id":678,"name":"Emerald","steam_id":76561199141384216,"connected_time":1238000000000,"state":"active","ping":54},{"user_id":601,"name":"goofy goober","steam_id":76561198013237629,"connected_time":5343000000000,"state":"active","ping":91},{"user_id":679,"name":"Sam","steam_id":76561198203070687,"connected_time":1096000000000,"state":"active","ping":51},{"user_id":683,"name":"Him","steam_id":76561198155314925,"connected_time":631000000000,"state":"active","ping":55},{"user_id":695,"name":"Big Benn","steam_id":76561199024168373,"connected_time":332000000000,"state":"active","ping":66},{"user_id":697,"name":"Alegz","steam_id":76561198287810139,"connected_time":315000000000,"state":"active","ping":61},{"user_id":664,"name":"Pizza/Cheese/Pepperoni","steam_id":76561198174510235,"connected_time":1818000000000,"state":"active","ping":47},{"user_id":698,"name":"default enjoyer gyerek","steam_id":76561198097789669,"connected_time":305000000000,"state":"active","ping":73},{"user_id":701,"name":"Beamz","steam_id":76561198014230017,"connected_time":251000000000,"state":"active","ping":147}]},{"server_id":321,"name":"Uncletopia | London | 4 | All Maps","name_short":"lon-4","host":"lon-1.uk.uncletopia.com","port":27045,"enabled":true,"region":"eu","cc":"gb","latitude":51.509865,"longitude":-0.118092,"reserved":0,"last_update":"0001-01-01T00:00:00Z","name_a2s":"Uncletopia | London | 4 | All Maps","protocol":17,"map":"pl_upward","folder":"tf","game":"Team Fortress","app_id":440,"player_count":24,"max_players":24,"Bots":0,"server_type":"Dedicated","server_os":"Linux","password":true,"vac":true,"version":"7695204","steam_id":85568392924510193,"keywords":["nocrits","nodmgspread","payload","uncletopia"],"game_id":440,"stv_port":27046,"stv_name":"Uncletopia | London | 4 | All Maps | STV","players":[{"user_id":156,"name":"soap lore","steam_id":76561198058879767,"connected_time":666000000000,"state":"active","ping":46},{"user_id":168,"name":"Underpants Gnome","steam_id":76561197980424272,"connected_time":371000000000,"state":"active","ping":64},{"user_id":152,"name":"cant do that in overwatch","steam_id":76561198203486600,"connected_time":1083000000000,"state":"active","ping":45},{"user_id":169,"name":"Omni","steam_id":76561198054543912,"connected_time":243000000000,"state":"active","ping":65},{"user_id":131,"name":"Vanes #savetf2","steam_id":76561198070099171,"connected_time":3492000000000,"state":"active","ping":75},{"user_id":167,"name":"Joseph Stalin LFT","steam_id":76561198033199746,"connected_time":385000000000,"state":"active","ping":57},{"user_id":145,"name":"Hkitchen","steam_id":76561198194779526,"connected_time":1187000000000,"state":"active","ping":38},{"user_id":141,"name":"chrissy","steam_id":76561198096547662,"connected_time":1644000000000,"state":"active","ping":58},{"user_id":171,"name":"Malsi","steam_id":76561199061284165,"connected_time":116000000000,"state":"active","ping":74},{"user_id":80,"name":"Clitorina","steam_id":76561198077570815,"connected_time":6234000000000,"state":"active","ping":43},{"user_id":147,"name":"Slick","steam_id":76561197994232008,"connected_time":1176000000000,"state":"active","ping":63},{"user_id":137,"name":"pizzaboob","steam_id":76561198097507847,"connected_time":2380000000000,"state":"active","ping":86},{"user_id":142,"name":"bacon strips and bacon strips a","steam_id":76561198045347066,"connected_time":1491000000000,"state":"active","ping":57},{"user_id":138,"name":"twitch.tv/biofun_","steam_id":76561198170609049,"connected_time":2374000000000,"state":"active","ping":63},{"user_id":148,"name":"YC Lacus","steam_id":76561199107625942,"connected_time":1173000000000,"state":"active","ping":65},{"user_id":143,"name":"Simping for Pizza-san","steam_id":76561198067204908,"connected_time":1297000000000,"state":"active","ping":53},{"user_id":149,"name":"Martial Autist","steam_id":76561198392067162,"connected_time":1171000000000,"state":"active","ping":65},{"user_id":123,"name":"After8","steam_id":76561198090750865,"connected_time":3758000000000,"state":"active","ping":75},{"user_id":155,"name":"simon","steam_id":76561198880361394,"connected_time":825000000000,"state":"active","ping":61},{"user_id":61,"name":"Nomad994","steam_id":76561198051908201,"connected_time":7435000000000,"state":"active","ping":112},{"user_id":139,"name":"Welder","steam_id":76561198355300561,"connected_time":2370000000000,"state":"active","ping":69},{"user_id":154,"name":"Roach","steam_id":76561198081761143,"connected_time":1027000000000,"state":"active","ping":96},{"user_id":150,"name":"Kahvi","steam_id":76561198723244199,"connected_time":1143000000000,"state":"active","ping":90},{"user_id":160,"name":"f√©nix","steam_id":76561198083199151,"connected_time":515000000000,"state":"active","ping":55}]},{"server_id":21,"name":"Uncletopia | London | 5 | All Maps","name_short":"lon-5","host":"lon-1.uk.uncletopia.com","port":27055,"enabled":true,"region":"eu","cc":"gb","latitude":51.509865,"longitude":-0.118092,"reserved":0,"last_update":"0001-01-01T00:00:00Z","name_a2s":"Uncletopia | London | 5 | All Maps","protocol":17,"map":"koth_cascade","folder":"tf","game":"Team Fortress","app_id":440,"player_count":0,"max_players":24,"Bots":0,"server_type":"Dedicated","server_os":"Linux","password":true,"vac":true,"version":"7695204","steam_id":85568392924742829,"keywords":["cp","nocrits","nodmgspread","uncletopia"],"game_id":440,"stv_port":0,"stv_name":"","players":null},{"server_id":22,"name":"Uncletopia | London | 6 | All Maps","name_short":"lon-6","host":"lon-1.uk.uncletopia.com","port":27065,"enabled":true,"region":"eu","cc":"gb","latitude":51.509865,"longitude":-0.118092,"reserved":0,"last_update":"0001-01-01T00:00:00Z","name_a2s":"Uncletopia | London | 6 | All Maps","protocol":17,"map":"pl_borneo","folder":"tf","game":"Team Fortress","app_id":440,"player_count":21,"max_players":24,"Bots":0,"server_type":"Dedicated","server_os":"Linux","password":true,"vac":true,"version":"7695204","steam_id":85568392924742830,"keywords":["nocrits","nodmgspread","payload","uncletopia"],"game_id":440,"stv_port":27066,"stv_name":"Uncletopia | London | 6 | All Maps | STV","players":[{"user_id":15,"name":"SynthBox3","steam_id":76561199094075745,"connected_time":1676000000000,"state":"spawning","ping":110},{"user_id":16,"name":"Frazzles","steam_id":76561199228009586,"connected_time":1417000000000,"state":"active","ping":59},{"user_id":17,"name":"skull","steam_id":76561198269491159,"connected_time":1205000000000,"state":"active","ping":74},{"user_id":18,"name":"SliQster","steam_id":76561198036797969,"connected_time":979000000000,"state":"spawning","ping":263},{"user_id":19,"name":"Diagon Galley","steam_id":76561197988571162,"connected_time":977000000000,"state":"spawning","ping":103},{"user_id":20,"name":"Vinyl :3","steam_id":76561197999631733,"connected_time":953000000000,"state":"active","ping":116},{"user_id":21,"name":"Harmi","steam_id":76561198056316573,"connected_time":939000000000,"state":"active","ping":166},{"user_id":22,"name":"my head hurts","steam_id":76561198341123224,"connected_time":932000000000,"state":"spawning","ping":81},{"user_id":23,"name":"Pagon","steam_id":76561197997804336,"connected_time":903000000000,"state":"active","ping":120},{"user_id":25,"name":"sumweeb","steam_id":76561198311624395,"connected_time":763000000000,"state":"active","ping":95},{"user_id":37,"name":"lukanislol","steam_id":76561198188691434,"connected_time":425000000000,"state":"active","ping":69},{"user_id":27,"name":"waffle toaster","steam_id":76561198799089628,"connected_time":671000000000,"state":"spawning","ping":62},{"user_id":28,"name":"torn","steam_id":76561198223003236,"connected_time":666000000000,"state":"spawning","ping":35},{"user_id":29,"name":"winner braguette","steam_id":76561198084056439,"connected_time":653000000000,"state":"active","ping":55},{"user_id":30,"name":"Hay #savetf2","steam_id":76561199375975842,"connected_time":638000000000,"state":"spawning","ping":55},{"user_id":31,"name":"Flint","steam_id":76561197995920776,"connected_time":584000000000,"state":"active","ping":161},{"user_id":32,"name":"Randy Butternubs","steam_id":76561197983738629,"connected_time":526000000000,"state":"spawning","ping":132},{"user_id":34,"name":"Kn√∂sta","steam_id":76561198143422139,"connected_time":479000000000,"state":"active","ping":98},{"user_id":35,"name":"Michael","steam_id":76561198003146906,"connected_time":462000000000,"state":"active","ping":36},{"user_id":36,"name":"Boki","steam_id":76561198044553351,"connected_time":461000000000,"state":"active","ping":106},{"user_id":38,"name":"Tears","steam_id":76561198005508453,"connected_time":422000000000,"state":"spawning","ping":63}]},{"server_id":40,"name":"Uncletopia | London | 7 | No Payload","name_short":"lon-7","host":"lon-1.uk.uncletopia.com","port":27075,"enabled":true,"region":"eu","cc":"gb","latitude":51.509865,"longitude":-0.118092,"reserved":0,"last_update":"0001-01-01T00:00:00Z","name_a2s":"Uncletopia | London | 7 | No Payload","protocol":17,"map":"cp_steel","folder":"tf","game":"Team Fortress","app_id":440,"player_count":0,"max_players":24,"Bots":0,"server_type":"Dedicated","server_os":"Linux","password":true,"vac":true,"version":"7695204","steam_id":85568392924964314,"keywords":["cp","nocrits","nodmgspread","uncletopia"],"game_id":440,"stv_port":27076,"stv_name":"Uncletopia | London | 7 | No Payload | STV","players":null},{"server_id":41,"name":"Uncletopia | London | 8 | Community","name_short":"lon-8","host":"lon-1.uk.uncletopia.com","port":27085,"enabled":true,"region":"eu","cc":"gb","latitude":51.509865,"longitude":-0.118092,"reserved":0,"last_update":"0001-01-01T00:00:00Z","name_a2s":"Uncletopia | London | 8 | Community","protocol":17,"map":"workshop/koth_synthetic_rc6a.ugc1549817316","folder":"tf","game":"Team Fortress","app_id":440,"player_count":0,"max_players":24,"Bots":0,"server_type":"Dedicated","server_os":"Linux","password":true,"vac":true,"version":"7695204","steam_id":85568392924964315,"keywords":["cp","nocrits","nodmgspread","uncletopia"],"game_id":440,"stv_port":27086,"stv_name":"Uncletopia | London | 8 | Community | STV","players":null},{"server_id":300,"name":"Uncletopia | Montr√©al | 1 | All Maps","name_short":"mtl-1","host":"mtl-1.ca.uncletopia.com","port":27015,"enabled":true,"region":"us-east","cc":"ca","latitude":45.50889,"longitude":-73.56167,"reserved":0,"last_update":"0001-01-01T00:00:00Z","name_a2s":"Uncletopia | Montr√©al | 1 | All Maps","protocol":17,"map":"koth_cascade","folder":"tf","game":"Team Fortress","app_id":440,"player_count":0,"max_players":24,"Bots":0,"server_type":"Dedicated","server_os":"Linux","password":true,"vac":true,"version":"7695204","steam_id":85568392924500087,"keywords":["cp","nocrits","nodmgspread","uncletopia"],"game_id":440,"stv_port":27016,"stv_name":"Uncletopia | Montr√©al | 1 | All Maps | STV","players":null},{"server_id":301,"name":"Uncletopia | Montr√©al | 2 | All Maps","name_short":"mtl-2","host":"mtl-1.ca.uncletopia.com","port":27025,"enabled":true,"region":"us-east","cc":"ca","latitude":45.50889,"longitude":-73.56167,"reserved":0,"last_update":"0001-01-01T00:00:00Z","name_a2s":"Uncletopia | Montr√©al | 2 | All Maps","protocol":17,"map":"pl_snowycoast","folder":"tf","game":"Team Fortress","app_id":440,"player_count":0,"max_players":24,"Bots":0,"server_type":"Dedicated","server_os":"Linux","password":true,"vac":true,"version":"7695204","steam_id":85568392924500088,"keywords":["nocrits","nodmgspread","payload","uncletopia"],"game_id":440,"stv_port":0,"stv_name":"","players":null},{"server_id":302,"name":"Uncletopia | Montr√©al | 3 | All Maps","name_short":"mtl-3","host":"mtl-1.ca.uncletopia.com","port":27035,"enabled":true,"region":"us-east","cc":"ca","latitude":45.50889,"longitude":-73.56167,"reserved":0,"last_update":"0001-01-01T00:00:00Z","name_a2s":"Uncletopia | Montr√©al | 3 | All Maps","protocol":17,"map":"koth_viaduct","folder":"tf","game":"Team Fortress","app_id":440,"player_count":0,"max_players":24,"Bots":0,"server_type":"Dedicated","server_os":"Linux","password":true,"vac":true,"version":"7695204","steam_id":85568392924500089,"keywords":["cp","nocrits","nodmgspread","uncletopia"],"game_id":440,"stv_port":0,"stv_name":"","players":null},{"server_id":303,"name":"Uncletopia | Montr√©al | 4 | No Payload","name_short":"mtl-4","host":"mtl-1.ca.uncletopia.com","port":27045,"enabled":true,"region":"us-east","cc":"ca","latitude":45.50889,"longitude":-73.56167,"reserved":0,"last_update":"0001-01-01T00:00:00Z","name_a2s":"Uncletopia | Montr√©al | 4 | No Payload","protocol":17,"map":"cp_dustbowl","folder":"tf","game":"Team Fortress","app_id":440,"player_count":0,"max_players":24,"Bots":0,"server_type":"Dedicated","server_os":"Linux","password":true,"vac":true,"version":"7695204","steam_id":85568392924500090,"keywords":["cp","nocrits","nodmgspread","uncletopia"],"game_id":440,"stv_port":0,"stv_name":"","players":null},{"server_id":13,"name":"Uncletopia | New York City | 1 | All Maps","name_short":"nyc-1","host":"nyc-1.us.uncletopia.com","port":27015,"enabled":true,"region":"us-east","cc":"us","latitude":40.73061,"longitude":-73.93524,"reserved":0,"last_update":"0001-01-01T00:00:00Z","name_a2s":"Uncletopia | New York City | 1 | All Maps","protocol":17,"map":"koth_lakeside_final","folder":"tf","game":"Team Fortress","app_id":440,"player_count":0,"max_players":24,"Bots":0,"server_type":"Dedicated","server_os":"Linux","password":true,"vac":true,"version":"7695204","steam_id":85568392924469993,"keywords":["cp","nocrits","nodmgspread","uncletopia"],"game_id":440,"stv_port":27016,"stv_name":"Uncletopia | New York City | 1 | All Maps | STV","players":null},{"server_id":14,"name":"Uncletopia | New York City | 2 | All Maps","name_short":"nyc-2","host":"nyc-1.us.uncletopia.com","port":27025,"enabled":true,"region":"us-east","cc":"us","latitude":40.73061,"longitude":-73.93524,"reserved":0,"last_update":"0001-01-01T00:00:00Z","name_a2s":"Uncletopia | New York City | 2 | All Maps","protocol":17,"map":"pl_borneo","folder":"tf","game":"Team Fortress","app_id":440,"player_count":0,"max_players":24,"Bots":0,"server_type":"Dedicated","server_os":"Linux","password":true,"vac":true,"version":"7695204","steam_id":85568392924469994,"keywords":["nocrits","nodmgspread","payload","uncletopia"],"game_id":440,"stv_port":0,"stv_name":"","players":null},{"server_id":15,"name":"Uncletopia | New York City | 3 | All Maps","name_short":"nyc-3","host":"nyc-1.us.uncletopia.com","port":27035,"enabled":true,"region":"us-east","cc":"us","latitude":40.73061,"longitude":-73.93524,"reserved":0,"last_update":"0001-01-01T00:00:00Z","name_a2s":"Uncletopia | New York City | 3 | All Maps","protocol":17,"map":"koth_highpass","folder":"tf","game":"Team Fortress","app_id":440,"player_count":0,"max_players":24,"Bots":0,"server_type":"Dedicated","server_os":"Linux","password":true,"vac":true,"version":"7695204","steam_id":85568392924742820,"keywords":["cp","nocrits","nodmgspread","uncletopia"],"game_id":440,"stv_port":27036,"stv_name":"Uncletopia | New York City | 3 | All Maps | STV","players":null},{"server_id":16,"name":"Uncletopia | New York City | 4 | Community","name_short":"nyc-4","host":"nyc-1.us.uncletopia.com","port":27045,"enabled":true,"region":"us-east","cc":"us","latitude":40.73061,"longitude":-73.93524,"reserved":0,"last_update":"0001-01-01T00:00:00Z","name_a2s":"Uncletopia | New York City | 4 | Community","protocol":17,"map":"workshop/cp_logjam_rc12.ugc454812035","folder":"tf","game":"Team Fortress","app_id":440,"player_count":0,"max_players":24,"Bots":0,"server_type":"Dedicated","server_os":"Linux","password":true,"vac":true,"version":"7695204","steam_id":85568392924742821,"keywords":["cp","nocrits","nodmgspread","uncletopia"],"game_id":440,"stv_port":27046,"stv_name":"Uncletopia | New York City | 4 | Community | STV","players":null},{"server_id":142,"name":"Uncletopia | S√£o Paulo | 1 | All Maps","name_short":"sao-1","host":"sao-1.br.uncletopia.com","port":27015,"enabled":true,"region":"sa","cc":"br","latitude":-23.533773,"longitude":-46.62529,"reserved":0,"last_update":"0001-01-01T00:00:00Z","name_a2s":"Uncletopia | S√£o Paulo | 1 | All Maps","protocol":17,"map":"koth_viaduct","folder":"tf","game":"Team Fortress","app_id":440,"player_count":0,"max_players":24,"Bots":0,"server_type":"Dedicated","server_os":"Linux","password":true,"vac":true,"version":"7695204","steam_id":85568392924469996,"keywords":["cp","nocrits","nodmgspread","uncletopia"],"game_id":440,"stv_port":27016,"stv_name":"Uncletopia | S√£o Paulo | 1 | All Maps | STV","players":null},{"server_id":143,"name":"Uncletopia | S√£o Paulo | 2 | All Maps","name_short":"sao-2","host":"sao-2.br.uncletopia.com","port":27015,"enabled":true,"region":"sa","cc":"br","latitude":-23.533773,"longitude":-46.62529,"reserved":0,"last_update":"0001-01-01T00:00:00Z","name_a2s":"Uncletopia | S√£o Paulo | 2 | All Maps","protocol":17,"map":"pl_upward","folder":"tf","game":"Team Fortress","app_id":440,"player_count":10,"max_players":24,"Bots":0,"server_type":"Dedicated","server_os":"Linux","password":true,"vac":true,"version":"7695204","steam_id":85568392924485349,"keywords":["nocrits","nodmgspread","payload","uncletopia"],"game_id":440,"stv_port":27016,"stv_name":"Uncletopia | S√£o Paulo | 2 | All Maps | STV","players":[{"user_id":124,"name":"Pietro07","steam_id":76561199017332044,"connected_time":139000000000,"state":"active","ping":45},{"user_id":125,"name":"Abicto","steam_id":76561198996883195,"connected_time":74000000000,"state":"active","ping":33},{"user_id":126,"name":"matheus_lanches","steam_id":76561199359501901,"connected_time":37000000000,"state":"active","ping":34},{"user_id":118,"name":"Mate","steam_id":76561199246242866,"connected_time":1377000000000,"state":"active","ping":70},{"user_id":104,"name":"Baknaffek","steam_id":76561198298416173,"connected_time":2358000000000,"state":"active","ping":106},{"user_id":73,"name":"Sanches","steam_id":76561198006932156,"connected_time":3928000000000,"state":"active","ping":92},{"user_id":93,"name":"xPhillyB0Yx","steam_id":76561199350466008,"connected_time":2913000000000,"state":"active","ping":45},{"user_id":75,"name":"N‚òÜV","steam_id":76561198101972840,"connected_time":3760000000000,"state":"active","ping":70},{"user_id":52,"name":"yrk","steam_id":76561198332577325,"connected_time":5830000000000,"state":"active","ping":44},{"user_id":113,"name":"hat","steam_id":76561199059544454,"connected_time":2004000000000,"state":"active","ping":48}]},{"server_id":7,"name":"Uncletopia | Seattle | 1 | All Maps","name_short":"sea-1","host":"sea-1.us.uncletopia.com","port":27015,"enabled":true,"region":"us-west","cc":"us","latitude":47.608013,"longitude":-122.33517,"reserved":0,"last_update":"0001-01-01T00:00:00Z","name_a2s":"Uncletopia | Seattle | 1 | All Maps","protocol":17,"map":"koth_viaduct","folder":"tf","game":"Team Fortress","app_id":440,"player_count":0,"max_players":24,"Bots":0,"server_type":"Dedicated","server_os":"Linux","password":true,"vac":true,"version":"7695204","steam_id":85568392924469997,"keywords":["cp","nocrits","nodmgspread","uncletopia"],"game_id":440,"stv_port":27016,"stv_name":"Uncletopia | Seattle | 1 | All Maps | STV","players":null},{"server_id":119,"name":"Uncletopia | Seattle | 2 | All Maps","name_short":"sea-2","host":"sea-1.us.uncletopia.com","port":27025,"enabled":true,"region":"us-west","cc":"us","latitude":47.608013,"longitude":-122.33517,"reserved":0,"last_update":"0001-01-01T00:00:00Z","name_a2s":"Uncletopia | Seattle | 2 | All Maps","protocol":17,"map":"koth_lakeside_final","folder":"tf","game":"Team Fortress","app_id":440,"player_count":0,"max_players":24,"Bots":0,"server_type":"Dedicated","server_os":"Linux","password":true,"vac":true,"version":"7695204","steam_id":85568392924469998,"keywords":["cp","nocrits","nodmgspread","uncletopia"],"game_id":440,"stv_port":0,"stv_name":"","players":null},{"server_id":17,"name":"Uncletopia | San Francisco | 1 | All Maps","name_short":"sfo-1","host":"sfo-1.us.uncletopia.com","port":27015,"enabled":true,"region":"us-west","cc":"us","latitude":37.77397,"longitude":-122.4313,"reserved":0,"last_update":"0001-01-01T00:00:00Z","name_a2s":"Uncletopia | San Francisco | 1 | All Maps","protocol":17,"map":"cp_sunshine","folder":"tf","game":"Team Fortress","app_id":440,"player_count":0,"max_players":24,"Bots":0,"server_type":"Dedicated","server_os":"Linux","password":true,"vac":true,"version":"7695204","steam_id":85568392924469999,"keywords":["cp","nocrits","nodmgspread","uncletopia"],"game_id":440,"stv_port":0,"stv_name":"","players":null},{"server_id":18,"name":"Uncletopia | San Francisco | 2 | All Maps","name_short":"sfo-2","host":"sfo-1.us.uncletopia.com","port":27025,"enabled":true,"region":"us-west","cc":"us","latitude":37.77397,"longitude":-122.4313,"reserved":0,"last_update":"0001-01-01T00:00:00Z","name_a2s":"Uncletopia | San Francisco | 2 | All Maps","protocol":17,"map":"pl_badwater","folder":"tf","game":"Team Fortress","app_id":440,"player_count":0,"max_players":24,"Bots":0,"server_type":"Dedicated","server_os":"Linux","password":true,"vac":true,"version":"7695204","steam_id":85568392924470000,"keywords":["nocrits","nodmgspread","payload","uncletopia"],"game_id":440,"stv_port":0,"stv_name":"","players":null},{"server_id":19,"name":"Uncletopia | San Francisco | 3 | No Payload","name_short":"sfo-3","host":"sfo-1.us.uncletopia.com","port":27035,"enabled":true,"region":"us-west","cc":"us","latitude":37.77397,"longitude":-122.4313,"reserved":0,"last_update":"0001-01-01T00:00:00Z","name_a2s":"Uncletopia | San Francisco | 3 | No Payload","protocol":17,"map":"cp_snakewater_final1","folder":"tf","game":"Team Fortress","app_id":440,"player_count":0,"max_players":24,"Bots":0,"server_type":"Dedicated","server_os":"Linux","password":true,"vac":true,"version":"7695204","steam_id":85568392924742824,"keywords":["cp","nocrits","nodmgspread","uncletopia"],"game_id":440,"stv_port":0,"stv_name":"","players":null},{"server_id":20,"name":"Uncletopia | San Francisco | 4 | Community","name_short":"sfo-4","host":"sfo-1.us.uncletopia.com","port":27045,"enabled":true,"region":"us-west","cc":"us","latitude":37.77397,"longitude":-122.4313,"reserved":0,"last_update":"0001-01-01T00:00:00Z","name_a2s":"Uncletopia | San Francisco | 4 | Community","protocol":17,"map":"koth_highpass","folder":"tf","game":"Team Fortress","app_id":440,"player_count":0,"max_players":24,"Bots":0,"server_type":"Dedicated","server_os":"Linux","password":true,"vac":true,"version":"7695204","steam_id":85568392924742826,"keywords":["cp","nocrits","nodmgspread","uncletopia"],"game_id":440,"stv_port":0,"stv_name":"","players":null},{"server_id":141,"name":"Uncletopia | Sydney | 1 | All Maps","name_short":"syd-1","host":"syd-1.au.uncletopia.com","port":27015,"enabled":true,"region":"au","cc":"au","latitude":-33.865143,"longitude":151.2099,"reserved":0,"last_update":"0001-01-01T00:00:00Z","name_a2s":"Uncletopia | Sydney | 1 | All Maps","protocol":17,"map":"pl_pier","folder":"tf","game":"Team Fortress","app_id":440,"player_count":0,"max_players":24,"Bots":0,"server_type":"Dedicated","server_os":"Linux","password":true,"vac":true,"version":"7695204","steam_id":85568392924470001,"keywords":["nocrits","nodmgspread","payload","uncletopia"],"game_id":440,"stv_port":27016,"stv_name":"Uncletopia | Sydney | 1 | All Maps | STV","players":null},{"server_id":123,"name":"Uncletopia | Sydney | 2 | All Maps","name_short":"syd-2","host":"syd-1.au.uncletopia.com","port":27025,"enabled":true,"region":"au","cc":"au","latitude":-33.865143,"longitude":151.2099,"reserved":0,"last_update":"0001-01-01T00:00:00Z","name_a2s":"Uncletopia | Sydney | 2 | All Maps","protocol":17,"map":"koth_cascade","folder":"tf","game":"Team Fortress","app_id":440,"player_count":0,"max_players":24,"Bots":0,"server_type":"Dedicated","server_os":"Linux","password":true,"vac":true,"version":"7695204","steam_id":85568392924470002,"keywords":["cp","nocrits","nodmgspread","uncletopia"],"game_id":440,"stv_port":27026,"stv_name":"Uncletopia | Sydney | 2 | All Maps | STV","players":null},{"server_id":395,"name":"Uncletopia | Sydney | 3 | All Maps","name_short":"syd-3","host":"syd-1.au.uncletopia.com","port":27035,"enabled":true,"region":"au","cc":"au","latitude":-33.865143,"longitude":151.2099,"reserved":0,"last_update":"0001-01-01T00:00:00Z","name_a2s":"Uncletopia | Sydney | 3 | All Maps","protocol":17,"map":"cp_sunshine","folder":"tf","game":"Team Fortress","app_id":440,"player_count":0,"max_players":24,"Bots":0,"server_type":"Dedicated","server_os":"Linux","password":true,"vac":true,"version":"7695204","steam_id":85568392925194467,"keywords":["cp","nocrits","nodmgspread","uncletopia"],"game_id":440,"stv_port":27036,"stv_name":"Uncletopia | Sydney | 3 | All Maps | STV","players":null},{"server_id":396,"name":"Uncletopia | Sydney | 4 | All Maps","name_short":"syd-4","host":"syd-1.au.uncletopia.com","port":27045,"enabled":true,"region":"au","cc":"au","latitude":-33.865143,"longitude":151.2099,"reserved":0,"last_update":"0001-01-01T00:00:00Z","name_a2s":"Uncletopia | Sydney | 4 | All Maps","protocol":17,"map":"cp_snakewater_final1","folder":"tf","game":"Team Fortress","app_id":440,"player_count":0,"max_players":24,"Bots":0,"server_type":"Dedicated","server_os":"Linux","password":true,"vac":true,"version":"7695204","steam_id":85568392925397958,"keywords":["cp","nocrits","nodmgspread","uncletopia"],"game_id":440,"stv_port":27046,"stv_name":"Uncletopia | Sydney | 4 | All Maps | STV","players":null},{"server_id":58,"name":"Uncletopia | Sydney | 5 | No Payload","name_short":"syd-5","host":"syd-1.au.uncletopia.com","port":27055,"enabled":true,"region":"au","cc":"au","latitude":-33.865143,"longitude":151.2099,"reserved":0,"last_update":"0001-01-01T00:00:00Z","name_a2s":"Uncletopia | Sydney | 5 | No Payload","protocol":17,"map":"koth_sawmill","folder":"tf","game":"Team Fortress","app_id":440,"player_count":0,"max_players":24,"Bots":0,"server_type":"Dedicated","server_os":"Linux","password":true,"vac":true,"version":"7695204","steam_id":85568392925397959,"keywords":["cp","nocrits","nodmgspread","uncletopia"],"game_id":440,"stv_port":27056,"stv_name":"Uncletopia | Sydney | 5 | No Payload | STV","players":null},{"server_id":59,"name":"Uncletopia | Sydney | 6 | Community","name_short":"syd-6","host":"syd-1.au.uncletopia.com","port":27065,"enabled":true,"region":"au","cc":"au","latitude":-33.865143,"longitude":151.2099,"reserved":0,"last_update":"0001-01-01T00:00:00Z","name_a2s":"Uncletopia | Sydney | 6 | Community","protocol":17,"map":"workshop/koth_ashville_final.ugc2130459942","folder":"tf","game":"Team Fortress","app_id":440,"player_count":0,"max_players":24,"Bots":0,"server_type":"Dedicated","server_os":"Linux","password":true,"vac":true,"version":"7695204","steam_id":85568392925397960,"keywords":["cp","nocrits","nodmgspread","uncletopia"],"game_id":440,"stv_port":27066,"stv_name":"Uncletopia | Sydney | 6 | Community | STV","players":null},{"server_id":49,"name":"Uncletopia | Warsaw | 1 | All Maps","name_short":"waw-1","host":"waw-1.pl.uncletopia.com","port":27015,"enabled":true,"region":"eu","cc":"pl","latitude":52.2297,"longitude":21.017532,"reserved":0,"last_update":"0001-01-01T00:00:00Z","name_a2s":"Uncletopia | Warsaw | 1 | All Maps","protocol":17,"map":"koth_lakeside_final","folder":"tf","game":"Team Fortress","app_id":440,"player_count":0,"max_players":24,"Bots":0,"server_type":"Dedicated","server_os":"Linux","password":true,"vac":true,"version":"7695204","steam_id":85568392925397850,"keywords":["cp","nocrits","nodmgspread","uncletopia"],"game_id":440,"stv_port":27016,"stv_name":"Uncletopia | Warsaw | 1 | All Maps | STV","players":null},{"server_id":50,"name":"Uncletopia | Warsaw | 2 | All Maps","name_short":"waw-2","host":"waw-1.pl.uncletopia.com","port":27025,"enabled":true,"region":"eu","cc":"pl","latitude":52.2297,"longitude":21.017532,"reserved":0,"last_update":"0001-01-01T00:00:00Z","name_a2s":"Uncletopia | Warsaw | 2 | All Maps","protocol":17,"map":"pl_swiftwater_final1","folder":"tf","game":"Team Fortress","app_id":440,"player_count":0,"max_players":24,"Bots":0,"server_type":"Dedicated","server_os":"Linux","password":true,"vac":true,"version":"7695204","steam_id":85568392925397851,"keywords":["nocrits","nodmgspread","payload","uncletopia"],"game_id":440,"stv_port":27026,"stv_name":"Uncletopia | Warsaw | 2 | All Maps | STV","players":null},{"server_id":51,"name":"Uncletopia | Warsaw | 3 | All Maps","name_short":"waw-3","host":"waw-1.pl.uncletopia.com","port":27035,"enabled":true,"region":"eu","cc":"pl","latitude":52.2297,"longitude":21.017532,"reserved":0,"last_update":"0001-01-01T00:00:00Z","name_a2s":"Uncletopia | Warsaw | 3 | All Maps","protocol":17,"map":"koth_lakeside_final","folder":"tf","game":"Team Fortress","app_id":440,"player_count":0,"max_players":24,"Bots":0,"server_type":"Dedicated","server_os":"Linux","password":true,"vac":true,"version":"7695204","steam_id":85568392925397852,"keywords":["cp","nocrits","nodmgspread","uncletopia"],"game_id":440,"stv_port":27036,"stv_name":"Uncletopia | Warsaw | 3 | All Maps | STV","players":null},{"server_id":52,"name":"Uncletopia | Warsaw | 4 | All Maps","name_short":"waw-4","host":"waw-1.pl.uncletopia.com","port":27045,"enabled":true,"region":"eu","cc":"pl","latitude":52.2297,"longitude":21.017532,"reserved":0,"last_update":"0001-01-01T00:00:00Z","name_a2s":"Uncletopia | Warsaw | 4 | All Maps","protocol":17,"map":"cp_process_final","folder":"tf","game":"Team Fortress","app_id":440,"player_count":0,"max_players":24,"Bots":0,"server_type":"Dedicated","server_os":"Linux","password":true,"vac":true,"version":"7695204","steam_id":85568392925397853,"keywords":["cp","nocrits","nodmgspread","uncletopia"],"game_id":440,"stv_port":27046,"stv_name":"Uncletopia | Warsaw | 4 | All Maps | STV","players":null},{"server_id":53,"name":"Uncletopia | Warsaw | 5 | No Payload","name_short":"waw-5","host":"waw-1.pl.uncletopia.com","port":27055,"enabled":true,"region":"eu","cc":"pl","latitude":52.2297,"longitude":21.017532,"reserved":0,"last_update":"0001-01-01T00:00:00Z","name_a2s":"Uncletopia | Warsaw | 5 | No Payload","protocol":17,"map":"koth_king","folder":"tf","game":"Team Fortress","app_id":440,"player_count":0,"max_players":24,"Bots":0,"server_type":"Dedicated","server_os":"Linux","password":true,"vac":true,"version":"7695204","steam_id":85568392925397854,"keywords":["cp","nocrits","nodmgspread","uncletopia"],"game_id":440,"stv_port":27056,"stv_name":"Uncletopia | Warsaw | 5 | No Payload | STV","players":null},{"server_id":54,"name":"Uncletopia | Warsaw | 6 | Community","name_short":"waw-6","host":"waw-1.pl.uncletopia.com","port":27065,"enabled":true,"region":"eu","cc":"pl","latitude":52.2297,"longitude":21.017532,"reserved":0,"last_update":"0001-01-01T00:00:00Z","name_a2s":"Uncletopia | Warsaw | 6 | Community","protocol":17,"map":"workshop/koth_ashville_final.ugc2130459942","folder":"tf","game":"Team Fortress","app_id":440,"player_count":0,"max_players":24,"Bots":0,"server_type":"Dedicated","server_os":"Linux","password":true,"vac":true,"version":"7695204","steam_id":85568392925397856,"keywords":["cp","nocrits","nodmgspread","uncletopia"],"game_id":440,"stv_port":27066,"stv_name":"Uncletopia | Warsaw | 6 | Community | STV","players":null}]}