{"status":true,"message":"","result":[{"server_id":9,"name":"Uncletopia | Atlanta | 1 | All Maps","name_short":"atl-1","host":"atl-1.us.uncletopia.com","port":27015,"enabled":true,"region":"us-east","cc":"us","latitude":33.753746,"longitude":-84.38633,"reserved":0,"last_update":"0001-01-01T00:00:00Z","name_a2s":"Uncletopia | Atlanta | 1 | All Maps","protocol":17,"map":"pl_badwater","folder":"tf","game":"Team Fortress","app_id":440,"player_count":24,"max_players":24,"Bots":0,"server_type":"Dedicated","server_os":"Linux","password":true,"vac":true,"version":"7757534","steam_id":85568392924469982,"keywords":["nocrits","nodmgspread","payload","uncletopia"],"game_id":440,"stv_port":27016,"stv_name":"Uncletopia | Atlanta | 1 | All Maps | STV","players":[{"user_id":34,"name":"Alkivo","steam_id":76561198315999766,"connected_time":1844000000000,"state":"active","ping":75},{"user_id":35,"name":"ATL1 | Kramer","steam_id":76561198083595936,"connected_time":1833000000000,"state":"active","ping":74},{"user_id":39,"name":"PerpetuaForever","steam_id":76561198347444353,"connected_time":1387000000000,"state":"active","ping":68},{"user_id":45,"name":"Funny Skeleton Man","steam_id":76561198264262564,"connected_time":1273000000000,"state":"active","ping":92},{"user_id":40,"name":"tulpa","steam_id":76561198013253513,"connected_time":1368000000000,"state":"active","ping":64},{"user_id":42,"name":"bustam0v","steam_id":76561198062001355,"connected_time":1336000000000,"state":"active","ping":67},{"user_id":44,"name":"Saikyo","steam_id":76561198212461467,"connected_time":1284000000000,"state":"active","ping":72},{"user_id":68,"name":"-Joker-","steam_id":76561198865501612,"connected_time":335000000000,"state":"active","ping":75},{"user_id":47,"name":"vid_","steam_id":76561198065159053,"connected_time":1162000000000,"state":"active","ping":46},{"user_id":48,"name":"The Gremlin","steam_id":76561198419066993,"connected_time":1145000000000,"state":"active","ping":119},{"user_id":50,"name":"may (may)","steam_id":76561198195828454,"connected_time":1092000000000,"state":"active","ping":51},{"user_id":52,"name":"custodian","steam_id":76561198058793778,"connected_time":1022000000000,"state":"active","ping":83},{"user_id":53,"name":"Just Vibin","steam_id":76561199170786469,"connected_time":1002000000000,"state":"active","ping":120},{"user_id":69,"name":"Big Phony","steam_id":76561199092395311,"connected_time":29000000000,"state":"active","ping":83},{"user_id":67,"name":"Kermoil","steam_id":76561198065149816,"connected_time":416000000000,"state":"active","ping":87},{"user_id":57,"name":"Cretin32","steam_id":76561198986265728,"connected_time":910000000000,"state":"active","ping":89},{"user_id":59,"name":"polarbub","steam_id":76561198991022799,"connected_time":794000000000,"state":"active","ping":83},{"user_id":60,"name":"B A L L E R","steam_id":76561199098464343,"connected_time":741000000000,"state":"active","ping":53},{"user_id":61,"name":"Mikael_01","steam_id":76561199080253129,"connected_time":701000000000,"state":"active","ping":193},{"user_id":62,"name":"Nyle","steam_id":76561198045652639,"connected_time":667000000000,"state":"active","ping":115},{"user_id":63,"name":"Anji's onlyfans","steam_id":76561198353160282,"connected_time":659000000000,"state":"active","ping":73},{"user_id":64,"name":"Titan Tezwa","steam_id":76561198030320618,"connected_time":638000000000,"state":"active","ping":86},{"user_id":65,"name":"HawkkTM","steam_id":76561198061668276,"connected_time":631000000000,"state":"active","ping":74},{"user_id":66,"name":"abolish the federal reserve","steam_id":76561198047796437,"connected_time":626000000000,"state":"active","ping":104}]},{"server_id":400,"name":"Uncletopia | Atlanta | 3 | Stopwatch Beta","name_short":"atl-3","host":"atl-1.us.uncletopia.com","port":27035,"enabled":true,"region":"us-east","cc":"us","latitude":33.753746,"longitude":-84.38633,"reserved":0,"last_update":"0001-01-01T00:00:00Z","name_a2s":"Uncletopia | Atlanta | 3 | Stopwatch Beta","protocol":17,"map":"pl_upward","folder":"tf","game":"Team Fortress","app_id":440,"player_count":0,"max_players":24,"Bots":0,"server_type":"Dedicated","server_os":"Linux","password":true,"vac":true,"version":"7757534","steam_id":85568392924515187,"keywords":["nocrits","nodmgspread","payload","uncletopia"],"game_id":440,"stv_port":27036,"stv_name":"Uncletopia | Atlanta | 3 | Stopwatch Beta | STV","players":null},{"server_id":401,"name":"Uncletopia | Atlanta | 4 | No Payload","name_short":"atl-4","host":"atl-1.us.uncletopia.com","port":27045,"enabled":true,"region":"us-east","cc":"us","latitude":33.753746,"longitude":-84.38633,"reserved":0,"last_update":"0001-01-01T00:00:00Z","name_a2s":"Uncletopia | Atlanta | 4 | No Payload","protocol":17,"map":"pl_pier","folder":"tf","game":"Team Fortress","app_id":440,"player_count":0,"max_players":24,"Bots":0,"server_type":"Dedicated","server_os":"Linux","password":true,"vac":true,"version":"7723704","steam_id":85568392924515188,"keywords":["nocrits","nodmgspread","payload","uncletopia"],"game_id":440,"stv_port":27046,"stv_name":"Uncletopia | Atlanta | 4 | No Payload | STV","players":null},{"server_id":2,"name":"Uncletopia | Chicago | 1 | All Maps","name_short":"chi-1","host":"chi-1.us.uncletopia.com","port":27015,"enabled":true,"region":"us-central","cc":"us","latitude":41.881832,"longitude":-87.62318,"reserved":0,"last_update":"0001-01-01T00:00:00Z","name_a2s":"Uncletopia | Chicago | 1 | All Maps","protocol":17,"map":"pl_pier","folder":"tf","game":"Team Fortress","app_id":440,"player_count":24,"max_players":24,"Bots":0,"server_type":"Dedicated","server_os":"Linux","password":true,"vac":true,"version":"7757534","steam_id":85568392924469984,"keywords":["nocrits","nodmgspread","payload","uncletopia"],"game_id":440,"stv_port":27016,"stv_name":"Uncletopia | Chicago | 1 | All Maps | STV","players":[{"user_id":121,"name":"Terium","steam_id":76561198331234327,"connected_time":3225000000000,"state":"active","ping":58},{"user_id":152,"name":"Terminatormk308","steam_id":76561199077114176,"connected_time":887000000000,"state":"active","ping":78},{"user_id":153,"name":"Dr. Sallad ü¶Ñ","steam_id":76561198217118456,"connected_time":886000000000,"state":"active","ping":160},{"user_id":142,"name":"Monti","steam_id":76561198007141798,"connected_time":1917000000000,"state":"active","ping":38},{"user_id":136,"name":"A Pyro Main","steam_id":76561198421760112,"connected_time":2164000000000,"state":"active","ping":49},{"user_id":163,"name":"lightcatnap","steam_id":76561199385584854,"connected_time":298000000000,"state":"active","ping":93},{"user_id":144,"name":"[chef] iron","steam_id":76561197970888616,"connected_time":1482000000000,"state":"active","ping":44},{"user_id":164,"name":"TheAntiSocialButterfly","steam_id":76561198045505509,"connected_time":263000000000,"state":"active","ping":61},{"user_id":165,"name":"Stew Eater","steam_id":76561198978307159,"connected_time":202000000000,"state":"active","ping":64},{"user_id":155,"name":"License","steam_id":76561197967501494,"connected_time":874000000000,"state":"active","ping":94},{"user_id":157,"name":"capybara","steam_id":76561198798828328,"connected_time":558000000000,"state":"active","ping":52},{"user_id":146,"name":"edwinbrood","steam_id":76561198044848769,"connected_time":1259000000000,"state":"active","ping":47},{"user_id":129,"name":"BigBubble42","steam_id":76561198136286123,"connected_time":2830000000000,"state":"active","ping":53},{"user_id":156,"name":"B45Guy","steam_id":76561198117290531,"connected_time":861000000000,"state":"active","ping":64},{"user_id":160,"name":"SCATTER [CTF2 DEV]","steam_id":76561198405168492,"connected_time":429000000000,"state":"active","ping":85},{"user_id":149,"name":"Karma","steam_id":76561198030565234,"connected_time":1075000000000,"state":"active","ping":72},{"user_id":86,"name":"fresco","steam_id":76561199101199477,"connected_time":5869000000000,"state":"active","ping":59},{"user_id":140,"name":"Indigolake","steam_id":76561198202215807,"connected_time":2120000000000,"state":"active","ping":73},{"user_id":106,"name":"Goosher","steam_id":76561198052121130,"connected_time":4404000000000,"state":"active","ping":67},{"user_id":108,"name":"dbelow_","steam_id":76561198056148853,"connected_time":4389000000000,"state":"active","ping":64},{"user_id":134,"name":"Furry Saul Goodman","steam_id":76561198069580305,"connected_time":2372000000000,"state":"active","ping":55},{"user_id":127,"name":"spring bonnie","steam_id":76561198988350454,"connected_time":2979000000000,"state":"active","ping":158},{"user_id":143,"name":"nhbiker","steam_id":76561198081277675,"connected_time":1855000000000,"state":"active","ping":59},{"user_id":151,"name":"loco503","steam_id":76561198827495121,"connected_time":901000000000,"state":"active","ping":109}]},{"server_id":106,"name":"Uncletopia | Chicago | 2 | All Maps","name_short":"chi-2","host":"chi-1.us.uncletopia.com","port":27025,"enabled":true,"region":"us-central","cc":"us","latitude":41.881832,"longitude":-87.62318,"reserved":0,"last_update":"0001-01-01T00:00:00Z","name_a2s":"Uncletopia | Chicago | 2 | All Maps","protocol":17,"map":"cp_gravelpit","folder":"tf","game":"Team Fortress","app_id":440,"player_count":21,"max_players":24,"Bots":0,"server_type":"Dedicated","server_os":"Linux","password":true,"vac":true,"version":"7757534","steam_id":85568392924469985,"keywords":["cp","nocrits","nodmgspread","uncletopia"],"game_id":440,"stv_port":27026,"stv_name":"Uncletopia | Chicago | 2 | All Maps | STV","players":[{"user_id":227,"name":"dan","steam_id":76561198061589465,"connected_time":230000000000,"state":"active","ping":60},{"user_id":233,"name":"Fermenting Kiwi","steam_id":76561198253303497,"connected_time":106000000000,"state":"active","ping":72},{"user_id":228,"name":"frank","steam_id":76561198045436159,"connected_time":170000000000,"state":"active","ping":72},{"user_id":229,"name":"13 INCH TGIRL SCHLONG","steam_id":76561198122059018,"connected_time":158000000000,"state":"active","ping":66},{"user_id":230,"name":"shephard","steam_id":76561198043367011,"connected_time":155000000000,"state":"active","ping":61},{"user_id":235,"name":"1HandsomeLAD","steam_id":76561198807047496,"connected_time":72000000000,"state":"active","ping":79},{"user_id":226,"name":"D7NAMM0","steam_id":76561198356245658,"connected_time":244000000000,"state":"active","ping":55},{"user_id":225,"name":"Strawburrr","steam_id":76561199208694620,"connected_time":281000000000,"state":"active","ping":70},{"user_id":188,"name":"squaggles!","steam_id":76561197994995011,"connected_time":3666000000000,"state":"active","ping":57},{"user_id":183,"name":"Le","steam_id":76561198817754233,"connected_time":3775000000000,"state":"active","ping":83},{"user_id":173,"name":"Underscore","steam_id":76561198374209415,"connected_time":4122000000000,"state":"active","ping":58},{"user_id":231,"name":"Hippo","steam_id":76561198096026996,"connected_time":132000000000,"state":"active","ping":74},{"user_id":232,"name":"Medic","steam_id":76561199144302768,"connected_time":132000000000,"state":"active","ping":73},{"user_id":83,"name":"Ojen","steam_id":76561197998414482,"connected_time":12548000000000,"state":"active","ping":71},{"user_id":234,"name":"BurnN8or101","steam_id":76561198132668224,"connected_time":92000000000,"state":"active","ping":76},{"user_id":203,"name":"rumes","steam_id":76561198349219467,"connected_time":2846000000000,"state":"active","ping":92},{"user_id":206,"name":"NovaStar","steam_id":76561198421340963,"connected_time":2807000000000,"state":"active","ping":72},{"user_id":218,"name":"Maik","steam_id":76561198045257088,"connected_time":1270000000000,"state":"active","ping":121},{"user_id":198,"name":"Visual Depression","steam_id":76561198825918366,"connected_time":3316000000000,"state":"active","ping":104},{"user_id":207,"name":"mr ploobmeister","steam_id":76561198128908529,"connected_time":2680000000000,"state":"active","ping":74},{"user_id":224,"name":"Big McThankies From McSpankies","steam_id":76561198020516880,"connected_time":318000000000,"state":"active","ping":95}]},{"server_id":402,"name":"Uncletopia | Chicago | 3 | All Maps","name_short":"chi-3","host":"chi-1.us.uncletopia.com","port":27035,"enabled":true,"region":"us-central","cc":"us","latitude":41.881832,"longitude":-87.62318,"reserved":0,"last_update":"0001-01-01T00:00:00Z","name_a2s":"Uncletopia | Chicago | 3 | All Maps","protocol":17,"map":"koth_badlands","folder":"tf","game":"Team Fortress","app_id":440,"player_count":0,"max_players":24,"Bots":0,"server_type":"Dedicated","server_os":"Linux","password":true,"vac":true,"version":"7757534","steam_id":85568392924515191,"keywords":["cp","nocrits","nodmgspread","uncletopia"],"game_id":440,"stv_port":27036,"stv_name":"Uncletopia | Chicago | 3 | All Maps | STV","players":null},{"server_id":403,"name":"Uncletopia | Chicago | 4 | All Maps","name_short":"chi-4","host":"chi-1.us.uncletopia.com","port":27045,"enabled":true,"region":"us-central","cc":"us","latitude":41.881832,"longitude":-87.62318,"reserved":0,"last_update":"0001-01-01T00:00:00Z","name_a2s":"Uncletopia | Chicago | 4 | All Maps","protocol":17,"map":"koth_cascade","folder":"tf","game":"Team Fortress","app_id":440,"player_count":0,"max_players":24,"Bots":0,"server_type":"Dedicated","server_os":"Linux","password":true,"vac":true,"version":"7757534","steam_id":85568392924515193,"keywords":["cp","nocrits","nodmgspread","uncletopia"],"game_id":440,"stv_port":27046,"stv_name":"Uncletopia | Chicago | 4 | All Maps | STV","players":null},{"server_id":36,"name":"Uncletopia | Chicago | 5 | All Maps","name_short":"chi-5","host":"chi-2.us.uncletopia.com","port":27015,"enabled":true,"region":"us-central","cc":"us","latitude":41.881832,"longitude":-87.62318,"reserved":0,"last_update":"0001-01-01T00:00:00Z","name_a2s":"Uncletopia | Chicago | 5 | All Maps","protocol":17,"map":"cp_snakewater_final1","folder":"tf","game":"Team Fortress","app_id":440,"player_count":24,"max_players":24,"Bots":0,"server_type":"Dedicated","server_os":"Linux","password":true,"vac":true,"version":"7757534","steam_id":85568392924866362,"keywords":["cp","nocrits","nodmgspread","uncletopia"],"game_id":440,"stv_port":27016,"stv_name":"Uncletopia | Chicago | 5 | All Maps | STV","players":[{"user_id":204,"name":"three three","steam_id":76561198177354155,"connected_time":732000000000,"state":"active","ping":53},{"user_id":192,"name":"ryghehn","steam_id":76561198195359229,"connected_time":1166000000000,"state":"active","ping":83},{"user_id":189,"name":"Ankliosumos","steam_id":76561198106443757,"connected_time":1370000000000,"state":"active","ping":76},{"user_id":197,"name":"matchstick","steam_id":76561198190100027,"connected_time":1090000000000,"state":"active","ping":59},{"user_id":126,"name":"SomeScuffedKid","steam_id":76561198086113234,"connected_time":6318000000000,"state":"active","ping":59},{"user_id":212,"name":"Yellow Shinx","steam_id":76561199153332364,"connected_time":82000000000,"state":"active","ping":101},{"user_id":191,"name":"Peepee poopoo","steam_id":76561198236876754,"connected_time":1177000000000,"state":"active","ping":79},{"user_id":190,"name":"vortexgamer","steam_id":76561197999435527,"connected_time":1359000000000,"state":"active","ping":78},{"user_id":173,"name":"Fluffeline","steam_id":76561198352909489,"connected_time":2460000000000,"state":"active","ping":142},{"user_id":179,"name":"Kzjytsugn","steam_id":76561198130241974,"connected_time":2154000000000,"state":"active","ping":84},{"user_id":208,"name":"Lauro","steam_id":76561198806737362,"connected_time":640000000000,"state":"active","ping":179},{"user_id":209,"name":"=FAZE= Fernandinho the Eggplant","steam_id":76561198042988373,"connected_time":601000000000,"state":"active","ping":71},{"user_id":203,"name":"Shinx.m4a","steam_id":76561199013062040,"connected_time":812000000000,"state":"active","ping":97},{"user_id":202,"name":"deech","steam_id":76561198066429444,"connected_time":876000000000,"state":"active","ping":65},{"user_id":210,"name":"God of bread","steam_id":76561198373688035,"connected_time":537000000000,"state":"active","ping":62},{"user_id":211,"name":"gravid baby","steam_id":76561198318646867,"connected_time":93000000000,"state":"active","ping":61},{"user_id":198,"name":"Portaldude626","steam_id":76561198954610452,"connected_time":1073000000000,"state":"active","ping":75},{"user_id":207,"name":"||:‚ô©‚ô©‚ô©‚ô™:|| Opplydead","steam_id":76561198028630334,"connected_time":688000000000,"state":"active","ping":106},{"user_id":183,"name":"NeutrinoCarrot","steam_id":76561199064279851,"connected_time":1836000000000,"state":"active","ping":75},{"user_id":199,"name":"Squatchamo","steam_id":76561198012968239,"connected_time":1063000000000,"state":"active","ping":77},{"user_id":153,"name":"CeigeBirb","steam_id":76561198068538473,"connected_time":4310000000000,"state":"active","ping":75},{"user_id":185,"name":"pOTATO","steam_id":76561198834489470,"connected_time":1809000000000,"state":"active","ping":86},{"user_id":184,"name":"spker s","steam_id":76561198138221795,"connected_time":1834000000000,"state":"active","ping":77},{"user_id":181,"name":"Aeris","steam_id":76561198287271028,"connected_time":2016000000000,"state":"active","ping":54}]},{"server_id":37,"name":"Uncletopia | Chicago | 6 | All Maps","name_short":"chi-6","host":"chi-2.us.uncletopia.com","port":27025,"enabled":true,"region":"us-central","cc":"us","latitude":41.881832,"longitude":-87.62318,"reserved":0,"last_update":"0001-01-01T00:00:00Z","name_a2s":"Uncletopia | Chicago | 6 | All Maps","protocol":17,"map":"pl_badwater","folder":"tf","game":"Team Fortress","app_id":440,"player_count":24,"max_players":24,"Bots":0,"server_type":"Dedicated","server_os":"Linux","password":true,"vac":true,"version":"7757534","steam_id":85568392924866363,"keywords":["nocrits","nodmgspread","payload","uncletopia"],"game_id":440,"stv_port":27026,"stv_name":"Uncletopia | Chicago | 6 | All Maps | STV","players":[{"user_id":11,"name":"dicksnip","steam_id":76561198356515396,"connected_time":7614000000000,"state":"active","ping":93},{"user_id":58,"name":"Bobbn","steam_id":76561198876124683,"connected_time":4563000000000,"state":"active","ping":70},{"user_id":14,"name":"The man who sold 2Fort","steam_id":76561199100003132,"connected_time":7013000000000,"state":"active","ping":151},{"user_id":85,"name":"ham bone","steam_id":76561198351143785,"connected_time":2468000000000,"state":"active","ping":66},{"user_id":81,"name":"totally not a pile of beans","steam_id":76561198119851931,"connected_time":2573000000000,"state":"active","ping":84},{"user_id":102,"name":"schnedwob","steam_id":76561197999146588,"connected_time":304000000000,"state":"active","ping":72},{"user_id":75,"name":"Swedish Crowbar","steam_id":76561199105488936,"connected_time":2660000000000,"state":"active","ping":152},{"user_id":21,"name":"Epicsans24","steam_id":76561199113260090,"connected_time":6197000000000,"state":"active","ping":72},{"user_id":103,"name":"Coolshroomish","steam_id":76561199109440924,"connected_time":263000000000,"state":"active","ping":89},{"user_id":59,"name":"Dipping_Eggs","steam_id":76561198354606995,"connected_time":4560000000000,"state":"active","ping":89},{"user_id":76,"name":"A Wise Witch And Her Penguin","steam_id":76561199013029444,"connected_time":2651000000000,"state":"active","ping":73},{"user_id":96,"name":"TomTheF00l","steam_id":76561198829932650,"connected_time":1350000000000,"state":"active","ping":102},{"user_id":94,"name":"calibri","steam_id":76561198968491699,"connected_time":1495000000000,"state":"active","ping":159},{"user_id":104,"name":"venice stuffed mushroom addict","steam_id":76561199134895220,"connected_time":260000000000,"state":"active","ping":69},{"user_id":108,"name":"[T]aKer","steam_id":76561198001778013,"connected_time":31000000000,"state":"active","ping":137},{"user_id":105,"name":"Sheppy","steam_id":76561198295126940,"connected_time":247000000000,"state":"active","ping":59},{"user_id":92,"name":"tasty","steam_id":76561198083839061,"connected_time":1964000000000,"state":"active","ping":68},{"user_id":84,"name":"surrender to the void","steam_id":76561198055494039,"connected_time":2497000000000,"state":"active","ping":69},{"user_id":106,"name":"Nick Hurz","steam_id":76561197998449897,"connected_time":212000000000,"state":"active","ping":80},{"user_id":66,"name":"WitheringLeo","steam_id":76561198046722918,"connected_time":4114000000000,"state":"active","ping":80},{"user_id":86,"name":"girl.","steam_id":76561198314897603,"connected_time":2462000000000,"state":"active","ping":59},{"user_id":87,"name":"Yoru","steam_id":76561198119698950,"connected_time":2445000000000,"state":"active","ping":120},{"user_id":70,"name":"Rornir","steam_id":76561198081829615,"connected_time":3501000000000,"state":"active","ping":39},{"user_id":107,"name":"boobylover77","steam_id":76561198334511480,"connected_time":182000000000,"state":"active","ping":74}]},{"server_id":38,"name":"Uncletopia | Chicago | 7 | Stopwatch Beta","name_short":"chi-7","host":"chi-2.us.uncletopia.com","port":27035,"enabled":true,"region":"us-central","cc":"us","latitude":41.881832,"longitude":-87.62318,"reserved":0,"last_update":"0001-01-01T00:00:00Z","name_a2s":"Uncletopia | Chicago | 7 | Stopwatch Beta","protocol":17,"map":"cp_metalworks","folder":"tf","game":"Team Fortress","app_id":440,"player_count":0,"max_players":24,"Bots":0,"server_type":"Dedicated","server_os":"Linux","password":true,"vac":true,"version":"7757534","steam_id":85568392924866364,"keywords":["cp","nocrits","nodmgspread","uncletopia"],"game_id":440,"stv_port":27036,"stv_name":"Uncletopia | Chicago | 7 | Stopwatch Beta | STV","players":null},{"server_id":39,"name":"Uncletopia | Chicago | 8 | Community","name_short":"chi-8","host":"chi-2.us.uncletopia.com","port":27045,"enabled":true,"region":"us-central","cc":"us","latitude":41.881832,"longitude":-87.62318,"reserved":0,"last_update":"0001-01-01T00:00:00Z","name_a2s":"Uncletopia | Chicago | 8 | Community","protocol":17,"map":"pl_pier","folder":"tf","game":"Team Fortress","app_id":440,"player_count":0,"max_players":24,"Bots":0,"server_type":"Dedicated","server_os":"Linux","password":true,"vac":true,"version":"7757534","steam_id":85568392924866365,"keywords":["nocrits","nodmgspread","payload","uncletopia"],"game_id":440,"stv_port":27046,"stv_name":"Uncletopia | Chicago | 8 | Community | STV","players":null},{"server_id":8,"name":"Uncletopia | Dallas | 1 | All Maps","name_short":"dal-1","host":"dal-1.us.uncletopia.com","port":27015,"enabled":true,"region":"us-central","cc":"us","latitude":32.779167,"longitude":-96.80889,"reserved":0,"last_update":"0001-01-01T00:00:00Z","name_a2s":"Uncletopia | Dallas | 1 | All Maps","protocol":17,"map":"cp_sunshine","folder":"tf","game":"Team Fortress","app_id":440,"player_count":24,"max_players":24,"Bots":0,"server_type":"Dedicated","server_os":"Linux","password":true,"vac":true,"version":"7757534","steam_id":85568392924469986,"keywords":["cp","nocrits","nodmgspread","uncletopia"],"game_id":440,"stv_port":27016,"stv_name":"Uncletopia | Dallas | 1 | All Maps | STV","players":[{"user_id":272,"name":"CINNAMON THE WINNAMON","steam_id":76561198072790710,"connected_time":195000000000,"state":"active","ping":162},{"user_id":237,"name":"Biggest Dude In Town 4U","steam_id":76561198070281464,"connected_time":2157000000000,"state":"active","ping":92},{"user_id":270,"name":"[LINUX] Konunkier","steam_id":76561198093538786,"connected_time":563000000000,"state":"active","ping":45},{"user_id":144,"name":"Chuckled","steam_id":76561198217425919,"connected_time":3823000000000,"state":"active","ping":86},{"user_id":201,"name":"Motreir","steam_id":76561198151717946,"connected_time":3003000000000,"state":"active","ping":82},{"user_id":273,"name":"Dust","steam_id":76561198063959574,"connected_time":170000000000,"state":"active","ping":99},{"user_id":277,"name":"sevanial","steam_id":76561198071532126,"connected_time":114000000000,"state":"active","ping":59},{"user_id":260,"name":"idiot normie","steam_id":76561198397662124,"connected_time":1570000000000,"state":"active","ping":64},{"user_id":262,"name":"Soney29","steam_id":76561198955863943,"connected_time":1395000000000,"state":"active","ping":105},{"user_id":145,"name":"s p a c e k a t","steam_id":76561198066852209,"connected_time":3823000000000,"state":"active","ping":53},{"user_id":128,"name":"Broadsword","steam_id":76561198011160411,"connected_time":5513000000000,"state":"active","ping":84},{"user_id":81,"name":"Hooray!","steam_id":76561198136487957,"connected_time":9109000000000,"state":"active","ping":61},{"user_id":137,"name":"Rat Smacker","steam_id":76561199090197628,"connected_time":4189000000000,"state":"active","ping":64},{"user_id":275,"name":"ImmenseWraith","steam_id":76561198963757884,"connected_time":137000000000,"state":"active","ping":74},{"user_id":265,"name":"crusty sock","steam_id":76561198134212003,"connected_time":1053000000000,"state":"active","ping":71},{"user_id":130,"name":"Quaker Oats","steam_id":76561197992800293,"connected_time":5500000000000,"state":"active","ping":84},{"user_id":131,"name":"Pancreas Enjoyer","steam_id":76561199438598904,"connected_time":5496000000000,"state":"active","ping":115},{"user_id":161,"name":"FiddyFoMike","steam_id":76561198057072581,"connected_time":3644000000000,"state":"active","ping":85},{"user_id":242,"name":"{0} trader","steam_id":76561198099509834,"connected_time":2045000000000,"state":"active","ping":101},{"user_id":276,"name":"[BUFF] Artgrenadier","steam_id":76561198063305359,"connected_time":122000000000,"state":"active","ping":85},{"user_id":267,"name":"Colonel Sassacre","steam_id":76561198006880656,"connected_time":791000000000,"state":"active","ping":74},{"user_id":222,"name":"Mario Trapped in a Piano (drunk","steam_id":76561198116765135,"connected_time":2672000000000,"state":"active","ping":107},{"user_id":269,"name":"ArrogantPrejudiceCat","steam_id":76561199074887196,"connected_time":705000000000,"state":"active","ping":80},{"user_id":140,"name":"FG7","steam_id":76561198381197197,"connected_time":4087000000000,"state":"active","ping":104}]},{"server_id":108,"name":"Uncletopia | Dallas | 2 | All Maps","name_short":"dal-2","host":"dal-1.us.uncletopia.com","port":27025,"enabled":true,"region":"us-central","cc":"us","latitude":32.779167,"longitude":-96.80889,"reserved":0,"last_update":"0001-01-01T00:00:00Z","name_a2s":"Uncletopia | Dallas | 2 | All Maps","protocol":17,"map":"koth_highpass","folder":"tf","game":"Team Fortress","app_id":440,"player_count":0,"max_players":24,"Bots":0,"server_type":"Dedicated","server_os":"Linux","password":true,"vac":true,"version":"7757534","steam_id":85568392924469988,"keywords":["cp","nocrits","nodmgspread","uncletopia"],"game_id":440,"stv_port":27026,"stv_name":"Uncletopia | Dallas | 2 | All Maps | STV","players":null},{"server_id":5,"name":"Uncletopia | Frankfurt | 1 | All Maps","name_short":"frk-1","host":"frk-1.de.uncletopia.com","port":27015,"enabled":true,"region":"eu","cc":"de","latitude":50.110924,"longitude":8.682127,"reserved":0,"last_update":"0001-01-01T00:00:00Z","name_a2s":"Uncletopia | Frankfurt | 1 | All Maps","protocol":17,"map":"pl_upward","folder":"tf","game":"Team Fortress","app_id":440,"player_count":24,"max_players":24,"Bots":0,"server_type":"Dedicated","server_os":"Linux","password":true,"vac":true,"version":"7757534","steam_id":85568392924469989,"keywords":["nocrits","nodmgspread","payload","uncletopia"],"game_id":440,"stv_port":27016,"stv_name":"Uncletopia | Frankfurt | 1 | All Maps | STV","players":[{"user_id":383,"name":"Despair","steam_id":76561198259487481,"connected_time":2513000000000,"state":"active","ping":74},{"user_id":393,"name":"Tel Ltd.","steam_id":76561198045137670,"connected_time":1302000000000,"state":"active","ping":61},{"user_id":389,"name":"Jeff","steam_id":76561198426044127,"connected_time":1598000000000,"state":"active","ping":48},{"user_id":401,"name":"kamu","steam_id":76561198055848586,"connected_time":218000000000,"state":"active","ping":83},{"user_id":388,"name":"remove xenia","steam_id":76561199433578516,"connected_time":1672000000000,"state":"active","ping":81},{"user_id":382,"name":"bAdmon","steam_id":76561197961785793,"connected_time":2747000000000,"state":"active","ping":59},{"user_id":329,"name":"20BB Raxor","steam_id":76561198239927434,"connected_time":6522000000000,"state":"active","ping":89},{"user_id":270,"name":"Aimer","steam_id":76561198005935655,"connected_time":10871000000000,"state":"active","ping":105},{"user_id":394,"name":"p39872","steam_id":76561198056405755,"connected_time":1284000000000,"state":"active","ping":48},{"user_id":344,"name":"xenia","steam_id":76561198062107879,"connected_time":5914000000000,"state":"active","ping":82},{"user_id":391,"name":"‰∏™Ê≤°ÊúâÊÑüÊÉÖÁöÑÂà∑ÊàëÊú∫Âô®","steam_id":76561198271860748,"connected_time":1456000000000,"state":"active","ping":62},{"user_id":400,"name":"[K.sTyLe] fabinhO;","steam_id":76561197982416891,"connected_time":226000000000,"state":"active","ping":63},{"user_id":395,"name":"Lars","steam_id":76561198141319387,"connected_time":1272000000000,"state":"active","ping":71},{"user_id":399,"name":"Jhin","steam_id":76561198070137469,"connected_time":775000000000,"state":"active","ping":86},{"user_id":402,"name":"Poltron","steam_id":76561198059972377,"connected_time":212000000000,"state":"active","ping":77},{"user_id":353,"name":"XeniasPimp","steam_id":76561198126398022,"connected_time":4906000000000,"state":"active","ping":75},{"user_id":379,"name":"BAD BALD \u0026 BEYOND","steam_id":76561198029873185,"connected_time":2879000000000,"state":"active","ping":52},{"user_id":398,"name":"Kevin","steam_id":76561198035625423,"connected_time":1204000000000,"state":"active","ping":91},{"user_id":390,"name":"Spam „Ç¥ „Ç¥","steam_id":76561198038118301,"connected_time":1593000000000,"state":"active","ping":92},{"user_id":345,"name":"man juice","steam_id":76561198126524735,"connected_time":5899000000000,"state":"active","ping":74},{"user_id":348,"name":"Esculd ‚éù('‚óÅ')‚é†","steam_id":76561198043948445,"connected_time":5582000000000,"state":"active","ping":79},{"user_id":387,"name":"‚òÆDaZ‚òÆ","steam_id":76561198062749331,"connected_time":2098000000000,"state":"active","ping":78},{"user_id":346,"name":"ralek","steam_id":76561198337027746,"connected_time":5857000000000,"state":"active","ping":95},{"user_id":403,"name":"waluigi","steam_id":76561198215809251,"connected_time":212000000000,"state":"active","ping":90}]},{"server_id":110,"name":"Uncletopia | Frankfurt | 2 | All Maps","name_short":"frk-2","host":"frk-1.de.uncletopia.com","port":27025,"enabled":true,"region":"eu","cc":"de","latitude":50.110924,"longitude":8.682127,"reserved":0,"last_update":"0001-01-01T00:00:00Z","name_a2s":"Uncletopia | Frankfurt | 2 | All Maps","protocol":17,"map":"cp_mountainlab","folder":"tf","game":"Team Fortress","app_id":440,"player_count":1,"max_players":24,"Bots":0,"server_type":"Dedicated","server_os":"Linux","password":true,"vac":true,"version":"7757534","steam_id":85568392924469990,"keywords":["cp","nocrits","nodmgspread","uncletopia"],"game_id":440,"stv_port":27026,"stv_name":"Uncletopia | Frankfurt | 2 | All Maps | STV","players":[{"user_id":302,"name":"lolp.","steam_id":76561199197101468,"connected_time":0,"state":"connecting","ping":0}]},{"server_id":308,"name":"Uncletopia | Frankfurt | 3 | All Maps","name_short":"frk-3","host":"frk-1.de.uncletopia.com","port":27035,"enabled":true,"region":"eu","cc":"de","latitude":50.110924,"longitude":8.682127,"reserved":0,"last_update":"0001-01-01T00:00:00Z","name_a2s":"Uncletopia | Frankfurt | 3 | All Maps","protocol":17,"map":"pl_frontier_final","folder":"tf","game":"Team Fortress","app_id":440,"player_count":23,"max_players":24,"Bots":0,"server_type":"Dedicated","server_os":"Linux","password":true,"vac":true,"version":"7757534","steam_id":85568392924504274,"keywords":["nocrits","nodmgspread","payload","uncletopia"],"game_id":440,"stv_port":27036,"stv_name":"Uncletopia | Frankfurt | 3 | All Maps | STV","players":[{"user_id":492,"name":"Chill Spirit","steam_id":76561198845001725,"connected_time":535000000000,"state":"active","ping":44},{"user_id":488,"name":"i am a spy","steam_id":76561199363653696,"connected_time":912000000000,"state":"active","ping":63},{"user_id":482,"name":"Insain Bolt!","steam_id":76561198025687726,"connected_time":1669000000000,"state":"active","ping":64},{"user_id":483,"name":"Very Salty Lye Pretzel","steam_id":76561198132597940,"connected_time":1660000000000,"state":"active","ping":48},{"user_id":451,"name":"Caerot","steam_id":76561198839000676,"connected_time":3601000000000,"state":"active","ping":60},{"user_id":470,"name":"Hexagon","steam_id":76561198151205758,"connected_time":2505000000000,"state":"active","ping":51},{"user_id":503,"name":"etc","steam_id":76561197998394797,"connected_time":42000000000,"state":"active","ping":55},{"user_id":485,"name":"dotdotdot","steam_id":76561198057628751,"connected_time":1170000000000,"state":"active","ping":59},{"user_id":474,"name":"Megasecret","steam_id":76561198055378025,"connected_time":2316000000000,"state":"active","ping":87},{"user_id":477,"name":"Tlad2","steam_id":76561198854897667,"connected_time":2021000000000,"state":"active","ping":75},{"user_id":441,"name":"risco1bolota","steam_id":76561198323074603,"connected_time":3965000000000,"state":"active","ping":89},{"user_id":493,"name":"Chadderson","steam_id":76561198387757420,"connected_time":516000000000,"state":"active","ping":81},{"user_id":471,"name":"Izzie","steam_id":76561198090287325,"connected_time":2480000000000,"state":"active","ping":77},{"user_id":466,"name":"Mefuu","steam_id":76561198287729818,"connected_time":2907000000000,"state":"active","ping":92},{"user_id":498,"name":"jovi_","steam_id":76561198449280552,"connected_time":283000000000,"state":"active","ping":62},{"user_id":501,"name":"I AM DOT","steam_id":76561198354118090,"connected_time":213000000000,"state":"active","ping":89},{"user_id":454,"name":"CommanderLex","steam_id":76561198123115529,"connected_time":3464000000000,"state":"active","ping":54},{"user_id":502,"name":"Ali","steam_id":76561199133701271,"connected_time":150000000000,"state":"active","ping":92},{"user_id":453,"name":"Dankster","steam_id":76561198054656398,"connected_time":3495000000000,"state":"active","ping":71},{"user_id":489,"name":"nah.","steam_id":76561199069489046,"connected_time":901000000000,"state":"active","ping":66},{"user_id":490,"name":"risetime","steam_id":76561199232442508,"connected_time":693000000000,"state":"active","ping":75},{"user_id":500,"name":"eeeeee","steam_id":76561198427092596,"connected_time":232000000000,"state":"active","ping":189},{"user_id":480,"name":"Jedi Knight","steam_id":76561198039030709,"connected_time":1973000000000,"state":"active","ping":91}]},{"server_id":309,"name":"Uncletopia | Frankfurt | 4 | All Maps","name_short":"frk-4","host":"frk-1.de.uncletopia.com","port":27045,"enabled":true,"region":"eu","cc":"de","latitude":50.110924,"longitude":8.682127,"reserved":0,"last_update":"0001-01-01T00:00:00Z","name_a2s":"Uncletopia | Frankfurt | 4 | All Maps","protocol":17,"map":"koth_sawmill","folder":"tf","game":"Team Fortress","app_id":440,"player_count":24,"max_players":24,"Bots":0,"server_type":"Dedicated","server_os":"Linux","password":true,"vac":true,"version":"7757534","steam_id":85568392924504275,"keywords":["cp","nocrits","nodmgspread","uncletopia"],"game_id":440,"stv_port":27046,"stv_name":"Uncletopia | Frankfurt | 4 | All Maps | STV","players":[{"user_id":342,"name":"The one who knocks","steam_id":76561198089341471,"connected_time":755000000000,"state":"active","ping":74},{"user_id":346,"name":"Piteras","steam_id":76561198858532207,"connected_time":614000000000,"state":"active","ping":73},{"user_id":361,"name":"Phantom","steam_id":76561198268168199,"connected_time":32000000000,"state":"active","ping":83},{"user_id":322,"name":"PyroHam","steam_id":76561198206285837,"connected_time":1770000000000,"state":"active","ping":66},{"user_id":323,"name":"ziv0104","steam_id":76561198089642287,"connected_time":1753000000000,"state":"active","ping":116},{"user_id":359,"name":"pain","steam_id":76561198047359132,"connected_time":181000000000,"state":"active","ping":66},{"user_id":335,"name":"demoknight","steam_id":76561198320028262,"connected_time":1345000000000,"state":"active","ping":86},{"user_id":348,"name":"Dodoshka","steam_id":76561198093464840,"connected_time":595000000000,"state":"active","ping":93},{"user_id":360,"name":"Unexpected","steam_id":76561198944781914,"connected_time":78000000000,"state":"active","ping":84},{"user_id":340,"name":"DocTwoEight","steam_id":76561198153488940,"connected_time":815000000000,"state":"active","ping":78},{"user_id":350,"name":"nem≈õs","steam_id":76561198134203031,"connected_time":537000000000,"state":"active","ping":60},{"user_id":332,"name":"stun","steam_id":76561198276681691,"connected_time":1619000000000,"state":"active","ping":58},{"user_id":351,"name":"TacoDragon","steam_id":76561198215345581,"connected_time":502000000000,"state":"active","ping":78},{"user_id":345,"name":"‚úØNE0N‚úØ","steam_id":76561198084916656,"connected_time":632000000000,"state":"active","ping":67},{"user_id":352,"name":"r0la","steam_id":76561198128315340,"connected_time":464000000000,"state":"active","ping":90},{"user_id":337,"name":"Hudzy","steam_id":76561198058290638,"connected_time":1250000000000,"state":"active","ping":67},{"user_id":353,"name":"Sundowner","steam_id":76561197990317249,"connected_time":448000000000,"state":"active","ping":86},{"user_id":358,"name":"Microwave","steam_id":76561199467385560,"connected_time":207000000000,"state":"active","ping":78},{"user_id":343,"name":"Charles Darwin","steam_id":76561197973496139,"connected_time":749000000000,"state":"active","ping":67},{"user_id":354,"name":"Mr. Shadow | Folfie","steam_id":76561198037028507,"connected_time":423000000000,"state":"active","ping":57},{"user_id":263,"name":"Plop_","steam_id":76561198112567921,"connected_time":5951000000000,"state":"active","ping":45},{"user_id":268,"name":"vladixxk","steam_id":76561198273199378,"connected_time":5648000000000,"state":"active","ping":67},{"user_id":355,"name":"New","steam_id":76561198402195911,"connected_time":417000000000,"state":"active","ping":122},{"user_id":356,"name":"o_o","steam_id":76561198113045011,"connected_time":338000000000,"state":"active","ping":90}]},{"server_id":310,"name":"Uncletopia | Frankfurt | 5 | All Maps","name_short":"frk-5","host":"frk-1.de.uncletopia.com","port":27055,"enabled":true,"region":"eu","cc":"de","latitude":50.110924,"longitude":8.682127,"reserved":0,"last_update":"0001-01-01T00:00:00Z","name_a2s":"Uncletopia | Frankfurt | 5 | All Maps","protocol":17,"map":"cp_steel","folder":"tf","game":"Team Fortress","app_id":440,"player_count":24,"max_players":24,"Bots":0,"server_type":"Dedicated","server_os":"Linux","password":true,"vac":true,"version":"7757534","steam_id":85568392924504277,"keywords":["cp","nocrits","nodmgspread","uncletopia"],"game_id":440,"stv_port":27056,"stv_name":"Uncletopia | Frankfurt | 5 | All Maps | STV","players":[{"user_id":484,"name":"Miton","steam_id":76561197970323209,"connected_time":1713000000000,"state":"active","ping":83},{"user_id":495,"name":"Pius","steam_id":76561198882380365,"connected_time":647000000000,"state":"active","ping":61},{"user_id":496,"name":"Mass","steam_id":76561198432195204,"connected_time":533000000000,"state":"active","ping":54},{"user_id":497,"name":"Bonca","steam_id":76561198137503531,"connected_time":485000000000,"state":"active","ping":81},{"user_id":504,"name":"Amon Gus","steam_id":76561199094540960,"connected_time":341000000000,"state":"active","ping":63},{"user_id":503,"name":"FiricelSolos123","steam_id":76561198901014065,"connected_time":375000000000,"state":"active","ping":96},{"user_id":446,"name":"Micha≈Ç","steam_id":76561198320346362,"connected_time":4410000000000,"state":"active","ping":53},{"user_id":486,"name":"Andrew","steam_id":76561198971073720,"connected_time":1222000000000,"state":"active","ping":78},{"user_id":470,"name":"2Fort Samurai","steam_id":76561198064490192,"connected_time":2779000000000,"state":"active","ping":46},{"user_id":453,"name":"Noah May","steam_id":76561198411732527,"connected_time":3834000000000,"state":"active","ping":49},{"user_id":507,"name":"disposablesuperbread","steam_id":76561199074703607,"connected_time":279000000000,"state":"active","ping":74},{"user_id":457,"name":"Rappin' Sebastian","steam_id":76561198453928256,"connected_time":3353000000000,"state":"active","ping":78},{"user_id":508,"name":"Stille Willem","steam_id":76561198093579428,"connected_time":272000000000,"state":"active","ping":71},{"user_id":490,"name":"Megapuncher","steam_id":76561198023536780,"connected_time":878000000000,"state":"active","ping":56},{"user_id":433,"name":"Cliff Barnes","steam_id":76561198032213783,"connected_time":5061000000000,"state":"active","ping":66},{"user_id":505,"name":"askulap","steam_id":76561197992018795,"connected_time":341000000000,"state":"active","ping":75},{"user_id":474,"name":"Alibi","steam_id":76561198061845595,"connected_time":2457000000000,"state":"active","ping":64},{"user_id":509,"name":"Chris","steam_id":76561198313494507,"connected_time":222000000000,"state":"active","ping":71},{"user_id":445,"name":".bRdyyy","steam_id":76561198057256978,"connected_time":4495000000000,"state":"active","ping":45},{"user_id":499,"name":"Control Panel","steam_id":76561198154677956,"connected_time":442000000000,"state":"active","ping":74},{"user_id":491,"name":"CarBombEnthusiast","steam_id":76561199448185434,"connected_time":867000000000,"state":"active","ping":64},{"user_id":451,"name":"Vitun Jonne","steam_id":76561198401737380,"connected_time":4051000000000,"state":"active","ping":60},{"user_id":510,"name":"WAAGGHH Enjoyer","steam_id":76561198974205333,"connected_time":56000000000,"state":"active","ping":71},{"user_id":511,"name":"Alfred2.2","steam_id":76561198339314744,"connected_time":49000000000,"state":"active","ping":67}]},{"server_id":311,"name":"Uncletopia | Frankfurt | 6 | All Maps","name_short":"frk-6","host":"frk-1.de.uncletopia.com","port":27065,"enabled":true,"region":"eu","cc":"de","latitude":50.110924,"longitude":8.682127,"reserved":0,"last_update":"0001-01-01T00:00:00Z","name_a2s":"Uncletopia | Frankfurt | 6 | All Maps","protocol":17,"map":"koth_highpass","folder":"tf","game":"Team Fortress","app_id":440,"player_count":24,"max_players":24,"Bots":0,"server_type":"Dedicated","server_os":"Linux","password":true,"vac":true,"version":"7757534","steam_id":85568392924504278,"keywords":["cp","nocrits","nodmgspread","uncletopia"],"game_id":440,"stv_port":27066,"stv_name":"Uncletopia | Frankfurt | 6 | All Maps | STV","players":[{"user_id":204,"name":"trash","steam_id":76561198874973222,"connected_time":1527000000000,"state":"active","ping":70},{"user_id":234,"name":"L1febuoy","steam_id":76561198228617952,"connected_time":128000000000,"state":"active","ping":85},{"user_id":202,"name":"Grape. \u003c3","steam_id":76561198855628966,"connected_time":1587000000000,"state":"active","ping":78},{"user_id":210,"name":"tori_spring","steam_id":76561199375975842,"connected_time":1288000000000,"state":"active","ping":56},{"user_id":180,"name":"zero2nine1","steam_id":76561199181821179,"connected_time":3602000000000,"state":"active","ping":67},{"user_id":181,"name":"Mehrtelb","steam_id":76561198054162669,"connected_time":3593000000000,"state":"active","ping":45},{"user_id":205,"name":"lazoboy","steam_id":76561199074095198,"connected_time":1513000000000,"state":"active","ping":283},{"user_id":203,"name":"‚àÇ‡∏¢ÔæöœÉ‡∏¢‡∏£Œµ–≥ „Ç∑","steam_id":76561198081005291,"connected_time":1579000000000,"state":"active","ping":45},{"user_id":222,"name":"ethuun","steam_id":76561198141335465,"connected_time":839000000000,"state":"active","ping":62},{"user_id":223,"name":"Gacek19","steam_id":76561199122589845,"connected_time":672000000000,"state":"active","ping":78},{"user_id":235,"name":"[Insert Oneshot refrence here]","steam_id":76561198951206047,"connected_time":124000000000,"state":"active","ping":85},{"user_id":224,"name":"Wind God Girl","steam_id":76561199435854673,"connected_time":652000000000,"state":"active","ping":52},{"user_id":214,"name":"blue","steam_id":76561198216200092,"connected_time":1231000000000,"state":"active","ping":61},{"user_id":233,"name":"seishiliar","steam_id":76561198355587569,"connected_time":277000000000,"state":"active","ping":99},{"user_id":229,"name":"Vershal Smershal","steam_id":76561198116223995,"connected_time":557000000000,"state":"active","ping":101},{"user_id":215,"name":"lun4tic","steam_id":76561198850496647,"connected_time":1226000000000,"state":"active","ping":71},{"user_id":216,"name":"Femboypawnguy","steam_id":76561198274894771,"connected_time":1137000000000,"state":"active","ping":51},{"user_id":217,"name":"Cock thief","steam_id":76561199213400234,"connected_time":1118000000000,"state":"active","ping":73},{"user_id":219,"name":"Mingo","steam_id":76561199191245650,"connected_time":984000000000,"state":"active","ping":88},{"user_id":220,"name":"adam","steam_id":76561198042980135,"connected_time":977000000000,"state":"active","ping":73},{"user_id":237,"name":"Winston","steam_id":76561198062831951,"connected_time":1000000000,"state":"spawning","ping":27},{"user_id":227,"name":"Scrooge Mc Clunk","steam_id":76561198885945084,"connected_time":601000000000,"state":"active","ping":60},{"user_id":231,"name":"Deacon Dracul","steam_id":76561198046880663,"connected_time":463000000000,"state":"active","ping":105},{"user_id":236,"name":"Brick Samson","steam_id":76561198019076104,"connected_time":10000000000,"state":"spawning","ping":89}]},{"server_id":23,"name":"Uncletopia | Frankfurt | 7 | Stopwatch Beta","name_short":"frk-7","host":"frk-1.de.uncletopia.com","port":27075,"enabled":true,"region":"eu","cc":"de","latitude":50.110924,"longitude":8.682127,"reserved":0,"last_update":"0001-01-01T00:00:00Z","name_a2s":"Uncletopia | Frankfurt | 7 | Stopwatch Beta","protocol":17,"map":"cp_metalworks","folder":"tf","game":"Team Fortress","app_id":440,"player_count":0,"max_players":24,"Bots":0,"server_type":"Dedicated","server_os":"Linux","password":true,"vac":true,"version":"7757534","steam_id":85568392924742827,"keywords":["cp","nocrits","nodmgspread","uncletopia"],"game_id":440,"stv_port":27076,"stv_name":"Uncletopia | Frankfurt | 7 | Stopwatch Beta | STV","players":null},{"server_id":24,"name":"Uncletopia | Frankfurt | 8 | Community","name_short":"frk-8","host":"frk-1.de.uncletopia.com","port":27085,"enabled":true,"region":"eu","cc":"de","latitude":50.110924,"longitude":8.682127,"reserved":0,"last_update":"0001-01-01T00:00:00Z","name_a2s":"Uncletopia | Frankfurt | 8 | Community","protocol":17,"map":"workshop/koth_bagel_rc5.ugc2514036946","folder":"tf","game":"Team Fortress","app_id":440,"player_count":11,"max_players":24,"Bots":0,"server_type":"Dedicated","server_os":"Linux","password":true,"vac":true,"version":"7757534","steam_id":85568392924742828,"keywords":["cp","nocrits","nodmgspread","uncletopia"],"game_id":440,"stv_port":27086,"stv_name":"Uncletopia | Frankfurt | 8 | Community | STV","players":[{"user_id":210,"name":"Superiumentarius","steam_id":76561198081642249,"connected_time":330000000000,"state":"active","ping":45},{"user_id":218,"name":"Anza","steam_id":76561198360854019,"connected_time":78000000000,"state":"active","ping":96},{"user_id":213,"name":"gojoel","steam_id":76561198251181946,"connected_time":292000000000,"state":"active","ping":45},{"user_id":214,"name":"Joker‚ë¶‚ë¶‚ë¶¬≥","steam_id":76561197992353350,"connected_time":131000000000,"state":"active","ping":71},{"user_id":217,"name":"Tanya Degurechaff","steam_id":76561198201029513,"connected_time":87000000000,"state":"spawning","ping":163},{"user_id":172,"name":"Parapluie","steam_id":76561197971640301,"connected_time":2385000000000,"state":"active","ping":45},{"user_id":203,"name":"Sgreff","steam_id":76561198036304365,"connected_time":1320000000000,"state":"active","ping":58},{"user_id":205,"name":"‚ùÑ Kami ‚ùÑ","steam_id":76561198158209651,"connected_time":1219000000000,"state":"active","ping":70},{"user_id":196,"name":"silicon based life form","steam_id":76561199127121346,"connected_time":1706000000000,"state":"active","ping":68},{"user_id":207,"name":"Jedi doggo","steam_id":76561198360026202,"connected_time":1125000000000,"state":"active","ping":69},{"user_id":202,"name":"toust","steam_id":76561199103417422,"connected_time":1345000000000,"state":"active","ping":57}]},{"server_id":202,"name":"Uncletopia | Hong Kong | 1 | All Maps","name_short":"hgk-1","host":"hgk-1.hk.uncletopia.com","port":27015,"enabled":true,"region":"asia","cc":"hk","latitude":22.302711,"longitude":114.177216,"reserved":0,"last_update":"0001-01-01T00:00:00Z","name_a2s":"Uncletopia | Hong Kong | 1 | All Maps","protocol":17,"map":"koth_viaduct","folder":"tf","game":"Team Fortress","app_id":440,"player_count":0,"max_players":24,"Bots":0,"server_type":"Dedicated","server_os":"Linux","password":true,"vac":true,"version":"7757534","steam_id":85568392924494504,"keywords":["cp","nocrits","nodmgspread","uncletopia"],"game_id":440,"stv_port":27016,"stv_name":"Uncletopia | Hong Kong | 1 | All Maps | STV","players":null},{"server_id":1,"name":"Uncletopia | Los Angeles | 1 | All Maps","name_short":"lax-1","host":"lax-1.us.uncletopia.com","port":27015,"enabled":true,"region":"us-west","cc":"us","latitude":33.94279,"longitude":-118.41004,"reserved":0,"last_update":"0001-01-01T00:00:00Z","name_a2s":"Uncletopia | Los Angeles | 1 | All Maps","protocol":17,"map":"cp_dustbowl","folder":"tf","game":"Team Fortress","app_id":440,"player_count":21,"max_players":24,"Bots":0,"server_type":"Dedicated","server_os":"Linux","password":true,"vac":true,"version":"7757534","steam_id":85568392924469991,"keywords":["cp","nocrits","nodmgspread","uncletopia"],"game_id":440,"stv_port":27016,"stv_name":"Uncletopia | Los Angeles | 1 | All Maps | STV","players":[{"user_id":73,"name":"St4pps","steam_id":76561198449842958,"connected_time":1779000000000,"state":"active","ping":109},{"user_id":88,"name":"grove","steam_id":76561198797049119,"connected_time":1069000000000,"state":"active","ping":126},{"user_id":94,"name":"The creator(made twitter)","steam_id":76561198870900265,"connected_time":317000000000,"state":"active","ping":98},{"user_id":95,"name":"Mom","steam_id":76561198207936000,"connected_time":256000000000,"state":"active","ping":59},{"user_id":100,"name":"Alkemistt","steam_id":76561198147644202,"connected_time":185000000000,"state":"active","ping":76},{"user_id":87,"name":"Sykes10","steam_id":76561198279623105,"connected_time":1199000000000,"state":"active","ping":49},{"user_id":97,"name":"emotional suport  spy","steam_id":76561199375464372,"connected_time":214000000000,"state":"active","ping":132},{"user_id":92,"name":"AlaNo","steam_id":76561198133099582,"connected_time":646000000000,"state":"active","ping":46},{"user_id":99,"name":"Mike \"Gunspy\" Ehrmantraut","steam_id":76561199204753416,"connected_time":192000000000,"state":"active","ping":78},{"user_id":102,"name":"Mr. Call You Back","steam_id":76561198025172811,"connected_time":144000000000,"state":"active","ping":52},{"user_id":85,"name":"CptSkippy","steam_id":76561198127439343,"connected_time":1331000000000,"state":"active","ping":92},{"user_id":75,"name":"EatSomeBEES","steam_id":76561198047334307,"connected_time":1620000000000,"state":"active","ping":76},{"user_id":70,"name":"Danielneitor555","steam_id":76561199003205711,"connected_time":1995000000000,"state":"active","ping":100},{"user_id":81,"name":"Cursed.jpg","steam_id":76561198164146325,"connected_time":1403000000000,"state":"active","ping":94},{"user_id":82,"name":"GustafTheThief","steam_id":76561198177623450,"connected_time":1402000000000,"state":"active","ping":53},{"user_id":67,"name":"Xeno","steam_id":76561198089138085,"connected_time":2277000000000,"state":"active","ping":51},{"user_id":46,"name":"Yukihana","steam_id":76561198348354629,"connected_time":3454000000000,"state":"active","ping":37},{"user_id":83,"name":"Midnight","steam_id":76561198323577707,"connected_time":1387000000000,"state":"active","ping":119},{"user_id":38,"name":"Lunchboxx","steam_id":76561198079735916,"connected_time":3946000000000,"state":"active","ping":104},{"user_id":103,"name":"the menace","steam_id":76561198206580493,"connected_time":141000000000,"state":"active","ping":57},{"user_id":104,"name":"Chef","steam_id":76561198037041957,"connected_time":94000000000,"state":"active","ping":58}]},{"server_id":112,"name":"Uncletopia | Los Angeles | 2 | All Maps","name_short":"lax-2","host":"lax-1.us.uncletopia.com","port":27025,"enabled":true,"region":"us-west","cc":"us","latitude":33.94279,"longitude":-118.41004,"reserved":0,"last_update":"0001-01-01T00:00:00Z","name_a2s":"Uncletopia | Los Angeles | 2 | All Maps","protocol":17,"map":"cp_mountainlab","folder":"tf","game":"Team Fortress","app_id":440,"player_count":0,"max_players":24,"Bots":0,"server_type":"Dedicated","server_os":"Linux","password":true,"vac":true,"version":"7757534","steam_id":85568392924469992,"keywords":["cp","nocrits","nodmgspread","uncletopia"],"game_id":440,"stv_port":27026,"stv_name":"Uncletopia | Los Angeles | 2 | All Maps | STV","players":null},{"server_id":324,"name":"Uncletopia | Los Angeles | 3 | All Maps","name_short":"lax-3","host":"lax-1.us.uncletopia.com","port":27035,"enabled":true,"region":"us-west","cc":"us","latitude":33.94279,"longitude":-118.41004,"reserved":0,"last_update":"0001-01-01T00:00:00Z","name_a2s":"Uncletopia | Los Angeles | 3 | All Maps","protocol":17,"map":"cp_mountainlab","folder":"tf","game":"Team Fortress","app_id":440,"player_count":0,"max_players":24,"Bots":0,"server_type":"Dedicated","server_os":"Linux","password":true,"vac":true,"version":"7757534","steam_id":85568392924510198,"keywords":["cp","nocrits","nodmgspread","uncletopia"],"game_id":440,"stv_port":27036,"stv_name":"Uncletopia | Los Angeles | 3 | All Maps | STV","players":null},{"server_id":25,"name":"Uncletopia | Los Angeles | 4 | Stopwatch Beta","name_short":"lax-4","host":"lax-1.us.uncletopia.com","port":27045,"enabled":true,"region":"us-west","cc":"us","latitude":33.94279,"longitude":-118.41004,"reserved":0,"last_update":"0001-01-01T00:00:00Z","name_a2s":"Uncletopia | Los Angeles | 4 | Stopwatch Beta","protocol":17,"map":"koth_viaduct","folder":"tf","game":"Team Fortress","app_id":440,"player_count":0,"max_players":24,"Bots":0,"server_type":"Dedicated","server_os":"Linux","password":true,"vac":true,"version":"7757534","steam_id":85568392924510199,"keywords":["cp","nocrits","nodmgspread","uncletopia"],"game_id":440,"stv_port":27046,"stv_name":"Uncletopia | Los Angeles | 4 | Stopwatch Beta | STV","players":null},{"server_id":11,"name":"Uncletopia | London | 1 | All Maps","name_short":"lon-1","host":"lon-1.uk.uncletopia.com","port":27015,"enabled":true,"region":"eu","cc":"gb","latitude":51.509865,"longitude":-0.118092,"reserved":0,"last_update":"0001-01-01T00:00:00Z","name_a2s":"Uncletopia | London | 1 | All Maps","protocol":17,"map":"pl_upward","folder":"tf","game":"Team Fortress","app_id":440,"player_count":24,"max_players":24,"Bots":0,"server_type":"Dedicated","server_os":"Linux","password":true,"vac":true,"version":"7757534","steam_id":85568392924367362,"keywords":["nocrits","nodmgspread","payload","uncletopia"],"game_id":440,"stv_port":27016,"stv_name":"Uncletopia | London | 1 | All Maps | STV","players":[{"user_id":652,"name":"Borkz","steam_id":76561198287461065,"connected_time":2242000000000,"state":"active","ping":57},{"user_id":707,"name":"Permzilla","steam_id":76561198009407651,"connected_time":412000000000,"state":"active","ping":45},{"user_id":651,"name":"grana padano dop","steam_id":76561198066071855,"connected_time":2352000000000,"state":"active","ping":68},{"user_id":658,"name":"Tasukeru","steam_id":76561198011909704,"connected_time":1986000000000,"state":"active","ping":62},{"user_id":673,"name":"imma slap you","steam_id":76561198063965879,"connected_time":1535000000000,"state":"active","ping":82},{"user_id":637,"name":"Aaron","steam_id":76561197990046953,"connected_time":3481000000000,"state":"active","ping":67},{"user_id":641,"name":"ThatJeans","steam_id":76561198893939617,"connected_time":3051000000000,"state":"active","ping":78},{"user_id":700,"name":"Gregozor2121","steam_id":76561198077200806,"connected_time":875000000000,"state":"active","ping":78},{"user_id":708,"name":"Oriuke","steam_id":76561197992166123,"connected_time":412000000000,"state":"active","ping":50},{"user_id":636,"name":"KFC Enjoyer","steam_id":76561198840259819,"connected_time":3519000000000,"state":"active","ping":56},{"user_id":639,"name":"I like apple","steam_id":76561198108115790,"connected_time":3114000000000,"state":"active","ping":46},{"user_id":705,"name":"AneveX","steam_id":76561198111905804,"connected_time":490000000000,"state":"active","ping":47},{"user_id":703,"name":"Octave","steam_id":76561198015020404,"connected_time":590000000000,"state":"active","ping":60},{"user_id":668,"name":"Qosmo","steam_id":76561197980806182,"connected_time":1729000000000,"state":"active","ping":85},{"user_id":699,"name":"Braixen Harlot","steam_id":76561198283165274,"connected_time":943000000000,"state":"active","ping":60},{"user_id":702,"name":"BonBon","steam_id":76561198351080588,"connected_time":606000000000,"state":"active","ping":60},{"user_id":701,"name":"joecalmatt","steam_id":76561198172552015,"connected_time":862000000000,"state":"active","ping":45},{"user_id":623,"name":"linnisty","steam_id":76561198356234161,"connected_time":4286000000000,"state":"active","ping":69},{"user_id":654,"name":"Pintarolas","steam_id":76561198124839451,"connected_time":2098000000000,"state":"active","ping":102},{"user_id":706,"name":"bloo","steam_id":76561198071803379,"connected_time":460000000000,"state":"active","ping":78},{"user_id":647,"name":"FELHEEE","steam_id":76561197987151150,"connected_time":2967000000000,"state":"active","ping":83},{"user_id":650,"name":"astra","steam_id":76561198042980579,"connected_time":2363000000000,"state":"active","ping":62},{"user_id":690,"name":"Soph","steam_id":76561198131688853,"connected_time":1072000000000,"state":"active","ping":46},{"user_id":692,"name":"Eco","steam_id":76561199201938256,"connected_time":1044000000000,"state":"active","ping":79}]},{"server_id":114,"name":"Uncletopia | London | 2 | All Maps","name_short":"lon-2","host":"lon-1.uk.uncletopia.com","port":27025,"enabled":true,"region":"eu","cc":"gb","latitude":51.509865,"longitude":-0.118092,"reserved":0,"last_update":"0001-01-01T00:00:00Z","name_a2s":"Uncletopia | London | 2 | All Maps","protocol":17,"map":"cp_altitude","folder":"tf","game":"Team Fortress","app_id":440,"player_count":24,"max_players":24,"Bots":0,"server_type":"Dedicated","server_os":"Linux","password":true,"vac":true,"version":"7757534","steam_id":85568392924470941,"keywords":["cp","nocrits","nodmgspread","uncletopia"],"game_id":440,"stv_port":27026,"stv_name":"Uncletopia | London | 2 | All Maps | STV","players":[{"user_id":598,"name":"Bung","steam_id":76561199107304541,"connected_time":564000000000,"state":"active","ping":70},{"user_id":550,"name":"Protoshake","steam_id":76561198840276176,"connected_time":1394000000000,"state":"active","ping":138},{"user_id":545,"name":"willy","steam_id":76561198002519060,"connected_time":1739000000000,"state":"active","ping":86},{"user_id":511,"name":"scarecrowshelper","steam_id":76561198072260553,"connected_time":3702000000000,"state":"active","ping":51},{"user_id":468,"name":"Johnny Cockroach","steam_id":76561198049648277,"connected_time":7336000000000,"state":"active","ping":115},{"user_id":604,"name":"Zaf-Zaf","steam_id":76561198192667798,"connected_time":397000000000,"state":"active","ping":56},{"user_id":578,"name":"Volcyy","steam_id":76561198063979124,"connected_time":973000000000,"state":"active","ping":46},{"user_id":512,"name":"sriracha..","steam_id":76561198005560221,"connected_time":3702000000000,"state":"active","ping":113},{"user_id":528,"name":"Big They/Them is watching YOU","steam_id":76561198307598168,"connected_time":3059000000000,"state":"active","ping":49},{"user_id":579,"name":"circus music","steam_id":76561198313886071,"connected_time":954000000000,"state":"active","ping":62},{"user_id":554,"name":"real photograph of me","steam_id":76561198236015392,"connected_time":1361000000000,"state":"active","ping":121},{"user_id":605,"name":"Psyborg","steam_id":76561199158462312,"connected_time":394000000000,"state":"active","ping":69},{"user_id":592,"name":"gagalak","steam_id":76561198089979108,"connected_time":663000000000,"state":"active","ping":102},{"user_id":575,"name":"Trash Cortex","steam_id":76561198991110334,"connected_time":1029000000000,"state":"active","ping":56},{"user_id":580,"name":"purplecan","steam_id":76561199208283508,"connected_time":881000000000,"state":"active","ping":74},{"user_id":603,"name":"Carbon Monoxide Detector","steam_id":76561198055608801,"connected_time":423000000000,"state":"active","ping":74},{"user_id":556,"name":"jerbob","steam_id":76561198277092414,"connected_time":1313000000000,"state":"active","ping":50},{"user_id":549,"name":"aGreedGryphon","steam_id":76561198245175308,"connected_time":1514000000000,"state":"active","ping":54},{"user_id":502,"name":"Mr Prince","steam_id":76561199006591691,"connected_time":4230000000000,"state":"active","ping":56},{"user_id":589,"name":"Hanƒ±mSever23","steam_id":76561198142124751,"connected_time":735000000000,"state":"active","ping":104},{"user_id":557,"name":"Talent","steam_id":76561198153880354,"connected_time":1312000000000,"state":"active","ping":43},{"user_id":538,"name":"SODA!!!!!!!","steam_id":76561198107362485,"connected_time":2517000000000,"state":"active","ping":76},{"user_id":613,"name":"gaming mode","steam_id":76561198112789489,"connected_time":155000000000,"state":"active","ping":44},{"user_id":559,"name":"Monoxide","steam_id":76561198056844412,"connected_time":1289000000000,"state":"active","ping":62}]},{"server_id":320,"name":"Uncletopia | London | 3 | All Maps","name_short":"lon-3","host":"lon-1.uk.uncletopia.com","port":27035,"enabled":true,"region":"eu","cc":"gb","latitude":51.509865,"longitude":-0.118092,"reserved":0,"last_update":"0001-01-01T00:00:00Z","name_a2s":"Uncletopia | London | 3 | All Maps","protocol":17,"map":"koth_viaduct","folder":"tf","game":"Team Fortress","app_id":440,"player_count":24,"max_players":24,"Bots":0,"server_type":"Dedicated","server_os":"Linux","password":true,"vac":true,"version":"7757534","steam_id":85568392924510192,"keywords":["cp","nocrits","nodmgspread","uncletopia"],"game_id":440,"stv_port":27036,"stv_name":"Uncletopia | London | 3 | All Maps | STV","players":[{"user_id":1001,"name":"Bromoneto","steam_id":76561198876695014,"connected_time":1129000000000,"state":"active","ping":90},{"user_id":1015,"name":"LordCommanderNeo","steam_id":76561198262986421,"connected_time":536000000000,"state":"active","ping":48},{"user_id":1021,"name":"benibachi","steam_id":76561198190816499,"connected_time":417000000000,"state":"active","ping":82},{"user_id":1031,"name":"Legion","steam_id":76561198046120970,"connected_time":164000000000,"state":"active","ping":54},{"user_id":1024,"name":"Whurlpuul üåÄ","steam_id":76561198028340642,"connected_time":242000000000,"state":"active","ping":48},{"user_id":1016,"name":"fucking awesome gangster minion","steam_id":76561198796600155,"connected_time":505000000000,"state":"active","ping":91},{"user_id":1017,"name":"benny profane","steam_id":76561198123238801,"connected_time":481000000000,"state":"active","ping":53},{"user_id":1000,"name":"ScottMachine","steam_id":76561198813531432,"connected_time":1185000000000,"state":"active","ping":44},{"user_id":1025,"name":"RadialMount","steam_id":76561198063002562,"connected_time":230000000000,"state":"active","ping":72},{"user_id":964,"name":"Uncle Owen","steam_id":76561198157999291,"connected_time":3355000000000,"state":"active","ping":90},{"user_id":1026,"name":"Skulalloleeton","steam_id":76561198022879153,"connected_time":228000000000,"state":"active","ping":165},{"user_id":1027,"name":"KarlRanzeier","steam_id":76561198066281337,"connected_time":222000000000,"state":"active","ping":65},{"user_id":1029,"name":"pikmin 37","steam_id":76561198058821458,"connected_time":215000000000,"state":"active","ping":65},{"user_id":1014,"name":"Areck2","steam_id":76561199041737814,"connected_time":631000000000,"state":"active","ping":42},{"user_id":996,"name":"My Friend Deagol","steam_id":76561198450859507,"connected_time":1559000000000,"state":"active","ping":68},{"user_id":1030,"name":"Risette","steam_id":76561198062279560,"connected_time":213000000000,"state":"active","ping":78},{"user_id":1022,"name":"Mrforgetful","steam_id":76561198869654419,"connected_time":363000000000,"state":"active","ping":69},{"user_id":1020,"name":"khuligan.abdullah.95","steam_id":76561198349000185,"connected_time":437000000000,"state":"active","ping":121},{"user_id":954,"name":"Dimitri_612","steam_id":76561199223984137,"connected_time":4196000000000,"state":"active","ping":45},{"user_id":1006,"name":"Koda","steam_id":76561198142696299,"connected_time":1013000000000,"state":"active","ping":46},{"user_id":957,"name":"I Find A Computer Indispensible","steam_id":76561198046152236,"connected_time":3771000000000,"state":"active","ping":69},{"user_id":1007,"name":"ronnie","steam_id":76561198377533237,"connected_time":874000000000,"state":"active","ping":79},{"user_id":876,"name":"Noob_with_source","steam_id":76561198870362103,"connected_time":7772000000000,"state":"active","ping":58},{"user_id":995,"name":"Toscorp","steam_id":76561198353760522,"connected_time":1569000000000,"state":"active","ping":79}]},{"server_id":321,"name":"Uncletopia | London | 4 | All Maps","name_short":"lon-4","host":"lon-1.uk.uncletopia.com","port":27045,"enabled":true,"region":"eu","cc":"gb","latitude":51.509865,"longitude":-0.118092,"reserved":0,"last_update":"0001-01-01T00:00:00Z","name_a2s":"Uncletopia | London | 4 | All Maps","protocol":17,"map":"pl_swiftwater_final1","folder":"tf","game":"Team Fortress","app_id":440,"player_count":24,"max_players":24,"Bots":0,"server_type":"Dedicated","server_os":"Linux","password":true,"vac":true,"version":"7757534","steam_id":85568392924510193,"keywords":["nocrits","nodmgspread","payload","uncletopia"],"game_id":440,"stv_port":27046,"stv_name":"Uncletopia | London | 4 | All Maps | STV","players":[{"user_id":395,"name":"Banjo","steam_id":76561198206218496,"connected_time":2189000000000,"state":"active","ping":57},{"user_id":357,"name":"Miczu555PL","steam_id":76561198058500895,"connected_time":5132000000000,"state":"active","ping":63},{"user_id":393,"name":"Milk","steam_id":76561198125876588,"connected_time":2467000000000,"state":"active","ping":46},{"user_id":418,"name":"we are the law bitch","steam_id":76561198378397592,"connected_time":316000000000,"state":"active","ping":82},{"user_id":396,"name":"Crunchy","steam_id":76561198184973203,"connected_time":2171000000000,"state":"active","ping":59},{"user_id":411,"name":"Asperix","steam_id":76561198052537015,"connected_time":1051000000000,"state":"active","ping":80},{"user_id":414,"name":"Bumblebee","steam_id":76561198033551105,"connected_time":969000000000,"state":"active","ping":73},{"user_id":397,"name":"Joshy","steam_id":76561198059657098,"connected_time":2166000000000,"state":"active","ping":43},{"user_id":415,"name":"Fizzarolli","steam_id":76561198102168681,"connected_time":914000000000,"state":"active","ping":97},{"user_id":391,"name":"Laxslow","steam_id":76561198065361846,"connected_time":2821000000000,"state":"active","ping":73},{"user_id":383,"name":"reee","steam_id":76561198117955985,"connected_time":3455000000000,"state":"active","ping":53},{"user_id":289,"name":"SuntanPikachu","steam_id":76561198121242476,"connected_time":9820000000000,"state":"active","ping":57},{"user_id":399,"name":"5tgbnmju765","steam_id":76561198070738689,"connected_time":2157000000000,"state":"active","ping":81},{"user_id":412,"name":"zak","steam_id":76561197998895428,"connected_time":1040000000000,"state":"active","ping":65},{"user_id":419,"name":"ShoobyDooby","steam_id":76561198118473910,"connected_time":119000000000,"state":"active","ping":62},{"user_id":400,"name":"ex discord mommy","steam_id":76561198051369028,"connected_time":2145000000000,"state":"active","ping":52},{"user_id":384,"name":"T_T","steam_id":76561198118762696,"connected_time":3454000000000,"state":"active","ping":62},{"user_id":377,"name":"K.V. #RemoveRandomCrits","steam_id":76561197994832993,"connected_time":4132000000000,"state":"active","ping":84},{"user_id":401,"name":"twitch.tv/ms_animator","steam_id":76561198037560108,"connected_time":2143000000000,"state":"active","ping":43},{"user_id":417,"name":"GEP Gun","steam_id":76561197981821003,"connected_time":593000000000,"state":"active","ping":56},{"user_id":371,"name":"Bentley","steam_id":76561197978252169,"connected_time":4456000000000,"state":"active","ping":66},{"user_id":406,"name":"Syll","steam_id":76561198040736202,"connected_time":1496000000000,"state":"active","ping":106},{"user_id":403,"name":"Lille per‚ôø","steam_id":76561198015094686,"connected_time":2135000000000,"state":"active","ping":73},{"user_id":409,"name":"MEDiUM","steam_id":76561198112328561,"connected_time":1273000000000,"state":"active","ping":98}]},{"server_id":21,"name":"Uncletopia | London | 5 | All Maps","name_short":"lon-5","host":"lon-1.uk.uncletopia.com","port":27055,"enabled":true,"region":"eu","cc":"gb","latitude":51.509865,"longitude":-0.118092,"reserved":0,"last_update":"0001-01-01T00:00:00Z","name_a2s":"Uncletopia | London | 5 | All Maps","protocol":17,"map":"cp_5gorge","folder":"tf","game":"Team Fortress","app_id":440,"player_count":24,"max_players":24,"Bots":0,"server_type":"Dedicated","server_os":"Linux","password":true,"vac":true,"version":"7757534","steam_id":85568392924742829,"keywords":["cp","nocrits","nodmgspread","uncletopia"],"game_id":440,"stv_port":27056,"stv_name":"Uncletopia | London | 5 | All Maps | STV","players":[{"user_id":358,"name":"Tryrn","steam_id":76561198075487436,"connected_time":275000000000,"state":"active","ping":100},{"user_id":314,"name":"Wafflesky","steam_id":76561198109973821,"connected_time":2345000000000,"state":"active","ping":66},{"user_id":342,"name":"Mr.Man","steam_id":76561199175688390,"connected_time":1537000000000,"state":"active","ping":84},{"user_id":359,"name":"Spetse","steam_id":76561197990649972,"connected_time":264000000000,"state":"active","ping":94},{"user_id":313,"name":"Rocadinis","steam_id":76561198095910616,"connected_time":2401000000000,"state":"active","ping":102},{"user_id":360,"name":"Dark ^^","steam_id":76561198036241064,"connected_time":253000000000,"state":"active","ping":71},{"user_id":315,"name":"Noxel","steam_id":76561198167299896,"connected_time":2322000000000,"state":"active","ping":60},{"user_id":334,"name":"UmbreonGSC","steam_id":76561198041960967,"connected_time":1769000000000,"state":"active","ping":76},{"user_id":340,"name":"oepidus","steam_id":76561198963841479,"connected_time":1660000000000,"state":"active","ping":86},{"user_id":357,"name":"Yessirskiii","steam_id":76561198179324075,"connected_time":360000000000,"state":"active","ping":61},{"user_id":362,"name":"pouchicats","steam_id":76561199385280253,"connected_time":91000000000,"state":"active","ping":129},{"user_id":237,"name":"mishka.*","steam_id":76561198040003628,"connected_time":6728000000000,"state":"active","ping":80},{"user_id":363,"name":"Nakano","steam_id":76561198866569125,"connected_time":57000000000,"state":"spawning","ping":110},{"user_id":223,"name":"nynon","steam_id":76561197998432126,"connected_time":7345000000000,"state":"active","ping":97},{"user_id":307,"name":"Niki","steam_id":76561198028601798,"connected_time":2534000000000,"state":"active","ping":85},{"user_id":350,"name":"Cammy1869","steam_id":76561198018602373,"connected_time":1159000000000,"state":"active","ping":84},{"user_id":325,"name":"Edla","steam_id":76561198062815315,"connected_time":2054000000000,"state":"active","ping":134},{"user_id":352,"name":"ToxicBlonde","steam_id":76561198136633815,"connected_time":852000000000,"state":"active","ping":56},{"user_id":346,"name":"Bing Soy","steam_id":76561198089351984,"connected_time":1454000000000,"state":"active","ping":62},{"user_id":337,"name":"Socradeez","steam_id":76561198038381519,"connected_time":1708000000000,"state":"active","ping":69},{"user_id":336,"name":"Bagels","steam_id":76561198389646406,"connected_time":1746000000000,"state":"active","ping":58},{"user_id":353,"name":"nachtraaf","steam_id":76561197960473205,"connected_time":816000000000,"state":"active","ping":53},{"user_id":341,"name":"islandmonkey","steam_id":76561198078839950,"connected_time":1652000000000,"state":"active","ping":46},{"user_id":361,"name":"Ged","steam_id":76561198079288943,"connected_time":250000000000,"state":"active","ping":184}]},{"server_id":22,"name":"Uncletopia | London | 6 | All Maps","name_short":"lon-6","host":"lon-1.uk.uncletopia.com","port":27065,"enabled":true,"region":"eu","cc":"gb","latitude":51.509865,"longitude":-0.118092,"reserved":0,"last_update":"0001-01-01T00:00:00Z","name_a2s":"Uncletopia | London | 6 | All Maps","protocol":17,"map":"pl_barnblitz","folder":"tf","game":"Team Fortress","app_id":440,"player_count":23,"max_players":24,"Bots":0,"server_type":"Dedicated","server_os":"Linux","password":true,"vac":true,"version":"7757534","steam_id":85568392924742830,"keywords":["nocrits","nodmgspread","payload","uncletopia"],"game_id":440,"stv_port":27066,"stv_name":"Uncletopia | London | 6 | All Maps | STV","players":[{"user_id":237,"name":"meriones","steam_id":76561198034234373,"connected_time":2620000000000,"state":"active","ping":43},{"user_id":251,"name":"Axord","steam_id":76561199289652176,"connected_time":1987000000000,"state":"active","ping":68},{"user_id":266,"name":"HIYA","steam_id":76561198047544122,"connected_time":844000000000,"state":"active","ping":73},{"user_id":267,"name":"Monsteh","steam_id":76561198325898181,"connected_time":812000000000,"state":"active","ping":74},{"user_id":255,"name":"Leonor Bolek","steam_id":76561198295052334,"connected_time":1642000000000,"state":"active","ping":71},{"user_id":268,"name":"Suspicious Cabin","steam_id":76561198083261198,"connected_time":801000000000,"state":"active","ping":50},{"user_id":247,"name":"CalicoCat12","steam_id":76561198081933130,"connected_time":2257000000000,"state":"active","ping":59},{"user_id":263,"name":"drew","steam_id":76561198012304706,"connected_time":1060000000000,"state":"active","ping":100},{"user_id":269,"name":"Lukey","steam_id":76561198074642724,"connected_time":724000000000,"state":"active","ping":77},{"user_id":236,"name":"Umby","steam_id":76561198166584580,"connected_time":2735000000000,"state":"active","ping":40},{"user_id":249,"name":"Œ≤o·µëiŒ¨’áŒ∂","steam_id":76561198232414008,"connected_time":2188000000000,"state":"active","ping":88},{"user_id":291,"name":"default","steam_id":76561198186182298,"connected_time":84000000000,"state":"active","ping":55},{"user_id":270,"name":"Tmpod","steam_id":76561198069210431,"connected_time":720000000000,"state":"active","ping":63},{"user_id":200,"name":"ToadBro","steam_id":76561199063015691,"connected_time":4256000000000,"state":"active","ping":85},{"user_id":253,"name":"Clitorina","steam_id":76561198077570815,"connected_time":1832000000000,"state":"active","ping":45},{"user_id":271,"name":"Bostrash641","steam_id":76561199447225685,"connected_time":713000000000,"state":"active","ping":74},{"user_id":281,"name":"Vezage","steam_id":76561198064916164,"connected_time":532000000000,"state":"active","ping":76},{"user_id":290,"name":"miras2007goroceciezarowki","steam_id":76561199052690012,"connected_time":103000000000,"state":"active","ping":94},{"user_id":242,"name":"MovingIsOverRated","steam_id":76561198385633292,"connected_time":2493000000000,"state":"active","ping":106},{"user_id":275,"name":"ZaiKowy","steam_id":76561198837246687,"connected_time":651000000000,"state":"active","ping":89},{"user_id":252,"name":"Mor'du","steam_id":76561198274105878,"connected_time":1862000000000,"state":"active","ping":77},{"user_id":289,"name":"I jazzed myself","steam_id":76561198203016603,"connected_time":104000000000,"state":"active","ping":58},{"user_id":284,"name":"Windows Vista Cruiser","steam_id":76561198064102233,"connected_time":291000000000,"state":"active","ping":60}]},{"server_id":40,"name":"Uncletopia | London | 7 | No Payload","name_short":"lon-7","host":"lon-1.uk.uncletopia.com","port":27075,"enabled":true,"region":"eu","cc":"gb","latitude":51.509865,"longitude":-0.118092,"reserved":0,"last_update":"0001-01-01T00:00:00Z","name_a2s":"Uncletopia | London | 7 | No Payload","protocol":17,"map":"koth_nucleus","folder":"tf","game":"Team Fortress","app_id":440,"player_count":24,"max_players":24,"Bots":0,"server_type":"Dedicated","server_os":"Linux","password":true,"vac":true,"version":"7757534","steam_id":85568392924964314,"keywords":["cp","nocrits","nodmgspread","uncletopia"],"game_id":440,"stv_port":27076,"stv_name":"Uncletopia | London | 7 | No Payload | STV","players":[{"user_id":101,"name":"Pinkchup","steam_id":76561198106802803,"connected_time":5415000000000,"state":"active","ping":76},{"user_id":168,"name":"MR DADDY","steam_id":76561198350794663,"connected_time":507000000000,"state":"active","ping":122},{"user_id":171,"name":"Sarah | BNKR","steam_id":76561198282866752,"connected_time":294000000000,"state":"active","ping":96},{"user_id":125,"name":"GUCCI MANE","steam_id":76561198723244199,"connected_time":3529000000000,"state":"active","ping":75},{"user_id":128,"name":"Phobos2003","steam_id":76561198250812240,"connected_time":3416000000000,"state":"active","ping":93},{"user_id":158,"name":"Morno","steam_id":76561198028519110,"connected_time":1597000000000,"state":"active","ping":47},{"user_id":106,"name":"Der Einzige ‚í∂","steam_id":76561198423518671,"connected_time":5052000000000,"state":"active","ping":100},{"user_id":178,"name":"Artemis","steam_id":76561198199091801,"connected_time":160000000000,"state":"active","ping":46},{"user_id":129,"name":"CEO of Pen Island","steam_id":76561198037212191,"connected_time":3375000000000,"state":"active","ping":63},{"user_id":175,"name":"sonray7","steam_id":76561198999343361,"connected_time":189000000000,"state":"active","ping":51},{"user_id":173,"name":"AwterSix","steam_id":76561198042561678,"connected_time":196000000000,"state":"active","ping":61},{"user_id":174,"name":"Frank","steam_id":76561198086672774,"connected_time":196000000000,"state":"active","ping":53},{"user_id":162,"name":"Mono","steam_id":76561198114569493,"connected_time":1458000000000,"state":"active","ping":43},{"user_id":176,"name":"Magiccomplex","steam_id":76561199203555188,"connected_time":182000000000,"state":"active","ping":55},{"user_id":180,"name":"not a cat","steam_id":76561198834897089,"connected_time":145000000000,"state":"active","ping":73},{"user_id":186,"name":"baller (girl edition)","steam_id":76561198334042273,"connected_time":73000000000,"state":"active","ping":49},{"user_id":154,"name":"lupe.-","steam_id":76561198079813788,"connected_time":1932000000000,"state":"active","ping":60},{"user_id":117,"name":"PilloF","steam_id":76561198088635943,"connected_time":4119000000000,"state":"active","ping":85},{"user_id":182,"name":"Astaya","steam_id":76561198242931822,"connected_time":129000000000,"state":"active","ping":150},{"user_id":184,"name":"PluNgBe","steam_id":76561198131100420,"connected_time":104000000000,"state":"active","ping":58},{"user_id":95,"name":"Minimi","steam_id":76561198873850443,"connected_time":5483000000000,"state":"active","ping":37},{"user_id":163,"name":"fume.","steam_id":76561197960476801,"connected_time":1309000000000,"state":"active","ping":57},{"user_id":185,"name":"Sanctified","steam_id":76561198057092208,"connected_time":91000000000,"state":"active","ping":74},{"user_id":161,"name":"Nisio","steam_id":76561198079373727,"connected_time":1511000000000,"state":"active","ping":67}]},{"server_id":41,"name":"Uncletopia | London | 8 | Community","name_short":"lon-8","host":"lon-1.uk.uncletopia.com","port":27085,"enabled":true,"region":"eu","cc":"gb","latitude":51.509865,"longitude":-0.118092,"reserved":0,"last_update":"0001-01-01T00:00:00Z","name_a2s":"Uncletopia | London | 8 | Community","protocol":17,"map":"workshop/koth_synthetic_rc6a.ugc1549817316","folder":"tf","game":"Team Fortress","app_id":440,"player_count":0,"max_players":24,"Bots":0,"server_type":"Dedicated","server_os":"Linux","password":true,"vac":true,"version":"7757534","steam_id":85568392924964315,"keywords":["cp","nocrits","nodmgspread","uncletopia"],"game_id":440,"stv_port":27086,"stv_name":"Uncletopia | London | 8 | Community | STV","players":null},{"server_id":300,"name":"Uncletopia | Montr√©al | 1 | All Maps","name_short":"mtl-1","host":"mtl-1.ca.uncletopia.com","port":27015,"enabled":true,"region":"us-east","cc":"ca","latitude":45.50889,"longitude":-73.56167,"reserved":0,"last_update":"0001-01-01T00:00:00Z","name_a2s":"Uncletopia | Montr√©al | 1 | All Maps","protocol":17,"map":"koth_viaduct","folder":"tf","game":"Team Fortress","app_id":440,"player_count":0,"max_players":24,"Bots":0,"server_type":"Dedicated","server_os":"Linux","password":true,"vac":true,"version":"7757534","steam_id":85568392924500087,"keywords":["cp","nocrits","nodmgspread","uncletopia"],"game_id":440,"stv_port":27016,"stv_name":"Uncletopia | Montr√©al | 1 | All Maps | STV","players":null},{"server_id":301,"name":"Uncletopia | Montr√©al | 2 | All Maps","name_short":"mtl-2","host":"mtl-1.ca.uncletopia.com","port":27025,"enabled":true,"region":"us-east","cc":"ca","latitude":45.50889,"longitude":-73.56167,"reserved":0,"last_update":"0001-01-01T00:00:00Z","name_a2s":"Uncletopia | Montr√©al | 2 | All Maps","protocol":17,"map":"pl_borneo","folder":"tf","game":"Team Fortress","app_id":440,"player_count":0,"max_players":24,"Bots":0,"server_type":"Dedicated","server_os":"Linux","password":true,"vac":true,"version":"7757534","steam_id":85568392924500088,"keywords":["nocrits","nodmgspread","payload","uncletopia"],"game_id":440,"stv_port":27026,"stv_name":"Uncletopia | Montr√©al | 2 | All Maps | STV","players":null},{"server_id":302,"name":"Uncletopia | Montr√©al | 3 | All Maps","name_short":"mtl-3","host":"mtl-1.ca.uncletopia.com","port":27035,"enabled":true,"region":"us-east","cc":"ca","latitude":45.50889,"longitude":-73.56167,"reserved":0,"last_update":"0001-01-01T00:00:00Z","name_a2s":"Uncletopia | Montr√©al | 3 | All Maps","protocol":17,"map":"koth_cascade","folder":"tf","game":"Team Fortress","app_id":440,"player_count":0,"max_players":24,"Bots":0,"server_type":"Dedicated","server_os":"Linux","password":true,"vac":true,"version":"7757534","steam_id":85568392924500089,"keywords":["cp","nocrits","nodmgspread","uncletopia"],"game_id":440,"stv_port":27036,"stv_name":"Uncletopia | Montr√©al | 3 | All Maps | STV","players":null},{"server_id":303,"name":"Uncletopia | Montr√©al | 4 | No Payload","name_short":"mtl-4","host":"mtl-1.ca.uncletopia.com","port":27045,"enabled":true,"region":"us-east","cc":"ca","latitude":45.50889,"longitude":-73.56167,"reserved":0,"last_update":"0001-01-01T00:00:00Z","name_a2s":"Uncletopia | Montr√©al | 4 | No Payload","protocol":17,"map":"koth_lakeside_final","folder":"tf","game":"Team Fortress","app_id":440,"player_count":0,"max_players":24,"Bots":0,"server_type":"Dedicated","server_os":"Linux","password":true,"vac":true,"version":"7757534","steam_id":85568392924500090,"keywords":["cp","nocrits","nodmgspread","uncletopia"],"game_id":440,"stv_port":27046,"stv_name":"Uncletopia | Montr√©al | 4 | No Payload | STV","players":null},{"server_id":13,"name":"Uncletopia | New York City | 1 | All Maps","name_short":"nyc-1","host":"nyc-1.us.uncletopia.com","port":27015,"enabled":true,"region":"us-east","cc":"us","latitude":40.73061,"longitude":-73.93524,"reserved":0,"last_update":"0001-01-01T00:00:00Z","name_a2s":"Uncletopia | New York City | 1 | All Maps","protocol":17,"map":"koth_viaduct","folder":"tf","game":"Team Fortress","app_id":440,"player_count":0,"max_players":24,"Bots":0,"server_type":"Dedicated","server_os":"Linux","password":true,"vac":true,"version":"7757534","steam_id":85568392924469993,"keywords":["cp","nocrits","nodmgspread","uncletopia"],"game_id":440,"stv_port":27016,"stv_name":"Uncletopia | New York City | 1 | All Maps | STV","players":null},{"server_id":14,"name":"Uncletopia | New York City | 2 | All Maps","name_short":"nyc-2","host":"nyc-1.us.uncletopia.com","port":27025,"enabled":true,"region":"us-east","cc":"us","latitude":40.73061,"longitude":-73.93524,"reserved":0,"last_update":"0001-01-01T00:00:00Z","name_a2s":"Uncletopia | New York City | 2 | All Maps","protocol":17,"map":"pl_swiftwater_final1","folder":"tf","game":"Team Fortress","app_id":440,"player_count":24,"max_players":24,"Bots":0,"server_type":"Dedicated","server_os":"Linux","password":true,"vac":true,"version":"7757534","steam_id":85568392924469994,"keywords":["nocrits","nodmgspread","payload","uncletopia"],"game_id":440,"stv_port":27026,"stv_name":"Uncletopia | New York City | 2 | All Maps | STV","players":[{"user_id":406,"name":"bikerkid207","steam_id":76561198390782783,"connected_time":7886000000000,"state":"active","ping":86},{"user_id":479,"name":"oopsboom24","steam_id":76561199105248648,"connected_time":1726000000000,"state":"spawning","ping":224},{"user_id":495,"name":"Lukman52","steam_id":76561198970640683,"connected_time":433000000000,"state":"spawning","ping":72},{"user_id":463,"name":"mzjosef","steam_id":76561197985742638,"connected_time":2614000000000,"state":"active","ping":314},{"user_id":470,"name":"Salt","steam_id":76561199137060333,"connected_time":2021000000000,"state":"spawning","ping":68},{"user_id":471,"name":"SublunarFox","steam_id":76561198886387474,"connected_time":2012000000000,"state":"spawning","ping":50},{"user_id":480,"name":"ChilliBean Avenger","steam_id":76561197986896464,"connected_time":1719000000000,"state":"active","ping":90},{"user_id":490,"name":"Repo Clam","steam_id":76561198198217573,"connected_time":628000000000,"state":"spawning","ping":285},{"user_id":489,"name":"bimbo blow up doll! \u003c3","steam_id":76561198959541006,"connected_time":1252000000000,"state":"spawning","ping":65},{"user_id":493,"name":"z","steam_id":76561198801214349,"connected_time":530000000000,"state":"spawning","ping":36},{"user_id":445,"name":"KORF","steam_id":76561197981904410,"connected_time":4883000000000,"state":"spawning","ping":76},{"user_id":491,"name":"lyanide","steam_id":76561198311704368,"connected_time":582000000000,"state":"spawning","ping":42},{"user_id":478,"name":"wolf_71","steam_id":76561198963570945,"connected_time":1803000000000,"state":"active","ping":103},{"user_id":453,"name":"peniblor","steam_id":76561198307923786,"connected_time":3852000000000,"state":"active","ping":115},{"user_id":416,"name":"kwout","steam_id":76561197997139225,"connected_time":7116000000000,"state":"spawning","ping":277},{"user_id":439,"name":"Spirit","steam_id":76561199069322627,"connected_time":5583000000000,"state":"spawning","ping":1609},{"user_id":456,"name":"marcus tillius","steam_id":76561197982832274,"connected_time":3616000000000,"state":"spawning","ping":66},{"user_id":481,"name":"ChillyJones","steam_id":76561198017658702,"connected_time":1675000000000,"state":"active","ping":91},{"user_id":483,"name":"[GUT] RiDiK¬Æ","steam_id":76561197969756446,"connected_time":1624000000000,"state":"active","ping":109},{"user_id":484,"name":"Albino Jellyfish","steam_id":76561198208561097,"connected_time":1542000000000,"state":"spawning","ping":40},{"user_id":485,"name":"Eden","steam_id":76561198075587475,"connected_time":1525000000000,"state":"active","ping":200},{"user_id":464,"name":"Chemo","steam_id":76561197961308370,"connected_time":2559000000000,"state":"spawning","ping":206},{"user_id":488,"name":"Calamant","steam_id":76561198054650483,"connected_time":1397000000000,"state":"active","ping":58},{"user_id":494,"name":"Rex","steam_id":76561198138365053,"connected_time":529000000000,"state":"spawning","ping":130}]},{"server_id":15,"name":"Uncletopia | New York City | 3 | Stopwatch Beta","name_short":"nyc-3","host":"nyc-1.us.uncletopia.com","port":27035,"enabled":true,"region":"us-east","cc":"us","latitude":40.73061,"longitude":-73.93524,"reserved":0,"last_update":"0001-01-01T00:00:00Z","name_a2s":"Uncletopia | New York City | 3 | Stopwatch Beta","protocol":17,"map":"koth_lakeside_final","folder":"tf","game":"Team Fortress","app_id":440,"player_count":0,"max_players":24,"Bots":0,"server_type":"Dedicated","server_os":"Linux","password":true,"vac":true,"version":"7757534","steam_id":85568392924742820,"keywords":["cp","nocrits","nodmgspread","uncletopia"],"game_id":440,"stv_port":27036,"stv_name":"Uncletopia | New York City | 3 | Stopwatch Beta | STV","players":null},{"server_id":16,"name":"Uncletopia | New York City | 4 | Community","name_short":"nyc-4","host":"nyc-1.us.uncletopia.com","port":27045,"enabled":true,"region":"us-east","cc":"us","latitude":40.73061,"longitude":-73.93524,"reserved":0,"last_update":"0001-01-01T00:00:00Z","name_a2s":"Uncletopia | New York City | 4 | Community","protocol":17,"map":"workshop/cp_sulfur_rc2.ugc619869471","folder":"tf","game":"Team Fortress","app_id":440,"player_count":24,"max_players":24,"Bots":0,"server_type":"Dedicated","server_os":"Linux","password":true,"vac":true,"version":"7757534","steam_id":85568392924742821,"keywords":["cp","nocrits","nodmgspread","uncletopia"],"game_id":440,"stv_port":27046,"stv_name":"Uncletopia | New York City | 4 | Community | STV","players":[{"user_id":148,"name":"the grungler!","steam_id":76561198058485742,"connected_time":3690000000000,"state":"spawning","ping":215},{"user_id":190,"name":"Astrocircuit","steam_id":76561198014437544,"connected_time":1312000000000,"state":"active","ping":54},{"user_id":180,"name":"womthedom","steam_id":76561198088768287,"connected_time":2053000000000,"state":"spawning","ping":203},{"user_id":164,"name":"the goop slinger","steam_id":76561198271710504,"connected_time":2802000000000,"state":"active","ping":74},{"user_id":207,"name":"ThreatLvl9","steam_id":76561198079410533,"connected_time":58000000000,"state":"active","ping":59},{"user_id":199,"name":"Candy Sparkles","steam_id":76561198126871264,"connected_time":529000000000,"state":"active","ping":79},{"user_id":191,"name":"faxxy","steam_id":76561198079621240,"connected_time":981000000000,"state":"active","ping":77},{"user_id":198,"name":"Grify","steam_id":76561198012292317,"connected_time":580000000000,"state":"active","ping":92},{"user_id":111,"name":"ÔºîÔºê Ôº¶Ôº∞Ôº≥","steam_id":76561198272394965,"connected_time":5455000000000,"state":"active","ping":132},{"user_id":197,"name":"Benedictus9","steam_id":76561198097260672,"connected_time":648000000000,"state":"spawning","ping":466},{"user_id":204,"name":"Silva Baq","steam_id":76561198025445281,"connected_time":93000000000,"state":"active","ping":46},{"user_id":205,"name":"Fudgely","steam_id":76561198039425862,"connected_time":64000000000,"state":"active","ping":63},{"user_id":156,"name":"DRPIELZ","steam_id":76561198816135253,"connected_time":3447000000000,"state":"active","ping":124},{"user_id":184,"name":"Bacon Boy","steam_id":76561199284869546,"connected_time":1921000000000,"state":"active","ping":123},{"user_id":194,"name":"carrion goat she/it","steam_id":76561198262064871,"connected_time":820000000000,"state":"active","ping":47},{"user_id":206,"name":"Combatspok","steam_id":76561197971598115,"connected_time":64000000000,"state":"active","ping":57},{"user_id":132,"name":"deserted_code","steam_id":76561199111564998,"connected_time":4663000000000,"state":"active","ping":84},{"user_id":185,"name":"BlueZombieBlood","steam_id":76561198123590661,"connected_time":1920000000000,"state":"active","ping":77},{"user_id":195,"name":"ethanol","steam_id":76561198252600202,"connected_time":819000000000,"state":"active","ping":63},{"user_id":188,"name":"The Prankster‚Ñ¢","steam_id":76561199123285878,"connected_time":1623000000000,"state":"active","ping":74},{"user_id":160,"name":"Kanye is my Biggest Fan","steam_id":76561198162363747,"connected_time":3075000000000,"state":"active","ping":60},{"user_id":196,"name":"Chafn","steam_id":76561197969386702,"connected_time":785000000000,"state":"active","ping":123},{"user_id":147,"name":"THE REAL JIMMY NEUTRON","steam_id":76561198039909187,"connected_time":3867000000000,"state":"active","ping":70},{"user_id":208,"name":"Iris (b-day 1 week!!)","steam_id":76561198124998397,"connected_time":21000000000,"state":"spawning","ping":107}]},{"server_id":142,"name":"Uncletopia | S√£o Paulo | 1 | All Maps","name_short":"sao-1","host":"sao-1.br.uncletopia.com","port":27015,"enabled":true,"region":"sa","cc":"br","latitude":-23.533773,"longitude":-46.62529,"reserved":0,"last_update":"0001-01-01T00:00:00Z","name_a2s":"Uncletopia | S√£o Paulo | 1 | All Maps","protocol":17,"map":"pl_badwater","folder":"tf","game":"Team Fortress","app_id":440,"player_count":0,"max_players":24,"Bots":0,"server_type":"Dedicated","server_os":"Linux","password":true,"vac":true,"version":"7757534","steam_id":85568392924469996,"keywords":["nocrits","nodmgspread","payload","uncletopia"],"game_id":440,"stv_port":27016,"stv_name":"Uncletopia | S√£o Paulo | 1 | All Maps | STV","players":null},{"server_id":143,"name":"Uncletopia | S√£o Paulo | 2 | All Maps","name_short":"sao-2","host":"sao-2.br.uncletopia.com","port":27015,"enabled":true,"region":"sa","cc":"br","latitude":-23.533773,"longitude":-46.62529,"reserved":0,"last_update":"0001-01-01T00:00:00Z","name_a2s":"Uncletopia | S√£o Paulo | 2 | All Maps","protocol":17,"map":"koth_viaduct","folder":"tf","game":"Team Fortress","app_id":440,"player_count":23,"max_players":24,"Bots":0,"server_type":"Dedicated","server_os":"Linux","password":true,"vac":true,"version":"7757534","steam_id":85568392924485349,"keywords":["cp","nocrits","nodmgspread","uncletopia"],"game_id":440,"stv_port":27016,"stv_name":"Uncletopia | S√£o Paulo | 2 | All Maps | STV","players":[{"user_id":81,"name":"algumber","steam_id":76561199429426012,"connected_time":606000000000,"state":"active","ping":59},{"user_id":31,"name":"Sylvester","steam_id":76561199417175031,"connected_time":4284000000000,"state":"active","ping":51},{"user_id":72,"name":"manihoT","steam_id":76561198298416173,"connected_time":1242000000000,"state":"active","ping":105},{"user_id":68,"name":"CATS","steam_id":76561198103172108,"connected_time":1678000000000,"state":"active","ping":54},{"user_id":14,"name":"ARK","steam_id":76561198253139686,"connected_time":6644000000000,"state":"active","ping":85},{"user_id":86,"name":"tutu","steam_id":76561199273622771,"connected_time":254000000000,"state":"active","ping":116},{"user_id":77,"name":"Akemi Homura #1 Fan","steam_id":76561199066360306,"connected_time":1026000000000,"state":"active","ping":84},{"user_id":62,"name":"Pyment","steam_id":76561198419805742,"connected_time":2234000000000,"state":"active","ping":80},{"user_id":41,"name":"sonia metralha","steam_id":76561198983533099,"connected_time":3796000000000,"state":"active","ping":49},{"user_id":87,"name":"losxi","steam_id":76561199008613807,"connected_time":162000000000,"state":"active","ping":42},{"user_id":74,"name":"Toti","steam_id":76561198275364952,"connected_time":1161000000000,"state":"active","ping":94},{"user_id":88,"name":"vinauta13","steam_id":76561199385682627,"connected_time":71000000000,"state":"active","ping":77},{"user_id":34,"name":"Sanches","steam_id":76561198006932156,"connected_time":4171000000000,"state":"active","ping":88},{"user_id":82,"name":"Pink Girl","steam_id":76561199073183192,"connected_time":546000000000,"state":"active","ping":65},{"user_id":85,"name":"Captain Dane","steam_id":76561199273735517,"connected_time":273000000000,"state":"active","ping":52},{"user_id":37,"name":"Just Digifam","steam_id":76561198392526091,"connected_time":4055000000000,"state":"active","ping":95},{"user_id":40,"name":"Ï¶à","steam_id":76561198143438576,"connected_time":3938000000000,"state":"active","ping":45},{"user_id":58,"name":"Derretimento Geral 2017","steam_id":76561198194300069,"connected_time":2415000000000,"state":"active","ping":40},{"user_id":52,"name":"Andriel","steam_id":76561198281652242,"connected_time":2892000000000,"state":"active","ping":45},{"user_id":89,"name":"ùêÄùê´ùêúùê°ùê¢_","steam_id":76561198895061602,"connected_time":30000000000,"state":"active","ping":111},{"user_id":78,"name":"Fsnakek","steam_id":76561198152547793,"connected_time":972000000000,"state":"active","ping":58},{"user_id":56,"name":"Gabriel„ÇÑ„Çã„Åç","steam_id":76561198332577325,"connected_time":2647000000000,"state":"active","ping":56},{"user_id":59,"name":"rafx","steam_id":76561198083321227,"connected_time":2395000000000,"state":"active","ping":61}]},{"server_id":7,"name":"Uncletopia | Seattle | 1 | All Maps","name_short":"sea-1","host":"sea-1.us.uncletopia.com","port":27015,"enabled":true,"region":"us-west","cc":"us","latitude":47.608013,"longitude":-122.33517,"reserved":0,"last_update":"0001-01-01T00:00:00Z","name_a2s":"Uncletopia | Seattle | 1 | All Maps","protocol":17,"map":"pl_snowycoast","folder":"tf","game":"Team Fortress","app_id":440,"player_count":23,"max_players":24,"Bots":0,"server_type":"Dedicated","server_os":"Linux","password":true,"vac":true,"version":"7757534","steam_id":85568392924469997,"keywords":["nocrits","nodmgspread","payload","uncletopia"],"game_id":440,"stv_port":27016,"stv_name":"Uncletopia | Seattle | 1 | All Maps | STV","players":[{"user_id":239,"name":"dust","steam_id":76561198045218909,"connected_time":977000000000,"state":"active","ping":37},{"user_id":233,"name":"Mouth Tea","steam_id":76561198285054047,"connected_time":2262000000000,"state":"active","ping":69},{"user_id":241,"name":"What are you doing?!","steam_id":76561198405248691,"connected_time":907000000000,"state":"active","ping":79},{"user_id":230,"name":"Fh","steam_id":76561198000903511,"connected_time":2621000000000,"state":"active","ping":61},{"user_id":250,"name":"discord kitten","steam_id":76561198210322871,"connected_time":400000000000,"state":"active","ping":64},{"user_id":210,"name":"i ate a whole cow","steam_id":76561198997903598,"connected_time":4130000000000,"state":"active","ping":70},{"user_id":234,"name":"HorizonPear","steam_id":76561198179808389,"connected_time":2248000000000,"state":"active","ping":130},{"user_id":256,"name":"Merach","steam_id":76561197994544587,"connected_time":20000000000,"state":"active","ping":62},{"user_id":244,"name":"DrD","steam_id":76561198067266383,"connected_time":862000000000,"state":"active","ping":65},{"user_id":194,"name":"dearender","steam_id":76561199427644498,"connected_time":5936000000000,"state":"active","ping":63},{"user_id":247,"name":"trashboat","steam_id":76561199067882406,"connected_time":850000000000,"state":"active","ping":95},{"user_id":245,"name":"Skate Duck","steam_id":76561198125041862,"connected_time":859000000000,"state":"active","ping":46},{"user_id":242,"name":"LAB8","steam_id":76561198047743526,"connected_time":904000000000,"state":"active","ping":44},{"user_id":193,"name":"Julien","steam_id":76561199389584938,"connected_time":6035000000000,"state":"active","ping":43},{"user_id":231,"name":"SG21","steam_id":76561199381171306,"connected_time":2549000000000,"state":"active","ping":56},{"user_id":240,"name":"Mignyanne :3","steam_id":76561198048754056,"connected_time":910000000000,"state":"active","ping":70},{"user_id":162,"name":"Iroquois Pliskin","steam_id":76561198056704533,"connected_time":8906000000000,"state":"active","ping":96},{"user_id":255,"name":"jumbo shrimp","steam_id":76561199085931379,"connected_time":161000000000,"state":"active","ping":119},{"user_id":248,"name":"SuaveFrenchman","steam_id":76561198043762683,"connected_time":782000000000,"state":"active","ping":71},{"user_id":163,"name":"Awildrock","steam_id":76561198040401086,"connected_time":8894000000000,"state":"active","ping":111},{"user_id":249,"name":"Thequirka (not NC ready)","steam_id":76561198968058652,"connected_time":489000000000,"state":"active","ping":51},{"user_id":166,"name":"AirMan121","steam_id":76561198042951349,"connected_time":8369000000000,"state":"active","ping":67},{"user_id":237,"name":"Dimple","steam_id":76561198980324190,"connected_time":1619000000000,"state":"active","ping":54}]},{"server_id":119,"name":"Uncletopia | Seattle | 2 | All Maps","name_short":"sea-2","host":"sea-1.us.uncletopia.com","port":27025,"enabled":true,"region":"us-west","cc":"us","latitude":47.608013,"longitude":-122.33517,"reserved":0,"last_update":"0001-01-01T00:00:00Z","name_a2s":"Uncletopia | Seattle | 2 | All Maps","protocol":17,"map":"pl_upward","folder":"tf","game":"Team Fortress","app_id":440,"player_count":24,"max_players":24,"Bots":0,"server_type":"Dedicated","server_os":"Linux","password":true,"vac":true,"version":"7757534","steam_id":85568392924469998,"keywords":["nocrits","nodmgspread","payload","uncletopia"],"game_id":440,"stv_port":27026,"stv_name":"Uncletopia | Seattle | 2 | All Maps | STV","players":[{"user_id":44,"name":"Birdman743","steam_id":76561198799636748,"connected_time":4914000000000,"state":"active","ping":59},{"user_id":79,"name":"MrLeftTurn","steam_id":76561198856743969,"connected_time":642000000000,"state":"active","ping":83},{"user_id":80,"name":"No Thanks","steam_id":76561198001611837,"connected_time":630000000000,"state":"active","ping":123},{"user_id":51,"name":"SPOON MAN","steam_id":76561199028500370,"connected_time":2849000000000,"state":"active","ping":42},{"user_id":85,"name":"THICC","steam_id":76561198273234133,"connected_time":405000000000,"state":"active","ping":111},{"user_id":82,"name":"Porytal","steam_id":76561198306101889,"connected_time":589000000000,"state":"active","ping":54},{"user_id":63,"name":"SlothWrangler","steam_id":76561198131322716,"connected_time":1397000000000,"state":"active","ping":47},{"user_id":71,"name":"Cheeki-Breekinator","steam_id":76561198040120806,"connected_time":1096000000000,"state":"active","ping":78},{"user_id":60,"name":"filthycasual","steam_id":76561199138226238,"connected_time":1611000000000,"state":"active","ping":62},{"user_id":61,"name":"CZS (abbreviation)","steam_id":76561199020233296,"connected_time":1578000000000,"state":"active","ping":86},{"user_id":70,"name":"Yip.jpeg","steam_id":76561197999135110,"connected_time":1104000000000,"state":"active","ping":80},{"user_id":64,"name":"EmotreX","steam_id":76561198366518989,"connected_time":1370000000000,"state":"active","ping":111},{"user_id":68,"name":"Big Yoshi","steam_id":76561199160576376,"connected_time":1128000000000,"state":"active","ping":86},{"user_id":83,"name":"iwakvra","steam_id":76561198128164970,"connected_time":553000000000,"state":"active","ping":75},{"user_id":72,"name":"Himiko Toga","steam_id":76561198055617626,"connected_time":1095000000000,"state":"active","ping":88},{"user_id":73,"name":"Jamal","steam_id":76561198154111066,"connected_time":1057000000000,"state":"active","ping":89},{"user_id":84,"name":"Platino","steam_id":76561198410957728,"connected_time":548000000000,"state":"active","ping":94},{"user_id":75,"name":"Ok then","steam_id":76561198891914787,"connected_time":1004000000000,"state":"active","ping":128},{"user_id":86,"name":"Aunty Frazzle","steam_id":76561198145596626,"connected_time":401000000000,"state":"active","ping":81},{"user_id":87,"name":"gulch","steam_id":76561199227946025,"connected_time":393000000000,"state":"active","ping":114},{"user_id":88,"name":"Potatobreeder","steam_id":76561199077867000,"connected_time":341000000000,"state":"active","ping":115},{"user_id":89,"name":"luis","steam_id":76561198081341347,"connected_time":317000000000,"state":"active","ping":75},{"user_id":90,"name":"Fiber Man","steam_id":76561199227830838,"connected_time":274000000000,"state":"active","ping":58},{"user_id":91,"name":"Maid 'n' China","steam_id":76561198423392976,"connected_time":269000000000,"state":"active","ping":77}]},{"server_id":406,"name":"Uncletopia | Seattle | 3 | Stopwatch Beta","name_short":"sea-3","host":"sea-1.us.uncletopia.com","port":27035,"enabled":true,"region":"us-west","cc":"us","latitude":47.608013,"longitude":-122.33517,"reserved":0,"last_update":"0001-01-01T00:00:00Z","name_a2s":"Uncletopia | Seattle | 3 | Stopwatch Beta","protocol":17,"map":"cp_sunshine","folder":"tf","game":"Team Fortress","app_id":440,"player_count":0,"max_players":24,"Bots":0,"server_type":"Dedicated","server_os":"Linux","password":true,"vac":true,"version":"7757534","steam_id":85568392924515217,"keywords":["cp","nocrits","nodmgspread","uncletopia"],"game_id":440,"stv_port":27036,"stv_name":"Uncletopia | Seattle | 3 | Stopwatch Beta | STV","players":null},{"server_id":17,"name":"Uncletopia | San Francisco | 1 | All Maps","name_short":"sfo-1","host":"sfo-1.us.uncletopia.com","port":27015,"enabled":true,"region":"us-west","cc":"us","latitude":37.77397,"longitude":-122.4313,"reserved":0,"last_update":"0001-01-01T00:00:00Z","name_a2s":"Uncletopia | San Francisco | 1 | All Maps","protocol":17,"map":"cp_mountainlab","folder":"tf","game":"Team Fortress","app_id":440,"player_count":0,"max_players":24,"Bots":0,"server_type":"Dedicated","server_os":"Linux","password":true,"vac":true,"version":"7757534","steam_id":85568392924469999,"keywords":["cp","nocrits","nodmgspread","uncletopia"],"game_id":440,"stv_port":27016,"stv_name":"Uncletopia | San Francisco | 1 | All Maps | STV","players":null},{"server_id":18,"name":"Uncletopia | San Francisco | 2 | All Maps","name_short":"sfo-2","host":"sfo-1.us.uncletopia.com","port":27025,"enabled":true,"region":"us-west","cc":"us","latitude":37.77397,"longitude":-122.4313,"reserved":0,"last_update":"0001-01-01T00:00:00Z","name_a2s":"Uncletopia | San Francisco | 2 | All Maps","protocol":17,"map":"cp_mountainlab","folder":"tf","game":"Team Fortress","app_id":440,"player_count":0,"max_players":24,"Bots":0,"server_type":"Dedicated","server_os":"Linux","password":true,"vac":true,"version":"7757534","steam_id":85568392924470000,"keywords":["cp","nocrits","nodmgspread","uncletopia"],"game_id":440,"stv_port":27026,"stv_name":"Uncletopia | San Francisco | 2 | All Maps | STV","players":null},{"server_id":19,"name":"Uncletopia | San Francisco | 3 | Stopwatch Beta","name_short":"sfo-3","host":"sfo-1.us.uncletopia.com","port":27035,"enabled":true,"region":"us-west","cc":"us","latitude":37.77397,"longitude":-122.4313,"reserved":0,"last_update":"0001-01-01T00:00:00Z","name_a2s":"Uncletopia | San Francisco | 3 | Stopwatch Beta","protocol":17,"map":"koth_viaduct","folder":"tf","game":"Team Fortress","app_id":440,"player_count":0,"max_players":24,"Bots":0,"server_type":"Dedicated","server_os":"Linux","password":true,"vac":true,"version":"7757534","steam_id":85568392924742824,"keywords":["cp","nocrits","nodmgspread","uncletopia"],"game_id":440,"stv_port":27036,"stv_name":"Uncletopia | San Francisco | 3 | Stopwatch Beta | STV","players":null},{"server_id":20,"name":"Uncletopia | San Francisco | 4 | Community","name_short":"sfo-4","host":"sfo-1.us.uncletopia.com","port":27045,"enabled":true,"region":"us-west","cc":"us","latitude":37.77397,"longitude":-122.4313,"reserved":0,"last_update":"0001-01-01T00:00:00Z","name_a2s":"Uncletopia | San Francisco | 4 | Community","protocol":17,"map":"pl_borneo","folder":"tf","game":"Team Fortress","app_id":440,"player_count":0,"max_players":24,"Bots":0,"server_type":"Dedicated","server_os":"Linux","password":true,"vac":true,"version":"7757534","steam_id":85568392924742826,"keywords":["nocrits","nodmgspread","payload","uncletopia"],"game_id":440,"stv_port":27046,"stv_name":"Uncletopia | San Francisco | 4 | Community | STV","players":null},{"server_id":141,"name":"Uncletopia | Sydney | 1 | All Maps","name_short":"syd-1","host":"syd-1.au.uncletopia.com","port":27015,"enabled":true,"region":"au","cc":"au","latitude":-33.865143,"longitude":151.2099,"reserved":0,"last_update":"0001-01-01T00:00:00Z","name_a2s":"Uncletopia | Sydney | 1 | All Maps","protocol":17,"map":"koth_lakeside_final","folder":"tf","game":"Team Fortress","app_id":440,"player_count":0,"max_players":24,"Bots":0,"server_type":"Dedicated","server_os":"Linux","password":true,"vac":true,"version":"7757534","steam_id":85568392924470001,"keywords":["cp","nocrits","nodmgspread","uncletopia"],"game_id":440,"stv_port":27016,"stv_name":"Uncletopia | Sydney | 1 | All Maps | STV","players":null},{"server_id":123,"name":"Uncletopia | Sydney | 2 | All Maps","name_short":"syd-2","host":"syd-1.au.uncletopia.com","port":27025,"enabled":true,"region":"au","cc":"au","latitude":-33.865143,"longitude":151.2099,"reserved":0,"last_update":"0001-01-01T00:00:00Z","name_a2s":"Uncletopia | Sydney | 2 | All Maps","protocol":17,"map":"koth_viaduct","folder":"tf","game":"Team Fortress","app_id":440,"player_count":0,"max_players":24,"Bots":0,"server_type":"Dedicated","server_os":"Linux","password":true,"vac":true,"version":"7757534","steam_id":85568392924470002,"keywords":["cp","nocrits","nodmgspread","uncletopia"],"game_id":440,"stv_port":27026,"stv_name":"Uncletopia | Sydney | 2 | All Maps | STV","players":null},{"server_id":395,"name":"Uncletopia | Sydney | 3 | All Maps","name_short":"syd-3","host":"syd-1.au.uncletopia.com","port":27035,"enabled":true,"region":"au","cc":"au","latitude":-33.865143,"longitude":151.2099,"reserved":0,"last_update":"0001-01-01T00:00:00Z","name_a2s":"Uncletopia | Sydney | 3 | All Maps","protocol":17,"map":"koth_viaduct","folder":"tf","game":"Team Fortress","app_id":440,"player_count":1,"max_players":24,"Bots":0,"server_type":"Dedicated","server_os":"Linux","password":true,"vac":true,"version":"7757534","steam_id":85568392925194467,"keywords":["cp","nocrits","nodmgspread","uncletopia"],"game_id":440,"stv_port":27036,"stv_name":"Uncletopia | Sydney | 3 | All Maps | STV","players":[{"user_id":3,"name":"pk infone","steam_id":76561199105057428,"connected_time":17000000000,"state":"active","ping":37}]},{"server_id":396,"name":"Uncletopia | Sydney | 4 | All Maps","name_short":"syd-4","host":"syd-1.au.uncletopia.com","port":27045,"enabled":true,"region":"au","cc":"au","latitude":-33.865143,"longitude":151.2099,"reserved":0,"last_update":"0001-01-01T00:00:00Z","name_a2s":"Uncletopia | Sydney | 4 | All Maps","protocol":17,"map":"cp_snakewater_final1","folder":"tf","game":"Team Fortress","app_id":440,"player_count":0,"max_players":24,"Bots":0,"server_type":"Dedicated","server_os":"Linux","password":true,"vac":true,"version":"7757534","steam_id":85568392925397958,"keywords":["cp","nocrits","nodmgspread","uncletopia"],"game_id":440,"stv_port":27046,"stv_name":"Uncletopia | Sydney | 4 | All Maps | STV","players":null},{"server_id":58,"name":"Uncletopia | Sydney | 5 | Stopwatch Beta","name_short":"syd-5","host":"syd-1.au.uncletopia.com","port":27055,"enabled":true,"region":"au","cc":"au","latitude":-33.865143,"longitude":151.2099,"reserved":0,"last_update":"0001-01-01T00:00:00Z","name_a2s":"Uncletopia | Sydney | 5 | Stopwatch Beta","protocol":17,"map":"pl_barnblitz","folder":"tf","game":"Team Fortress","app_id":440,"player_count":0,"max_players":24,"Bots":0,"server_type":"Dedicated","server_os":"Linux","password":true,"vac":true,"version":"7757534","steam_id":85568392925397959,"keywords":["nocrits","nodmgspread","payload","uncletopia"],"game_id":440,"stv_port":27056,"stv_name":"Uncletopia | Sydney | 5 | Stopwatch Beta | STV","players":null},{"server_id":59,"name":"Uncletopia | Sydney | 6 | Community","name_short":"syd-6","host":"syd-1.au.uncletopia.com","port":27065,"enabled":true,"region":"au","cc":"au","latitude":-33.865143,"longitude":151.2099,"reserved":0,"last_update":"0001-01-01T00:00:00Z","name_a2s":"Uncletopia | Sydney | 6 | Community","protocol":17,"map":"cp_mountainlab","folder":"tf","game":"Team Fortress","app_id":440,"player_count":0,"max_players":24,"Bots":0,"server_type":"Dedicated","server_os":"Linux","password":true,"vac":true,"version":"7757534","steam_id":85568392925397960,"keywords":["cp","nocrits","nodmgspread","uncletopia"],"game_id":440,"stv_port":27066,"stv_name":"Uncletopia | Sydney | 6 | Community | STV","players":null},{"server_id":49,"name":"Uncletopia | Warsaw | 1 | All Maps","name_short":"waw-1","host":"waw-1.pl.uncletopia.com","port":27015,"enabled":true,"region":"eu","cc":"pl","latitude":52.2297,"longitude":21.017532,"reserved":0,"last_update":"0001-01-01T00:00:00Z","name_a2s":"","protocol":0,"map":"","folder":"","game":"","app_id":0,"player_count":0,"max_players":0,"Bots":0,"server_type":"","server_os":"","password":false,"vac":false,"version":"","steam_id":0,"keywords":null,"game_id":0,"stv_port":0,"stv_name":"","players":null},{"server_id":50,"name":"Uncletopia | Warsaw | 2 | All Maps","name_short":"waw-2","host":"waw-1.pl.uncletopia.com","port":27025,"enabled":true,"region":"eu","cc":"pl","latitude":52.2297,"longitude":21.017532,"reserved":0,"last_update":"0001-01-01T00:00:00Z","name_a2s":"","protocol":0,"map":"","folder":"","game":"","app_id":0,"player_count":0,"max_players":0,"Bots":0,"server_type":"","server_os":"","password":false,"vac":false,"version":"","steam_id":0,"keywords":null,"game_id":0,"stv_port":0,"stv_name":"","players":null},{"server_id":51,"name":"Uncletopia | Warsaw | 3 | All Maps","name_short":"waw-3","host":"waw-1.pl.uncletopia.com","port":27035,"enabled":true,"region":"eu","cc":"pl","latitude":52.2297,"longitude":21.017532,"reserved":0,"last_update":"0001-01-01T00:00:00Z","name_a2s":"","protocol":0,"map":"","folder":"","game":"","app_id":0,"player_count":0,"max_players":0,"Bots":0,"server_type":"","server_os":"","password":false,"vac":false,"version":"","steam_id":0,"keywords":null,"game_id":0,"stv_port":0,"stv_name":"","players":null},{"server_id":52,"name":"Uncletopia | Warsaw | 4 | All Maps","name_short":"waw-4","host":"waw-1.pl.uncletopia.com","port":27045,"enabled":true,"region":"eu","cc":"pl","latitude":52.2297,"longitude":21.017532,"reserved":0,"last_update":"0001-01-01T00:00:00Z","name_a2s":"","protocol":0,"map":"","folder":"","game":"","app_id":0,"player_count":18,"max_players":0,"Bots":0,"server_type":"","server_os":"","password":false,"vac":false,"version":"","steam_id":0,"keywords":null,"game_id":0,"stv_port":0,"stv_name":"","players":[{"user_id":94,"name":"Immortalyes","steam_id":76561198050800698,"connected_time":63000000000,"state":"active","ping":72},{"user_id":96,"name":"glorbert","steam_id":76561198007792525,"connected_time":45000000000,"state":"active","ping":71},{"user_id":53,"name":"KeanuCheems","steam_id":76561198145580689,"connected_time":3307000000000,"state":"active","ping":90},{"user_id":97,"name":"Varin","steam_id":76561198872319542,"connected_time":43000000000,"state":"active","ping":71},{"user_id":98,"name":"Kernew√´k","steam_id":76561198271772640,"connected_time":17000000000,"state":"active","ping":82},{"user_id":25,"name":"GMsU | Acoul","steam_id":76561198229222992,"connected_time":4550000000000,"state":"active","ping":52},{"user_id":26,"name":"Technic","steam_id":76561198128096130,"connected_time":4542000000000,"state":"active","ping":60},{"user_id":28,"name":"GMsU | Rebikas","steam_id":76561198077053764,"connected_time":4456000000000,"state":"active","ping":60},{"user_id":99,"name":"hwat","steam_id":76561199223139797,"connected_time":11000000000,"state":"active","ping":91},{"user_id":82,"name":"MrCookie","steam_id":76561199041201737,"connected_time":1022000000000,"state":"active","ping":81},{"user_id":93,"name":"Onnipoko","steam_id":76561198183966883,"connected_time":396000000000,"state":"active","ping":119},{"user_id":34,"name":"GMsU | AuxiliusM","steam_id":76561198071903356,"connected_time":4247000000000,"state":"active","ping":60},{"user_id":92,"name":"an aids monkey","steam_id":76561199467222024,"connected_time":447000000000,"state":"active","ping":107},{"user_id":91,"name":"Axter","steam_id":76561198118747192,"connected_time":531000000000,"state":"active","ping":95},{"user_id":85,"name":"contor","steam_id":76561198288536977,"connected_time":805000000000,"state":"active","ping":60},{"user_id":86,"name":"DelT","steam_id":76561198204007537,"connected_time":772000000000,"state":"active","ping":45},{"user_id":87,"name":"jaime8D","steam_id":76561197980590671,"connected_time":732000000000,"state":"active","ping":91},{"user_id":71,"name":"DaSzil","steam_id":76561198275605418,"connected_time":2059000000000,"state":"active","ping":82}]},{"server_id":53,"name":"Uncletopia | Warsaw | 5 | Stopwatch Beta","name_short":"waw-5","host":"waw-1.pl.uncletopia.com","port":27055,"enabled":true,"region":"eu","cc":"pl","latitude":52.2297,"longitude":21.017532,"reserved":0,"last_update":"0001-01-01T00:00:00Z","name_a2s":"","protocol":0,"map":"","folder":"","game":"","app_id":0,"player_count":0,"max_players":0,"Bots":0,"server_type":"","server_os":"","password":false,"vac":false,"version":"","steam_id":0,"keywords":null,"game_id":0,"stv_port":0,"stv_name":"","players":null},{"server_id":54,"name":"Uncletopia | Warsaw | 6 | Community","name_short":"waw-6","host":"waw-1.pl.uncletopia.com","port":27065,"enabled":true,"region":"eu","cc":"pl","latitude":52.2297,"longitude":21.017532,"reserved":0,"last_update":"0001-01-01T00:00:00Z","name_a2s":"","protocol":0,"map":"","folder":"","game":"","app_id":0,"player_count":0,"max_players":0,"Bots":0,"server_type":"","server_os":"","password":false,"vac":false,"version":"","steam_id":0,"keywords":null,"game_id":0,"stv_port":0,"stv_name":"","players":null}]}