{"status":true,"message":"","result":[{"server_id":9,"name":"Uncletopia | Atlanta | 1 | All Maps","name_short":"atl-1","host":"atl-1.us.uncletopia.com","port":27015,"enabled":true,"region":"us-east","cc":"us","latitude":33.753746,"longitude":-84.38633,"reserved":0,"last_update":"0001-01-01T00:00:00Z","name_a2s":"Uncletopia | Atlanta | 1 | All Maps","protocol":17,"map":"cp_mountainlab","folder":"tf","game":"Team Fortress","app_id":440,"player_count":0,"max_players":24,"Bots":0,"server_type":"Dedicated","server_os":"Linux","password":true,"vac":true,"version":"7961495","steam_id":85568392924469982,"keywords":["cp","nocrits","nodmgspread","uncletopia"],"game_id":440,"stv_port":27016,"stv_name":"Uncletopia | Atlanta | 1 | All Maps | STV","players":null},{"server_id":104,"name":"Uncletopia | Atlanta | 2 | All Maps","name_short":"atl-2","host":"atl-1.us.uncletopia.com","port":27025,"enabled":true,"region":"us-east","cc":"us","latitude":33.753746,"longitude":-84.38633,"reserved":0,"last_update":"0001-01-01T00:00:00Z","name_a2s":"","protocol":0,"map":"","folder":"","game":"","app_id":0,"player_count":0,"max_players":0,"Bots":0,"server_type":"","server_os":"","password":false,"vac":false,"version":"","steam_id":0,"keywords":null,"game_id":0,"stv_port":0,"stv_name":"","players":null},{"server_id":400,"name":"Uncletopia | Atlanta | 3 | All Maps","name_short":"atl-3","host":"atl-1.us.uncletopia.com","port":27035,"enabled":true,"region":"us-east","cc":"us","latitude":33.753746,"longitude":-84.38633,"reserved":0,"last_update":"0001-01-01T00:00:00Z","name_a2s":"","protocol":0,"map":"","folder":"","game":"","app_id":0,"player_count":0,"max_players":0,"Bots":0,"server_type":"","server_os":"","password":false,"vac":false,"version":"","steam_id":0,"keywords":null,"game_id":0,"stv_port":0,"stv_name":"","players":null},{"server_id":401,"name":"Uncletopia | Atlanta | 4 | Community","name_short":"atl-4","host":"atl-1.us.uncletopia.com","port":27045,"enabled":true,"region":"us-east","cc":"us","latitude":33.753746,"longitude":-84.38633,"reserved":0,"last_update":"0001-01-01T00:00:00Z","name_a2s":"","protocol":0,"map":"","folder":"","game":"","app_id":0,"player_count":0,"max_players":0,"Bots":0,"server_type":"","server_os":"","password":false,"vac":false,"version":"","steam_id":0,"keywords":null,"game_id":0,"stv_port":0,"stv_name":"","players":null},{"server_id":2,"name":"Uncletopia | Chicago | 1 | All Maps","name_short":"chi-1","host":"chi-1.us.uncletopia.com","port":27015,"enabled":true,"region":"us-central","cc":"us","latitude":41.881832,"longitude":-87.62318,"reserved":0,"last_update":"0001-01-01T00:00:00Z","name_a2s":"Uncletopia | Chicago | 1 | All Maps","protocol":17,"map":"pl_swiftwater_final1","folder":"tf","game":"Team Fortress","app_id":440,"player_count":24,"max_players":24,"Bots":0,"server_type":"Dedicated","server_os":"Linux","password":true,"vac":true,"version":"7961495","steam_id":85568392924469984,"keywords":["nocrits","nodmgspread","payload","uncletopia"],"game_id":440,"stv_port":27016,"stv_name":"Uncletopia | Chicago | 1 | All Maps | STV","players":[{"user_id":335,"name":"PocketTieAMPLFY","steam_id":76561199080485881,"connected_time":65000000000,"state":"active","ping":116},{"user_id":176,"name":"MetalNavigator","steam_id":76561198974231439,"connected_time":10670000000000,"state":"active","ping":118},{"user_id":336,"name":"William Wallace","steam_id":76561199343316814,"connected_time":2000000000,"state":"spawning","ping":56},{"user_id":323,"name":"footoftheday","steam_id":76561198052712449,"connected_time":1189000000000,"state":"active","ping":81},{"user_id":312,"name":"richard clock","steam_id":76561198048455671,"connected_time":1775000000000,"state":"active","ping":54},{"user_id":333,"name":"wack","steam_id":76561198875042939,"connected_time":584000000000,"state":"active","ping":90},{"user_id":304,"name":"blazzeh","steam_id":76561198053407069,"connected_time":2242000000000,"state":"active","ping":118},{"user_id":243,"name":"Obelisk","steam_id":76561198049416866,"connected_time":6072000000000,"state":"active","ping":80},{"user_id":322,"name":"nalezinik","steam_id":76561198030026119,"connected_time":1232000000000,"state":"active","ping":60},{"user_id":319,"name":"asbestos","steam_id":76561198079178866,"connected_time":1295000000000,"state":"active","ping":72},{"user_id":321,"name":"npc energy","steam_id":76561198035342207,"connected_time":1240000000000,"state":"active","ping":45},{"user_id":310,"name":"Glue Gulper","steam_id":76561198158014525,"connected_time":1813000000000,"state":"active","ping":58},{"user_id":334,"name":"Dragus","steam_id":76561198032967285,"connected_time":285000000000,"state":"active","ping":45},{"user_id":308,"name":"saskberrypie","steam_id":76561199213965613,"connected_time":1839000000000,"state":"active","ping":85},{"user_id":326,"name":"NovusOrdoDux","steam_id":76561198271936289,"connected_time":1019000000000,"state":"active","ping":137},{"user_id":235,"name":"Doctor Emerald(real)","steam_id":76561199123003872,"connected_time":6148000000000,"state":"active","ping":97},{"user_id":244,"name":"big steve","steam_id":76561199037050183,"connected_time":5880000000000,"state":"active","ping":94},{"user_id":194,"name":"mountain","steam_id":76561198078395002,"connected_time":9994000000000,"state":"active","ping":66},{"user_id":306,"name":"Ashes!","steam_id":76561197998475441,"connected_time":1851000000000,"state":"active","ping":89},{"user_id":260,"name":"The Senator","steam_id":76561198941700660,"connected_time":5124000000000,"state":"active","ping":85},{"user_id":331,"name":"Mecha","steam_id":76561198014927379,"connected_time":742000000000,"state":"active","ping":69},{"user_id":328,"name":"BNT","steam_id":76561198044064831,"connected_time":800000000000,"state":"active","ping":63},{"user_id":332,"name":"The 80s","steam_id":76561198997807831,"connected_time":708000000000,"state":"active","ping":104},{"user_id":329,"name":"DinoGoof","steam_id":76561198998427283,"connected_time":775000000000,"state":"active","ping":75}]},{"server_id":106,"name":"Uncletopia | Chicago | 2 | All Maps","name_short":"chi-2","host":"chi-1.us.uncletopia.com","port":27025,"enabled":true,"region":"us-central","cc":"us","latitude":41.881832,"longitude":-87.62318,"reserved":0,"last_update":"0001-01-01T00:00:00Z","name_a2s":"Uncletopia | Chicago | 2 | All Maps","protocol":17,"map":"cp_process_final","folder":"tf","game":"Team Fortress","app_id":440,"player_count":24,"max_players":24,"Bots":0,"server_type":"Dedicated","server_os":"Linux","password":true,"vac":true,"version":"7961495","steam_id":85568392924469985,"keywords":["cp","nocrits","nodmgspread","uncletopia"],"game_id":440,"stv_port":27026,"stv_name":"Uncletopia | Chicago | 2 | All Maps | STV","players":[{"user_id":249,"name":"Lwyz016","steam_id":76561199164626058,"connected_time":867000000000,"state":"active","ping":166},{"user_id":204,"name":"April's Fool","steam_id":76561198069068827,"connected_time":2811000000000,"state":"active","ping":45},{"user_id":242,"name":"allimadness","steam_id":76561199061698187,"connected_time":1125000000000,"state":"active","ping":120},{"user_id":239,"name":"Retrace","steam_id":76561198080620966,"connected_time":1780000000000,"state":"active","ping":77},{"user_id":238,"name":"det lft","steam_id":76561198170859755,"connected_time":1783000000000,"state":"active","ping":47},{"user_id":250,"name":"Quinton Beef","steam_id":76561198117825609,"connected_time":772000000000,"state":"active","ping":89},{"user_id":244,"name":"Mkwhackertracker","steam_id":76561198128343704,"connected_time":1110000000000,"state":"active","ping":61},{"user_id":260,"name":"1-800-GHOST-DANCE","steam_id":76561198835430429,"connected_time":311000000000,"state":"active","ping":79},{"user_id":256,"name":"Flowers","steam_id":76561198031669899,"connected_time":529000000000,"state":"active","ping":128},{"user_id":233,"name":"ggiP","steam_id":76561198815264672,"connected_time":2091000000000,"state":"active","ping":51},{"user_id":226,"name":"Kapu1178","steam_id":76561198107212766,"connected_time":2179000000000,"state":"active","ping":73},{"user_id":71,"name":"fischman","steam_id":76561199064142670,"connected_time":13308000000000,"state":"active","ping":152},{"user_id":259,"name":"CF-TF2","steam_id":76561198145893044,"connected_time":393000000000,"state":"active","ping":75},{"user_id":262,"name":"snubcube","steam_id":76561198135880806,"connected_time":117000000000,"state":"active","ping":77},{"user_id":251,"name":"TheArachnidGamer","steam_id":76561198304986752,"connected_time":761000000000,"state":"active","ping":65},{"user_id":156,"name":"ThatGamingKiwi","steam_id":76561199170522237,"connected_time":7267000000000,"state":"active","ping":77},{"user_id":261,"name":"Clear Sights","steam_id":76561198006215683,"connected_time":140000000000,"state":"active","ping":63},{"user_id":236,"name":"money getting 1 percenter","steam_id":76561198012796388,"connected_time":1859000000000,"state":"active","ping":47},{"user_id":230,"name":"Sleepy","steam_id":76561198217133637,"connected_time":2125000000000,"state":"active","ping":98},{"user_id":247,"name":"eat Pant","steam_id":76561197974965536,"connected_time":1066000000000,"state":"active","ping":60},{"user_id":257,"name":"❤[S'more]❤","steam_id":76561198817361963,"connected_time":493000000000,"state":"active","ping":107},{"user_id":255,"name":"Pimastr","steam_id":76561198230996464,"connected_time":664000000000,"state":"active","ping":62},{"user_id":258,"name":"GuyGoom","steam_id":76561198254522178,"connected_time":487000000000,"state":"active","ping":59},{"user_id":201,"name":"capeeKo","steam_id":76561197970346623,"connected_time":2922000000000,"state":"active","ping":79}]},{"server_id":402,"name":"Uncletopia | Chicago | 3 | All Maps","name_short":"chi-3","host":"chi-1.us.uncletopia.com","port":27035,"enabled":true,"region":"us-central","cc":"us","latitude":41.881832,"longitude":-87.62318,"reserved":0,"last_update":"0001-01-01T00:00:00Z","name_a2s":"Uncletopia | Chicago | 3 | All Maps","protocol":17,"map":"pl_badwater","folder":"tf","game":"Team Fortress","app_id":440,"player_count":22,"max_players":24,"Bots":0,"server_type":"Dedicated","server_os":"Linux","password":true,"vac":true,"version":"7961495","steam_id":85568392924515191,"keywords":["nocrits","nodmgspread","payload","uncletopia"],"game_id":440,"stv_port":27036,"stv_name":"Uncletopia | Chicago | 3 | All Maps | STV","players":[{"user_id":103,"name":"Psychosis","steam_id":76561198078659070,"connected_time":4958000000000,"state":"active","ping":73},{"user_id":145,"name":"kinky n stinky","steam_id":76561198145366579,"connected_time":1002000000000,"state":"active","ping":79},{"user_id":134,"name":"Petrivus","steam_id":76561198202152453,"connected_time":2672000000000,"state":"active","ping":108},{"user_id":159,"name":"ahh she sink my dink","steam_id":76561198057076267,"connected_time":184000000000,"state":"active","ping":72},{"user_id":153,"name":"Banaman","steam_id":76561198329598223,"connected_time":789000000000,"state":"active","ping":68},{"user_id":108,"name":"Eyeless","steam_id":76561198094772431,"connected_time":4593000000000,"state":"active","ping":55},{"user_id":149,"name":"GoldtoothFour","steam_id":76561198055529332,"connected_time":889000000000,"state":"active","ping":53},{"user_id":152,"name":"Cutlery Box","steam_id":76561197978508626,"connected_time":834000000000,"state":"active","ping":74},{"user_id":130,"name":"Incoming","steam_id":76561199020244051,"connected_time":2854000000000,"state":"active","ping":103},{"user_id":151,"name":"g00bur","steam_id":76561197993622520,"connected_time":875000000000,"state":"active","ping":72},{"user_id":160,"name":"MontellWilliams","steam_id":76561198172143015,"connected_time":71000000000,"state":"active","ping":59},{"user_id":146,"name":"Machine Girl - SAD CLAPS","steam_id":76561198294013916,"connected_time":985000000000,"state":"active","ping":66},{"user_id":107,"name":"blitz","steam_id":76561198246638226,"connected_time":4723000000000,"state":"active","ping":57},{"user_id":131,"name":"Toest","steam_id":76561198076061844,"connected_time":2853000000000,"state":"active","ping":57},{"user_id":155,"name":"Roberto Del Fuego","steam_id":76561198043458554,"connected_time":759000000000,"state":"active","ping":49},{"user_id":116,"name":"krueger","steam_id":76561198268654031,"connected_time":4116000000000,"state":"active","ping":54},{"user_id":143,"name":"Buns","steam_id":76561199375435467,"connected_time":1661000000000,"state":"active","ping":66},{"user_id":94,"name":"ungr8t","steam_id":76561198063521721,"connected_time":5738000000000,"state":"active","ping":75},{"user_id":157,"name":"Smittywerbenjager-manjenson","steam_id":76561198067060742,"connected_time":703000000000,"state":"active","ping":68},{"user_id":74,"name":"strangejune","steam_id":76561198272400016,"connected_time":7910000000000,"state":"active","ping":77},{"user_id":133,"name":"MarauderOP","steam_id":76561199087316861,"connected_time":2753000000000,"state":"active","ping":76},{"user_id":119,"name":"The third, just the third","steam_id":76561199089290128,"connected_time":4087000000000,"state":"active","ping":137}]},{"server_id":403,"name":"Uncletopia | Chicago | 4 | All Maps","name_short":"chi-4","host":"chi-1.us.uncletopia.com","port":27045,"enabled":true,"region":"us-central","cc":"us","latitude":41.881832,"longitude":-87.62318,"reserved":0,"last_update":"0001-01-01T00:00:00Z","name_a2s":"Uncletopia | Chicago | 4 | All Maps","protocol":17,"map":"koth_cascade","folder":"tf","game":"Team Fortress","app_id":440,"player_count":0,"max_players":24,"Bots":0,"server_type":"Dedicated","server_os":"Linux","password":true,"vac":true,"version":"7961495","steam_id":85568392924515193,"keywords":["cp","nocrits","nodmgspread","uncletopia"],"game_id":440,"stv_port":27046,"stv_name":"Uncletopia | Chicago | 4 | All Maps | STV","players":null},{"server_id":36,"name":"Uncletopia | Chicago | 5 | All Maps","name_short":"chi-5","host":"chi-2.us.uncletopia.com","port":27015,"enabled":true,"region":"us-central","cc":"us","latitude":41.881832,"longitude":-87.62318,"reserved":0,"last_update":"0001-01-01T00:00:00Z","name_a2s":"Uncletopia | Chicago | 5 | All Maps","protocol":17,"map":"cp_snakewater_final1","folder":"tf","game":"Team Fortress","app_id":440,"player_count":0,"max_players":24,"Bots":0,"server_type":"Dedicated","server_os":"Linux","password":true,"vac":true,"version":"7961495","steam_id":85568392924866362,"keywords":["cp","nocrits","nodmgspread","uncletopia"],"game_id":440,"stv_port":27016,"stv_name":"Uncletopia | Chicago | 5 | All Maps | STV","players":null},{"server_id":37,"name":"Uncletopia | Chicago | 6 | All Maps","name_short":"chi-6","host":"chi-2.us.uncletopia.com","port":27025,"enabled":true,"region":"us-central","cc":"us","latitude":41.881832,"longitude":-87.62318,"reserved":0,"last_update":"0001-01-01T00:00:00Z","name_a2s":"Uncletopia | Chicago | 6 | All Maps","protocol":17,"map":"cp_altitude","folder":"tf","game":"Team Fortress","app_id":440,"player_count":0,"max_players":24,"Bots":0,"server_type":"Dedicated","server_os":"Linux","password":true,"vac":true,"version":"7961495","steam_id":85568392924866363,"keywords":["cp","nocrits","nodmgspread","uncletopia"],"game_id":440,"stv_port":27026,"stv_name":"Uncletopia | Chicago | 6 | All Maps | STV","players":null},{"server_id":38,"name":"Uncletopia | Chicago | 7 | Stopwatch Beta","name_short":"chi-7","host":"chi-2.us.uncletopia.com","port":27035,"enabled":true,"region":"us-central","cc":"us","latitude":41.881832,"longitude":-87.62318,"reserved":0,"last_update":"0001-01-01T00:00:00Z","name_a2s":"Uncletopia | Chicago | 7 | Stopwatch Beta","protocol":17,"map":"pl_badwater","folder":"tf","game":"Team Fortress","app_id":440,"player_count":0,"max_players":24,"Bots":0,"server_type":"Dedicated","server_os":"Linux","password":true,"vac":true,"version":"7961495","steam_id":85568392924866364,"keywords":["nocrits","nodmgspread","payload","uncletopia"],"game_id":440,"stv_port":27036,"stv_name":"Uncletopia | Chicago | 7 | Stopwatch Beta | STV","players":null},{"server_id":39,"name":"Uncletopia | Chicago | 8 | Community","name_short":"chi-8","host":"chi-2.us.uncletopia.com","port":27045,"enabled":true,"region":"us-central","cc":"us","latitude":41.881832,"longitude":-87.62318,"reserved":0,"last_update":"0001-01-01T00:00:00Z","name_a2s":"Uncletopia | Chicago | 8 | Community","protocol":17,"map":"koth_cascade","folder":"tf","game":"Team Fortress","app_id":440,"player_count":0,"max_players":24,"Bots":0,"server_type":"Dedicated","server_os":"Linux","password":true,"vac":true,"version":"7961495","steam_id":85568392924866365,"keywords":["cp","nocrits","nodmgspread","uncletopia"],"game_id":440,"stv_port":27046,"stv_name":"Uncletopia | Chicago | 8 | Community | STV","players":null},{"server_id":8,"name":"Uncletopia | Dallas | 1 | All Maps","name_short":"dal-1","host":"dal-1.us.uncletopia.com","port":27015,"enabled":true,"region":"us-central","cc":"us","latitude":32.779167,"longitude":-96.80889,"reserved":0,"last_update":"0001-01-01T00:00:00Z","name_a2s":"Uncletopia | Dallas | 1 | All Maps","protocol":17,"map":"cp_mountainlab","folder":"tf","game":"Team Fortress","app_id":440,"player_count":24,"max_players":24,"Bots":0,"server_type":"Dedicated","server_os":"Linux","password":true,"vac":true,"version":"7961495","steam_id":85568392924469986,"keywords":["cp","nocrits","nodmgspread","uncletopia"],"game_id":440,"stv_port":27016,"stv_name":"Uncletopia | Dallas | 1 | All Maps | STV","players":[{"user_id":133,"name":"Fletcher","steam_id":76561198317846538,"connected_time":10168000000000,"state":"active","ping":76},{"user_id":208,"name":"Stolid","steam_id":76561197998506423,"connected_time":3270000000000,"state":"active","ping":63},{"user_id":244,"name":"GandalfTheGrey6","steam_id":76561199116701903,"connected_time":178000000000,"state":"active","ping":89},{"user_id":233,"name":"Mellou","steam_id":76561198212048740,"connected_time":1148000000000,"state":"active","ping":40},{"user_id":229,"name":"f","steam_id":76561198215559840,"connected_time":1623000000000,"state":"active","ping":70},{"user_id":249,"name":"Joe Nathan","steam_id":76561198041030399,"connected_time":91000000000,"state":"active","ping":57},{"user_id":227,"name":"Pixler544","steam_id":76561198240575132,"connected_time":1822000000000,"state":"active","ping":80},{"user_id":243,"name":"Si1entSn1pa","steam_id":76561198170095479,"connected_time":208000000000,"state":"active","ping":87},{"user_id":245,"name":"Palpy","steam_id":76561198165608201,"connected_time":171000000000,"state":"active","ping":55},{"user_id":250,"name":"moneymobile","steam_id":76561198066730780,"connected_time":63000000000,"state":"active","ping":84},{"user_id":222,"name":"The Sapper","steam_id":76561198255322968,"connected_time":1886000000000,"state":"active","ping":115},{"user_id":240,"name":"Shalom","steam_id":76561198410005222,"connected_time":373000000000,"state":"active","ping":49},{"user_id":241,"name":"w3bd3v","steam_id":76561198077982525,"connected_time":219000000000,"state":"active","ping":105},{"user_id":186,"name":"nunu and willump stan","steam_id":76561198155872356,"connected_time":4783000000000,"state":"active","ping":74},{"user_id":246,"name":"Dr Oshawott","steam_id":76561198042021629,"connected_time":164000000000,"state":"active","ping":85},{"user_id":247,"name":"AAZARDO","steam_id":76561198849146009,"connected_time":164000000000,"state":"active","ping":70},{"user_id":230,"name":"McDonald's Filet-O-Fish","steam_id":76561198104086771,"connected_time":1601000000000,"state":"active","ping":75},{"user_id":248,"name":"A Literal Fucking Rat","steam_id":76561198178872429,"connected_time":158000000000,"state":"active","ping":56},{"user_id":232,"name":"David De Bergerac","steam_id":76561198010306294,"connected_time":1326000000000,"state":"active","ping":91},{"user_id":239,"name":"Legless Amphibian","steam_id":76561198880476222,"connected_time":764000000000,"state":"active","ping":72},{"user_id":187,"name":"peep! qki","steam_id":76561198056198168,"connected_time":4761000000000,"state":"active","ping":54},{"user_id":224,"name":"Kuyumiester","steam_id":76561198126835302,"connected_time":1872000000000,"state":"active","ping":62},{"user_id":237,"name":"Big Business","steam_id":76561198353366625,"connected_time":915000000000,"state":"active","ping":86},{"user_id":242,"name":"Sahbi ʕ •ᴥ•ʔ (she/they)","steam_id":76561199196292242,"connected_time":219000000000,"state":"active","ping":67}]},{"server_id":108,"name":"Uncletopia | Dallas | 2 | All Maps","name_short":"dal-2","host":"dal-1.us.uncletopia.com","port":27025,"enabled":true,"region":"us-central","cc":"us","latitude":32.779167,"longitude":-96.80889,"reserved":0,"last_update":"0001-01-01T00:00:00Z","name_a2s":"Uncletopia | Dallas | 2 | All Maps","protocol":17,"map":"cp_sunshine","folder":"tf","game":"Team Fortress","app_id":440,"player_count":24,"max_players":24,"Bots":0,"server_type":"Dedicated","server_os":"Linux","password":true,"vac":true,"version":"7961495","steam_id":85568392924469988,"keywords":["cp","nocrits","nodmgspread","uncletopia"],"game_id":440,"stv_port":27026,"stv_name":"Uncletopia | Dallas | 2 | All Maps | STV","players":[{"user_id":4,"name":"Ceo of Anti-Racism","steam_id":76561198831997540,"connected_time":9678000000000,"state":"active","ping":56},{"user_id":92,"name":"InvaderAlex","steam_id":76561198039232451,"connected_time":2861000000000,"state":"active","ping":61},{"user_id":56,"name":"sweppy","steam_id":76561198035457667,"connected_time":5586000000000,"state":"active","ping":65},{"user_id":84,"name":"Sergeant Snowflake","steam_id":76561198041474489,"connected_time":3574000000000,"state":"active","ping":84},{"user_id":96,"name":"ApocAnarchy","steam_id":76561198225604700,"connected_time":2779000000000,"state":"active","ping":59},{"user_id":116,"name":"Lima","steam_id":76561198799630622,"connected_time":612000000000,"state":"active","ping":75},{"user_id":109,"name":"Titus Tyrwitt","steam_id":76561197990779673,"connected_time":928000000000,"state":"active","ping":76},{"user_id":117,"name":"Michaelpc1","steam_id":76561198088365519,"connected_time":461000000000,"state":"active","ping":90},{"user_id":99,"name":"Cold shoulder","steam_id":76561198453824178,"connected_time":1986000000000,"state":"active","ping":136},{"user_id":118,"name":"Kirby.exe","steam_id":76561198242714582,"connected_time":295000000000,"state":"active","ping":56},{"user_id":81,"name":"Jennifer Aniston's Nipples","steam_id":76561198086107548,"connected_time":3701000000000,"state":"active","ping":43},{"user_id":64,"name":"Satori Komeiji","steam_id":76561198158211423,"connected_time":4699000000000,"state":"active","ping":80},{"user_id":100,"name":"Charlotte","steam_id":76561199084344266,"connected_time":1959000000000,"state":"active","ping":91},{"user_id":88,"name":"Yukon Cornelius","steam_id":76561198261512781,"connected_time":3512000000000,"state":"active","ping":69},{"user_id":106,"name":"Cyrllo","steam_id":76561198207809512,"connected_time":1090000000000,"state":"active","ping":46},{"user_id":107,"name":"Raine","steam_id":76561198055761141,"connected_time":1031000000000,"state":"active","ping":110},{"user_id":111,"name":"Snoopy","steam_id":76561198273735974,"connected_time":875000000000,"state":"active","ping":77},{"user_id":105,"name":"sagejay","steam_id":76561198118149530,"connected_time":1244000000000,"state":"active","ping":85},{"user_id":119,"name":"shakoiwa","steam_id":76561199059441773,"connected_time":30000000000,"state":"active","ping":141},{"user_id":93,"name":"hill of the king","steam_id":76561198099491925,"connected_time":2856000000000,"state":"active","ping":75},{"user_id":115,"name":"Hindmost","steam_id":76561199081837220,"connected_time":706000000000,"state":"active","ping":71},{"user_id":112,"name":"Walmus","steam_id":76561198111416393,"connected_time":868000000000,"state":"active","ping":76},{"user_id":82,"name":"{SCG} Jon the Friendly Fox \u003c3","steam_id":76561198021136606,"connected_time":3694000000000,"state":"active","ping":46},{"user_id":89,"name":"motherfucker 2.0","steam_id":76561198141189209,"connected_time":3474000000000,"state":"active","ping":44}]},{"server_id":404,"name":"Uncletopia | Dallas | 3 | All Maps","name_short":"dal-3","host":"dal-1.us.uncletopia.com","port":27035,"enabled":true,"region":"us-central","cc":"us","latitude":32.779167,"longitude":-96.80889,"reserved":0,"last_update":"0001-01-01T00:00:00Z","name_a2s":"Uncletopia | Dallas | 3 | All Maps","protocol":17,"map":"koth_highpass","folder":"tf","game":"Team Fortress","app_id":440,"player_count":0,"max_players":24,"Bots":0,"server_type":"Dedicated","server_os":"Linux","password":true,"vac":true,"version":"7961495","steam_id":85568392924515219,"keywords":["cp","nocrits","nodmgspread","uncletopia"],"game_id":440,"stv_port":27036,"stv_name":"Uncletopia | Dallas | 3 | All Maps | STV","players":null},{"server_id":405,"name":"Uncletopia | Dallas | 4 | Community","name_short":"dal-4","host":"dal-1.us.uncletopia.com","port":27045,"enabled":true,"region":"us-central","cc":"us","latitude":32.779167,"longitude":-96.80889,"reserved":0,"last_update":"0001-01-01T00:00:00Z","name_a2s":"Uncletopia | Dallas | 4 | Community","protocol":17,"map":"workshop/cp_propaganda_b18.ugc1603743849","folder":"tf","game":"Team Fortress","app_id":440,"player_count":0,"max_players":24,"Bots":0,"server_type":"Dedicated","server_os":"Linux","password":true,"vac":true,"version":"7961495","steam_id":85568392924515220,"keywords":["cp","nocrits","nodmgspread","uncletopia"],"game_id":440,"stv_port":27046,"stv_name":"Uncletopia | Dallas | 4 | Community | STV","players":null},{"server_id":5,"name":"Uncletopia | Frankfurt | 1 | All Maps","name_short":"frk-1","host":"frk-1.de.uncletopia.com","port":27015,"enabled":true,"region":"eu","cc":"de","latitude":50.110924,"longitude":8.682127,"reserved":0,"last_update":"0001-01-01T00:00:00Z","name_a2s":"Uncletopia | Frankfurt | 1 | All Maps","protocol":17,"map":"pl_thundermountain","folder":"tf","game":"Team Fortress","app_id":440,"player_count":24,"max_players":24,"Bots":0,"server_type":"Dedicated","server_os":"Linux","password":true,"vac":true,"version":"7961495","steam_id":85568392924469989,"keywords":["nocrits","nodmgspread","payload","uncletopia"],"game_id":440,"stv_port":27016,"stv_name":"Uncletopia | Frankfurt | 1 | All Maps | STV","players":[{"user_id":625,"name":"Gety0","steam_id":76561198044387185,"connected_time":442000000000,"state":"active","ping":86},{"user_id":551,"name":"Shpee","steam_id":76561198065009070,"connected_time":5780000000000,"state":"active","ping":95},{"user_id":621,"name":"RAINZ","steam_id":76561198335370929,"connected_time":513000000000,"state":"active","ping":132},{"user_id":605,"name":"Erection Man","steam_id":76561198021714542,"connected_time":1733000000000,"state":"active","ping":64},{"user_id":604,"name":"Walter Black","steam_id":76561198309194819,"connected_time":1791000000000,"state":"active","ping":89},{"user_id":607,"name":"_Hot_Fuzz_","steam_id":76561198160304886,"connected_time":1648000000000,"state":"active","ping":191},{"user_id":575,"name":"KingPotatoChips","steam_id":76561198035156465,"connected_time":3931000000000,"state":"active","ping":66},{"user_id":626,"name":"Artificial.Ignorance","steam_id":76561198453090180,"connected_time":359000000000,"state":"active","ping":160},{"user_id":589,"name":"nevim","steam_id":76561199120843402,"connected_time":2961000000000,"state":"active","ping":57},{"user_id":606,"name":"♂ Animan ♂ Studios ♂","steam_id":76561198308302932,"connected_time":1708000000000,"state":"active","ping":94},{"user_id":485,"name":"john fortress","steam_id":76561198013237629,"connected_time":10159000000000,"state":"active","ping":107},{"user_id":619,"name":"TJ1212","steam_id":76561199013575313,"connected_time":609000000000,"state":"active","ping":63},{"user_id":622,"name":"Mr.Dies a lot","steam_id":76561199061602946,"connected_time":503000000000,"state":"active","ping":99},{"user_id":514,"name":"halow","steam_id":76561198061505163,"connected_time":8326000000000,"state":"active","ping":86},{"user_id":581,"name":"tallen","steam_id":76561198061708595,"connected_time":3673000000000,"state":"active","ping":82},{"user_id":624,"name":"rwota","steam_id":76561198385769722,"connected_time":445000000000,"state":"active","ping":105},{"user_id":616,"name":"Lux","steam_id":76561198060417740,"connected_time":722000000000,"state":"active","ping":56},{"user_id":600,"name":"BELADIT","steam_id":76561198011911501,"connected_time":2576000000000,"state":"active","ping":69},{"user_id":627,"name":"MoistMomMauler","steam_id":76561198069359049,"connected_time":359000000000,"state":"active","ping":85},{"user_id":618,"name":"Light","steam_id":76561198125145708,"connected_time":622000000000,"state":"active","ping":64},{"user_id":615,"name":"TAFI03","steam_id":76561198213082089,"connected_time":825000000000,"state":"active","ping":55},{"user_id":612,"name":"Fran","steam_id":76561199070516960,"connected_time":1276000000000,"state":"active","ping":57},{"user_id":593,"name":"xXx_神々の消費者_xXx","steam_id":76561198382668057,"connected_time":2866000000000,"state":"active","ping":134},{"user_id":623,"name":"Silvestro","steam_id":76561198021660066,"connected_time":486000000000,"state":"active","ping":82}]},{"server_id":110,"name":"Uncletopia | Frankfurt | 2 | All Maps","name_short":"frk-2","host":"frk-1.de.uncletopia.com","port":27025,"enabled":true,"region":"eu","cc":"de","latitude":50.110924,"longitude":8.682127,"reserved":0,"last_update":"0001-01-01T00:00:00Z","name_a2s":"Uncletopia | Frankfurt | 2 | All Maps","protocol":17,"map":"pl_frontier_final","folder":"tf","game":"Team Fortress","app_id":440,"player_count":24,"max_players":24,"Bots":0,"server_type":"Dedicated","server_os":"Linux","password":true,"vac":true,"version":"7961495","steam_id":85568392924469990,"keywords":["nocrits","nodmgspread","payload","uncletopia"],"game_id":440,"stv_port":27026,"stv_name":"Uncletopia | Frankfurt | 2 | All Maps | STV","players":[{"user_id":371,"name":"Štěpán","steam_id":76561198275742101,"connected_time":594000000000,"state":"active","ping":57},{"user_id":246,"name":"CAR DOOR","steam_id":76561198055283295,"connected_time":7335000000000,"state":"active","ping":45},{"user_id":354,"name":"Zero (Orbital Gear Mastermind)","steam_id":76561198017416816,"connected_time":1461000000000,"state":"active","ping":59},{"user_id":379,"name":"Nornia","steam_id":76561198040509712,"connected_time":90000000000,"state":"active","ping":60},{"user_id":369,"name":"frosty","steam_id":76561198094560834,"connected_time":649000000000,"state":"active","ping":62},{"user_id":373,"name":"Voxel","steam_id":76561199225333422,"connected_time":363000000000,"state":"active","ping":103},{"user_id":377,"name":"Bad Guy","steam_id":76561199039772329,"connected_time":196000000000,"state":"active","ping":124},{"user_id":294,"name":"movement播放机","steam_id":76561197994492154,"connected_time":5165000000000,"state":"active","ping":68},{"user_id":353,"name":"ARTI","steam_id":76561199446989613,"connected_time":1503000000000,"state":"active","ping":77},{"user_id":332,"name":"busgrabb","steam_id":76561198055768465,"connected_time":2822000000000,"state":"active","ping":59},{"user_id":368,"name":"Sheep in wolf's clothing","steam_id":76561198349648942,"connected_time":721000000000,"state":"active","ping":90},{"user_id":357,"name":"elmstJP ₪ F4.exe","steam_id":76561197997909480,"connected_time":1277000000000,"state":"active","ping":75},{"user_id":363,"name":"Milk","steam_id":76561198125876588,"connected_time":1172000000000,"state":"active","ping":53},{"user_id":359,"name":"HelwiiHill","steam_id":76561198066730552,"connected_time":1219000000000,"state":"active","ping":84},{"user_id":370,"name":"Grimbeard","steam_id":76561197961823531,"connected_time":621000000000,"state":"active","ping":62},{"user_id":313,"name":"Skuld","steam_id":76561198064734905,"connected_time":4379000000000,"state":"active","ping":113},{"user_id":338,"name":"Isuurn","steam_id":76561198150201094,"connected_time":2326000000000,"state":"active","ping":72},{"user_id":356,"name":"Littleyoshifan","steam_id":76561198445491045,"connected_time":1403000000000,"state":"active","ping":57},{"user_id":374,"name":"dirtik300","steam_id":76561198424701630,"connected_time":358000000000,"state":"active","ping":115},{"user_id":362,"name":"UNPARALLELED INNOCENCE","steam_id":76561198104896547,"connected_time":1178000000000,"state":"active","ping":75},{"user_id":367,"name":"Chucko Kokos","steam_id":76561198112553005,"connected_time":948000000000,"state":"active","ping":66},{"user_id":375,"name":"Your local Elma person","steam_id":76561198032359132,"connected_time":356000000000,"state":"active","ping":60},{"user_id":364,"name":"Joy","steam_id":76561198155314925,"connected_time":1147000000000,"state":"active","ping":68},{"user_id":376,"name":"Wizard","steam_id":76561199036530516,"connected_time":345000000000,"state":"active","ping":114}]},{"server_id":308,"name":"Uncletopia | Frankfurt | 3 | All Maps","name_short":"frk-3","host":"frk-1.de.uncletopia.com","port":27035,"enabled":true,"region":"eu","cc":"de","latitude":50.110924,"longitude":8.682127,"reserved":0,"last_update":"0001-01-01T00:00:00Z","name_a2s":"Uncletopia | Frankfurt | 3 | All Maps","protocol":17,"map":"pl_upward","folder":"tf","game":"Team Fortress","app_id":440,"player_count":24,"max_players":24,"Bots":0,"server_type":"Dedicated","server_os":"Linux","password":true,"vac":true,"version":"7961495","steam_id":85568392924504274,"keywords":["nocrits","nodmgspread","payload","uncletopia"],"game_id":440,"stv_port":27036,"stv_name":"Uncletopia | Frankfurt | 3 | All Maps | STV","players":[{"user_id":94,"name":"yaldabaoth","steam_id":76561198084606869,"connected_time":280000000000,"state":"active","ping":142},{"user_id":40,"name":"Olvustin","steam_id":76561198272011453,"connected_time":3162000000000,"state":"active","ping":94},{"user_id":80,"name":"Birch","steam_id":76561197998712822,"connected_time":731000000000,"state":"active","ping":52},{"user_id":42,"name":"siarczan (VI) miedzi (II)","steam_id":76561198327848460,"connected_time":2753000000000,"state":"active","ping":67},{"user_id":73,"name":"Josh","steam_id":76561198274546904,"connected_time":1001000000000,"state":"active","ping":141},{"user_id":44,"name":"ash","steam_id":76561198159073505,"connected_time":2623000000000,"state":"active","ping":80},{"user_id":81,"name":"jov.jov","steam_id":76561198357153602,"connected_time":718000000000,"state":"active","ping":68},{"user_id":82,"name":"LumaGamerLOL","steam_id":76561198952358599,"connected_time":707000000000,"state":"active","ping":55},{"user_id":47,"name":"stefanbejenari","steam_id":76561199466718294,"connected_time":2579000000000,"state":"active","ping":73},{"user_id":87,"name":"Pain in a Box","steam_id":76561197990777173,"connected_time":463000000000,"state":"active","ping":98},{"user_id":95,"name":"N","steam_id":76561198257342972,"connected_time":278000000000,"state":"active","ping":55},{"user_id":51,"name":"ShadoWizardMONEYG4NG","steam_id":76561198114777963,"connected_time":2364000000000,"state":"active","ping":50},{"user_id":90,"name":"Urfangonultasadana","steam_id":76561199389286151,"connected_time":319000000000,"state":"active","ping":98},{"user_id":91,"name":"Jazzlike","steam_id":76561198839813662,"connected_time":308000000000,"state":"active","ping":82},{"user_id":86,"name":"megidolaon","steam_id":76561198176189782,"connected_time":603000000000,"state":"active","ping":76},{"user_id":56,"name":"Maxy Luck","steam_id":76561199009583144,"connected_time":2256000000000,"state":"active","ping":100},{"user_id":89,"name":"DoctorTopLeL","steam_id":76561198088533595,"connected_time":329000000000,"state":"active","ping":117},{"user_id":92,"name":"SmallMozzie","steam_id":76561198889164702,"connected_time":307000000000,"state":"active","ping":73},{"user_id":67,"name":"7oid","steam_id":76561198142074232,"connected_time":1867000000000,"state":"active","ping":94},{"user_id":97,"name":"Misiomisiek","steam_id":76561198070352335,"connected_time":44000000000,"state":"active","ping":81},{"user_id":96,"name":"誰かが見ている","steam_id":76561198834913692,"connected_time":231000000000,"state":"active","ping":74},{"user_id":85,"name":"Dr.Dag","steam_id":76561198301430910,"connected_time":691000000000,"state":"active","ping":80},{"user_id":76,"name":"WomenBeardLike","steam_id":76561198390184314,"connected_time":941000000000,"state":"active","ping":64},{"user_id":79,"name":"Cheers Mate!","steam_id":76561198265192382,"connected_time":881000000000,"state":"active","ping":69}]},{"server_id":309,"name":"Uncletopia | Frankfurt | 4 | All Maps","name_short":"frk-4","host":"frk-1.de.uncletopia.com","port":27045,"enabled":true,"region":"eu","cc":"de","latitude":50.110924,"longitude":8.682127,"reserved":0,"last_update":"0001-01-01T00:00:00Z","name_a2s":"Uncletopia | Frankfurt | 4 | All Maps","protocol":17,"map":"cp_mountainlab","folder":"tf","game":"Team Fortress","app_id":440,"player_count":24,"max_players":24,"Bots":0,"server_type":"Dedicated","server_os":"Linux","password":true,"vac":true,"version":"7961495","steam_id":85568392924504275,"keywords":["cp","nocrits","nodmgspread","uncletopia"],"game_id":440,"stv_port":27046,"stv_name":"Uncletopia | Frankfurt | 4 | All Maps | STV","players":[{"user_id":282,"name":"sHIFTINGvORTEX","steam_id":76561198231648332,"connected_time":1242000000000,"state":"active","ping":79},{"user_id":270,"name":"Ronsteriz","steam_id":76561198016846055,"connected_time":1853000000000,"state":"active","ping":99},{"user_id":250,"name":"Rimx","steam_id":76561198053034840,"connected_time":2944000000000,"state":"active","ping":92},{"user_id":283,"name":"Elijah","steam_id":76561198104772540,"connected_time":1198000000000,"state":"active","ping":59},{"user_id":263,"name":"Toasty5050","steam_id":76561198073540881,"connected_time":2087000000000,"state":"active","ping":45},{"user_id":280,"name":"Soerlssoelssöen","steam_id":76561197993060585,"connected_time":1312000000000,"state":"active","ping":74},{"user_id":236,"name":"Peskyplumber64","steam_id":76561198044458330,"connected_time":4358000000000,"state":"active","ping":71},{"user_id":292,"name":"ghenios","steam_id":76561198030011207,"connected_time":330000000000,"state":"active","ping":80},{"user_id":262,"name":"Schlörk #2","steam_id":76561198385531121,"connected_time":2256000000000,"state":"active","ping":62},{"user_id":243,"name":"kradgar","steam_id":76561198400173746,"connected_time":3539000000000,"state":"active","ping":140},{"user_id":279,"name":"Musicano","steam_id":76561198114541088,"connected_time":1477000000000,"state":"active","ping":84},{"user_id":260,"name":"Darius","steam_id":76561198086091841,"connected_time":2676000000000,"state":"active","ping":69},{"user_id":285,"name":"ANGELFISH","steam_id":76561198027536466,"connected_time":1124000000000,"state":"active","ping":96},{"user_id":286,"name":"TrollSechsMann1941","steam_id":76561198150569669,"connected_time":1119000000000,"state":"active","ping":97},{"user_id":293,"name":"etc","steam_id":76561197998394797,"connected_time":237000000000,"state":"active","ping":63},{"user_id":288,"name":"Marcos","steam_id":76561198798925721,"connected_time":1073000000000,"state":"active","ping":71},{"user_id":281,"name":"SoupER","steam_id":76561198063056668,"connected_time":1296000000000,"state":"active","ping":63},{"user_id":289,"name":"Krefa12","steam_id":76561198268375393,"connected_time":1059000000000,"state":"active","ping":75},{"user_id":257,"name":"tequila sunset","steam_id":76561198315969106,"connected_time":2850000000000,"state":"active","ping":97},{"user_id":247,"name":"Winston from Overwatch","steam_id":76561198267411149,"connected_time":3164000000000,"state":"active","ping":61},{"user_id":290,"name":"GrossViche","steam_id":76561198184620926,"connected_time":1011000000000,"state":"active","ping":48},{"user_id":278,"name":"henrique_best","steam_id":76561199317304919,"connected_time":1540000000000,"state":"active","ping":95},{"user_id":246,"name":"engineer movie night","steam_id":76561198394311697,"connected_time":3302000000000,"state":"active","ping":96},{"user_id":291,"name":"Caught Lackin'","steam_id":76561198122181176,"connected_time":452000000000,"state":"active","ping":50}]},{"server_id":310,"name":"Uncletopia | Frankfurt | 5 | All Maps","name_short":"frk-5","host":"frk-1.de.uncletopia.com","port":27055,"enabled":true,"region":"eu","cc":"de","latitude":50.110924,"longitude":8.682127,"reserved":0,"last_update":"0001-01-01T00:00:00Z","name_a2s":"Uncletopia | Frankfurt | 5 | All Maps","protocol":17,"map":"pl_borneo","folder":"tf","game":"Team Fortress","app_id":440,"player_count":24,"max_players":24,"Bots":0,"server_type":"Dedicated","server_os":"Linux","password":true,"vac":true,"version":"7961495","steam_id":85568392924504277,"keywords":["nocrits","nodmgspread","payload","uncletopia"],"game_id":440,"stv_port":27056,"stv_name":"Uncletopia | Frankfurt | 5 | All Maps | STV","players":[{"user_id":279,"name":"Kin","steam_id":76561198161931698,"connected_time":3618000000000,"state":"active","ping":89},{"user_id":181,"name":"ehehehehehhe","steam_id":76561198044502435,"connected_time":11532000000000,"state":"active","ping":83},{"user_id":325,"name":"Swift","steam_id":76561197998799889,"connected_time":207000000000,"state":"active","ping":57},{"user_id":315,"name":"Cagnus Marlsen","steam_id":76561198077859721,"connected_time":820000000000,"state":"active","ping":58},{"user_id":291,"name":"егрор кринг","steam_id":76561198260363387,"connected_time":2026000000000,"state":"active","ping":96},{"user_id":309,"name":"thomas3003","steam_id":76561198209860039,"connected_time":946000000000,"state":"active","ping":59},{"user_id":305,"name":"Doriian","steam_id":76561198071438810,"connected_time":1137000000000,"state":"active","ping":81},{"user_id":316,"name":"RandoART","steam_id":76561198818165503,"connected_time":806000000000,"state":"active","ping":108},{"user_id":321,"name":"Dictatorial Karelian","steam_id":76561198196736457,"connected_time":790000000000,"state":"active","ping":75},{"user_id":313,"name":"Alekk","steam_id":76561198093533143,"connected_time":853000000000,"state":"active","ping":72},{"user_id":317,"name":"smookie20","steam_id":76561198435986481,"connected_time":806000000000,"state":"active","ping":61},{"user_id":329,"name":"Creative","steam_id":76561198835034247,"connected_time":1000000000,"state":"spawning","ping":74},{"user_id":307,"name":"Hussain_144","steam_id":76561198346029208,"connected_time":1075000000000,"state":"active","ping":168},{"user_id":319,"name":"Krabs","steam_id":76561198161679477,"connected_time":803000000000,"state":"active","ping":58},{"user_id":306,"name":"Ryter","steam_id":76561198396279597,"connected_time":1121000000000,"state":"active","ping":86},{"user_id":327,"name":"Matteo Besho","steam_id":76561199159657855,"connected_time":82000000000,"state":"active","ping":75},{"user_id":311,"name":"chrząszcz","steam_id":76561198358887237,"connected_time":923000000000,"state":"active","ping":70},{"user_id":328,"name":"Squatify","steam_id":76561198035205848,"connected_time":28000000000,"state":"active","ping":58},{"user_id":290,"name":"Magiccomplex","steam_id":76561199203555188,"connected_time":2036000000000,"state":"active","ping":36},{"user_id":326,"name":"Hubero","steam_id":76561198017053653,"connected_time":90000000000,"state":"active","ping":60},{"user_id":322,"name":"pep","steam_id":76561198207543607,"connected_time":777000000000,"state":"active","ping":65},{"user_id":168,"name":"AleXandriX","steam_id":76561198035203950,"connected_time":12425000000000,"state":"active","ping":60},{"user_id":323,"name":"c4ctus","steam_id":76561198925655488,"connected_time":770000000000,"state":"active","ping":92}]},{"server_id":311,"name":"Uncletopia | Frankfurt | 6 | All Maps","name_short":"frk-6","host":"frk-1.de.uncletopia.com","port":27065,"enabled":true,"region":"eu","cc":"de","latitude":50.110924,"longitude":8.682127,"reserved":0,"last_update":"0001-01-01T00:00:00Z","name_a2s":"Uncletopia | Frankfurt | 6 | All Maps","protocol":17,"map":"cp_dustbowl","folder":"tf","game":"Team Fortress","app_id":440,"player_count":0,"max_players":24,"Bots":0,"server_type":"Dedicated","server_os":"Linux","password":true,"vac":true,"version":"7961495","steam_id":85568392924504278,"keywords":["cp","nocrits","nodmgspread","uncletopia"],"game_id":440,"stv_port":27066,"stv_name":"Uncletopia | Frankfurt | 6 | All Maps | STV","players":null},{"server_id":23,"name":"Uncletopia | Frankfurt | 7 | Stopwatch Beta","name_short":"frk-7","host":"frk-1.de.uncletopia.com","port":27075,"enabled":true,"region":"eu","cc":"de","latitude":50.110924,"longitude":8.682127,"reserved":0,"last_update":"0001-01-01T00:00:00Z","name_a2s":"Uncletopia | Frankfurt | 7 | Stopwatch Beta","protocol":17,"map":"koth_cascade","folder":"tf","game":"Team Fortress","app_id":440,"player_count":0,"max_players":24,"Bots":0,"server_type":"Dedicated","server_os":"Linux","password":true,"vac":true,"version":"7961495","steam_id":85568392924742827,"keywords":["cp","nocrits","nodmgspread","uncletopia"],"game_id":440,"stv_port":27076,"stv_name":"Uncletopia | Frankfurt | 7 | Stopwatch Beta | STV","players":null},{"server_id":24,"name":"Uncletopia | Frankfurt | 8 | Community","name_short":"frk-8","host":"frk-1.de.uncletopia.com","port":27085,"enabled":true,"region":"eu","cc":"de","latitude":50.110924,"longitude":8.682127,"reserved":0,"last_update":"0001-01-01T00:00:00Z","name_a2s":"Uncletopia | Frankfurt | 8 | Community","protocol":17,"map":"workshop/cp_propaganda_b18.ugc1603743849","folder":"tf","game":"Team Fortress","app_id":440,"player_count":0,"max_players":24,"Bots":0,"server_type":"Dedicated","server_os":"Linux","password":true,"vac":true,"version":"7961495","steam_id":85568392924742828,"keywords":["cp","nocrits","nodmgspread","uncletopia"],"game_id":440,"stv_port":27086,"stv_name":"Uncletopia | Frankfurt | 8 | Community | STV","players":null},{"server_id":202,"name":"Uncletopia | Hong Kong | 1 | All Maps","name_short":"hgk-1","host":"hgk-1.hk.uncletopia.com","port":27015,"enabled":true,"region":"asia","cc":"hk","latitude":22.302711,"longitude":114.177216,"reserved":0,"last_update":"0001-01-01T00:00:00Z","name_a2s":"Uncletopia | Hong Kong | 1 | All Maps","protocol":17,"map":"koth_lakeside_final","folder":"tf","game":"Team Fortress","app_id":440,"player_count":0,"max_players":24,"Bots":0,"server_type":"Dedicated","server_os":"Linux","password":true,"vac":true,"version":"7961495","steam_id":85568392924494504,"keywords":["cp","nocrits","nodmgspread","uncletopia"],"game_id":440,"stv_port":27016,"stv_name":"Uncletopia | Hong Kong | 1 | All Maps | STV","players":null},{"server_id":1,"name":"Uncletopia | Los Angeles | 1 | All Maps","name_short":"lax-1","host":"lax-1.us.uncletopia.com","port":27015,"enabled":true,"region":"us-west","cc":"us","latitude":33.94279,"longitude":-118.41004,"reserved":0,"last_update":"0001-01-01T00:00:00Z","name_a2s":"Uncletopia | Los Angeles | 1 | All Maps","protocol":17,"map":"pl_snowycoast","folder":"tf","game":"Team Fortress","app_id":440,"player_count":1,"max_players":24,"Bots":0,"server_type":"Dedicated","server_os":"Linux","password":true,"vac":true,"version":"7961495","steam_id":85568392924469991,"keywords":["nocrits","nodmgspread","payload","uncletopia"],"game_id":440,"stv_port":27016,"stv_name":"Uncletopia | Los Angeles | 1 | All Maps | STV","players":[{"user_id":9,"name":"De Monki","steam_id":76561198964210411,"connected_time":610000000000,"state":"active","ping":53}]},{"server_id":112,"name":"Uncletopia | Los Angeles | 2 | All Maps","name_short":"lax-2","host":"lax-1.us.uncletopia.com","port":27025,"enabled":true,"region":"us-west","cc":"us","latitude":33.94279,"longitude":-118.41004,"reserved":0,"last_update":"0001-01-01T00:00:00Z","name_a2s":"Uncletopia | Los Angeles | 2 | All Maps","protocol":17,"map":"pl_borneo","folder":"tf","game":"Team Fortress","app_id":440,"player_count":0,"max_players":24,"Bots":0,"server_type":"Dedicated","server_os":"Linux","password":true,"vac":true,"version":"7961495","steam_id":85568392924469992,"keywords":["nocrits","nodmgspread","payload","uncletopia"],"game_id":440,"stv_port":27026,"stv_name":"Uncletopia | Los Angeles | 2 | All Maps | STV","players":null},{"server_id":324,"name":"Uncletopia | Los Angeles | 3 | All Maps","name_short":"lax-3","host":"lax-1.us.uncletopia.com","port":27035,"enabled":true,"region":"us-west","cc":"us","latitude":33.94279,"longitude":-118.41004,"reserved":0,"last_update":"0001-01-01T00:00:00Z","name_a2s":"Uncletopia | Los Angeles | 3 | All Maps","protocol":17,"map":"cp_process_final","folder":"tf","game":"Team Fortress","app_id":440,"player_count":0,"max_players":24,"Bots":0,"server_type":"Dedicated","server_os":"Linux","password":true,"vac":true,"version":"7961495","steam_id":85568392924510198,"keywords":["cp","nocrits","nodmgspread","uncletopia"],"game_id":440,"stv_port":27036,"stv_name":"Uncletopia | Los Angeles | 3 | All Maps | STV","players":null},{"server_id":25,"name":"Uncletopia | Los Angeles | 4 | Stopwatch Beta","name_short":"lax-4","host":"lax-1.us.uncletopia.com","port":27045,"enabled":true,"region":"us-west","cc":"us","latitude":33.94279,"longitude":-118.41004,"reserved":0,"last_update":"0001-01-01T00:00:00Z","name_a2s":"Uncletopia | Los Angeles | 4 | Stopwatch Beta","protocol":17,"map":"pl_upward","folder":"tf","game":"Team Fortress","app_id":440,"player_count":0,"max_players":24,"Bots":0,"server_type":"Dedicated","server_os":"Linux","password":true,"vac":true,"version":"7961495","steam_id":85568392924510199,"keywords":["nocrits","nodmgspread","payload","uncletopia"],"game_id":440,"stv_port":27046,"stv_name":"Uncletopia | Los Angeles | 4 | Stopwatch Beta | STV","players":null},{"server_id":11,"name":"Uncletopia | London | 1 | All Maps","name_short":"lon-1","host":"lon-1.uk.uncletopia.com","port":27015,"enabled":true,"region":"eu","cc":"gb","latitude":51.509865,"longitude":-0.118092,"reserved":0,"last_update":"0001-01-01T00:00:00Z","name_a2s":"Uncletopia | London | 1 | All Maps","protocol":17,"map":"koth_viaduct","folder":"tf","game":"Team Fortress","app_id":440,"player_count":22,"max_players":24,"Bots":0,"server_type":"Dedicated","server_os":"Linux","password":true,"vac":true,"version":"7961495","steam_id":85568392924367362,"keywords":["cp","nocrits","nodmgspread","uncletopia"],"game_id":440,"stv_port":27016,"stv_name":"Uncletopia | London | 1 | All Maps | STV","players":[{"user_id":374,"name":"Topia","steam_id":76561198163571788,"connected_time":1036000000000,"state":"active","ping":77},{"user_id":368,"name":"silicon based life form","steam_id":76561199127121346,"connected_time":1527000000000,"state":"active","ping":58},{"user_id":354,"name":"Vilhelm","steam_id":76561198157521187,"connected_time":1684000000000,"state":"active","ping":85},{"user_id":357,"name":"Carrot Arc","steam_id":76561198164957006,"connected_time":1665000000000,"state":"active","ping":87},{"user_id":364,"name":"Nessieling","steam_id":76561198083556891,"connected_time":1566000000000,"state":"active","ping":72},{"user_id":381,"name":"Rai_to","steam_id":76561199013720618,"connected_time":354000000000,"state":"active","ping":87},{"user_id":386,"name":"jermany","steam_id":76561198126599355,"connected_time":174000000000,"state":"active","ping":60},{"user_id":387,"name":"WonderOfU","steam_id":76561199172036471,"connected_time":54000000000,"state":"active","ping":58},{"user_id":377,"name":"Staffy","steam_id":76561198859722036,"connected_time":519000000000,"state":"active","ping":106},{"user_id":338,"name":"ｄｅｓｋｒａｙ","steam_id":76561198805536170,"connected_time":3474000000000,"state":"active","ping":83},{"user_id":350,"name":"Dapper","steam_id":76561198081694974,"connected_time":1887000000000,"state":"active","ping":44},{"user_id":362,"name":"Morty","steam_id":76561198227437620,"connected_time":1609000000000,"state":"active","ping":77},{"user_id":369,"name":"Kekster","steam_id":76561198302448192,"connected_time":1512000000000,"state":"active","ping":36},{"user_id":302,"name":"Snake-chan","steam_id":76561199044755854,"connected_time":5247000000000,"state":"active","ping":79},{"user_id":351,"name":"Registered Sex Defender","steam_id":76561198039836567,"connected_time":1847000000000,"state":"active","ping":43},{"user_id":359,"name":"Kenny","steam_id":76561198070731150,"connected_time":1655000000000,"state":"active","ping":99},{"user_id":326,"name":"Tynnyri","steam_id":76561198075516541,"connected_time":4021000000000,"state":"active","ping":106},{"user_id":360,"name":"Larry","steam_id":76561198051333590,"connected_time":1639000000000,"state":"active","ping":99},{"user_id":361,"name":"Quuri_","steam_id":76561198155780752,"connected_time":1618000000000,"state":"active","ping":70},{"user_id":175,"name":"krayy (she/her)","steam_id":76561198035037830,"connected_time":9528000000000,"state":"active","ping":57},{"user_id":375,"name":"Wikk","steam_id":76561199006349076,"connected_time":636000000000,"state":"active","ping":55},{"user_id":385,"name":"Silverbolt","steam_id":76561198153165763,"connected_time":250000000000,"state":"active","ping":57}]},{"server_id":114,"name":"Uncletopia | London | 2 | All Maps","name_short":"lon-2","host":"lon-1.uk.uncletopia.com","port":27025,"enabled":true,"region":"eu","cc":"gb","latitude":51.509865,"longitude":-0.118092,"reserved":0,"last_update":"0001-01-01T00:00:00Z","name_a2s":"Uncletopia | London | 2 | All Maps","protocol":17,"map":"cp_sunshine","folder":"tf","game":"Team Fortress","app_id":440,"player_count":24,"max_players":24,"Bots":0,"server_type":"Dedicated","server_os":"Linux","password":true,"vac":true,"version":"7961495","steam_id":85568392924470941,"keywords":["cp","nocrits","nodmgspread","uncletopia"],"game_id":440,"stv_port":27026,"stv_name":"Uncletopia | London | 2 | All Maps | STV","players":[{"user_id":163,"name":"c0mpaz","steam_id":76561198165292894,"connected_time":1783000000000,"state":"active","ping":76},{"user_id":202,"name":"Artgrendadier","steam_id":76561198063305359,"connected_time":359000000000,"state":"active","ping":139},{"user_id":82,"name":"s a i","steam_id":76561197970379754,"connected_time":6434000000000,"state":"active","ping":59},{"user_id":204,"name":"pepis enjoyer","steam_id":76561198032472655,"connected_time":230000000000,"state":"active","ping":62},{"user_id":205,"name":"flr","steam_id":76561198249327786,"connected_time":209000000000,"state":"active","ping":74},{"user_id":191,"name":"Daniluck23","steam_id":76561199070594080,"connected_time":471000000000,"state":"active","ping":70},{"user_id":212,"name":"✞😈profesonale","steam_id":76561198049924024,"connected_time":103000000000,"state":"active","ping":911},{"user_id":207,"name":"ozwk","steam_id":76561198062257357,"connected_time":172000000000,"state":"active","ping":46},{"user_id":188,"name":"SnowShot","steam_id":76561198004766638,"connected_time":840000000000,"state":"active","ping":75},{"user_id":196,"name":"huskey","steam_id":76561198152392309,"connected_time":450000000000,"state":"active","ping":46},{"user_id":208,"name":"Interdimensional box","steam_id":76561198217473121,"connected_time":158000000000,"state":"active","ping":89},{"user_id":178,"name":"Solymr ibn Wali Barad","steam_id":76561198044008976,"connected_time":1358000000000,"state":"active","ping":67},{"user_id":134,"name":"Spikà","steam_id":76561197999582114,"connected_time":3289000000000,"state":"active","ping":74},{"user_id":168,"name":"jge","steam_id":76561198123186387,"connected_time":1729000000000,"state":"active","ping":60},{"user_id":176,"name":"RLCrazyCat3","steam_id":76561197983757878,"connected_time":1368000000000,"state":"active","ping":66},{"user_id":169,"name":"charnock1208","steam_id":76561199090127017,"connected_time":1702000000000,"state":"active","ping":57},{"user_id":197,"name":"noot","steam_id":76561198148074472,"connected_time":435000000000,"state":"active","ping":60},{"user_id":198,"name":"ra ra raz","steam_id":76561198147277460,"connected_time":429000000000,"state":"active","ping":61},{"user_id":187,"name":"Osqq :s","steam_id":76561198075465106,"connected_time":1075000000000,"state":"active","ping":84},{"user_id":179,"name":"LSKi","steam_id":76561198215470228,"connected_time":1355000000000,"state":"active","ping":72},{"user_id":199,"name":"Barak93","steam_id":76561198044585705,"connected_time":420000000000,"state":"active","ping":63},{"user_id":170,"name":"Penis Contortionist","steam_id":76561198073663784,"connected_time":1687000000000,"state":"active","ping":36},{"user_id":209,"name":"Dakeyras","steam_id":76561198057069564,"connected_time":158000000000,"state":"active","ping":106},{"user_id":210,"name":"Pyra Szlichta","steam_id":76561199015127243,"connected_time":153000000000,"state":"active","ping":87}]},{"server_id":320,"name":"Uncletopia | London | 3 | All Maps","name_short":"lon-3","host":"lon-1.uk.uncletopia.com","port":27035,"enabled":true,"region":"eu","cc":"gb","latitude":51.509865,"longitude":-0.118092,"reserved":0,"last_update":"0001-01-01T00:00:00Z","name_a2s":"Uncletopia | London | 3 | All Maps","protocol":17,"map":"pl_frontier_final","folder":"tf","game":"Team Fortress","app_id":440,"player_count":24,"max_players":24,"Bots":0,"server_type":"Dedicated","server_os":"Linux","password":true,"vac":true,"version":"7961495","steam_id":85568392924510192,"keywords":["nocrits","nodmgspread","payload","uncletopia"],"game_id":440,"stv_port":27036,"stv_name":"Uncletopia | London | 3 | All Maps | STV","players":[{"user_id":86,"name":"robu","steam_id":76561198113874116,"connected_time":1500000000000,"state":"active","ping":86},{"user_id":130,"name":"Locker-Room Enjoyer","steam_id":76561199122613225,"connected_time":775000000000,"state":"active","ping":88},{"user_id":72,"name":"Swimpz","steam_id":76561198137479945,"connected_time":2128000000000,"state":"active","ping":98},{"user_id":85,"name":"SirCyu","steam_id":76561198279703610,"connected_time":1538000000000,"state":"active","ping":53},{"user_id":49,"name":"nyanezt","steam_id":76561198253734265,"connected_time":2772000000000,"state":"active","ping":94},{"user_id":142,"name":"Dr.Disrespect","steam_id":76561198043820228,"connected_time":465000000000,"state":"active","ping":60},{"user_id":144,"name":"Milca_11 Bow user","steam_id":76561198848650365,"connected_time":417000000000,"state":"active","ping":76},{"user_id":150,"name":"Jara.","steam_id":76561197992207165,"connected_time":85000000000,"state":"active","ping":105},{"user_id":80,"name":"Mike","steam_id":76561198228455736,"connected_time":1676000000000,"state":"active","ping":53},{"user_id":126,"name":"Anzu","steam_id":76561198043953503,"connected_time":874000000000,"state":"active","ping":74},{"user_id":143,"name":"najed","steam_id":76561198107767664,"connected_time":454000000000,"state":"active","ping":60},{"user_id":145,"name":"Emerald","steam_id":76561199141384216,"connected_time":403000000000,"state":"active","ping":52},{"user_id":92,"name":"mommy🖤x_x","steam_id":76561199204257697,"connected_time":1454000000000,"state":"active","ping":45},{"user_id":102,"name":"mothra","steam_id":76561198028444359,"connected_time":1244000000000,"state":"active","ping":53},{"user_id":94,"name":"Uncle Sam","steam_id":76561197968551107,"connected_time":1435000000000,"state":"active","ping":120},{"user_id":78,"name":"mea culpa","steam_id":76561198064115286,"connected_time":1874000000000,"state":"active","ping":69},{"user_id":146,"name":"Joe","steam_id":76561198061717026,"connected_time":399000000000,"state":"active","ping":70},{"user_id":62,"name":"Bottle O' Scrumpy","steam_id":76561199244250562,"connected_time":2512000000000,"state":"active","ping":86},{"user_id":77,"name":"gnarp gnap 👽","steam_id":76561198097712283,"connected_time":1888000000000,"state":"active","ping":75},{"user_id":147,"name":"png.png","steam_id":76561198444446521,"connected_time":379000000000,"state":"active","ping":106},{"user_id":68,"name":"AnalBypass1989","steam_id":76561198052356557,"connected_time":2412000000000,"state":"active","ping":70},{"user_id":152,"name":"iq drops","steam_id":76561198035795130,"connected_time":45000000000,"state":"active","ping":64},{"user_id":149,"name":"Dr.Sees [F2P]","steam_id":76561199219233587,"connected_time":336000000000,"state":"active","ping":81},{"user_id":71,"name":"Sylvanas","steam_id":76561198154904165,"connected_time":2384000000000,"state":"active","ping":118}]},{"server_id":321,"name":"Uncletopia | London | 4 | All Maps","name_short":"lon-4","host":"lon-1.uk.uncletopia.com","port":27045,"enabled":true,"region":"eu","cc":"gb","latitude":51.509865,"longitude":-0.118092,"reserved":0,"last_update":"0001-01-01T00:00:00Z","name_a2s":"Uncletopia | London | 4 | All Maps","protocol":17,"map":"ctf_2fort","folder":"tf","game":"Team Fortress","app_id":440,"player_count":20,"max_players":24,"Bots":0,"server_type":"Dedicated","server_os":"Linux","password":true,"vac":true,"version":"7961495","steam_id":85568392924510193,"keywords":["ctf","nocrits","nodmgspread","uncletopia"],"game_id":440,"stv_port":27046,"stv_name":"Uncletopia | London | 4 | All Maps | STV","players":[{"user_id":229,"name":"fartcollector","steam_id":76561198048304703,"connected_time":1693000000000,"state":"active","ping":46},{"user_id":230,"name":"artonzhun","steam_id":76561198259104010,"connected_time":1683000000000,"state":"active","ping":79},{"user_id":241,"name":"Mono","steam_id":76561198114569493,"connected_time":1298000000000,"state":"active","ping":63},{"user_id":246,"name":"RickRoller","steam_id":76561199221172552,"connected_time":573000000000,"state":"active","ping":58},{"user_id":253,"name":"jimmy kane","steam_id":76561197984425891,"connected_time":126000000000,"state":"active","ping":44},{"user_id":234,"name":"Woman (Real)","steam_id":76561199151823932,"connected_time":1633000000000,"state":"active","ping":75},{"user_id":254,"name":"veki177","steam_id":76561199059047474,"connected_time":126000000000,"state":"spawning","ping":78},{"user_id":256,"name":"Slimeby","steam_id":76561198353438688,"connected_time":63000000000,"state":"active","ping":87},{"user_id":255,"name":"gronk","steam_id":76561199031539961,"connected_time":110000000000,"state":"active","ping":55},{"user_id":244,"name":"ByggeSimon","steam_id":76561198134789176,"connected_time":701000000000,"state":"active","ping":70},{"user_id":249,"name":"Pineappleman","steam_id":76561199074651648,"connected_time":411000000000,"state":"active","ping":39},{"user_id":209,"name":"enxy","steam_id":76561198100469355,"connected_time":2631000000000,"state":"active","ping":75},{"user_id":222,"name":"zipto","steam_id":76561198100492944,"connected_time":2159000000000,"state":"active","ping":86},{"user_id":245,"name":"sticks","steam_id":76561198127099299,"connected_time":604000000000,"state":"active","ping":40},{"user_id":226,"name":"The Manager of Sex","steam_id":76561198385989487,"connected_time":1991000000000,"state":"active","ping":92},{"user_id":252,"name":"Pasta lover","steam_id":76561199025518388,"connected_time":212000000000,"state":"active","ping":66},{"user_id":183,"name":"professional nonprofessional","steam_id":76561199200442395,"connected_time":3738000000000,"state":"active","ping":82},{"user_id":237,"name":"fence_","steam_id":76561198150386379,"connected_time":1600000000000,"state":"active","ping":47},{"user_id":239,"name":"Asat","steam_id":76561198862727465,"connected_time":1418000000000,"state":"active","ping":57},{"user_id":214,"name":"UnexpectedItemInBaggingArea","steam_id":76561198381749449,"connected_time":2465000000000,"state":"active","ping":130}]},{"server_id":21,"name":"Uncletopia | London | 5 | All Maps","name_short":"lon-5","host":"lon-1.uk.uncletopia.com","port":27055,"enabled":true,"region":"eu","cc":"gb","latitude":51.509865,"longitude":-0.118092,"reserved":0,"last_update":"0001-01-01T00:00:00Z","name_a2s":"Uncletopia | London | 5 | All Maps","protocol":17,"map":"ctf_2fort","folder":"tf","game":"Team Fortress","app_id":440,"player_count":7,"max_players":24,"Bots":0,"server_type":"Dedicated","server_os":"Linux","password":true,"vac":true,"version":"7961495","steam_id":85568392924742829,"keywords":["ctf","nocrits","nodmgspread","uncletopia"],"game_id":440,"stv_port":27056,"stv_name":"Uncletopia | London | 5 | All Maps | STV","players":[{"user_id":25,"name":"ultra lox","steam_id":76561199427318825,"connected_time":694000000000,"state":"active","ping":177},{"user_id":27,"name":"OutOfDucks","steam_id":76561198166376227,"connected_time":338000000000,"state":"active","ping":66},{"user_id":19,"name":"Spectralius","steam_id":76561198111455006,"connected_time":2858000000000,"state":"active","ping":57},{"user_id":22,"name":"sycodog86","steam_id":76561199124026213,"connected_time":1238000000000,"state":"active","ping":53},{"user_id":28,"name":"Axord","steam_id":76561199289652176,"connected_time":327000000000,"state":"active","ping":68},{"user_id":24,"name":"TheTallBOY","steam_id":76561198200506497,"connected_time":1034000000000,"state":"active","ping":81},{"user_id":29,"name":"Loberless","steam_id":76561198277844777,"connected_time":309000000000,"state":"active","ping":41}]},{"server_id":22,"name":"Uncletopia | London | 6 | All Maps","name_short":"lon-6","host":"lon-1.uk.uncletopia.com","port":27065,"enabled":true,"region":"eu","cc":"gb","latitude":51.509865,"longitude":-0.118092,"reserved":0,"last_update":"0001-01-01T00:00:00Z","name_a2s":"Uncletopia | London | 6 | All Maps","protocol":17,"map":"pl_upward","folder":"tf","game":"Team Fortress","app_id":440,"player_count":15,"max_players":24,"Bots":0,"server_type":"Dedicated","server_os":"Linux","password":true,"vac":true,"version":"7961495","steam_id":85568392924742830,"keywords":["nocrits","nodmgspread","payload","uncletopia"],"game_id":440,"stv_port":27066,"stv_name":"Uncletopia | London | 6 | All Maps | STV","players":[{"user_id":307,"name":"Red Metal","steam_id":76561198362722560,"connected_time":127000000000,"state":"active","ping":185},{"user_id":308,"name":"Mr.Duck","steam_id":76561197983710667,"connected_time":114000000000,"state":"active","ping":88},{"user_id":245,"name":"xXREALgamer3Xx™⁧⁧lol","steam_id":76561198236494856,"connected_time":3690000000000,"state":"active","ping":47},{"user_id":301,"name":"After8","steam_id":76561198090750865,"connected_time":707000000000,"state":"active","ping":74},{"user_id":280,"name":"jt7","steam_id":76561198073655162,"connected_time":1941000000000,"state":"active","ping":78},{"user_id":299,"name":"Lord Lem0ns!","steam_id":76561198323174893,"connected_time":753000000000,"state":"active","ping":83},{"user_id":300,"name":"Geoff the Oracle","steam_id":76561198053759965,"connected_time":751000000000,"state":"active","ping":61},{"user_id":306,"name":"Lemon","steam_id":76561198093765664,"connected_time":223000000000,"state":"active","ping":66},{"user_id":209,"name":"𝕸𝖆𝖑𝖊𝖋","steam_id":76561198999963900,"connected_time":6121000000000,"state":"active","ping":135},{"user_id":263,"name":"A Table","steam_id":76561198130963095,"connected_time":2808000000000,"state":"active","ping":62},{"user_id":294,"name":"Tomfool","steam_id":76561197993256481,"connected_time":965000000000,"state":"active","ping":84},{"user_id":237,"name":"Noob_with_source","steam_id":76561198870362103,"connected_time":4139000000000,"state":"active","ping":57},{"user_id":287,"name":"P1nnnnnnnn","steam_id":76561198382749493,"connected_time":1529000000000,"state":"active","ping":87},{"user_id":258,"name":"night.s","steam_id":76561198326287823,"connected_time":2982000000000,"state":"active","ping":79},{"user_id":305,"name":"tilgep","steam_id":76561198125585734,"connected_time":367000000000,"state":"active","ping":46}]},{"server_id":40,"name":"Uncletopia | London | 7 | No Payload","name_short":"lon-7","host":"lon-1.uk.uncletopia.com","port":27075,"enabled":true,"region":"eu","cc":"gb","latitude":51.509865,"longitude":-0.118092,"reserved":0,"last_update":"0001-01-01T00:00:00Z","name_a2s":"Uncletopia | London | 7 | No Payload","protocol":17,"map":"cp_mountainlab","folder":"tf","game":"Team Fortress","app_id":440,"player_count":21,"max_players":24,"Bots":0,"server_type":"Dedicated","server_os":"Linux","password":true,"vac":true,"version":"7961495","steam_id":85568392924964314,"keywords":["cp","nocrits","nodmgspread","uncletopia"],"game_id":440,"stv_port":27076,"stv_name":"Uncletopia | London | 7 | No Payload | STV","players":[{"user_id":239,"name":"JENNY","steam_id":76561198072302273,"connected_time":38000000000,"state":"active","ping":58},{"user_id":232,"name":"TSx* Osa__PL","steam_id":76561198027016799,"connected_time":397000000000,"state":"active","ping":76},{"user_id":216,"name":"Leffrey","steam_id":76561198231587928,"connected_time":1504000000000,"state":"active","ping":72},{"user_id":218,"name":"Lorenzo Lovers","steam_id":76561198073973581,"connected_time":1329000000000,"state":"active","ping":86},{"user_id":217,"name":"SmearierGold7","steam_id":76561198065689410,"connected_time":1353000000000,"state":"active","ping":172},{"user_id":179,"name":"Zembis","steam_id":76561198008017918,"connected_time":3927000000000,"state":"active","ping":101},{"user_id":180,"name":"God's Goofiest Goober","steam_id":76561198103175187,"connected_time":3915000000000,"state":"active","ping":81},{"user_id":167,"name":"protoss gravy boat","steam_id":76561198105978107,"connected_time":4308000000000,"state":"active","ping":89},{"user_id":219,"name":"ZHMIL-17","steam_id":76561198065220818,"connected_time":1261000000000,"state":"active","ping":99},{"user_id":228,"name":"TriaxelStew","steam_id":76561198201701331,"connected_time":605000000000,"state":"active","ping":50},{"user_id":231,"name":"joachym","steam_id":76561198428579761,"connected_time":421000000000,"state":"active","ping":72},{"user_id":233,"name":"TSx* Naxer","steam_id":76561198011986779,"connected_time":333000000000,"state":"active","ping":69},{"user_id":234,"name":"TSx* {Demon-Angel}","steam_id":76561198151486463,"connected_time":298000000000,"state":"active","ping":86},{"user_id":212,"name":"pad6z23h8s","steam_id":76561198880756741,"connected_time":1762000000000,"state":"active","ping":85},{"user_id":225,"name":"PĬŁǾŦ","steam_id":76561198175090465,"connected_time":1064000000000,"state":"active","ping":105},{"user_id":235,"name":"akakez","steam_id":76561198095432821,"connected_time":258000000000,"state":"active","ping":110},{"user_id":236,"name":"jerf(estrogen needer)","steam_id":76561199213901239,"connected_time":236000000000,"state":"active","ping":46},{"user_id":237,"name":"ArtaKir","steam_id":76561198291746440,"connected_time":204000000000,"state":"active","ping":87},{"user_id":240,"name":"TheMasterOfTheZaZa","steam_id":76561197994310420,"connected_time":20000000000,"state":"active","ping":60},{"user_id":222,"name":"◇Kekovichka◇","steam_id":76561198339777174,"connected_time":1117000000000,"state":"active","ping":100},{"user_id":224,"name":"Redline","steam_id":76561198336794034,"connected_time":1095000000000,"state":"active","ping":130}]},{"server_id":41,"name":"Uncletopia | London | 8 | Community","name_short":"lon-8","host":"lon-1.uk.uncletopia.com","port":27085,"enabled":true,"region":"eu","cc":"gb","latitude":51.509865,"longitude":-0.118092,"reserved":0,"last_update":"0001-01-01T00:00:00Z","name_a2s":"Uncletopia | London | 8 | Community","protocol":17,"map":"workshop/cp_fulgur_rc2a.ugc2068252300","folder":"tf","game":"Team Fortress","app_id":440,"player_count":0,"max_players":24,"Bots":0,"server_type":"Dedicated","server_os":"Linux","password":true,"vac":true,"version":"7961495","steam_id":85568392924964315,"keywords":["cp","nocrits","nodmgspread","uncletopia"],"game_id":440,"stv_port":27086,"stv_name":"Uncletopia | London | 8 | Community | STV","players":null},{"server_id":300,"name":"Uncletopia | Montréal | 1 | All Maps","name_short":"mtl-1","host":"mtl-1.ca.uncletopia.com","port":27015,"enabled":true,"region":"us-east","cc":"ca","latitude":45.50889,"longitude":-73.56167,"reserved":0,"last_update":"0001-01-01T00:00:00Z","name_a2s":"Uncletopia | Montréal | 1 | All Maps","protocol":17,"map":"pl_swiftwater_final1","folder":"tf","game":"Team Fortress","app_id":440,"player_count":3,"max_players":24,"Bots":0,"server_type":"Dedicated","server_os":"Linux","password":true,"vac":true,"version":"7961495","steam_id":85568392924500087,"keywords":["nocrits","nodmgspread","payload","uncletopia"],"game_id":440,"stv_port":27016,"stv_name":"Uncletopia | Montréal | 1 | All Maps | STV","players":[{"user_id":3,"name":"J3FF","steam_id":76561199209782011,"connected_time":913000000000,"state":"active","ping":57},{"user_id":5,"name":"griffin","steam_id":76561199124109776,"connected_time":882000000000,"state":"active","ping":59},{"user_id":6,"name":"lachlanoptional","steam_id":76561199492629042,"connected_time":863000000000,"state":"active","ping":123}]},{"server_id":301,"name":"Uncletopia | Montréal | 2 | All Maps","name_short":"mtl-2","host":"mtl-1.ca.uncletopia.com","port":27025,"enabled":true,"region":"us-east","cc":"ca","latitude":45.50889,"longitude":-73.56167,"reserved":0,"last_update":"0001-01-01T00:00:00Z","name_a2s":"Uncletopia | Montréal | 2 | All Maps","protocol":17,"map":"cp_dustbowl","folder":"tf","game":"Team Fortress","app_id":440,"player_count":0,"max_players":24,"Bots":0,"server_type":"Dedicated","server_os":"Linux","password":true,"vac":true,"version":"7961495","steam_id":85568392924500088,"keywords":["cp","nocrits","nodmgspread","uncletopia"],"game_id":440,"stv_port":27026,"stv_name":"Uncletopia | Montréal | 2 | All Maps | STV","players":null},{"server_id":302,"name":"Uncletopia | Montréal | 3 | All Maps","name_short":"mtl-3","host":"mtl-1.ca.uncletopia.com","port":27035,"enabled":true,"region":"us-east","cc":"ca","latitude":45.50889,"longitude":-73.56167,"reserved":0,"last_update":"0001-01-01T00:00:00Z","name_a2s":"Uncletopia | Montréal | 3 | All Maps","protocol":17,"map":"koth_cascade","folder":"tf","game":"Team Fortress","app_id":440,"player_count":0,"max_players":24,"Bots":0,"server_type":"Dedicated","server_os":"Linux","password":true,"vac":true,"version":"7961495","steam_id":85568392924500089,"keywords":["cp","nocrits","nodmgspread","uncletopia"],"game_id":440,"stv_port":27036,"stv_name":"Uncletopia | Montréal | 3 | All Maps | STV","players":null},{"server_id":303,"name":"Uncletopia | Montréal | 4 | No Payload","name_short":"mtl-4","host":"mtl-1.ca.uncletopia.com","port":27045,"enabled":true,"region":"us-east","cc":"ca","latitude":45.50889,"longitude":-73.56167,"reserved":0,"last_update":"0001-01-01T00:00:00Z","name_a2s":"Uncletopia | Montréal | 4 | No Payload","protocol":17,"map":"koth_lakeside_final","folder":"tf","game":"Team Fortress","app_id":440,"player_count":0,"max_players":24,"Bots":0,"server_type":"Dedicated","server_os":"Linux","password":true,"vac":true,"version":"7961495","steam_id":85568392924500090,"keywords":["cp","nocrits","nodmgspread","uncletopia"],"game_id":440,"stv_port":27046,"stv_name":"Uncletopia | Montréal | 4 | No Payload | STV","players":null},{"server_id":13,"name":"Uncletopia | New York City | 1 | All Maps","name_short":"nyc-1","host":"nyc-1.us.uncletopia.com","port":27015,"enabled":true,"region":"us-east","cc":"us","latitude":40.73061,"longitude":-73.93524,"reserved":0,"last_update":"0001-01-01T00:00:00Z","name_a2s":"Uncletopia | New York City | 1 | All Maps","protocol":17,"map":"koth_cascade","folder":"tf","game":"Team Fortress","app_id":440,"player_count":24,"max_players":24,"Bots":0,"server_type":"Dedicated","server_os":"Linux","password":true,"vac":true,"version":"7961495","steam_id":85568392924469993,"keywords":["cp","nocrits","nodmgspread","uncletopia"],"game_id":440,"stv_port":27016,"stv_name":"Uncletopia | New York City | 1 | All Maps | STV","players":[{"user_id":62,"name":"Bi Panic","steam_id":76561198426306122,"connected_time":632000000000,"state":"active","ping":62},{"user_id":17,"name":"Blitzy","steam_id":76561198149472890,"connected_time":3299000000000,"state":"active","ping":95},{"user_id":51,"name":"laddie","steam_id":76561198063029230,"connected_time":1835000000000,"state":"active","ping":51},{"user_id":67,"name":"[NAME-REDACTED]","steam_id":76561198035682975,"connected_time":399000000000,"state":"active","ping":48},{"user_id":71,"name":";^)","steam_id":76561198269497358,"connected_time":290000000000,"state":"active","ping":86},{"user_id":72,"name":"Virtual Insanity","steam_id":76561198095245223,"connected_time":206000000000,"state":"active","ping":48},{"user_id":68,"name":"Nephi","steam_id":76561198031525122,"connected_time":390000000000,"state":"active","ping":86},{"user_id":64,"name":"Les Claypool","steam_id":76561198237827742,"connected_time":621000000000,"state":"active","ping":47},{"user_id":73,"name":"🅜🅔🅔🅚🅢🅣🅔\ufffd\ufffd\ufffd","steam_id":76561197999748343,"connected_time":41000000000,"state":"active","ping":77},{"user_id":55,"name":"the pigeonkicker","steam_id":76561199078815637,"connected_time":1133000000000,"state":"active","ping":54},{"user_id":32,"name":"Mika  Laakso","steam_id":76561198115035132,"connected_time":2370000000000,"state":"active","ping":76},{"user_id":33,"name":"Deph Pyro","steam_id":76561198065033546,"connected_time":2338000000000,"state":"active","ping":83},{"user_id":34,"name":"Spike Bones","steam_id":76561198234926120,"connected_time":2337000000000,"state":"active","ping":90},{"user_id":58,"name":"DJ Absolute Garbage","steam_id":76561198068000747,"connected_time":837000000000,"state":"active","ping":53},{"user_id":36,"name":"RileyNiko","steam_id":76561198162093639,"connected_time":2316000000000,"state":"active","ping":58},{"user_id":37,"name":"{{{{{{{{{{{{E}}}}}}}}}}}}}}}}}}","steam_id":76561199492727315,"connected_time":2292000000000,"state":"active","ping":32},{"user_id":66,"name":"TLG, Certified Gamer Mom","steam_id":76561198076669951,"connected_time":460000000000,"state":"active","ping":56},{"user_id":39,"name":"Pixeled","steam_id":76561198088917077,"connected_time":2265000000000,"state":"active","ping":86},{"user_id":40,"name":"rivera","steam_id":76561198051058706,"connected_time":2248000000000,"state":"active","ping":45},{"user_id":42,"name":"Generator","steam_id":76561198011762257,"connected_time":2188000000000,"state":"active","ping":150},{"user_id":50,"name":"b","steam_id":76561198208094321,"connected_time":1847000000000,"state":"active","ping":99},{"user_id":45,"name":"I am the traitor","steam_id":76561198012072536,"connected_time":2080000000000,"state":"active","ping":54},{"user_id":49,"name":"toastman","steam_id":76561198207073088,"connected_time":1867000000000,"state":"active","ping":86},{"user_id":59,"name":"Mr. Boogedy","steam_id":76561198963180673,"connected_time":837000000000,"state":"active","ping":59}]},{"server_id":14,"name":"Uncletopia | New York City | 2 | All Maps","name_short":"nyc-2","host":"nyc-1.us.uncletopia.com","port":27025,"enabled":true,"region":"us-east","cc":"us","latitude":40.73061,"longitude":-73.93524,"reserved":0,"last_update":"0001-01-01T00:00:00Z","name_a2s":"Uncletopia | New York City | 2 | All Maps","protocol":17,"map":"cp_dustbowl","folder":"tf","game":"Team Fortress","app_id":440,"player_count":0,"max_players":24,"Bots":0,"server_type":"Dedicated","server_os":"Linux","password":true,"vac":true,"version":"7961495","steam_id":85568392924469994,"keywords":["cp","nocrits","nodmgspread","uncletopia"],"game_id":440,"stv_port":27026,"stv_name":"Uncletopia | New York City | 2 | All Maps | STV","players":null},{"server_id":15,"name":"Uncletopia | New York City | 3 | Stopwatch Beta","name_short":"nyc-3","host":"nyc-1.us.uncletopia.com","port":27035,"enabled":true,"region":"us-east","cc":"us","latitude":40.73061,"longitude":-73.93524,"reserved":0,"last_update":"0001-01-01T00:00:00Z","name_a2s":"Uncletopia | New York City | 3 | Stopwatch Beta","protocol":17,"map":"cp_mountainlab","folder":"tf","game":"Team Fortress","app_id":440,"player_count":0,"max_players":24,"Bots":0,"server_type":"Dedicated","server_os":"Linux","password":true,"vac":true,"version":"7961495","steam_id":85568392924742820,"keywords":["cp","nocrits","nodmgspread","uncletopia"],"game_id":440,"stv_port":27036,"stv_name":"Uncletopia | New York City | 3 | Stopwatch Beta | STV","players":null},{"server_id":16,"name":"Uncletopia | New York City | 4 | Community","name_short":"nyc-4","host":"nyc-1.us.uncletopia.com","port":27045,"enabled":true,"region":"us-east","cc":"us","latitude":40.73061,"longitude":-73.93524,"reserved":0,"last_update":"0001-01-01T00:00:00Z","name_a2s":"Uncletopia | New York City | 4 | Community","protocol":17,"map":"koth_lakeside_final","folder":"tf","game":"Team Fortress","app_id":440,"player_count":11,"max_players":24,"Bots":0,"server_type":"Dedicated","server_os":"Linux","password":true,"vac":true,"version":"7961495","steam_id":85568392924742821,"keywords":["cp","nocrits","nodmgspread","uncletopia"],"game_id":440,"stv_port":27046,"stv_name":"Uncletopia | New York City | 4 | Community | STV","players":[{"user_id":23,"name":"Thunder","steam_id":76561199434110716,"connected_time":1787000000000,"state":"active","ping":71},{"user_id":25,"name":"CaptinBrown","steam_id":76561198127709638,"connected_time":1190000000000,"state":"active","ping":55},{"user_id":26,"name":"exlhk7","steam_id":76561199468136783,"connected_time":1182000000000,"state":"active","ping":75},{"user_id":32,"name":"Jellin","steam_id":76561198093616984,"connected_time":141000000000,"state":"active","ping":48},{"user_id":30,"name":"T12a55","steam_id":76561199228993903,"connected_time":346000000000,"state":"active","ping":160},{"user_id":33,"name":"MR.DED, THE 2FORT FINAL BOSS","steam_id":76561199102310318,"connected_time":140000000000,"state":"active","ping":75},{"user_id":34,"name":"businessman minly","steam_id":76561199078991134,"connected_time":139000000000,"state":"active","ping":75},{"user_id":35,"name":"killjoy136","steam_id":76561198046123408,"connected_time":81000000000,"state":"active","ping":74},{"user_id":36,"name":"Mike","steam_id":76561198827756158,"connected_time":69000000000,"state":"active","ping":140},{"user_id":37,"name":"BIGGEST MAC","steam_id":76561198847517098,"connected_time":61000000000,"state":"active","ping":82},{"user_id":38,"name":"TheFryGuy","steam_id":76561198091683182,"connected_time":30000000000,"state":"active","ping":74}]},{"server_id":142,"name":"Uncletopia | São Paulo | 1 | All Maps","name_short":"sao-1","host":"sao-1.br.uncletopia.com","port":27015,"enabled":true,"region":"sa","cc":"br","latitude":-23.533773,"longitude":-46.62529,"reserved":0,"last_update":"0001-01-01T00:00:00Z","name_a2s":"Uncletopia | São Paulo | 1 | All Maps","protocol":17,"map":"koth_highpass","folder":"tf","game":"Team Fortress","app_id":440,"player_count":0,"max_players":24,"Bots":0,"server_type":"Dedicated","server_os":"Linux","password":true,"vac":true,"version":"7961495","steam_id":85568392924469996,"keywords":["cp","nocrits","nodmgspread","uncletopia"],"game_id":440,"stv_port":27016,"stv_name":"Uncletopia | São Paulo | 1 | All Maps | STV","players":null},{"server_id":143,"name":"Uncletopia | São Paulo | 2 | Community","name_short":"sao-2","host":"sao-2.br.uncletopia.com","port":27015,"enabled":true,"region":"sa","cc":"br","latitude":-23.533773,"longitude":-46.62529,"reserved":0,"last_update":"0001-01-01T00:00:00Z","name_a2s":"Uncletopia | São Paulo | 2 | Community","protocol":17,"map":"workshop/pl_divulgence_b4b.ugc2884808746","folder":"tf","game":"Team Fortress","app_id":440,"player_count":0,"max_players":24,"Bots":0,"server_type":"Dedicated","server_os":"Linux","password":true,"vac":true,"version":"7961495","steam_id":85568392924485349,"keywords":["nocrits","nodmgspread","payload","uncletopia"],"game_id":440,"stv_port":27016,"stv_name":"Uncletopia | São Paulo | 2 | Community | STV","players":null},{"server_id":7,"name":"Uncletopia | Seattle | 1 | All Maps","name_short":"sea-1","host":"sea-1.us.uncletopia.com","port":27015,"enabled":true,"region":"us-west","cc":"us","latitude":47.608013,"longitude":-122.33517,"reserved":0,"last_update":"0001-01-01T00:00:00Z","name_a2s":"Uncletopia | Seattle | 1 | All Maps","protocol":17,"map":"koth_lakeside_final","folder":"tf","game":"Team Fortress","app_id":440,"player_count":6,"max_players":24,"Bots":0,"server_type":"Dedicated","server_os":"Linux","password":true,"vac":true,"version":"7961495","steam_id":85568392924469997,"keywords":["cp","nocrits","nodmgspread","uncletopia"],"game_id":440,"stv_port":27016,"stv_name":"Uncletopia | Seattle | 1 | All Maps | STV","players":[{"user_id":11,"name":"D34dR4bbit","steam_id":76561198167411455,"connected_time":1658000000000,"state":"active","ping":55},{"user_id":12,"name":"blanch","steam_id":76561198850629951,"connected_time":1649000000000,"state":"active","ping":119},{"user_id":13,"name":"EXTREME FEVER","steam_id":76561198282764599,"connected_time":1463000000000,"state":"active","ping":90},{"user_id":19,"name":"PvZ Enthusiast","steam_id":76561199089562026,"connected_time":54000000000,"state":"active","ping":51},{"user_id":15,"name":"Pyrolimited","steam_id":76561198195455657,"connected_time":1388000000000,"state":"active","ping":44},{"user_id":20,"name":"Varie","steam_id":76561199454930210,"connected_time":11000000000,"state":"spawning","ping":109}]},{"server_id":119,"name":"Uncletopia | Seattle | 2 | All Maps","name_short":"sea-2","host":"sea-1.us.uncletopia.com","port":27025,"enabled":true,"region":"us-west","cc":"us","latitude":47.608013,"longitude":-122.33517,"reserved":0,"last_update":"0001-01-01T00:00:00Z","name_a2s":"Uncletopia | Seattle | 2 | All Maps","protocol":17,"map":"koth_nucleus","folder":"tf","game":"Team Fortress","app_id":440,"player_count":24,"max_players":24,"Bots":0,"server_type":"Dedicated","server_os":"Linux","password":true,"vac":true,"version":"7961495","steam_id":85568392924469998,"keywords":["cp","nocrits","nodmgspread","uncletopia"],"game_id":440,"stv_port":27026,"stv_name":"Uncletopia | Seattle | 2 | All Maps | STV","players":[{"user_id":293,"name":"got your hat","steam_id":76561199159928133,"connected_time":125000000000,"state":"active","ping":113},{"user_id":260,"name":"Username","steam_id":76561198198918781,"connected_time":1666000000000,"state":"active","ping":91},{"user_id":276,"name":"AlmostToasty","steam_id":76561198311363172,"connected_time":687000000000,"state":"active","ping":72},{"user_id":275,"name":"Three(3)SlicesOfBread","steam_id":76561199386210740,"connected_time":734000000000,"state":"active","ping":96},{"user_id":274,"name":"2Fort Cactus","steam_id":76561199273395913,"connected_time":796000000000,"state":"active","ping":50},{"user_id":238,"name":"nosound","steam_id":76561198092135570,"connected_time":2231000000000,"state":"active","ping":90},{"user_id":277,"name":"Shark Sandwich","steam_id":76561198025007938,"connected_time":564000000000,"state":"active","ping":60},{"user_id":278,"name":"Deliqene","steam_id":76561198227901308,"connected_time":510000000000,"state":"active","ping":77},{"user_id":283,"name":"Purchase","steam_id":76561198821991700,"connected_time":336000000000,"state":"active","ping":102},{"user_id":225,"name":"The Ball Mangler","steam_id":76561198090419068,"connected_time":3006000000000,"state":"active","ping":67},{"user_id":280,"name":"yukimiya_102","steam_id":76561198264287055,"connected_time":443000000000,"state":"active","ping":118},{"user_id":281,"name":"sleepy","steam_id":76561198255015060,"connected_time":417000000000,"state":"active","ping":66},{"user_id":282,"name":"bobtheninjaman","steam_id":76561198066424544,"connected_time":406000000000,"state":"active","ping":91},{"user_id":295,"name":"TheSadSmurf","steam_id":76561198379238613,"connected_time":43000000000,"state":"active","ping":115},{"user_id":284,"name":"Garfelf","steam_id":76561198419850129,"connected_time":307000000000,"state":"active","ping":131},{"user_id":217,"name":"BlazedBunny","steam_id":76561198243610560,"connected_time":3290000000000,"state":"active","ping":77},{"user_id":285,"name":"MondoDong","steam_id":76561197991400109,"connected_time":303000000000,"state":"active","ping":116},{"user_id":292,"name":"egassner175","steam_id":76561198993189385,"connected_time":233000000000,"state":"active","ping":84},{"user_id":242,"name":"gloobern","steam_id":76561198341190679,"connected_time":2095000000000,"state":"active","ping":77},{"user_id":235,"name":"TheMagicMrWaffle","steam_id":76561198104357256,"connected_time":2364000000000,"state":"active","ping":73},{"user_id":294,"name":"Horny Pirate","steam_id":76561198085174007,"connected_time":95000000000,"state":"active","ping":62},{"user_id":291,"name":"Laxoloni","steam_id":76561199197045700,"connected_time":239000000000,"state":"active","ping":86},{"user_id":296,"name":"The Holy Watermelon","steam_id":76561198092528592,"connected_time":39000000000,"state":"active","ping":649},{"user_id":297,"name":"jacix3 [silly doggie :3]","steam_id":76561198205004165,"connected_time":22000000000,"state":"spawning","ping":47}]},{"server_id":406,"name":"Uncletopia | Seattle | 3 | Stopwatch Beta","name_short":"sea-3","host":"sea-1.us.uncletopia.com","port":27035,"enabled":true,"region":"us-west","cc":"us","latitude":47.608013,"longitude":-122.33517,"reserved":0,"last_update":"0001-01-01T00:00:00Z","name_a2s":"Uncletopia | Seattle | 3 | Stopwatch Beta","protocol":17,"map":"koth_lakeside_final","folder":"tf","game":"Team Fortress","app_id":440,"player_count":0,"max_players":24,"Bots":0,"server_type":"Dedicated","server_os":"Linux","password":true,"vac":true,"version":"7961495","steam_id":85568392924515217,"keywords":["cp","nocrits","nodmgspread","uncletopia"],"game_id":440,"stv_port":27036,"stv_name":"Uncletopia | Seattle | 3 | Stopwatch Beta | STV","players":null},{"server_id":17,"name":"Uncletopia | San Francisco | 1 | All Maps","name_short":"sfo-1","host":"sfo-1.us.uncletopia.com","port":27015,"enabled":true,"region":"us-west","cc":"us","latitude":37.77397,"longitude":-122.4313,"reserved":0,"last_update":"0001-01-01T00:00:00Z","name_a2s":"Uncletopia | San Francisco | 1 | All Maps","protocol":17,"map":"pl_snowycoast","folder":"tf","game":"Team Fortress","app_id":440,"player_count":0,"max_players":24,"Bots":0,"server_type":"Dedicated","server_os":"Linux","password":true,"vac":true,"version":"7961495","steam_id":85568392924469999,"keywords":["nocrits","nodmgspread","payload","uncletopia"],"game_id":440,"stv_port":27016,"stv_name":"Uncletopia | San Francisco | 1 | All Maps | STV","players":null},{"server_id":18,"name":"Uncletopia | San Francisco | 2 | All Maps","name_short":"sfo-2","host":"sfo-1.us.uncletopia.com","port":27025,"enabled":true,"region":"us-west","cc":"us","latitude":37.77397,"longitude":-122.4313,"reserved":0,"last_update":"0001-01-01T00:00:00Z","name_a2s":"Uncletopia | San Francisco | 2 | All Maps","protocol":17,"map":"cp_process_final","folder":"tf","game":"Team Fortress","app_id":440,"player_count":0,"max_players":24,"Bots":0,"server_type":"Dedicated","server_os":"Linux","password":true,"vac":true,"version":"7961495","steam_id":85568392924470000,"keywords":["cp","nocrits","nodmgspread","uncletopia"],"game_id":440,"stv_port":27026,"stv_name":"Uncletopia | San Francisco | 2 | All Maps | STV","players":null},{"server_id":19,"name":"Uncletopia | San Francisco | 3 | Stopwatch Beta","name_short":"sfo-3","host":"sfo-1.us.uncletopia.com","port":27035,"enabled":true,"region":"us-west","cc":"us","latitude":37.77397,"longitude":-122.4313,"reserved":0,"last_update":"0001-01-01T00:00:00Z","name_a2s":"Uncletopia | San Francisco | 3 | Stopwatch Beta","protocol":17,"map":"pl_borneo","folder":"tf","game":"Team Fortress","app_id":440,"player_count":0,"max_players":24,"Bots":0,"server_type":"Dedicated","server_os":"Linux","password":true,"vac":true,"version":"7961495","steam_id":85568392924742824,"keywords":["nocrits","nodmgspread","payload","uncletopia"],"game_id":440,"stv_port":27036,"stv_name":"Uncletopia | San Francisco | 3 | Stopwatch Beta | STV","players":null},{"server_id":20,"name":"Uncletopia | San Francisco | 4 | Community","name_short":"sfo-4","host":"sfo-1.us.uncletopia.com","port":27045,"enabled":true,"region":"us-west","cc":"us","latitude":37.77397,"longitude":-122.4313,"reserved":0,"last_update":"0001-01-01T00:00:00Z","name_a2s":"Uncletopia | San Francisco | 4 | Community","protocol":17,"map":"koth_viaduct","folder":"tf","game":"Team Fortress","app_id":440,"player_count":0,"max_players":24,"Bots":0,"server_type":"Dedicated","server_os":"Linux","password":true,"vac":true,"version":"7961495","steam_id":85568392924742826,"keywords":["cp","nocrits","nodmgspread","uncletopia"],"game_id":440,"stv_port":27046,"stv_name":"Uncletopia | San Francisco | 4 | Community | STV","players":null},{"server_id":141,"name":"Uncletopia | Sydney | 1 | All Maps","name_short":"syd-1","host":"syd-1.au.uncletopia.com","port":27015,"enabled":true,"region":"au","cc":"au","latitude":-33.865143,"longitude":151.2099,"reserved":0,"last_update":"0001-01-01T00:00:00Z","name_a2s":"Uncletopia | Sydney | 1 | All Maps","protocol":17,"map":"pl_borneo","folder":"tf","game":"Team Fortress","app_id":440,"player_count":3,"max_players":24,"Bots":0,"server_type":"Dedicated","server_os":"Linux","password":true,"vac":true,"version":"7961495","steam_id":85568392924470001,"keywords":["nocrits","nodmgspread","payload","uncletopia"],"game_id":440,"stv_port":27016,"stv_name":"Uncletopia | Sydney | 1 | All Maps | STV","players":[{"user_id":428,"name":"Penguin105 カービィ","steam_id":76561198096235032,"connected_time":1531000000000,"state":"active","ping":54},{"user_id":429,"name":"Xophant","steam_id":76561198274570985,"connected_time":1526000000000,"state":"active","ping":87},{"user_id":430,"name":"qeuvl","steam_id":76561198170727659,"connected_time":419000000000,"state":"active","ping":73}]},{"server_id":123,"name":"Uncletopia | Sydney | 2 | All Maps","name_short":"syd-2","host":"syd-1.au.uncletopia.com","port":27025,"enabled":true,"region":"au","cc":"au","latitude":-33.865143,"longitude":151.2099,"reserved":0,"last_update":"0001-01-01T00:00:00Z","name_a2s":"Uncletopia | Sydney | 2 | All Maps","protocol":17,"map":"cp_altitude","folder":"tf","game":"Team Fortress","app_id":440,"player_count":0,"max_players":24,"Bots":0,"server_type":"Dedicated","server_os":"Linux","password":true,"vac":true,"version":"7961495","steam_id":85568392924470002,"keywords":["cp","nocrits","nodmgspread","uncletopia"],"game_id":440,"stv_port":27026,"stv_name":"Uncletopia | Sydney | 2 | All Maps | STV","players":null},{"server_id":395,"name":"Uncletopia | Sydney | 3 | All Maps","name_short":"syd-3","host":"syd-1.au.uncletopia.com","port":27035,"enabled":true,"region":"au","cc":"au","latitude":-33.865143,"longitude":151.2099,"reserved":0,"last_update":"0001-01-01T00:00:00Z","name_a2s":"Uncletopia | Sydney | 3 | All Maps","protocol":17,"map":"pl_borneo","folder":"tf","game":"Team Fortress","app_id":440,"player_count":0,"max_players":24,"Bots":0,"server_type":"Dedicated","server_os":"Linux","password":true,"vac":true,"version":"7961495","steam_id":85568392925194467,"keywords":["nocrits","nodmgspread","payload","uncletopia"],"game_id":440,"stv_port":27036,"stv_name":"Uncletopia | Sydney | 3 | All Maps | STV","players":null},{"server_id":396,"name":"Uncletopia | Sydney | 4 | All Maps","name_short":"syd-4","host":"syd-1.au.uncletopia.com","port":27045,"enabled":true,"region":"au","cc":"au","latitude":-33.865143,"longitude":151.2099,"reserved":0,"last_update":"0001-01-01T00:00:00Z","name_a2s":"Uncletopia | Sydney | 4 | All Maps","protocol":17,"map":"koth_highpass","folder":"tf","game":"Team Fortress","app_id":440,"player_count":0,"max_players":24,"Bots":0,"server_type":"Dedicated","server_os":"Linux","password":true,"vac":true,"version":"7961495","steam_id":85568392925397958,"keywords":["cp","nocrits","nodmgspread","uncletopia"],"game_id":440,"stv_port":27046,"stv_name":"Uncletopia | Sydney | 4 | All Maps | STV","players":null},{"server_id":58,"name":"Uncletopia | Sydney | 5 | Stopwatch Beta","name_short":"syd-5","host":"syd-1.au.uncletopia.com","port":27055,"enabled":true,"region":"au","cc":"au","latitude":-33.865143,"longitude":151.2099,"reserved":0,"last_update":"0001-01-01T00:00:00Z","name_a2s":"Uncletopia | Sydney | 5 | Stopwatch Beta","protocol":17,"map":"koth_viaduct","folder":"tf","game":"Team Fortress","app_id":440,"player_count":0,"max_players":24,"Bots":0,"server_type":"Dedicated","server_os":"Linux","password":true,"vac":true,"version":"7961495","steam_id":85568392925397959,"keywords":["cp","nocrits","nodmgspread","uncletopia"],"game_id":440,"stv_port":27056,"stv_name":"Uncletopia | Sydney | 5 | Stopwatch Beta | STV","players":null},{"server_id":59,"name":"Uncletopia | Sydney | 6 | Community","name_short":"syd-6","host":"syd-1.au.uncletopia.com","port":27065,"enabled":true,"region":"au","cc":"au","latitude":-33.865143,"longitude":151.2099,"reserved":0,"last_update":"0001-01-01T00:00:00Z","name_a2s":"Uncletopia | Sydney | 6 | Community","protocol":17,"map":"koth_cascade","folder":"tf","game":"Team Fortress","app_id":440,"player_count":0,"max_players":24,"Bots":0,"server_type":"Dedicated","server_os":"Linux","password":true,"vac":true,"version":"7961495","steam_id":85568392925397960,"keywords":["cp","nocrits","nodmgspread","uncletopia"],"game_id":440,"stv_port":27066,"stv_name":"Uncletopia | Sydney | 6 | Community | STV","players":null},{"server_id":49,"name":"Uncletopia | Warsaw | 1 | All Maps","name_short":"waw-1","host":"waw-1.pl.uncletopia.com","port":27015,"enabled":true,"region":"eu","cc":"pl","latitude":52.2297,"longitude":21.017532,"reserved":0,"last_update":"0001-01-01T00:00:00Z","name_a2s":"Uncletopia | Warsaw | 1 | All Maps","protocol":17,"map":"cp_process_final","folder":"tf","game":"Team Fortress","app_id":440,"player_count":0,"max_players":24,"Bots":0,"server_type":"Dedicated","server_os":"Linux","password":true,"vac":true,"version":"7961495","steam_id":85568392925397850,"keywords":["cp","nocrits","nodmgspread","uncletopia"],"game_id":440,"stv_port":27016,"stv_name":"Uncletopia | Warsaw | 1 | All Maps | STV","players":null},{"server_id":50,"name":"Uncletopia | Warsaw | 2 | All Maps","name_short":"waw-2","host":"waw-1.pl.uncletopia.com","port":27025,"enabled":true,"region":"eu","cc":"pl","latitude":52.2297,"longitude":21.017532,"reserved":0,"last_update":"0001-01-01T00:00:00Z","name_a2s":"Uncletopia | Warsaw | 2 | All Maps","protocol":17,"map":"koth_lakeside_final","folder":"tf","game":"Team Fortress","app_id":440,"player_count":3,"max_players":24,"Bots":0,"server_type":"Dedicated","server_os":"Linux","password":true,"vac":true,"version":"7961495","steam_id":85568392925397851,"keywords":["cp","nocrits","nodmgspread","uncletopia"],"game_id":440,"stv_port":27026,"stv_name":"Uncletopia | Warsaw | 2 | All Maps | STV","players":[{"user_id":4,"name":"fexxor","steam_id":76561198030051719,"connected_time":763000000000,"state":"active","ping":83},{"user_id":5,"name":"Lundback","steam_id":76561198256021018,"connected_time":517000000000,"state":"active","ping":94},{"user_id":6,"name":"[SQ UA] MartianDill","steam_id":76561198405382822,"connected_time":31000000000,"state":"active","ping":41}]},{"server_id":51,"name":"Uncletopia | Warsaw | 3 | All Maps","name_short":"waw-3","host":"waw-1.pl.uncletopia.com","port":27035,"enabled":true,"region":"eu","cc":"pl","latitude":52.2297,"longitude":21.017532,"reserved":0,"last_update":"0001-01-01T00:00:00Z","name_a2s":"Uncletopia | Warsaw | 3 | All Maps","protocol":17,"map":"pl_badwater","folder":"tf","game":"Team Fortress","app_id":440,"player_count":0,"max_players":24,"Bots":0,"server_type":"Dedicated","server_os":"Linux","password":true,"vac":true,"version":"7961495","steam_id":85568392925397852,"keywords":["nocrits","nodmgspread","payload","uncletopia"],"game_id":440,"stv_port":27036,"stv_name":"Uncletopia | Warsaw | 3 | All Maps | STV","players":null},{"server_id":52,"name":"Uncletopia | Warsaw | 4 | All Maps","name_short":"waw-4","host":"waw-1.pl.uncletopia.com","port":27045,"enabled":true,"region":"eu","cc":"pl","latitude":52.2297,"longitude":21.017532,"reserved":0,"last_update":"0001-01-01T00:00:00Z","name_a2s":"Uncletopia | Warsaw | 4 | All Maps","protocol":17,"map":"koth_viaduct","folder":"tf","game":"Team Fortress","app_id":440,"player_count":0,"max_players":24,"Bots":0,"server_type":"Dedicated","server_os":"Linux","password":true,"vac":true,"version":"7961495","steam_id":85568392925397853,"keywords":["cp","nocrits","nodmgspread","uncletopia"],"game_id":440,"stv_port":27046,"stv_name":"Uncletopia | Warsaw | 4 | All Maps | STV","players":null},{"server_id":53,"name":"Uncletopia | Warsaw | 5 | Stopwatch Beta","name_short":"waw-5","host":"waw-1.pl.uncletopia.com","port":27055,"enabled":true,"region":"eu","cc":"pl","latitude":52.2297,"longitude":21.017532,"reserved":0,"last_update":"0001-01-01T00:00:00Z","name_a2s":"Uncletopia | Warsaw | 5 | Stopwatch Beta","protocol":17,"map":"pl_swiftwater_final1","folder":"tf","game":"Team Fortress","app_id":440,"player_count":0,"max_players":24,"Bots":0,"server_type":"Dedicated","server_os":"Linux","password":true,"vac":true,"version":"7961495","steam_id":85568392925397854,"keywords":["nocrits","nodmgspread","payload","uncletopia"],"game_id":440,"stv_port":27056,"stv_name":"Uncletopia | Warsaw | 5 | Stopwatch Beta | STV","players":null},{"server_id":54,"name":"Uncletopia | Warsaw | 6 | Community","name_short":"waw-6","host":"waw-1.pl.uncletopia.com","port":27065,"enabled":true,"region":"eu","cc":"pl","latitude":52.2297,"longitude":21.017532,"reserved":0,"last_update":"0001-01-01T00:00:00Z","name_a2s":"Uncletopia | Warsaw | 6 | Community","protocol":17,"map":"workshop/cp_glacier_rc6.ugc2905735376","folder":"tf","game":"Team Fortress","app_id":440,"player_count":0,"max_players":24,"Bots":0,"server_type":"Dedicated","server_os":"Linux","password":true,"vac":true,"version":"7961495","steam_id":85568392925397856,"keywords":["cp","nocrits","nodmgspread","uncletopia"],"game_id":440,"stv_port":27066,"stv_name":"Uncletopia | Warsaw | 6 | Community | STV","players":null}]}