{"status":true,"message":"","result":[{"server_id":9,"name":"Uncletopia | Atlanta | 1 | All Maps","name_short":"atl-1","host":"atl-1.us.uncletopia.com","port":27015,"enabled":true,"region":"us-east","cc":"us","latitude":33.753746,"longitude":-84.38633,"reserved":0,"last_update":"0001-01-01T00:00:00Z","name_a2s":"Uncletopia | Atlanta | 1 | All Maps","protocol":17,"map":"pl_snowycoast","folder":"tf","game":"Team Fortress","app_id":440,"player_count":24,"max_players":24,"Bots":0,"server_type":"Dedicated","server_os":"Linux","password":true,"vac":true,"version":"7757534","steam_id":85568392924469982,"keywords":["nocrits","nodmgspread","payload","uncletopia"],"game_id":440,"stv_port":27016,"stv_name":"Uncletopia | Atlanta | 1 | All Maps | STV","players":[{"user_id":164,"name":"Crunchy","steam_id":76561199065412274,"connected_time":3554000000000,"state":"active","ping":56},{"user_id":192,"name":"Monochrome","steam_id":76561198377320040,"connected_time":890000000000,"state":"active","ping":62},{"user_id":167,"name":"twix","steam_id":76561198040912048,"connected_time":2909000000000,"state":"active","ping":74},{"user_id":178,"name":"6'4 manly man! ♥","steam_id":76561198091741658,"connected_time":1457000000000,"state":"active","ping":89},{"user_id":185,"name":"uncle 'ardboss","steam_id":76561198055490732,"connected_time":1199000000000,"state":"active","ping":151},{"user_id":174,"name":"Jonatello","steam_id":76561198045699189,"connected_time":1741000000000,"state":"active","ping":145},{"user_id":197,"name":"Kurt Biscuitmaker","steam_id":76561198331701823,"connected_time":433000000000,"state":"active","ping":82},{"user_id":169,"name":"Obelisk","steam_id":76561198049416866,"connected_time":2828000000000,"state":"active","ping":52},{"user_id":103,"name":"FheeseWurger Insouptitty","steam_id":76561198130772096,"connected_time":8660000000000,"state":"active","ping":56},{"user_id":188,"name":"Derphat","steam_id":76561198899750839,"connected_time":969000000000,"state":"active","ping":58},{"user_id":200,"name":"Matchstick","steam_id":76561198399856863,"connected_time":286000000000,"state":"active","ping":100},{"user_id":189,"name":"An Unhappy Clown","steam_id":76561198175516514,"connected_time":956000000000,"state":"active","ping":69},{"user_id":198,"name":"T4T488","steam_id":76561198242633220,"connected_time":373000000000,"state":"active","ping":58},{"user_id":183,"name":"sunny","steam_id":76561198069380992,"connected_time":1217000000000,"state":"active","ping":82},{"user_id":180,"name":"Gaskranx","steam_id":76561198020269547,"connected_time":1356000000000,"state":"active","ping":71},{"user_id":171,"name":"ATL 1 | Save your wifi","steam_id":76561198286147372,"connected_time":1933000000000,"state":"active","ping":59},{"user_id":168,"name":"Wren","steam_id":76561198071109787,"connected_time":2883000000000,"state":"active","ping":87},{"user_id":191,"name":"Rin \"Hindwing\" Redtail","steam_id":76561199074865638,"connected_time":925000000000,"state":"active","ping":61},{"user_id":93,"name":"Obelix","steam_id":76561198274715109,"connected_time":10507000000000,"state":"active","ping":62},{"user_id":201,"name":"Gheeotine","steam_id":76561198010181698,"connected_time":230000000000,"state":"active","ping":86},{"user_id":182,"name":"Lady J","steam_id":76561198133278462,"connected_time":1226000000000,"state":"active","ping":72},{"user_id":154,"name":"someone stole my cat","steam_id":76561198198787713,"connected_time":4724000000000,"state":"active","ping":72},{"user_id":166,"name":"Miro","steam_id":76561198936412406,"connected_time":2987000000000,"state":"active","ping":70},{"user_id":194,"name":"Epifiny","steam_id":76561198027958086,"connected_time":707000000000,"state":"active","ping":85}]},{"server_id":104,"name":"Uncletopia | Atlanta | 2 | All Maps","name_short":"atl-2","host":"atl-1.us.uncletopia.com","port":27025,"enabled":true,"region":"us-east","cc":"us","latitude":33.753746,"longitude":-84.38633,"reserved":0,"last_update":"0001-01-01T00:00:00Z","name_a2s":"Uncletopia | Atlanta | 2 | All Maps","protocol":17,"map":"pl_upward","folder":"tf","game":"Team Fortress","app_id":440,"player_count":23,"max_players":24,"Bots":0,"server_type":"Dedicated","server_os":"Linux","password":true,"vac":true,"version":"7757534","steam_id":85568392924469983,"keywords":["nocrits","nodmgspread","payload","uncletopia"],"game_id":440,"stv_port":27026,"stv_name":"Uncletopia | Atlanta | 2 | All Maps | STV","players":[{"user_id":60,"name":"Zornplays","steam_id":76561199175292302,"connected_time":1683000000000,"state":"active","ping":111},{"user_id":58,"name":"Mike Charlie","steam_id":76561199470538309,"connected_time":1877000000000,"state":"active","ping":80},{"user_id":13,"name":"Meenctory","steam_id":76561198268374166,"connected_time":4413000000000,"state":"active","ping":177},{"user_id":77,"name":"Shwaey","steam_id":76561198218886668,"connected_time":130000000000,"state":"active","ping":71},{"user_id":79,"name":"Erin","steam_id":76561198394148072,"connected_time":37000000000,"state":"active","ping":72},{"user_id":55,"name":"oneman army","steam_id":76561198384248669,"connected_time":2028000000000,"state":"active","ping":191},{"user_id":75,"name":"cremeoner","steam_id":76561198372332251,"connected_time":601000000000,"state":"active","ping":53},{"user_id":17,"name":"corpach","steam_id":76561198150418268,"connected_time":4177000000000,"state":"active","ping":86},{"user_id":80,"name":"Red","steam_id":76561198255311543,"connected_time":13000000000,"state":"spawning","ping":177},{"user_id":81,"name":"Glanderson booper","steam_id":76561198021223747,"connected_time":9000000000,"state":"active","ping":127},{"user_id":69,"name":"GodandTitans","steam_id":76561198070070155,"connected_time":1098000000000,"state":"active","ping":93},{"user_id":49,"name":"Big Yoshi","steam_id":76561199160576376,"connected_time":2594000000000,"state":"active","ping":117},{"user_id":51,"name":"Bird","steam_id":76561198247484514,"connected_time":2517000000000,"state":"active","ping":70},{"user_id":40,"name":"wally","steam_id":76561198027450079,"connected_time":3188000000000,"state":"active","ping":61},{"user_id":71,"name":"lucil3 on Bandcamp","steam_id":76561198149063013,"connected_time":876000000000,"state":"active","ping":65},{"user_id":31,"name":"Jeffenthropus","steam_id":76561198134204248,"connected_time":3435000000000,"state":"active","ping":60},{"user_id":59,"name":"Global","steam_id":76561198368754336,"connected_time":1850000000000,"state":"active","ping":48},{"user_id":78,"name":"inevitable stupidity","steam_id":76561198847381567,"connected_time":108000000000,"state":"active","ping":64},{"user_id":73,"name":"Raine","steam_id":76561199081937889,"connected_time":659000000000,"state":"active","ping":49},{"user_id":70,"name":"O2","steam_id":76561199445520832,"connected_time":1048000000000,"state":"active","ping":56},{"user_id":74,"name":"Osrio","steam_id":76561198083428069,"connected_time":632000000000,"state":"active","ping":93},{"user_id":76,"name":"jaydn","steam_id":76561198086615208,"connected_time":578000000000,"state":"active","ping":45},{"user_id":47,"name":"Lifial","steam_id":76561198271885819,"connected_time":2960000000000,"state":"active","ping":75}]},{"server_id":400,"name":"Uncletopia | Atlanta | 3 | Community","name_short":"atl-3","host":"atl-1.us.uncletopia.com","port":27035,"enabled":true,"region":"us-east","cc":"us","latitude":33.753746,"longitude":-84.38633,"reserved":0,"last_update":"0001-01-01T00:00:00Z","name_a2s":"Uncletopia | Atlanta | 3 | Community","protocol":17,"map":"workshop/cp_alloy_rc3.ugc592805587","folder":"tf","game":"Team Fortress","app_id":440,"player_count":0,"max_players":24,"Bots":0,"server_type":"Dedicated","server_os":"Linux","password":true,"vac":true,"version":"7757534","steam_id":85568392924515187,"keywords":["cp","nocrits","nodmgspread","uncletopia"],"game_id":440,"stv_port":27036,"stv_name":"Uncletopia | Atlanta | 3 | Community | STV","players":null},{"server_id":401,"name":"Uncletopia | Atlanta | 4 | No Payload","name_short":"atl-4","host":"atl-1.us.uncletopia.com","port":27045,"enabled":true,"region":"us-east","cc":"us","latitude":33.753746,"longitude":-84.38633,"reserved":0,"last_update":"0001-01-01T00:00:00Z","name_a2s":"","protocol":0,"map":"","folder":"","game":"","app_id":0,"player_count":0,"max_players":0,"Bots":0,"server_type":"","server_os":"","password":false,"vac":false,"version":"","steam_id":0,"keywords":null,"game_id":0,"stv_port":0,"stv_name":"","players":null},{"server_id":2,"name":"Uncletopia | Chicago | 1 | All Maps","name_short":"chi-1","host":"chi-1.us.uncletopia.com","port":27015,"enabled":true,"region":"us-central","cc":"us","latitude":41.881832,"longitude":-87.62318,"reserved":0,"last_update":"0001-01-01T00:00:00Z","name_a2s":"Uncletopia | Chicago | 1 | All Maps","protocol":17,"map":"koth_sawmill","folder":"tf","game":"Team Fortress","app_id":440,"player_count":22,"max_players":24,"Bots":0,"server_type":"Dedicated","server_os":"Linux","password":true,"vac":true,"version":"7757534","steam_id":85568392924469984,"keywords":["cp","nocrits","nodmgspread","uncletopia"],"game_id":440,"stv_port":27016,"stv_name":"Uncletopia | Chicago | 1 | All Maps | STV","players":[{"user_id":4,"name":"Big Man","steam_id":76561198353366625,"connected_time":10376000000000,"state":"active","ping":73},{"user_id":105,"name":"Amazingamerhawk","steam_id":76561199064935924,"connected_time":1507000000000,"state":"active","ping":61},{"user_id":108,"name":"natha!","steam_id":76561199010051293,"connected_time":1114000000000,"state":"active","ping":64},{"user_id":120,"name":"Little Beerus","steam_id":76561198855187570,"connected_time":476000000000,"state":"active","ping":74},{"user_id":64,"name":"BOTBOT","steam_id":76561198271928618,"connected_time":5674000000000,"state":"active","ping":75},{"user_id":122,"name":"reanimator","steam_id":76561198085830470,"connected_time":419000000000,"state":"active","ping":60},{"user_id":77,"name":"i really like this dog :)","steam_id":76561198882404753,"connected_time":3983000000000,"state":"active","ping":78},{"user_id":39,"name":"WatchWill","steam_id":76561198157237945,"connected_time":8309000000000,"state":"active","ping":68},{"user_id":84,"name":"K.A.R.M.A.","steam_id":76561198240750142,"connected_time":3928000000000,"state":"active","ping":96},{"user_id":127,"name":"Ripheart","steam_id":76561198089661561,"connected_time":60000000000,"state":"active","ping":36},{"user_id":121,"name":"Smoker Lung","steam_id":76561198077167395,"connected_time":428000000000,"state":"active","ping":46},{"user_id":104,"name":"Bonk","steam_id":76561198138107407,"connected_time":1582000000000,"state":"active","ping":63},{"user_id":117,"name":"dirty dank","steam_id":76561198360904432,"connected_time":516000000000,"state":"active","ping":68},{"user_id":126,"name":"Pixeled","steam_id":76561198088917077,"connected_time":195000000000,"state":"active","ping":85},{"user_id":115,"name":"Goober alert!","steam_id":76561198175727790,"connected_time":545000000000,"state":"active","ping":98},{"user_id":98,"name":"rat eater","steam_id":76561199216874750,"connected_time":2832000000000,"state":"active","ping":46},{"user_id":119,"name":"mayak2112","steam_id":76561199186794035,"connected_time":509000000000,"state":"active","ping":103},{"user_id":101,"name":"Gnarly Shark Bite","steam_id":76561198004058342,"connected_time":2047000000000,"state":"active","ping":74},{"user_id":76,"name":"Drachma","steam_id":76561198007310514,"connected_time":4141000000000,"state":"active","ping":70},{"user_id":89,"name":"Nefy","steam_id":76561198030017316,"connected_time":3827000000000,"state":"active","ping":85},{"user_id":72,"name":"Thy.Roid","steam_id":76561198122291992,"connected_time":4991000000000,"state":"active","ping":52},{"user_id":112,"name":"ColonelKermit","steam_id":76561198318215660,"connected_time":731000000000,"state":"active","ping":55}]},{"server_id":106,"name":"Uncletopia | Chicago | 2 | All Maps","name_short":"chi-2","host":"chi-1.us.uncletopia.com","port":27025,"enabled":true,"region":"us-central","cc":"us","latitude":41.881832,"longitude":-87.62318,"reserved":0,"last_update":"0001-01-01T00:00:00Z","name_a2s":"Uncletopia | Chicago | 2 | All Maps","protocol":17,"map":"pl_badwater","folder":"tf","game":"Team Fortress","app_id":440,"player_count":25,"max_players":24,"Bots":0,"server_type":"Dedicated","server_os":"Linux","password":true,"vac":true,"version":"7757534","steam_id":85568392924469985,"keywords":["nocrits","nodmgspread","payload","uncletopia"],"game_id":440,"stv_port":27026,"stv_name":"Uncletopia | Chicago | 2 | All Maps | STV","players":[{"user_id":52,"name":"Space of Pud","steam_id":76561198400468740,"connected_time":3245000000000,"state":"active","ping":55},{"user_id":49,"name":"Malignant","steam_id":76561199207759418,"connected_time":3305000000000,"state":"active","ping":71},{"user_id":66,"name":"nonagon infinity","steam_id":76561198397662124,"connected_time":1815000000000,"state":"active","ping":85},{"user_id":39,"name":"WhippedHook","steam_id":76561198069581138,"connected_time":4566000000000,"state":"active","ping":163},{"user_id":75,"name":"I'm Going Goblin Mode","steam_id":76561198084167611,"connected_time":974000000000,"state":"active","ping":61},{"user_id":69,"name":"ImnotAbot:(","steam_id":76561199475442611,"connected_time":1274000000000,"state":"active","ping":101},{"user_id":84,"name":"Quaker Oats","steam_id":76561197992800293,"connected_time":4000000000,"state":"spawning","ping":128},{"user_id":57,"name":"TwoBit","steam_id":76561198062437559,"connected_time":2165000000000,"state":"active","ping":76},{"user_id":77,"name":"jerma enthusiast","steam_id":76561198359466264,"connected_time":945000000000,"state":"active","ping":75},{"user_id":43,"name":"i am last tuesday","steam_id":76561199064660270,"connected_time":4320000000000,"state":"active","ping":64},{"user_id":64,"name":"Doctobob","steam_id":76561198095283669,"connected_time":1910000000000,"state":"active","ping":84},{"user_id":83,"name":"crabapples","steam_id":76561198075818655,"connected_time":665000000000,"state":"active","ping":58},{"user_id":80,"name":"Ativi","steam_id":76561199215798445,"connected_time":856000000000,"state":"active","ping":52},{"user_id":54,"name":"chaireater","steam_id":76561199089619339,"connected_time":3187000000000,"state":"active","ping":63},{"user_id":71,"name":"Broadsword","steam_id":76561198011160411,"connected_time":1087000000000,"state":"active","ping":85},{"user_id":81,"name":"ChozoChorizo","steam_id":76561198272609196,"connected_time":829000000000,"state":"active","ping":70},{"user_id":26,"name":"Squibble","steam_id":76561198124800572,"connected_time":5063000000000,"state":"active","ping":81},{"user_id":72,"name":"I'm in your walls","steam_id":76561198153502981,"connected_time":1075000000000,"state":"active","ping":59},{"user_id":59,"name":"FunGi","steam_id":76561198881418662,"connected_time":2143000000000,"state":"active","ping":84},{"user_id":65,"name":"D0VE","steam_id":76561198151618566,"connected_time":1841000000000,"state":"active","ping":96},{"user_id":73,"name":"Wife Enjoyer","steam_id":76561198044109761,"connected_time":1019000000000,"state":"active","ping":62},{"user_id":74,"name":"Squatchamo","steam_id":76561198012968239,"connected_time":989000000000,"state":"active","ping":75},{"user_id":82,"name":"Peter Popoff","steam_id":76561198027171160,"connected_time":824000000000,"state":"active","ping":54},{"user_id":56,"name":"Tlaloc","steam_id":76561198375215983,"connected_time":2406000000000,"state":"active","ping":120},{"user_id":85,"name":"DarthEthanBoy","steam_id":76561198441643581,"connected_time":2000000000,"state":"spawning","ping":82}]},{"server_id":402,"name":"Uncletopia | Chicago | 3 | All Maps","name_short":"chi-3","host":"chi-1.us.uncletopia.com","port":27035,"enabled":true,"region":"us-central","cc":"us","latitude":41.881832,"longitude":-87.62318,"reserved":0,"last_update":"0001-01-01T00:00:00Z","name_a2s":"Uncletopia | Chicago | 3 | All Maps","protocol":17,"map":"pl_snowycoast","folder":"tf","game":"Team Fortress","app_id":440,"player_count":0,"max_players":24,"Bots":0,"server_type":"Dedicated","server_os":"Linux","password":true,"vac":true,"version":"7757534","steam_id":85568392924515191,"keywords":["nocrits","nodmgspread","payload","uncletopia"],"game_id":440,"stv_port":27036,"stv_name":"Uncletopia | Chicago | 3 | All Maps | STV","players":null},{"server_id":403,"name":"Uncletopia | Chicago | 4 | All Maps","name_short":"chi-4","host":"chi-1.us.uncletopia.com","port":27045,"enabled":true,"region":"us-central","cc":"us","latitude":41.881832,"longitude":-87.62318,"reserved":0,"last_update":"0001-01-01T00:00:00Z","name_a2s":"Uncletopia | Chicago | 4 | All Maps","protocol":17,"map":"koth_lakeside_final","folder":"tf","game":"Team Fortress","app_id":440,"player_count":2,"max_players":24,"Bots":0,"server_type":"Dedicated","server_os":"Linux","password":true,"vac":true,"version":"7757534","steam_id":85568392924515193,"keywords":["cp","nocrits","nodmgspread","uncletopia"],"game_id":440,"stv_port":27046,"stv_name":"Uncletopia | Chicago | 4 | All Maps | STV","players":[{"user_id":9,"name":"Brother Pudge","steam_id":76561198247815090,"connected_time":482000000000,"state":"active","ping":37},{"user_id":10,"name":"Thix","steam_id":76561199187457689,"connected_time":198000000000,"state":"active","ping":54}]},{"server_id":36,"name":"Uncletopia | Chicago | 5 | All Maps","name_short":"chi-5","host":"chi-2.us.uncletopia.com","port":27015,"enabled":true,"region":"us-central","cc":"us","latitude":41.881832,"longitude":-87.62318,"reserved":0,"last_update":"0001-01-01T00:00:00Z","name_a2s":"Uncletopia | Chicago | 5 | All Maps","protocol":17,"map":"koth_cascade","folder":"tf","game":"Team Fortress","app_id":440,"player_count":1,"max_players":24,"Bots":0,"server_type":"Dedicated","server_os":"Linux","password":true,"vac":true,"version":"7757534","steam_id":85568392924866362,"keywords":["cp","nocrits","nodmgspread","uncletopia"],"game_id":440,"stv_port":27016,"stv_name":"Uncletopia | Chicago | 5 | All Maps | STV","players":[{"user_id":5,"name":"ZeN | #SaveTF2","steam_id":76561199098746585,"connected_time":4000000000,"state":"spawning","ping":46}]},{"server_id":37,"name":"Uncletopia | Chicago | 6 | All Maps","name_short":"chi-6","host":"chi-2.us.uncletopia.com","port":27025,"enabled":true,"region":"us-central","cc":"us","latitude":41.881832,"longitude":-87.62318,"reserved":0,"last_update":"0001-01-01T00:00:00Z","name_a2s":"Uncletopia | Chicago | 6 | All Maps","protocol":17,"map":"koth_lakeside_final","folder":"tf","game":"Team Fortress","app_id":440,"player_count":0,"max_players":24,"Bots":0,"server_type":"Dedicated","server_os":"Linux","password":true,"vac":true,"version":"7757534","steam_id":85568392924866363,"keywords":["cp","nocrits","nodmgspread","uncletopia"],"game_id":440,"stv_port":27026,"stv_name":"Uncletopia | Chicago | 6 | All Maps | STV","players":null},{"server_id":38,"name":"Uncletopia | Chicago | 7 | Stopwatch Beta","name_short":"chi-7","host":"chi-2.us.uncletopia.com","port":27035,"enabled":true,"region":"us-central","cc":"us","latitude":41.881832,"longitude":-87.62318,"reserved":0,"last_update":"0001-01-01T00:00:00Z","name_a2s":"Uncletopia | Chicago | 7 | Stopwatch Beta","protocol":17,"map":"pl_barnblitz","folder":"tf","game":"Team Fortress","app_id":440,"player_count":0,"max_players":24,"Bots":0,"server_type":"Dedicated","server_os":"Linux","password":true,"vac":true,"version":"7757534","steam_id":85568392924866364,"keywords":["nocrits","nodmgspread","payload","uncletopia"],"game_id":440,"stv_port":27036,"stv_name":"Uncletopia | Chicago | 7 | Stopwatch Beta | STV","players":null},{"server_id":39,"name":"Uncletopia | Chicago | 8 | Community","name_short":"chi-8","host":"chi-2.us.uncletopia.com","port":27045,"enabled":true,"region":"us-central","cc":"us","latitude":41.881832,"longitude":-87.62318,"reserved":0,"last_update":"0001-01-01T00:00:00Z","name_a2s":"Uncletopia | Chicago | 8 | Community","protocol":17,"map":"workshop/cp_kalinka_rc6a.ugc1272700588","folder":"tf","game":"Team Fortress","app_id":440,"player_count":0,"max_players":24,"Bots":0,"server_type":"Dedicated","server_os":"Linux","password":true,"vac":true,"version":"7757534","steam_id":85568392924866365,"keywords":["cp","nocrits","nodmgspread","uncletopia"],"game_id":440,"stv_port":27046,"stv_name":"Uncletopia | Chicago | 8 | Community | STV","players":null},{"server_id":8,"name":"Uncletopia | Dallas | 1 | All Maps","name_short":"dal-1","host":"dal-1.us.uncletopia.com","port":27015,"enabled":true,"region":"us-central","cc":"us","latitude":32.779167,"longitude":-96.80889,"reserved":0,"last_update":"0001-01-01T00:00:00Z","name_a2s":"Uncletopia | Dallas | 1 | All Maps","protocol":17,"map":"cp_mountainlab","folder":"tf","game":"Team Fortress","app_id":440,"player_count":19,"max_players":24,"Bots":0,"server_type":"Dedicated","server_os":"Linux","password":true,"vac":true,"version":"7757534","steam_id":85568392924469986,"keywords":["cp","nocrits","nodmgspread","uncletopia"],"game_id":440,"stv_port":27016,"stv_name":"Uncletopia | Dallas | 1 | All Maps | STV","players":[{"user_id":194,"name":":^|","steam_id":76561198119826352,"connected_time":2928000000000,"state":"active","ping":44},{"user_id":226,"name":"WhistlingFox04","steam_id":76561198381509938,"connected_time":92000000000,"state":"active","ping":439},{"user_id":170,"name":"Fishstall","steam_id":76561198038126034,"connected_time":4418000000000,"state":"active","ping":63},{"user_id":199,"name":"Dalvarious","steam_id":76561198052771928,"connected_time":2662000000000,"state":"active","ping":92},{"user_id":217,"name":"sassy loli","steam_id":76561198402316065,"connected_time":1512000000000,"state":"active","ping":121},{"user_id":227,"name":"Doomagedden","steam_id":76561198272589475,"connected_time":63000000000,"state":"active","ping":57},{"user_id":119,"name":"boredomhitshard","steam_id":76561199445629071,"connected_time":9211000000000,"state":"active","ping":87},{"user_id":204,"name":"amablehughes","steam_id":76561199007131236,"connected_time":2543000000000,"state":"active","ping":94},{"user_id":222,"name":"Stoa","steam_id":76561198332519926,"connected_time":490000000000,"state":"active","ping":87},{"user_id":183,"name":"Snivy64","steam_id":76561198423445376,"connected_time":3738000000000,"state":"active","ping":68},{"user_id":228,"name":"♥ thedittoguy ♥","steam_id":76561199013129784,"connected_time":62000000000,"state":"active","ping":54},{"user_id":225,"name":"Bottom Ramen","steam_id":76561197970450546,"connected_time":117000000000,"state":"active","ping":114},{"user_id":224,"name":"T̵̲̒H̶̪̐E̴͉͂̊M̶̾͆\ufffd","steam_id":76561198091875604,"connected_time":137000000000,"state":"active","ping":72},{"user_id":223,"name":"Bombat","steam_id":76561198083096946,"connected_time":276000000000,"state":"active","ping":89},{"user_id":220,"name":"Danitom","steam_id":76561198000717813,"connected_time":1344000000000,"state":"active","ping":93},{"user_id":209,"name":"mkl","steam_id":76561197986401685,"connected_time":2270000000000,"state":"active","ping":64},{"user_id":210,"name":"The_Epic_Conclusion","steam_id":76561198084250179,"connected_time":2214000000000,"state":"active","ping":91},{"user_id":221,"name":"a Salty Individual","steam_id":76561197979951077,"connected_time":980000000000,"state":"active","ping":118},{"user_id":219,"name":"spherewithahat","steam_id":76561199122192660,"connected_time":1361000000000,"state":"active","ping":90}]},{"server_id":108,"name":"Uncletopia | Dallas | 2 | All Maps","name_short":"dal-2","host":"dal-1.us.uncletopia.com","port":27025,"enabled":true,"region":"us-central","cc":"us","latitude":32.779167,"longitude":-96.80889,"reserved":0,"last_update":"0001-01-01T00:00:00Z","name_a2s":"Uncletopia | Dallas | 2 | All Maps","protocol":17,"map":"pl_pier","folder":"tf","game":"Team Fortress","app_id":440,"player_count":0,"max_players":24,"Bots":0,"server_type":"Dedicated","server_os":"Linux","password":true,"vac":true,"version":"7757534","steam_id":85568392924469988,"keywords":["nocrits","nodmgspread","payload","uncletopia"],"game_id":440,"stv_port":27026,"stv_name":"Uncletopia | Dallas | 2 | All Maps | STV","players":null},{"server_id":5,"name":"Uncletopia | Frankfurt | 1 | All Maps","name_short":"frk-1","host":"frk-1.de.uncletopia.com","port":27015,"enabled":true,"region":"eu","cc":"de","latitude":50.110924,"longitude":8.682127,"reserved":0,"last_update":"0001-01-01T00:00:00Z","name_a2s":"Uncletopia | Frankfurt | 1 | All Maps","protocol":17,"map":"cp_snakewater_final1","folder":"tf","game":"Team Fortress","app_id":440,"player_count":24,"max_players":24,"Bots":0,"server_type":"Dedicated","server_os":"Linux","password":true,"vac":true,"version":"7757534","steam_id":85568392924469989,"keywords":["cp","nocrits","nodmgspread","uncletopia"],"game_id":440,"stv_port":27016,"stv_name":"Uncletopia | Frankfurt | 1 | All Maps | STV","players":[{"user_id":465,"name":"SlowMode","steam_id":76561198039631442,"connected_time":1545000000000,"state":"active","ping":86},{"user_id":493,"name":"zvekan","steam_id":76561198381101196,"connected_time":177000000000,"state":"active","ping":64},{"user_id":464,"name":"tallen","steam_id":76561198061708595,"connected_time":1554000000000,"state":"active","ping":80},{"user_id":482,"name":"yum็","steam_id":76561198350053321,"connected_time":945000000000,"state":"active","ping":48},{"user_id":480,"name":"Grumble","steam_id":76561198053880090,"connected_time":951000000000,"state":"active","ping":69},{"user_id":487,"name":"the","steam_id":76561198293567489,"connected_time":810000000000,"state":"active","ping":70},{"user_id":467,"name":"LivEssense","steam_id":76561198052476979,"connected_time":1416000000000,"state":"active","ping":78},{"user_id":468,"name":"Ecy","steam_id":76561198110756682,"connected_time":1406000000000,"state":"active","ping":56},{"user_id":481,"name":"Osaka gaming","steam_id":76561199052513609,"connected_time":947000000000,"state":"active","ping":128},{"user_id":379,"name":"ROB","steam_id":76561198982164150,"connected_time":7488000000000,"state":"active","ping":78},{"user_id":417,"name":"OreHaX","steam_id":76561198272166623,"connected_time":5479000000000,"state":"active","ping":75},{"user_id":472,"name":"Mr_Joergen","steam_id":76561198364713702,"connected_time":1295000000000,"state":"active","ping":65},{"user_id":473,"name":"Franticlamp","steam_id":76561198339698995,"connected_time":1185000000000,"state":"active","ping":75},{"user_id":490,"name":"Kleiner Engel","steam_id":76561198009922500,"connected_time":454000000000,"state":"active","ping":67},{"user_id":494,"name":"Azure","steam_id":76561198891263667,"connected_time":139000000000,"state":"active","ping":216},{"user_id":453,"name":"Penis Contortionist","steam_id":76561198073663784,"connected_time":3155000000000,"state":"active","ping":49},{"user_id":492,"name":"YuraGreek","steam_id":76561198050182252,"connected_time":233000000000,"state":"active","ping":75},{"user_id":477,"name":"Dwapking","steam_id":76561198039583834,"connected_time":1087000000000,"state":"active","ping":51},{"user_id":495,"name":"Saint","steam_id":76561198003296382,"connected_time":110000000000,"state":"active","ping":68},{"user_id":483,"name":"Delcup","steam_id":76561199006338376,"connected_time":931000000000,"state":"active","ping":107},{"user_id":488,"name":"tb","steam_id":76561198326153524,"connected_time":725000000000,"state":"active","ping":73},{"user_id":484,"name":"bleh :P","steam_id":76561198986936084,"connected_time":923000000000,"state":"active","ping":85},{"user_id":485,"name":"unnam3d","steam_id":76561198286257338,"connected_time":848000000000,"state":"active","ping":58},{"user_id":491,"name":"Shovelhalfrusty","steam_id":76561198346447513,"connected_time":289000000000,"state":"active","ping":86}]},{"server_id":110,"name":"Uncletopia | Frankfurt | 2 | All Maps","name_short":"frk-2","host":"frk-1.de.uncletopia.com","port":27025,"enabled":true,"region":"eu","cc":"de","latitude":50.110924,"longitude":8.682127,"reserved":0,"last_update":"0001-01-01T00:00:00Z","name_a2s":"Uncletopia | Frankfurt | 2 | All Maps","protocol":17,"map":"cp_dustbowl","folder":"tf","game":"Team Fortress","app_id":440,"player_count":0,"max_players":24,"Bots":0,"server_type":"Dedicated","server_os":"Linux","password":true,"vac":true,"version":"7757534","steam_id":85568392924469990,"keywords":["cp","nocrits","nodmgspread","uncletopia"],"game_id":440,"stv_port":27026,"stv_name":"Uncletopia | Frankfurt | 2 | All Maps | STV","players":null},{"server_id":308,"name":"Uncletopia | Frankfurt | 3 | All Maps","name_short":"frk-3","host":"frk-1.de.uncletopia.com","port":27035,"enabled":true,"region":"eu","cc":"de","latitude":50.110924,"longitude":8.682127,"reserved":0,"last_update":"0001-01-01T00:00:00Z","name_a2s":"Uncletopia | Frankfurt | 3 | All Maps","protocol":17,"map":"pl_barnblitz","folder":"tf","game":"Team Fortress","app_id":440,"player_count":24,"max_players":24,"Bots":0,"server_type":"Dedicated","server_os":"Linux","password":true,"vac":true,"version":"7757534","steam_id":85568392924504274,"keywords":["nocrits","nodmgspread","payload","uncletopia"],"game_id":440,"stv_port":27036,"stv_name":"Uncletopia | Frankfurt | 3 | All Maps | STV","players":[{"user_id":361,"name":"Average Gunspy enjoyer","steam_id":76561198295868113,"connected_time":381000000000,"state":"active","ping":66},{"user_id":358,"name":"Neon","steam_id":76561198089944674,"connected_time":456000000000,"state":"active","ping":73},{"user_id":337,"name":"Purplespade","steam_id":76561198195940498,"connected_time":1463000000000,"state":"active","ping":74},{"user_id":322,"name":"Kapitan Polska","steam_id":76561197968069413,"connected_time":2258000000000,"state":"active","ping":75},{"user_id":364,"name":"Signor_UpB #SaveTF2","steam_id":76561199145637231,"connected_time":122000000000,"state":"active","ping":80},{"user_id":329,"name":"My penis is a scooter","steam_id":76561198173218318,"connected_time":1805000000000,"state":"active","ping":58},{"user_id":359,"name":"Civil Melon","steam_id":76561198988309618,"connected_time":450000000000,"state":"active","ping":90},{"user_id":301,"name":"TheEmeraldStar","steam_id":76561198072942529,"connected_time":3214000000000,"state":"active","ping":74},{"user_id":293,"name":"Average meme enjoyer","steam_id":76561199087566663,"connected_time":3518000000000,"state":"active","ping":78},{"user_id":355,"name":"Efemek","steam_id":76561199076133712,"connected_time":635000000000,"state":"active","ping":92},{"user_id":316,"name":"Andy","steam_id":76561198136364381,"connected_time":2703000000000,"state":"active","ping":65},{"user_id":362,"name":"consigliere","steam_id":76561198219945364,"connected_time":279000000000,"state":"active","ping":83},{"user_id":344,"name":"Fish","steam_id":76561198182278770,"connected_time":968000000000,"state":"active","ping":70},{"user_id":345,"name":"vontex","steam_id":76561198211564973,"connected_time":966000000000,"state":"active","ping":86},{"user_id":350,"name":"BlinkedUp","steam_id":76561198249985618,"connected_time":857000000000,"state":"active","ping":62},{"user_id":346,"name":"Special Agent Big Smoke","steam_id":76561198154468827,"connected_time":946000000000,"state":"active","ping":75},{"user_id":360,"name":"ricky pee pee","steam_id":76561198152620745,"connected_time":424000000000,"state":"active","ping":70},{"user_id":291,"name":"sz(k)","steam_id":76561198118500940,"connected_time":3549000000000,"state":"active","ping":64},{"user_id":335,"name":"Stoic","steam_id":76561199088506542,"connected_time":1569000000000,"state":"active","ping":62},{"user_id":354,"name":"Bird On Your Window","steam_id":76561198081933130,"connected_time":673000000000,"state":"active","ping":71},{"user_id":326,"name":"Hetmanych","steam_id":76561198870926865,"connected_time":2214000000000,"state":"active","ping":58},{"user_id":338,"name":"Vorge","steam_id":76561198411852459,"connected_time":1393000000000,"state":"active","ping":132},{"user_id":363,"name":"T der Ba","steam_id":76561198091189185,"connected_time":173000000000,"state":"active","ping":47},{"user_id":356,"name":"Cosmetic brain","steam_id":76561198055936410,"connected_time":625000000000,"state":"active","ping":97}]},{"server_id":309,"name":"Uncletopia | Frankfurt | 4 | All Maps","name_short":"frk-4","host":"frk-1.de.uncletopia.com","port":27045,"enabled":true,"region":"eu","cc":"de","latitude":50.110924,"longitude":8.682127,"reserved":0,"last_update":"0001-01-01T00:00:00Z","name_a2s":"Uncletopia | Frankfurt | 4 | All Maps","protocol":17,"map":"koth_viaduct","folder":"tf","game":"Team Fortress","app_id":440,"player_count":0,"max_players":24,"Bots":0,"server_type":"Dedicated","server_os":"Linux","password":true,"vac":true,"version":"7757534","steam_id":85568392924504275,"keywords":["cp","nocrits","nodmgspread","uncletopia"],"game_id":440,"stv_port":27046,"stv_name":"Uncletopia | Frankfurt | 4 | All Maps | STV","players":null},{"server_id":310,"name":"Uncletopia | Frankfurt | 5 | All Maps","name_short":"frk-5","host":"frk-1.de.uncletopia.com","port":27055,"enabled":true,"region":"eu","cc":"de","latitude":50.110924,"longitude":8.682127,"reserved":0,"last_update":"0001-01-01T00:00:00Z","name_a2s":"Uncletopia | Frankfurt | 5 | All Maps","protocol":17,"map":"cp_sunshine","folder":"tf","game":"Team Fortress","app_id":440,"player_count":23,"max_players":24,"Bots":0,"server_type":"Dedicated","server_os":"Linux","password":true,"vac":true,"version":"7757534","steam_id":85568392924504277,"keywords":["cp","nocrits","nodmgspread","uncletopia"],"game_id":440,"stv_port":27056,"stv_name":"Uncletopia | Frankfurt | 5 | All Maps | STV","players":[{"user_id":306,"name":"X-tis","steam_id":76561198043837480,"connected_time":8693000000000,"state":"active","ping":64},{"user_id":402,"name":"vdl","steam_id":76561198044583116,"connected_time":1379000000000,"state":"active","ping":92},{"user_id":387,"name":"Egor Pomidor","steam_id":76561199175688390,"connected_time":2256000000000,"state":"active","ping":79},{"user_id":372,"name":"sm0ke","steam_id":76561198198977226,"connected_time":3125000000000,"state":"active","ping":66},{"user_id":385,"name":"bigwish | bmod.tf","steam_id":76561197997859723,"connected_time":2458000000000,"state":"active","ping":85},{"user_id":411,"name":"| ThePro | People are afraid","steam_id":76561198089330547,"connected_time":714000000000,"state":"active","ping":49},{"user_id":422,"name":"Mlanky","steam_id":76561198047796778,"connected_time":19000000000,"state":"active","ping":54},{"user_id":374,"name":"♥ aura ♥","steam_id":76561198066258544,"connected_time":3091000000000,"state":"active","ping":53},{"user_id":378,"name":"sneaky pete","steam_id":76561198066287297,"connected_time":2756000000000,"state":"active","ping":47},{"user_id":379,"name":"il","steam_id":76561198122662610,"connected_time":2754000000000,"state":"active","ping":77},{"user_id":340,"name":"static","steam_id":76561198836825741,"connected_time":5942000000000,"state":"active","ping":60},{"user_id":404,"name":"wormson","steam_id":76561198836754631,"connected_time":1291000000000,"state":"active","ping":51},{"user_id":419,"name":"iconic","steam_id":76561198258487465,"connected_time":197000000000,"state":"active","ping":117},{"user_id":408,"name":"spy in the base","steam_id":76561198284570752,"connected_time":1010000000000,"state":"active","ping":61},{"user_id":395,"name":"chey","steam_id":76561198035380064,"connected_time":1621000000000,"state":"active","ping":45},{"user_id":359,"name":"Woman (Real)","steam_id":76561199151823932,"connected_time":4909000000000,"state":"active","ping":73},{"user_id":418,"name":"zhanko1804851","steam_id":76561198118407436,"connected_time":304000000000,"state":"active","ping":54},{"user_id":268,"name":"Fat Pigeon","steam_id":76561198817940142,"connected_time":11332000000000,"state":"active","ping":47},{"user_id":407,"name":"balkanpresident","steam_id":76561199137677645,"connected_time":1035000000000,"state":"active","ping":102},{"user_id":339,"name":"Purps","steam_id":76561198053886680,"connected_time":5974000000000,"state":"active","ping":62},{"user_id":390,"name":"pain train tf2","steam_id":76561198111568728,"connected_time":1945000000000,"state":"active","ping":46},{"user_id":398,"name":"medicinal man","steam_id":76561198202668788,"connected_time":1544000000000,"state":"spawning","ping":64},{"user_id":391,"name":"Dragon","steam_id":76561198163255365,"connected_time":1923000000000,"state":"spawning","ping":105}]},{"server_id":311,"name":"Uncletopia | Frankfurt | 6 | All Maps","name_short":"frk-6","host":"frk-1.de.uncletopia.com","port":27065,"enabled":true,"region":"eu","cc":"de","latitude":50.110924,"longitude":8.682127,"reserved":0,"last_update":"0001-01-01T00:00:00Z","name_a2s":"Uncletopia | Frankfurt | 6 | All Maps","protocol":17,"map":"pl_hoodoo_final","folder":"tf","game":"Team Fortress","app_id":440,"player_count":24,"max_players":24,"Bots":0,"server_type":"Dedicated","server_os":"Linux","password":true,"vac":true,"version":"7757534","steam_id":85568392924504278,"keywords":["nocrits","nodmgspread","payload","uncletopia"],"game_id":440,"stv_port":27066,"stv_name":"Uncletopia | Frankfurt | 6 | All Maps | STV","players":[{"user_id":447,"name":"Doctor Mobius","steam_id":76561197971281806,"connected_time":1651000000000,"state":"active","ping":60},{"user_id":445,"name":"TryX","steam_id":76561199356781475,"connected_time":1726000000000,"state":"active","ping":71},{"user_id":474,"name":"copium addict","steam_id":76561199401665282,"connected_time":310000000000,"state":"active","ping":100},{"user_id":471,"name":"The Krusty Krab Massacre (2012)","steam_id":76561198153092724,"connected_time":685000000000,"state":"active","ping":145},{"user_id":392,"name":"Killer8880","steam_id":76561199094449560,"connected_time":5059000000000,"state":"active","ping":101},{"user_id":460,"name":"printer is broken","steam_id":76561198234270592,"connected_time":1328000000000,"state":"active","ping":57},{"user_id":429,"name":"Team Fortress","steam_id":76561198058722801,"connected_time":3313000000000,"state":"active","ping":50},{"user_id":458,"name":"I Bleed Butter","steam_id":76561198130814770,"connected_time":1393000000000,"state":"active","ping":85},{"user_id":410,"name":"Tonne","steam_id":76561197970856766,"connected_time":4430000000000,"state":"active","ping":62},{"user_id":426,"name":"blurst of times","steam_id":76561197972325640,"connected_time":3500000000000,"state":"active","ping":50},{"user_id":402,"name":"LOBZIK","steam_id":76561198114830120,"connected_time":4678000000000,"state":"active","ping":77},{"user_id":475,"name":"JOK'R","steam_id":76561198140741944,"connected_time":274000000000,"state":"active","ping":145},{"user_id":451,"name":"Arhippa","steam_id":76561198070448455,"connected_time":1595000000000,"state":"active","ping":73},{"user_id":466,"name":"Jeerven","steam_id":76561198259189841,"connected_time":854000000000,"state":"active","ping":61},{"user_id":452,"name":"tralalaOuiOui","steam_id":76561197963471507,"connected_time":1559000000000,"state":"active","ping":59},{"user_id":469,"name":":)","steam_id":76561198039964082,"connected_time":792000000000,"state":"active","ping":59},{"user_id":456,"name":"I am piss man","steam_id":76561198039209685,"connected_time":1427000000000,"state":"active","ping":58},{"user_id":476,"name":"Schizo' Cucumber","steam_id":76561198066341713,"connected_time":109000000000,"state":"active","ping":60},{"user_id":464,"name":"Exe_Red","steam_id":76561198154952759,"connected_time":1057000000000,"state":"active","ping":77},{"user_id":427,"name":"strohkopf9","steam_id":76561198059349860,"connected_time":3494000000000,"state":"active","ping":72},{"user_id":455,"name":"Jackriz","steam_id":76561198024882111,"connected_time":1438000000000,"state":"active","ping":77},{"user_id":360,"name":"Dabman","steam_id":76561199207417437,"connected_time":6511000000000,"state":"active","ping":125},{"user_id":457,"name":"Coolboi02496","steam_id":76561199382243093,"connected_time":1423000000000,"state":"active","ping":60},{"user_id":413,"name":"Littleyoshifan","steam_id":76561198445491045,"connected_time":4213000000000,"state":"active","ping":59}]},{"server_id":23,"name":"Uncletopia | Frankfurt | 7 | Stopwatch Beta","name_short":"frk-7","host":"frk-1.de.uncletopia.com","port":27075,"enabled":true,"region":"eu","cc":"de","latitude":50.110924,"longitude":8.682127,"reserved":0,"last_update":"0001-01-01T00:00:00Z","name_a2s":"Uncletopia | Frankfurt | 7 | Stopwatch Beta","protocol":17,"map":"workshop/koth_product_final.ugc454272353","folder":"tf","game":"Team Fortress","app_id":440,"player_count":24,"max_players":24,"Bots":0,"server_type":"Dedicated","server_os":"Linux","password":true,"vac":true,"version":"7757534","steam_id":85568392924742827,"keywords":["cp","nocrits","nodmgspread","uncletopia"],"game_id":440,"stv_port":27076,"stv_name":"Uncletopia | Frankfurt | 7 | Stopwatch Beta | STV","players":[{"user_id":173,"name":"TheKees301","steam_id":76561198827506371,"connected_time":1840000000000,"state":"active","ping":55},{"user_id":177,"name":"he smonk(need e-wife)","steam_id":76561197996468677,"connected_time":1697000000000,"state":"active","ping":60},{"user_id":188,"name":"Pyrolander","steam_id":76561198050785450,"connected_time":782000000000,"state":"active","ping":48},{"user_id":185,"name":"Gio'sMonkey","steam_id":76561198892432223,"connected_time":1206000000000,"state":"active","ping":69},{"user_id":197,"name":"Mr.O #deletesniper","steam_id":76561198039567498,"connected_time":480000000000,"state":"active","ping":58},{"user_id":202,"name":"Kid named download","steam_id":76561199192074448,"connected_time":184000000000,"state":"active","ping":180},{"user_id":198,"name":"˹Fate's·Marionette˼","steam_id":76561198034197381,"connected_time":399000000000,"state":"active","ping":65},{"user_id":199,"name":"Nelu","steam_id":76561198073415991,"connected_time":296000000000,"state":"active","ping":57},{"user_id":174,"name":"Taijny","steam_id":76561198200178861,"connected_time":1816000000000,"state":"active","ping":91},{"user_id":210,"name":"master baiter","steam_id":76561198235739036,"connected_time":28000000000,"state":"active","ping":78},{"user_id":200,"name":"Modest Tim the sheep fucker","steam_id":76561198410344525,"connected_time":217000000000,"state":"active","ping":106},{"user_id":201,"name":"Queso2469","steam_id":76561197993024580,"connected_time":195000000000,"state":"active","ping":130},{"user_id":203,"name":"Birb mister","steam_id":76561199207235620,"connected_time":170000000000,"state":"active","ping":80},{"user_id":191,"name":"fat_fuck256","steam_id":76561198129314304,"connected_time":728000000000,"state":"active","ping":166},{"user_id":204,"name":"mcjabba","steam_id":76561198019267806,"connected_time":126000000000,"state":"active","ping":61},{"user_id":205,"name":"Luuk","steam_id":76561198088266026,"connected_time":77000000000,"state":"active","ping":45},{"user_id":206,"name":"Banshee Levis","steam_id":76561198297295697,"connected_time":66000000000,"state":"active","ping":71},{"user_id":207,"name":"jovi_","steam_id":76561198449280552,"connected_time":49000000000,"state":"active","ping":65},{"user_id":208,"name":"AJ Skye","steam_id":76561198061289475,"connected_time":48000000000,"state":"active","ping":69},{"user_id":186,"name":"Old Hat","steam_id":76561197994673297,"connected_time":1159000000000,"state":"active","ping":61},{"user_id":171,"name":"Milosz52","steam_id":76561199060940204,"connected_time":1964000000000,"state":"active","ping":73},{"user_id":193,"name":"ijustsmokeandcry","steam_id":76561198044189114,"connected_time":706000000000,"state":"active","ping":61},{"user_id":209,"name":"Нікітрон","steam_id":76561198044401080,"connected_time":46000000000,"state":"spawning","ping":315},{"user_id":187,"name":"Lyzz","steam_id":76561198103622650,"connected_time":1072000000000,"state":"active","ping":66}]},{"server_id":24,"name":"Uncletopia | Frankfurt | 8 | Community","name_short":"frk-8","host":"frk-1.de.uncletopia.com","port":27085,"enabled":true,"region":"eu","cc":"de","latitude":50.110924,"longitude":8.682127,"reserved":0,"last_update":"0001-01-01T00:00:00Z","name_a2s":"Uncletopia | Frankfurt | 8 | Community","protocol":17,"map":"workshop/cp_hazyfort_rc6.ugc1365963729","folder":"tf","game":"Team Fortress","app_id":440,"player_count":0,"max_players":24,"Bots":0,"server_type":"Dedicated","server_os":"Linux","password":true,"vac":true,"version":"7757534","steam_id":85568392924742828,"keywords":["cp","nocrits","nodmgspread","uncletopia"],"game_id":440,"stv_port":27086,"stv_name":"Uncletopia | Frankfurt | 8 | Community | STV","players":null},{"server_id":202,"name":"Uncletopia | Hong Kong | 1 | All Maps","name_short":"hgk-1","host":"hgk-1.hk.uncletopia.com","port":27015,"enabled":true,"region":"asia","cc":"hk","latitude":22.302711,"longitude":114.177216,"reserved":0,"last_update":"0001-01-01T00:00:00Z","name_a2s":"Uncletopia | Hong Kong | 1 | All Maps","protocol":17,"map":"koth_lakeside_final","folder":"tf","game":"Team Fortress","app_id":440,"player_count":0,"max_players":24,"Bots":0,"server_type":"Dedicated","server_os":"Linux","password":true,"vac":true,"version":"7757534","steam_id":85568392924494504,"keywords":["cp","nocrits","nodmgspread","uncletopia"],"game_id":440,"stv_port":27016,"stv_name":"Uncletopia | Hong Kong | 1 | All Maps | STV","players":null},{"server_id":1,"name":"Uncletopia | Los Angeles | 1 | All Maps","name_short":"lax-1","host":"lax-1.us.uncletopia.com","port":27015,"enabled":true,"region":"us-west","cc":"us","latitude":33.94279,"longitude":-118.41004,"reserved":0,"last_update":"0001-01-01T00:00:00Z","name_a2s":"Uncletopia | Los Angeles | 1 | All Maps","protocol":17,"map":"koth_lakeside_final","folder":"tf","game":"Team Fortress","app_id":440,"player_count":0,"max_players":24,"Bots":0,"server_type":"Dedicated","server_os":"Linux","password":true,"vac":true,"version":"7757534","steam_id":85568392924469991,"keywords":["cp","nocrits","nodmgspread","uncletopia"],"game_id":440,"stv_port":27016,"stv_name":"Uncletopia | Los Angeles | 1 | All Maps | STV","players":null},{"server_id":112,"name":"Uncletopia | Los Angeles | 2 | All Maps","name_short":"lax-2","host":"lax-1.us.uncletopia.com","port":27025,"enabled":true,"region":"us-west","cc":"us","latitude":33.94279,"longitude":-118.41004,"reserved":0,"last_update":"0001-01-01T00:00:00Z","name_a2s":"Uncletopia | Los Angeles | 2 | All Maps","protocol":17,"map":"pl_badwater","folder":"tf","game":"Team Fortress","app_id":440,"player_count":0,"max_players":24,"Bots":0,"server_type":"Dedicated","server_os":"Linux","password":true,"vac":true,"version":"7757534","steam_id":85568392924469992,"keywords":["nocrits","nodmgspread","payload","uncletopia"],"game_id":440,"stv_port":27026,"stv_name":"Uncletopia | Los Angeles | 2 | All Maps | STV","players":null},{"server_id":324,"name":"Uncletopia | Los Angeles | 3 | All Maps","name_short":"lax-3","host":"lax-1.us.uncletopia.com","port":27035,"enabled":true,"region":"us-west","cc":"us","latitude":33.94279,"longitude":-118.41004,"reserved":0,"last_update":"0001-01-01T00:00:00Z","name_a2s":"Uncletopia | Los Angeles | 3 | All Maps","protocol":17,"map":"pl_barnblitz","folder":"tf","game":"Team Fortress","app_id":440,"player_count":0,"max_players":24,"Bots":0,"server_type":"Dedicated","server_os":"Linux","password":true,"vac":true,"version":"7757534","steam_id":85568392924510198,"keywords":["nocrits","nodmgspread","payload","uncletopia"],"game_id":440,"stv_port":27036,"stv_name":"Uncletopia | Los Angeles | 3 | All Maps | STV","players":null},{"server_id":25,"name":"Uncletopia | Los Angeles | 4 | Stopwatch Beta","name_short":"lax-4","host":"lax-1.us.uncletopia.com","port":27045,"enabled":true,"region":"us-west","cc":"us","latitude":33.94279,"longitude":-118.41004,"reserved":0,"last_update":"0001-01-01T00:00:00Z","name_a2s":"Uncletopia | Los Angeles | 4 | Stopwatch Beta","protocol":17,"map":"pl_swiftwater_final1","folder":"tf","game":"Team Fortress","app_id":440,"player_count":0,"max_players":24,"Bots":0,"server_type":"Dedicated","server_os":"Linux","password":true,"vac":true,"version":"7757534","steam_id":85568392924510199,"keywords":["nocrits","nodmgspread","payload","uncletopia"],"game_id":440,"stv_port":27046,"stv_name":"Uncletopia | Los Angeles | 4 | Stopwatch Beta | STV","players":null},{"server_id":11,"name":"Uncletopia | London | 1 | All Maps","name_short":"lon-1","host":"lon-1.uk.uncletopia.com","port":27015,"enabled":true,"region":"eu","cc":"gb","latitude":51.509865,"longitude":-0.118092,"reserved":0,"last_update":"0001-01-01T00:00:00Z","name_a2s":"Uncletopia | London | 1 | All Maps","protocol":17,"map":"ctf_turbine","folder":"tf","game":"Team Fortress","app_id":440,"player_count":24,"max_players":24,"Bots":0,"server_type":"Dedicated","server_os":"Linux","password":true,"vac":true,"version":"7757534","steam_id":85568392924367362,"keywords":["ctf","nocrits","nodmgspread","uncletopia"],"game_id":440,"stv_port":27016,"stv_name":"Uncletopia | London | 1 | All Maps | STV","players":[{"user_id":480,"name":"Punchy","steam_id":76561197961020896,"connected_time":766000000000,"state":"active","ping":62},{"user_id":470,"name":"NLSAM","steam_id":76561199111154916,"connected_time":1032000000000,"state":"active","ping":55},{"user_id":490,"name":"CarBombEnthusiast","steam_id":76561199448185434,"connected_time":551000000000,"state":"active","ping":65},{"user_id":493,"name":"OutOfRage","steam_id":76561198211205791,"connected_time":422000000000,"state":"active","ping":44},{"user_id":478,"name":"gromit","steam_id":76561197970225733,"connected_time":769000000000,"state":"active","ping":84},{"user_id":479,"name":"Son Goku","steam_id":76561199383437138,"connected_time":767000000000,"state":"active","ping":128},{"user_id":369,"name":"dec","steam_id":76561198009660168,"connected_time":8665000000000,"state":"active","ping":59},{"user_id":489,"name":"whats an egg","steam_id":76561198991039398,"connected_time":635000000000,"state":"active","ping":133},{"user_id":491,"name":"Sámuel Jóember","steam_id":76561199013031650,"connected_time":540000000000,"state":"active","ping":64},{"user_id":483,"name":"PESTILENCE","steam_id":76561198444036574,"connected_time":695000000000,"state":"active","ping":60},{"user_id":488,"name":"DOMAIN","steam_id":76561199095640319,"connected_time":678000000000,"state":"active","ping":84},{"user_id":485,"name":"DEATH","steam_id":76561199176835169,"connected_time":691000000000,"state":"active","ping":51},{"user_id":501,"name":"Hive","steam_id":76561199480966681,"connected_time":143000000000,"state":"active","ping":73},{"user_id":487,"name":"CONQUEST","steam_id":76561198799855913,"connected_time":685000000000,"state":"active","ping":157},{"user_id":468,"name":"butts","steam_id":76561198060105180,"connected_time":1578000000000,"state":"active","ping":80},{"user_id":492,"name":"Nobaddy","steam_id":76561198037871007,"connected_time":535000000000,"state":"active","ping":84},{"user_id":502,"name":"Your worst nightmare.","steam_id":76561198387208655,"connected_time":7000000000,"state":"spawning","ping":62},{"user_id":495,"name":"Tomika 😗","steam_id":76561198889648418,"connected_time":396000000000,"state":"active","ping":93},{"user_id":440,"name":"acskama","steam_id":76561198136743845,"connected_time":4033000000000,"state":"active","ping":75},{"user_id":497,"name":"mixxxa_french","steam_id":76561198085098243,"connected_time":349000000000,"state":"active","ping":129},{"user_id":498,"name":"Sfekke","steam_id":76561198327097840,"connected_time":333000000000,"state":"active","ping":59},{"user_id":500,"name":"AngryScotishMan9","steam_id":76561198443813310,"connected_time":150000000000,"state":"active","ping":55},{"user_id":499,"name":"Rask","steam_id":76561198052934944,"connected_time":290000000000,"state":"active","ping":89},{"user_id":456,"name":"Martyawesome23","steam_id":76561198236015392,"connected_time":2690000000000,"state":"active","ping":119}]},{"server_id":114,"name":"Uncletopia | London | 2 | All Maps","name_short":"lon-2","host":"lon-1.uk.uncletopia.com","port":27025,"enabled":true,"region":"eu","cc":"gb","latitude":51.509865,"longitude":-0.118092,"reserved":0,"last_update":"0001-01-01T00:00:00Z","name_a2s":"Uncletopia | London | 2 | All Maps","protocol":17,"map":"pl_borneo","folder":"tf","game":"Team Fortress","app_id":440,"player_count":24,"max_players":24,"Bots":0,"server_type":"Dedicated","server_os":"Linux","password":true,"vac":true,"version":"7757534","steam_id":85568392924470941,"keywords":["nocrits","nodmgspread","payload","uncletopia"],"game_id":440,"stv_port":27026,"stv_name":"Uncletopia | London | 2 | All Maps | STV","players":[{"user_id":354,"name":"Dwevy","steam_id":76561198090379437,"connected_time":148000000000,"state":"active","ping":54},{"user_id":331,"name":"max","steam_id":76561198059206184,"connected_time":1295000000000,"state":"active","ping":60},{"user_id":342,"name":"Minos Prime Enthusiast","steam_id":76561198118929194,"connected_time":582000000000,"state":"active","ping":137},{"user_id":209,"name":"ThatGamingKiwi","steam_id":76561199170522237,"connected_time":7581000000000,"state":"active","ping":145},{"user_id":319,"name":"oldy","steam_id":76561198031899043,"connected_time":1844000000000,"state":"active","ping":75},{"user_id":343,"name":"elio","steam_id":76561198142662131,"connected_time":569000000000,"state":"active","ping":66},{"user_id":316,"name":"Providence","steam_id":76561198003920270,"connected_time":1955000000000,"state":"active","ping":71},{"user_id":344,"name":"Bob D","steam_id":76561198026375630,"connected_time":509000000000,"state":"active","ping":52},{"user_id":321,"name":"laser","steam_id":76561198036030697,"connected_time":1693000000000,"state":"active","ping":68},{"user_id":352,"name":"Vytuzas","steam_id":76561198012868436,"connected_time":232000000000,"state":"active","ping":65},{"user_id":334,"name":"all mute","steam_id":76561198105739516,"connected_time":1245000000000,"state":"active","ping":54},{"user_id":320,"name":"[sigma] rwota","steam_id":76561198385769722,"connected_time":1781000000000,"state":"active","ping":111},{"user_id":311,"name":"Gnarville","steam_id":76561198006373329,"connected_time":2087000000000,"state":"active","ping":50},{"user_id":313,"name":"Miton","steam_id":76561197970323209,"connected_time":2040000000000,"state":"active","ping":90},{"user_id":348,"name":"Weenie Hut Jr's","steam_id":76561198050515739,"connected_time":434000000000,"state":"active","ping":46},{"user_id":338,"name":"Smoke","steam_id":76561198140627349,"connected_time":749000000000,"state":"active","ping":143},{"user_id":355,"name":"wibe","steam_id":76561198002519060,"connected_time":147000000000,"state":"active","ping":89},{"user_id":353,"name":"JustAHat","steam_id":76561198844842235,"connected_time":231000000000,"state":"active","ping":73},{"user_id":328,"name":"eNine the FOREVER","steam_id":76561198890193313,"connected_time":1467000000000,"state":"active","ping":54},{"user_id":350,"name":"Enforcer02","steam_id":76561197966045944,"connected_time":350000000000,"state":"active","ping":67},{"user_id":330,"name":"Shearman360","steam_id":76561198193909685,"connected_time":1341000000000,"state":"active","ping":65},{"user_id":294,"name":"engineer drip","steam_id":76561198991032570,"connected_time":3306000000000,"state":"active","ping":95},{"user_id":340,"name":"《¤Rowdy¤》","steam_id":76561198151184020,"connected_time":659000000000,"state":"active","ping":160},{"user_id":337,"name":"skindiver376","steam_id":76561198056533071,"connected_time":856000000000,"state":"active","ping":64}]},{"server_id":320,"name":"Uncletopia | London | 3 | All Maps","name_short":"lon-3","host":"lon-1.uk.uncletopia.com","port":27035,"enabled":true,"region":"eu","cc":"gb","latitude":51.509865,"longitude":-0.118092,"reserved":0,"last_update":"0001-01-01T00:00:00Z","name_a2s":"Uncletopia | London | 3 | All Maps","protocol":17,"map":"pl_upward","folder":"tf","game":"Team Fortress","app_id":440,"player_count":24,"max_players":24,"Bots":0,"server_type":"Dedicated","server_os":"Linux","password":true,"vac":true,"version":"7757534","steam_id":85568392924510192,"keywords":["nocrits","nodmgspread","payload","uncletopia"],"game_id":440,"stv_port":27036,"stv_name":"Uncletopia | London | 3 | All Maps | STV","players":[{"user_id":322,"name":"LSKi","steam_id":76561198215470228,"connected_time":8349000000000,"state":"active","ping":56},{"user_id":344,"name":"Existingbeing","steam_id":76561198850001019,"connected_time":6130000000000,"state":"active","ping":56},{"user_id":377,"name":"Dzieciol","steam_id":76561198160237556,"connected_time":4085000000000,"state":"active","ping":75},{"user_id":404,"name":"Anri Okita's Massive Milkers","steam_id":76561199186352720,"connected_time":699000000000,"state":"active","ping":59},{"user_id":408,"name":"kfc greavy","steam_id":76561199415466192,"connected_time":639000000000,"state":"active","ping":58},{"user_id":395,"name":"OutOfDucks","steam_id":76561198166376227,"connected_time":2340000000000,"state":"active","ping":63},{"user_id":323,"name":"Houlles","steam_id":76561198095277383,"connected_time":8347000000000,"state":"active","ping":58},{"user_id":385,"name":"Wardruna96","steam_id":76561199057083828,"connected_time":3291000000000,"state":"active","ping":75},{"user_id":402,"name":"cinny","steam_id":76561198832112629,"connected_time":969000000000,"state":"active","ping":89},{"user_id":383,"name":"Roboboy_uk","steam_id":76561197973225899,"connected_time":3473000000000,"state":"active","ping":55},{"user_id":420,"name":"Jon","steam_id":76561199380849468,"connected_time":49000000000,"state":"active","ping":60},{"user_id":409,"name":"A Shiny Meat Bicycle","steam_id":76561198358757709,"connected_time":636000000000,"state":"active","ping":162},{"user_id":390,"name":"After8","steam_id":76561198090750865,"connected_time":2508000000000,"state":"active","ping":71},{"user_id":225,"name":"す LightFlight し","steam_id":76561198079007530,"connected_time":14983000000000,"state":"active","ping":49},{"user_id":410,"name":"lonich","steam_id":76561198057122324,"connected_time":631000000000,"state":"active","ping":105},{"user_id":411,"name":"DrExplosive monkesee monkekill","steam_id":76561198063678579,"connected_time":631000000000,"state":"active","ping":47},{"user_id":339,"name":"BONK-TEC!","steam_id":76561198272667029,"connected_time":6877000000000,"state":"active","ping":52},{"user_id":279,"name":"slightly drunk","steam_id":76561199184873889,"connected_time":12255000000000,"state":"active","ping":71},{"user_id":399,"name":"holykyckling","steam_id":76561198040661615,"connected_time":1228000000000,"state":"active","ping":74},{"user_id":342,"name":"UltraCoolKiddo","steam_id":76561198102025290,"connected_time":6447000000000,"state":"active","ping":61},{"user_id":392,"name":"moulis","steam_id":76561198082177314,"connected_time":2455000000000,"state":"active","ping":88},{"user_id":394,"name":"Dieser Typ","steam_id":76561198310753824,"connected_time":2427000000000,"state":"active","ping":70},{"user_id":412,"name":"syme","steam_id":76561197990512752,"connected_time":614000000000,"state":"active","ping":160},{"user_id":285,"name":"Dr. Mike","steam_id":76561197991205793,"connected_time":10550000000000,"state":"active","ping":78}]},{"server_id":321,"name":"Uncletopia | London | 4 | All Maps","name_short":"lon-4","host":"lon-1.uk.uncletopia.com","port":27045,"enabled":true,"region":"eu","cc":"gb","latitude":51.509865,"longitude":-0.118092,"reserved":0,"last_update":"0001-01-01T00:00:00Z","name_a2s":"Uncletopia | London | 4 | All Maps","protocol":17,"map":"koth_highpass","folder":"tf","game":"Team Fortress","app_id":440,"player_count":2,"max_players":24,"Bots":0,"server_type":"Dedicated","server_os":"Linux","password":true,"vac":true,"version":"7757534","steam_id":85568392924510193,"keywords":["cp","nocrits","nodmgspread","uncletopia"],"game_id":440,"stv_port":27046,"stv_name":"Uncletopia | London | 4 | All Maps | STV","players":[{"user_id":12,"name":"DaDemoBottleBoy","steam_id":76561199052375561,"connected_time":138000000000,"state":"active","ping":58},{"user_id":13,"name":"TheFox.tf","steam_id":76561197996851702,"connected_time":33000000000,"state":"active","ping":75}]},{"server_id":21,"name":"Uncletopia | London | 5 | All Maps","name_short":"lon-5","host":"lon-1.uk.uncletopia.com","port":27055,"enabled":true,"region":"eu","cc":"gb","latitude":51.509865,"longitude":-0.118092,"reserved":0,"last_update":"0001-01-01T00:00:00Z","name_a2s":"Uncletopia | London | 5 | All Maps","protocol":17,"map":"pl_thundermountain","folder":"tf","game":"Team Fortress","app_id":440,"player_count":24,"max_players":24,"Bots":0,"server_type":"Dedicated","server_os":"Linux","password":true,"vac":true,"version":"7757534","steam_id":85568392924742829,"keywords":["nocrits","nodmgspread","payload","uncletopia"],"game_id":440,"stv_port":27056,"stv_name":"Uncletopia | London | 5 | All Maps | STV","players":[{"user_id":228,"name":"Hyperek","steam_id":76561198130797464,"connected_time":65000000000,"state":"active","ping":76},{"user_id":220,"name":"azzy","steam_id":76561198061293740,"connected_time":601000000000,"state":"active","ping":78},{"user_id":194,"name":"waffle","steam_id":76561198067706953,"connected_time":2051000000000,"state":"active","ping":54},{"user_id":176,"name":"do you believe in magic?","steam_id":76561198193357946,"connected_time":3068000000000,"state":"active","ping":103},{"user_id":205,"name":"Juice_Fritzer","steam_id":76561199045783027,"connected_time":1402000000000,"state":"active","ping":55},{"user_id":138,"name":"MILKY","steam_id":76561199261620682,"connected_time":5231000000000,"state":"active","ping":72},{"user_id":207,"name":"Gbus","steam_id":76561198072335838,"connected_time":1397000000000,"state":"active","ping":50},{"user_id":212,"name":"Platform666","steam_id":76561198314266851,"connected_time":1033000000000,"state":"active","ping":104},{"user_id":210,"name":"Elix","steam_id":76561199072306920,"connected_time":1106000000000,"state":"active","ping":99},{"user_id":169,"name":"b4s__","steam_id":76561198956558290,"connected_time":3754000000000,"state":"active","ping":49},{"user_id":188,"name":"midlpsyzl47","steam_id":76561199475972637,"connected_time":2496000000000,"state":"active","ping":66},{"user_id":211,"name":"MFA [pt]","steam_id":76561198021950957,"connected_time":1096000000000,"state":"active","ping":66},{"user_id":172,"name":"Dr. Funkenstein","steam_id":76561197977816210,"connected_time":3402000000000,"state":"active","ping":48},{"user_id":186,"name":"THEJamiboi","steam_id":76561198034696965,"connected_time":2592000000000,"state":"active","ping":56},{"user_id":219,"name":"Davey","steam_id":76561198256879107,"connected_time":761000000000,"state":"active","ping":78},{"user_id":214,"name":"artonzhun","steam_id":76561198259104010,"connected_time":1007000000000,"state":"active","ping":86},{"user_id":215,"name":"Lord of the Cows","steam_id":76561198203140640,"connected_time":956000000000,"state":"active","ping":71},{"user_id":216,"name":"Noob_with_source","steam_id":76561198870362103,"connected_time":944000000000,"state":"active","ping":60},{"user_id":223,"name":"Kowakum","steam_id":76561197998125950,"connected_time":488000000000,"state":"active","ping":116},{"user_id":196,"name":"Cerabond","steam_id":76561199230915333,"connected_time":1968000000000,"state":"active","ping":141},{"user_id":195,"name":"Rex Z'Beq","steam_id":76561199300590000,"connected_time":1995000000000,"state":"active","ping":89},{"user_id":224,"name":"Ruvix","steam_id":76561198239689346,"connected_time":486000000000,"state":"active","ping":67},{"user_id":225,"name":"Dr.Cranium","steam_id":76561197992726926,"connected_time":458000000000,"state":"active","ping":117},{"user_id":227,"name":"i are steve","steam_id":76561198867457465,"connected_time":161000000000,"state":"active","ping":153}]},{"server_id":22,"name":"Uncletopia | London | 6 | All Maps","name_short":"lon-6","host":"lon-1.uk.uncletopia.com","port":27065,"enabled":true,"region":"eu","cc":"gb","latitude":51.509865,"longitude":-0.118092,"reserved":0,"last_update":"0001-01-01T00:00:00Z","name_a2s":"Uncletopia | London | 6 | All Maps","protocol":17,"map":"pl_badwater","folder":"tf","game":"Team Fortress","app_id":440,"player_count":0,"max_players":24,"Bots":0,"server_type":"Dedicated","server_os":"Linux","password":true,"vac":true,"version":"7757534","steam_id":85568392924742830,"keywords":["nocrits","nodmgspread","payload","uncletopia"],"game_id":440,"stv_port":27066,"stv_name":"Uncletopia | London | 6 | All Maps | STV","players":null},{"server_id":40,"name":"Uncletopia | London | 7 | No Payload","name_short":"lon-7","host":"lon-1.uk.uncletopia.com","port":27075,"enabled":true,"region":"eu","cc":"gb","latitude":51.509865,"longitude":-0.118092,"reserved":0,"last_update":"0001-01-01T00:00:00Z","name_a2s":"Uncletopia | London | 7 | No Payload","protocol":17,"map":"cp_gullywash_final1","folder":"tf","game":"Team Fortress","app_id":440,"player_count":0,"max_players":24,"Bots":0,"server_type":"Dedicated","server_os":"Linux","password":true,"vac":true,"version":"7757534","steam_id":85568392924964314,"keywords":["cp","nocrits","nodmgspread","uncletopia"],"game_id":440,"stv_port":27076,"stv_name":"Uncletopia | London | 7 | No Payload | STV","players":null},{"server_id":41,"name":"Uncletopia | London | 8 | Community","name_short":"lon-8","host":"lon-1.uk.uncletopia.com","port":27085,"enabled":true,"region":"eu","cc":"gb","latitude":51.509865,"longitude":-0.118092,"reserved":0,"last_update":"0001-01-01T00:00:00Z","name_a2s":"Uncletopia | London | 8 | Community","protocol":17,"map":"workshop/koth_ashville_final.ugc2130459942","folder":"tf","game":"Team Fortress","app_id":440,"player_count":0,"max_players":24,"Bots":0,"server_type":"Dedicated","server_os":"Linux","password":true,"vac":true,"version":"7757534","steam_id":85568392924964315,"keywords":["cp","nocrits","nodmgspread","uncletopia"],"game_id":440,"stv_port":27086,"stv_name":"Uncletopia | London | 8 | Community | STV","players":null},{"server_id":300,"name":"Uncletopia | Montréal | 1 | All Maps","name_short":"mtl-1","host":"mtl-1.ca.uncletopia.com","port":27015,"enabled":true,"region":"us-east","cc":"ca","latitude":45.50889,"longitude":-73.56167,"reserved":0,"last_update":"0001-01-01T00:00:00Z","name_a2s":"Uncletopia | Montréal | 1 | All Maps","protocol":17,"map":"pl_upward","folder":"tf","game":"Team Fortress","app_id":440,"player_count":0,"max_players":24,"Bots":0,"server_type":"Dedicated","server_os":"Linux","password":true,"vac":true,"version":"7757534","steam_id":85568392924500087,"keywords":["nocrits","nodmgspread","payload","uncletopia"],"game_id":440,"stv_port":27016,"stv_name":"Uncletopia | Montréal | 1 | All Maps | STV","players":null},{"server_id":301,"name":"Uncletopia | Montréal | 2 | All Maps","name_short":"mtl-2","host":"mtl-1.ca.uncletopia.com","port":27025,"enabled":true,"region":"us-east","cc":"ca","latitude":45.50889,"longitude":-73.56167,"reserved":0,"last_update":"0001-01-01T00:00:00Z","name_a2s":"Uncletopia | Montréal | 2 | All Maps","protocol":17,"map":"pl_snowycoast","folder":"tf","game":"Team Fortress","app_id":440,"player_count":0,"max_players":24,"Bots":0,"server_type":"Dedicated","server_os":"Linux","password":true,"vac":true,"version":"7757534","steam_id":85568392924500088,"keywords":["nocrits","nodmgspread","payload","uncletopia"],"game_id":440,"stv_port":27026,"stv_name":"Uncletopia | Montréal | 2 | All Maps | STV","players":null},{"server_id":302,"name":"Uncletopia | Montréal | 3 | All Maps","name_short":"mtl-3","host":"mtl-1.ca.uncletopia.com","port":27035,"enabled":true,"region":"us-east","cc":"ca","latitude":45.50889,"longitude":-73.56167,"reserved":0,"last_update":"0001-01-01T00:00:00Z","name_a2s":"Uncletopia | Montréal | 3 | All Maps","protocol":17,"map":"cp_sunshine","folder":"tf","game":"Team Fortress","app_id":440,"player_count":0,"max_players":24,"Bots":0,"server_type":"Dedicated","server_os":"Linux","password":true,"vac":true,"version":"7757534","steam_id":85568392924500089,"keywords":["cp","nocrits","nodmgspread","uncletopia"],"game_id":440,"stv_port":27036,"stv_name":"Uncletopia | Montréal | 3 | All Maps | STV","players":null},{"server_id":303,"name":"Uncletopia | Montréal | 4 | No Payload","name_short":"mtl-4","host":"mtl-1.ca.uncletopia.com","port":27045,"enabled":true,"region":"us-east","cc":"ca","latitude":45.50889,"longitude":-73.56167,"reserved":0,"last_update":"0001-01-01T00:00:00Z","name_a2s":"Uncletopia | Montréal | 4 | No Payload","protocol":17,"map":"pl_pier","folder":"tf","game":"Team Fortress","app_id":440,"player_count":0,"max_players":24,"Bots":0,"server_type":"Dedicated","server_os":"Linux","password":true,"vac":true,"version":"7757534","steam_id":85568392924500090,"keywords":["nocrits","nodmgspread","payload","uncletopia"],"game_id":440,"stv_port":27046,"stv_name":"Uncletopia | Montréal | 4 | No Payload | STV","players":null},{"server_id":13,"name":"Uncletopia | New York City | 1 | All Maps","name_short":"nyc-1","host":"nyc-1.us.uncletopia.com","port":27015,"enabled":true,"region":"us-east","cc":"us","latitude":40.73061,"longitude":-73.93524,"reserved":0,"last_update":"0001-01-01T00:00:00Z","name_a2s":"Uncletopia | New York City | 1 | All Maps","protocol":17,"map":"pl_pier","folder":"tf","game":"Team Fortress","app_id":440,"player_count":24,"max_players":24,"Bots":0,"server_type":"Dedicated","server_os":"Linux","password":true,"vac":true,"version":"7757534","steam_id":85568392924469993,"keywords":["nocrits","nodmgspread","payload","uncletopia"],"game_id":440,"stv_port":27016,"stv_name":"Uncletopia | New York City | 1 | All Maps | STV","players":[{"user_id":131,"name":"King","steam_id":76561198039763676,"connected_time":1716000000000,"state":"active","ping":74},{"user_id":153,"name":"stub","steam_id":76561199060788308,"connected_time":310000000000,"state":"active","ping":90},{"user_id":114,"name":"Notafraid90","steam_id":76561198104072542,"connected_time":2787000000000,"state":"active","ping":48},{"user_id":155,"name":"LVL 4 Dispenser Gaming","steam_id":76561198044244547,"connected_time":104000000000,"state":"active","ping":51},{"user_id":146,"name":"LocaKola","steam_id":76561198173435430,"connected_time":857000000000,"state":"active","ping":61},{"user_id":154,"name":"scrapheap","steam_id":76561198202407087,"connected_time":243000000000,"state":"active","ping":81},{"user_id":19,"name":"Wahooka","steam_id":76561197962240925,"connected_time":9064000000000,"state":"active","ping":44},{"user_id":151,"name":"Cleetchle","steam_id":76561198103093270,"connected_time":758000000000,"state":"active","ping":45},{"user_id":115,"name":"Yummy Kabobz","steam_id":76561198067661705,"connected_time":2783000000000,"state":"active","ping":56},{"user_id":133,"name":"toddler on ipad | HM","steam_id":76561199016999537,"connected_time":1584000000000,"state":"active","ping":92},{"user_id":148,"name":"Rhutebeer","steam_id":76561198018302761,"connected_time":817000000000,"state":"active","ping":108},{"user_id":73,"name":"poop licker","steam_id":76561198046742645,"connected_time":6203000000000,"state":"active","ping":59},{"user_id":108,"name":"vanilla gorilla","steam_id":76561197989019617,"connected_time":3479000000000,"state":"active","ping":73},{"user_id":149,"name":"Moonshined","steam_id":76561199065699667,"connected_time":802000000000,"state":"active","ping":81},{"user_id":134,"name":"deep spaghetti","steam_id":76561198099807716,"connected_time":1482000000000,"state":"active","ping":59},{"user_id":117,"name":"Gamer Girl Meth","steam_id":76561199276295259,"connected_time":2762000000000,"state":"active","ping":74},{"user_id":143,"name":"blog","steam_id":76561198031324300,"connected_time":1063000000000,"state":"active","ping":116},{"user_id":141,"name":"Speedy","steam_id":76561198080761661,"connected_time":1141000000000,"state":"active","ping":59},{"user_id":99,"name":"Krusty Nut","steam_id":76561198120637924,"connected_time":3925000000000,"state":"active","ping":54},{"user_id":127,"name":"Guil","steam_id":76561197993289176,"connected_time":2168000000000,"state":"active","ping":69},{"user_id":139,"name":"Vegerot","steam_id":76561197997843710,"connected_time":1304000000000,"state":"active","ping":46},{"user_id":112,"name":"pogo","steam_id":76561198148913461,"connected_time":3228000000000,"state":"active","ping":51},{"user_id":152,"name":"-W3E- grim10465","steam_id":76561198045698581,"connected_time":594000000000,"state":"active","ping":41},{"user_id":74,"name":"glue sniffer","steam_id":76561198044689778,"connected_time":6097000000000,"state":"active","ping":48}]},{"server_id":14,"name":"Uncletopia | New York City | 2 | All Maps","name_short":"nyc-2","host":"nyc-1.us.uncletopia.com","port":27025,"enabled":true,"region":"us-east","cc":"us","latitude":40.73061,"longitude":-73.93524,"reserved":0,"last_update":"0001-01-01T00:00:00Z","name_a2s":"Uncletopia | New York City | 2 | All Maps","protocol":17,"map":"pl_upward","folder":"tf","game":"Team Fortress","app_id":440,"player_count":24,"max_players":24,"Bots":0,"server_type":"Dedicated","server_os":"Linux","password":true,"vac":true,"version":"7757534","steam_id":85568392924469994,"keywords":["nocrits","nodmgspread","payload","uncletopia"],"game_id":440,"stv_port":27026,"stv_name":"Uncletopia | New York City | 2 | All Maps | STV","players":[{"user_id":130,"name":"NamelessBear™","steam_id":76561198014564006,"connected_time":308000000000,"state":"active","ping":55},{"user_id":115,"name":"Goat","steam_id":76561198068447650,"connected_time":1419000000000,"state":"active","ping":95},{"user_id":83,"name":"John West","steam_id":76561198018783676,"connected_time":3713000000000,"state":"active","ping":123},{"user_id":126,"name":"Crystallixed","steam_id":76561198072263515,"connected_time":550000000000,"state":"active","ping":76},{"user_id":124,"name":"chatteringduck","steam_id":76561198131778772,"connected_time":749000000000,"state":"active","ping":65},{"user_id":108,"name":"the stink","steam_id":76561199099203623,"connected_time":1661000000000,"state":"active","ping":156},{"user_id":128,"name":"Follow God not others","steam_id":76561198452519031,"connected_time":502000000000,"state":"active","ping":104},{"user_id":127,"name":"drain.pablo.2005","steam_id":76561198303963691,"connected_time":519000000000,"state":"active","ping":67},{"user_id":110,"name":"Eblizard","steam_id":76561198111481965,"connected_time":1629000000000,"state":"active","ping":85},{"user_id":116,"name":"cold spaghetti","steam_id":76561198983037944,"connected_time":1336000000000,"state":"active","ping":58},{"user_id":119,"name":"mycoolcucumber","steam_id":76561198177586211,"connected_time":1043000000000,"state":"active","ping":74},{"user_id":111,"name":"Room_237","steam_id":76561199135081315,"connected_time":1612000000000,"state":"active","ping":67},{"user_id":103,"name":"Hunter78c","steam_id":76561198035682341,"connected_time":1712000000000,"state":"active","ping":101},{"user_id":121,"name":"NotThatGuyPal","steam_id":76561199127607812,"connected_time":1017000000000,"state":"active","ping":179},{"user_id":117,"name":"kursed","steam_id":76561198992371495,"connected_time":1273000000000,"state":"active","ping":45},{"user_id":113,"name":"Pizza Wario","steam_id":76561199031172409,"connected_time":1520000000000,"state":"active","ping":83},{"user_id":129,"name":"Drilly22","steam_id":76561198068838338,"connected_time":496000000000,"state":"active","ping":97},{"user_id":120,"name":"Bronze Age Furvert","steam_id":76561198859118263,"connected_time":1039000000000,"state":"active","ping":86},{"user_id":56,"name":"illias","steam_id":76561198077807254,"connected_time":4970000000000,"state":"active","ping":50},{"user_id":77,"name":"CapnKris22","steam_id":76561198049010994,"connected_time":4026000000000,"state":"active","ping":70},{"user_id":122,"name":"The impostor","steam_id":76561198877970675,"connected_time":987000000000,"state":"active","ping":149},{"user_id":92,"name":"LasagneMan","steam_id":76561198971904377,"connected_time":3511000000000,"state":"active","ping":143},{"user_id":131,"name":"BALLZ.Jameszzezz","steam_id":76561198317677617,"connected_time":204000000000,"state":"active","ping":83},{"user_id":125,"name":"(◔) Neville","steam_id":76561198025637970,"connected_time":749000000000,"state":"active","ping":60}]},{"server_id":15,"name":"Uncletopia | New York City | 3 | Stopwatch Beta","name_short":"nyc-3","host":"nyc-1.us.uncletopia.com","port":27035,"enabled":true,"region":"us-east","cc":"us","latitude":40.73061,"longitude":-73.93524,"reserved":0,"last_update":"0001-01-01T00:00:00Z","name_a2s":"Uncletopia | New York City | 3 | Stopwatch Beta","protocol":17,"map":"pl_upward","folder":"tf","game":"Team Fortress","app_id":440,"player_count":0,"max_players":24,"Bots":0,"server_type":"Dedicated","server_os":"Linux","password":true,"vac":true,"version":"7757534","steam_id":85568392924742820,"keywords":["nocrits","nodmgspread","payload","uncletopia"],"game_id":440,"stv_port":27036,"stv_name":"Uncletopia | New York City | 3 | Stopwatch Beta | STV","players":null},{"server_id":16,"name":"Uncletopia | New York City | 4 | Community","name_short":"nyc-4","host":"nyc-1.us.uncletopia.com","port":27045,"enabled":true,"region":"us-east","cc":"us","latitude":40.73061,"longitude":-73.93524,"reserved":0,"last_update":"0001-01-01T00:00:00Z","name_a2s":"Uncletopia | New York City | 4 | Community","protocol":17,"map":"workshop/pl_divulgence_b4b.ugc2884808746","folder":"tf","game":"Team Fortress","app_id":440,"player_count":0,"max_players":24,"Bots":0,"server_type":"Dedicated","server_os":"Linux","password":true,"vac":true,"version":"7757534","steam_id":85568392924742821,"keywords":["nocrits","nodmgspread","payload","uncletopia"],"game_id":440,"stv_port":27046,"stv_name":"Uncletopia | New York City | 4 | Community | STV","players":null},{"server_id":142,"name":"Uncletopia | São Paulo | 1 | All Maps","name_short":"sao-1","host":"sao-1.br.uncletopia.com","port":27015,"enabled":true,"region":"sa","cc":"br","latitude":-23.533773,"longitude":-46.62529,"reserved":0,"last_update":"0001-01-01T00:00:00Z","name_a2s":"Uncletopia | São Paulo | 1 | All Maps","protocol":17,"map":"cp_dustbowl","folder":"tf","game":"Team Fortress","app_id":440,"player_count":2,"max_players":24,"Bots":0,"server_type":"Dedicated","server_os":"Linux","password":true,"vac":true,"version":"7757534","steam_id":85568392924469996,"keywords":["cp","nocrits","nodmgspread","uncletopia"],"game_id":440,"stv_port":27016,"stv_name":"Uncletopia | São Paulo | 1 | All Maps | STV","players":[{"user_id":30,"name":"牛肉とクリーム","steam_id":76561198391399039,"connected_time":202000000000,"state":"active","ping":66},{"user_id":31,"name":"Tj","steam_id":76561199144268605,"connected_time":184000000000,"state":"active","ping":74}]},{"server_id":143,"name":"Uncletopia | São Paulo | 2 | All Maps","name_short":"sao-2","host":"sao-2.br.uncletopia.com","port":27015,"enabled":true,"region":"sa","cc":"br","latitude":-23.533773,"longitude":-46.62529,"reserved":0,"last_update":"0001-01-01T00:00:00Z","name_a2s":"Uncletopia | São Paulo | 2 | All Maps","protocol":17,"map":"pl_badwater","folder":"tf","game":"Team Fortress","app_id":440,"player_count":0,"max_players":24,"Bots":0,"server_type":"Dedicated","server_os":"Linux","password":true,"vac":true,"version":"7757534","steam_id":85568392924485349,"keywords":["nocrits","nodmgspread","payload","uncletopia"],"game_id":440,"stv_port":27016,"stv_name":"Uncletopia | São Paulo | 2 | All Maps | STV","players":null},{"server_id":7,"name":"Uncletopia | Seattle | 1 | All Maps","name_short":"sea-1","host":"sea-1.us.uncletopia.com","port":27015,"enabled":true,"region":"us-west","cc":"us","latitude":47.608013,"longitude":-122.33517,"reserved":0,"last_update":"0001-01-01T00:00:00Z","name_a2s":"Uncletopia | Seattle | 1 | All Maps","protocol":17,"map":"pl_swiftwater_final1","folder":"tf","game":"Team Fortress","app_id":440,"player_count":23,"max_players":24,"Bots":0,"server_type":"Dedicated","server_os":"Linux","password":true,"vac":true,"version":"7757534","steam_id":85568392924469997,"keywords":["nocrits","nodmgspread","payload","uncletopia"],"game_id":440,"stv_port":27016,"stv_name":"Uncletopia | Seattle | 1 | All Maps | STV","players":[{"user_id":127,"name":"Power Jake","steam_id":76561198051510260,"connected_time":1780000000000,"state":"active","ping":54},{"user_id":4,"name":"Flesh Eating Turtle","steam_id":76561198116742139,"connected_time":11490000000000,"state":"active","ping":54},{"user_id":102,"name":"༘ ⋆˚🎧Caffeine☕*˖°","steam_id":76561199259309294,"connected_time":2883000000000,"state":"active","ping":123},{"user_id":135,"name":"crashymicsplody","steam_id":76561198213916765,"connected_time":1408000000000,"state":"active","ping":117},{"user_id":141,"name":"MRC00KIECRUMBLE","steam_id":76561199123384619,"connected_time":302000000000,"state":"active","ping":60},{"user_id":138,"name":"France Main","steam_id":76561198271442469,"connected_time":655000000000,"state":"active","ping":57},{"user_id":104,"name":"Belmore","steam_id":76561198009355231,"connected_time":2854000000000,"state":"active","ping":75},{"user_id":147,"name":"Zetta","steam_id":76561198045710113,"connected_time":65000000000,"state":"active","ping":102},{"user_id":62,"name":"They/Them Rattussy","steam_id":76561198238186628,"connected_time":7154000000000,"state":"active","ping":75},{"user_id":137,"name":"midnight crisis","steam_id":76561198117113848,"connected_time":1224000000000,"state":"active","ping":131},{"user_id":128,"name":"LILIUM","steam_id":76561198086591493,"connected_time":1778000000000,"state":"active","ping":88},{"user_id":129,"name":"DIGGY","steam_id":76561198991238982,"connected_time":1721000000000,"state":"active","ping":51},{"user_id":142,"name":"jack","steam_id":76561199476941378,"connected_time":279000000000,"state":"active","ping":127},{"user_id":139,"name":"Interesting Name","steam_id":76561198197733222,"connected_time":495000000000,"state":"active","ping":75},{"user_id":130,"name":"big bang attack","steam_id":76561198886203540,"connected_time":1713000000000,"state":"active","ping":65},{"user_id":143,"name":"Shoomsie","steam_id":76561198047405791,"connected_time":250000000000,"state":"active","ping":139},{"user_id":120,"name":"♱ꉔꋬꋊ꒻ꋬꌦꌦ♱","steam_id":76561198126515677,"connected_time":2150000000000,"state":"active","ping":145},{"user_id":107,"name":"WAFFLES 1billion","steam_id":76561199447136573,"connected_time":2718000000000,"state":"active","ping":127},{"user_id":145,"name":"Baconous","steam_id":76561198205380112,"connected_time":128000000000,"state":"active","ping":51},{"user_id":109,"name":"Themasterman75","steam_id":76561199385573293,"connected_time":2628000000000,"state":"active","ping":73},{"user_id":132,"name":"high noon crisis","steam_id":76561198042941628,"connected_time":1686000000000,"state":"active","ping":77},{"user_id":140,"name":"Gaiduk","steam_id":76561198112323877,"connected_time":385000000000,"state":"active","ping":130},{"user_id":118,"name":"Viole","steam_id":76561198150210065,"connected_time":2338000000000,"state":"active","ping":85}]},{"server_id":119,"name":"Uncletopia | Seattle | 2 | All Maps","name_short":"sea-2","host":"sea-1.us.uncletopia.com","port":27025,"enabled":true,"region":"us-west","cc":"us","latitude":47.608013,"longitude":-122.33517,"reserved":0,"last_update":"0001-01-01T00:00:00Z","name_a2s":"Uncletopia | Seattle | 2 | All Maps","protocol":17,"map":"pl_badwater","folder":"tf","game":"Team Fortress","app_id":440,"player_count":0,"max_players":24,"Bots":0,"server_type":"Dedicated","server_os":"Linux","password":true,"vac":true,"version":"7757534","steam_id":85568392924469998,"keywords":["nocrits","nodmgspread","payload","uncletopia"],"game_id":440,"stv_port":27026,"stv_name":"Uncletopia | Seattle | 2 | All Maps | STV","players":null},{"server_id":406,"name":"Uncletopia | Seattle | 3 | Stopwatch Beta","name_short":"sea-3","host":"sea-1.us.uncletopia.com","port":27035,"enabled":true,"region":"us-west","cc":"us","latitude":47.608013,"longitude":-122.33517,"reserved":0,"last_update":"0001-01-01T00:00:00Z","name_a2s":"Uncletopia | Seattle | 3 | Stopwatch Beta","protocol":17,"map":"workshop/pl_badwater_pro_v12.ugc2142942074","folder":"tf","game":"Team Fortress","app_id":440,"player_count":0,"max_players":24,"Bots":0,"server_type":"Dedicated","server_os":"Linux","password":true,"vac":true,"version":"7757534","steam_id":85568392924515217,"keywords":["nocrits","nodmgspread","payload","uncletopia"],"game_id":440,"stv_port":27036,"stv_name":"Uncletopia | Seattle | 3 | Stopwatch Beta | STV","players":null},{"server_id":17,"name":"Uncletopia | San Francisco | 1 | All Maps","name_short":"sfo-1","host":"sfo-1.us.uncletopia.com","port":27015,"enabled":true,"region":"us-west","cc":"us","latitude":37.77397,"longitude":-122.4313,"reserved":0,"last_update":"0001-01-01T00:00:00Z","name_a2s":"Uncletopia | San Francisco | 1 | All Maps","protocol":17,"map":"cp_process_final","folder":"tf","game":"Team Fortress","app_id":440,"player_count":0,"max_players":24,"Bots":0,"server_type":"Dedicated","server_os":"Linux","password":true,"vac":true,"version":"7757534","steam_id":85568392924469999,"keywords":["cp","nocrits","nodmgspread","uncletopia"],"game_id":440,"stv_port":27016,"stv_name":"Uncletopia | San Francisco | 1 | All Maps | STV","players":null},{"server_id":18,"name":"Uncletopia | San Francisco | 2 | All Maps","name_short":"sfo-2","host":"sfo-1.us.uncletopia.com","port":27025,"enabled":true,"region":"us-west","cc":"us","latitude":37.77397,"longitude":-122.4313,"reserved":0,"last_update":"0001-01-01T00:00:00Z","name_a2s":"Uncletopia | San Francisco | 2 | All Maps","protocol":17,"map":"koth_highpass","folder":"tf","game":"Team Fortress","app_id":440,"player_count":0,"max_players":24,"Bots":0,"server_type":"Dedicated","server_os":"Linux","password":true,"vac":true,"version":"7757534","steam_id":85568392924470000,"keywords":["cp","nocrits","nodmgspread","uncletopia"],"game_id":440,"stv_port":27026,"stv_name":"Uncletopia | San Francisco | 2 | All Maps | STV","players":null},{"server_id":19,"name":"Uncletopia | San Francisco | 3 | Stopwatch Beta","name_short":"sfo-3","host":"sfo-1.us.uncletopia.com","port":27035,"enabled":true,"region":"us-west","cc":"us","latitude":37.77397,"longitude":-122.4313,"reserved":0,"last_update":"0001-01-01T00:00:00Z","name_a2s":"Uncletopia | San Francisco | 3 | Stopwatch Beta","protocol":17,"map":"koth_lakeside_final","folder":"tf","game":"Team Fortress","app_id":440,"player_count":0,"max_players":24,"Bots":0,"server_type":"Dedicated","server_os":"Linux","password":true,"vac":true,"version":"7757534","steam_id":85568392924742824,"keywords":["cp","nocrits","nodmgspread","uncletopia"],"game_id":440,"stv_port":27036,"stv_name":"Uncletopia | San Francisco | 3 | Stopwatch Beta | STV","players":null},{"server_id":20,"name":"Uncletopia | San Francisco | 4 | Community","name_short":"sfo-4","host":"sfo-1.us.uncletopia.com","port":27045,"enabled":true,"region":"us-west","cc":"us","latitude":37.77397,"longitude":-122.4313,"reserved":0,"last_update":"0001-01-01T00:00:00Z","name_a2s":"Uncletopia | San Francisco | 4 | Community","protocol":17,"map":"cp_altitude","folder":"tf","game":"Team Fortress","app_id":440,"player_count":8,"max_players":24,"Bots":0,"server_type":"Dedicated","server_os":"Linux","password":true,"vac":true,"version":"7757534","steam_id":85568392924742826,"keywords":["cp","nocrits","nodmgspread","uncletopia"],"game_id":440,"stv_port":27046,"stv_name":"Uncletopia | San Francisco | 4 | Community | STV","players":[{"user_id":18,"name":"JS","steam_id":76561198149183514,"connected_time":59000000000,"state":"active","ping":59},{"user_id":19,"name":"Drusalem","steam_id":76561199078547218,"connected_time":35000000000,"state":"active","ping":128},{"user_id":6,"name":"asm_ghost","steam_id":76561199205363547,"connected_time":1267000000000,"state":"active","ping":69},{"user_id":8,"name":"tamaclagan","steam_id":76561198882009720,"connected_time":620000000000,"state":"active","ping":116},{"user_id":17,"name":"Ectomonkey","steam_id":76561198125417062,"connected_time":230000000000,"state":"active","ping":64},{"user_id":10,"name":"Cpt. Medrash","steam_id":76561198035981656,"connected_time":570000000000,"state":"active","ping":114},{"user_id":13,"name":"Bluethunderp97","steam_id":76561198161734754,"connected_time":418000000000,"state":"active","ping":106},{"user_id":15,"name":"ZekeN0Tech","steam_id":76561198042151365,"connected_time":339000000000,"state":"active","ping":84}]},{"server_id":141,"name":"Uncletopia | Sydney | 1 | All Maps","name_short":"syd-1","host":"syd-1.au.uncletopia.com","port":27015,"enabled":true,"region":"au","cc":"au","latitude":-33.865143,"longitude":151.2099,"reserved":0,"last_update":"0001-01-01T00:00:00Z","name_a2s":"Uncletopia | Sydney | 1 | All Maps","protocol":17,"map":"koth_lakeside_final","folder":"tf","game":"Team Fortress","app_id":440,"player_count":0,"max_players":24,"Bots":0,"server_type":"Dedicated","server_os":"Linux","password":true,"vac":true,"version":"7757534","steam_id":85568392924470001,"keywords":["cp","nocrits","nodmgspread","uncletopia"],"game_id":440,"stv_port":27016,"stv_name":"Uncletopia | Sydney | 1 | All Maps | STV","players":null},{"server_id":123,"name":"Uncletopia | Sydney | 2 | All Maps","name_short":"syd-2","host":"syd-1.au.uncletopia.com","port":27025,"enabled":true,"region":"au","cc":"au","latitude":-33.865143,"longitude":151.2099,"reserved":0,"last_update":"0001-01-01T00:00:00Z","name_a2s":"Uncletopia | Sydney | 2 | All Maps","protocol":17,"map":"koth_lakeside_final","folder":"tf","game":"Team Fortress","app_id":440,"player_count":0,"max_players":24,"Bots":0,"server_type":"Dedicated","server_os":"Linux","password":true,"vac":true,"version":"7757534","steam_id":85568392924470002,"keywords":["cp","nocrits","nodmgspread","uncletopia"],"game_id":440,"stv_port":27026,"stv_name":"Uncletopia | Sydney | 2 | All Maps | STV","players":null},{"server_id":395,"name":"Uncletopia | Sydney | 3 | All Maps","name_short":"syd-3","host":"syd-1.au.uncletopia.com","port":27035,"enabled":true,"region":"au","cc":"au","latitude":-33.865143,"longitude":151.2099,"reserved":0,"last_update":"0001-01-01T00:00:00Z","name_a2s":"Uncletopia | Sydney | 3 | All Maps","protocol":17,"map":"koth_lakeside_final","folder":"tf","game":"Team Fortress","app_id":440,"player_count":0,"max_players":24,"Bots":0,"server_type":"Dedicated","server_os":"Linux","password":true,"vac":true,"version":"7757534","steam_id":85568392925194467,"keywords":["cp","nocrits","nodmgspread","uncletopia"],"game_id":440,"stv_port":27036,"stv_name":"Uncletopia | Sydney | 3 | All Maps | STV","players":null},{"server_id":396,"name":"Uncletopia | Sydney | 4 | All Maps","name_short":"syd-4","host":"syd-1.au.uncletopia.com","port":27045,"enabled":true,"region":"au","cc":"au","latitude":-33.865143,"longitude":151.2099,"reserved":0,"last_update":"0001-01-01T00:00:00Z","name_a2s":"Uncletopia | Sydney | 4 | All Maps","protocol":17,"map":"pl_barnblitz","folder":"tf","game":"Team Fortress","app_id":440,"player_count":0,"max_players":24,"Bots":0,"server_type":"Dedicated","server_os":"Linux","password":true,"vac":true,"version":"7757534","steam_id":85568392925397958,"keywords":["nocrits","nodmgspread","payload","uncletopia"],"game_id":440,"stv_port":27046,"stv_name":"Uncletopia | Sydney | 4 | All Maps | STV","players":null},{"server_id":58,"name":"Uncletopia | Sydney | 5 | Stopwatch Beta","name_short":"syd-5","host":"syd-1.au.uncletopia.com","port":27055,"enabled":true,"region":"au","cc":"au","latitude":-33.865143,"longitude":151.2099,"reserved":0,"last_update":"0001-01-01T00:00:00Z","name_a2s":"Uncletopia | Sydney | 5 | Stopwatch Beta","protocol":17,"map":"workshop/pl_summercoast_rc8e.ugc1761528829","folder":"tf","game":"Team Fortress","app_id":440,"player_count":0,"max_players":24,"Bots":0,"server_type":"Dedicated","server_os":"Linux","password":true,"vac":true,"version":"7757534","steam_id":85568392925397959,"keywords":["nocrits","nodmgspread","payload","uncletopia"],"game_id":440,"stv_port":27056,"stv_name":"Uncletopia | Sydney | 5 | Stopwatch Beta | STV","players":null},{"server_id":59,"name":"Uncletopia | Sydney | 6 | Community","name_short":"syd-6","host":"syd-1.au.uncletopia.com","port":27065,"enabled":true,"region":"au","cc":"au","latitude":-33.865143,"longitude":151.2099,"reserved":0,"last_update":"0001-01-01T00:00:00Z","name_a2s":"Uncletopia | Sydney | 6 | Community","protocol":17,"map":"workshop/cp_snowbase_b18.ugc2081770490","folder":"tf","game":"Team Fortress","app_id":440,"player_count":0,"max_players":24,"Bots":0,"server_type":"Dedicated","server_os":"Linux","password":true,"vac":true,"version":"7757534","steam_id":85568392925397960,"keywords":["cp","nocrits","nodmgspread","uncletopia"],"game_id":440,"stv_port":27066,"stv_name":"Uncletopia | Sydney | 6 | Community | STV","players":null},{"server_id":49,"name":"Uncletopia | Warsaw | 1 | All Maps","name_short":"waw-1","host":"waw-1.pl.uncletopia.com","port":27015,"enabled":true,"region":"eu","cc":"pl","latitude":52.2297,"longitude":21.017532,"reserved":0,"last_update":"0001-01-01T00:00:00Z","name_a2s":"","protocol":0,"map":"","folder":"","game":"","app_id":0,"player_count":0,"max_players":0,"Bots":0,"server_type":"","server_os":"","password":false,"vac":false,"version":"","steam_id":0,"keywords":null,"game_id":0,"stv_port":0,"stv_name":"","players":null},{"server_id":50,"name":"Uncletopia | Warsaw | 2 | All Maps","name_short":"waw-2","host":"waw-1.pl.uncletopia.com","port":27025,"enabled":true,"region":"eu","cc":"pl","latitude":52.2297,"longitude":21.017532,"reserved":0,"last_update":"0001-01-01T00:00:00Z","name_a2s":"Uncletopia | Warsaw | 2 | All Maps","protocol":17,"map":"koth_viaduct","folder":"tf","game":"Team Fortress","app_id":440,"player_count":0,"max_players":24,"Bots":0,"server_type":"Dedicated","server_os":"Linux","password":true,"vac":true,"version":"7757534","steam_id":85568392925397851,"keywords":["cp","nocrits","nodmgspread","uncletopia"],"game_id":440,"stv_port":27026,"stv_name":"Uncletopia | Warsaw | 2 | All Maps | STV","players":null},{"server_id":51,"name":"Uncletopia | Warsaw | 3 | All Maps","name_short":"waw-3","host":"waw-1.pl.uncletopia.com","port":27035,"enabled":true,"region":"eu","cc":"pl","latitude":52.2297,"longitude":21.017532,"reserved":0,"last_update":"0001-01-01T00:00:00Z","name_a2s":"Uncletopia | Warsaw | 3 | All Maps","protocol":17,"map":"plr_hightower","folder":"tf","game":"Team Fortress","app_id":440,"player_count":2,"max_players":24,"Bots":0,"server_type":"Dedicated","server_os":"Linux","password":true,"vac":true,"version":"7757534","steam_id":85568392925397852,"keywords":["nocrits","nodmgspread","payload","uncletopia"],"game_id":440,"stv_port":27036,"stv_name":"Uncletopia | Warsaw | 3 | All Maps | STV","players":[{"user_id":8,"name":"The","steam_id":76561199028541854,"connected_time":4368000000000,"state":"active","ping":150},{"user_id":13,"name":"Jack.Orlando","steam_id":76561198802400236,"connected_time":937000000000,"state":"active","ping":89}]},{"server_id":52,"name":"Uncletopia | Warsaw | 4 | All Maps","name_short":"waw-4","host":"waw-1.pl.uncletopia.com","port":27045,"enabled":true,"region":"eu","cc":"pl","latitude":52.2297,"longitude":21.017532,"reserved":0,"last_update":"0001-01-01T00:00:00Z","name_a2s":"Uncletopia | Warsaw | 4 | All Maps","protocol":17,"map":"koth_lakeside_final","folder":"tf","game":"Team Fortress","app_id":440,"player_count":0,"max_players":24,"Bots":0,"server_type":"Dedicated","server_os":"Linux","password":true,"vac":true,"version":"7757534","steam_id":85568392925397853,"keywords":["cp","nocrits","nodmgspread","uncletopia"],"game_id":440,"stv_port":27046,"stv_name":"Uncletopia | Warsaw | 4 | All Maps | STV","players":null},{"server_id":53,"name":"Uncletopia | Warsaw | 5 | Stopwatch Beta","name_short":"waw-5","host":"waw-1.pl.uncletopia.com","port":27055,"enabled":true,"region":"eu","cc":"pl","latitude":52.2297,"longitude":21.017532,"reserved":0,"last_update":"0001-01-01T00:00:00Z","name_a2s":"Uncletopia | Warsaw | 5 | Stopwatch Beta","protocol":17,"map":"pl_borneo","folder":"tf","game":"Team Fortress","app_id":440,"player_count":0,"max_players":24,"Bots":0,"server_type":"Dedicated","server_os":"Linux","password":true,"vac":true,"version":"7757534","steam_id":85568392925397854,"keywords":["nocrits","nodmgspread","payload","uncletopia"],"game_id":440,"stv_port":27056,"stv_name":"Uncletopia | Warsaw | 5 | Stopwatch Beta | STV","players":null},{"server_id":54,"name":"Uncletopia | Warsaw | 6 | Community","name_short":"waw-6","host":"waw-1.pl.uncletopia.com","port":27065,"enabled":true,"region":"eu","cc":"pl","latitude":52.2297,"longitude":21.017532,"reserved":0,"last_update":"0001-01-01T00:00:00Z","name_a2s":"Uncletopia | Warsaw | 6 | Community","protocol":17,"map":"workshop/cp_glacier_rc6.ugc2905735376","folder":"tf","game":"Team Fortress","app_id":440,"player_count":0,"max_players":24,"Bots":0,"server_type":"Dedicated","server_os":"Linux","password":true,"vac":true,"version":"7757534","steam_id":85568392925397856,"keywords":["cp","nocrits","nodmgspread","uncletopia"],"game_id":440,"stv_port":27066,"stv_name":"Uncletopia | Warsaw | 6 | Community | STV","players":null}]}