{"status":true,"message":"","result":[{"server_id":9,"name":"Uncletopia | Atlanta | 1 | All Maps","name_short":"atl-1","host":"atl-1.us.uncletopia.com","port":27015,"enabled":true,"region":"us-east","cc":"us","latitude":33.753746,"longitude":-84.38633,"reserved":0,"last_update":"0001-01-01T00:00:00Z","name_a2s":"Uncletopia | Atlanta | 1 | All Maps","protocol":17,"map":"ctf_2fort","folder":"tf","game":"Team Fortress","app_id":440,"player_count":6,"max_players":24,"Bots":0,"server_type":"Dedicated","server_os":"Linux","password":true,"vac":true,"version":"7932396","steam_id":85568392924469982,"keywords":["ctf","nocrits","nodmgspread","uncletopia"],"game_id":440,"stv_port":27016,"stv_name":"Uncletopia | Atlanta | 1 | All Maps | STV","players":[{"user_id":582,"name":"sniper monke gaming","steam_id":76561198149912238,"connected_time":175000000000,"state":"active","ping":78},{"user_id":534,"name":"Luigi in Jail","steam_id":76561198095907157,"connected_time":3943000000000,"state":"active","ping":77},{"user_id":542,"name":"monkeycake","steam_id":76561198272061915,"connected_time":3502000000000,"state":"active","ping":43},{"user_id":538,"name":"Aubergine","steam_id":76561198091211296,"connected_time":3779000000000,"state":"active","ping":85},{"user_id":580,"name":"Tue","steam_id":76561198181668501,"connected_time":274000000000,"state":"active","ping":77},{"user_id":576,"name":"IZISOO","steam_id":76561198970380577,"connected_time":676000000000,"state":"active","ping":76}]},{"server_id":104,"name":"Uncletopia | Atlanta | 2 | All Maps","name_short":"atl-2","host":"atl-1.us.uncletopia.com","port":27025,"enabled":true,"region":"us-east","cc":"us","latitude":33.753746,"longitude":-84.38633,"reserved":0,"last_update":"0001-01-01T00:00:00Z","name_a2s":"Uncletopia | Atlanta | 2 | All Maps","protocol":17,"map":"pl_borneo","folder":"tf","game":"Team Fortress","app_id":440,"player_count":0,"max_players":24,"Bots":0,"server_type":"Dedicated","server_os":"Linux","password":true,"vac":true,"version":"7932396","steam_id":85568392924469983,"keywords":["nocrits","nodmgspread","payload","uncletopia"],"game_id":440,"stv_port":27026,"stv_name":"Uncletopia | Atlanta | 2 | All Maps | STV","players":null},{"server_id":400,"name":"Uncletopia | Atlanta | 3 | Community","name_short":"atl-3","host":"atl-1.us.uncletopia.com","port":27035,"enabled":true,"region":"us-east","cc":"us","latitude":33.753746,"longitude":-84.38633,"reserved":0,"last_update":"0001-01-01T00:00:00Z","name_a2s":"Uncletopia | Atlanta | 3 | Community","protocol":17,"map":"workshop/koth_trenchfoot_b1a.ugc731436616","folder":"tf","game":"Team Fortress","app_id":440,"player_count":0,"max_players":24,"Bots":0,"server_type":"Dedicated","server_os":"Linux","password":true,"vac":true,"version":"7932396","steam_id":85568392924515187,"keywords":["cp","nocrits","nodmgspread","uncletopia"],"game_id":440,"stv_port":27036,"stv_name":"Uncletopia | Atlanta | 3 | Community | STV","players":null},{"server_id":401,"name":"Uncletopia | Atlanta | 4 | No Payload","name_short":"atl-4","host":"atl-1.us.uncletopia.com","port":27045,"enabled":true,"region":"us-east","cc":"us","latitude":33.753746,"longitude":-84.38633,"reserved":0,"last_update":"0001-01-01T00:00:00Z","name_a2s":"","protocol":0,"map":"","folder":"","game":"","app_id":0,"player_count":0,"max_players":0,"Bots":0,"server_type":"","server_os":"","password":false,"vac":false,"version":"","steam_id":0,"keywords":null,"game_id":0,"stv_port":0,"stv_name":"","players":null},{"server_id":2,"name":"Uncletopia | Chicago | 1 | All Maps","name_short":"chi-1","host":"chi-1.us.uncletopia.com","port":27015,"enabled":true,"region":"us-central","cc":"us","latitude":41.881832,"longitude":-87.62318,"reserved":0,"last_update":"0001-01-01T00:00:00Z","name_a2s":"Uncletopia | Chicago | 1 | All Maps","protocol":17,"map":"pl_badwater","folder":"tf","game":"Team Fortress","app_id":440,"player_count":24,"max_players":24,"Bots":0,"server_type":"Dedicated","server_os":"Linux","password":true,"vac":true,"version":"7932396","steam_id":85568392924469984,"keywords":["nocrits","nodmgspread","payload","uncletopia"],"game_id":440,"stv_port":27016,"stv_name":"Uncletopia | Chicago | 1 | All Maps | STV","players":[{"user_id":828,"name":"kite","steam_id":76561198346516392,"connected_time":5970000000000,"state":"active","ping":69},{"user_id":874,"name":"DragonFalcon‚Ñ¢","steam_id":76561198044559930,"connected_time":1581000000000,"state":"active","ping":81},{"user_id":831,"name":"rose","steam_id":76561198048882285,"connected_time":5717000000000,"state":"active","ping":60},{"user_id":843,"name":"DFR spoonful","steam_id":76561198927517471,"connected_time":4642000000000,"state":"active","ping":77},{"user_id":882,"name":"crexorz","steam_id":76561198890949432,"connected_time":393000000000,"state":"active","ping":59},{"user_id":781,"name":"loser","steam_id":76561198259380127,"connected_time":10079000000000,"state":"active","ping":57},{"user_id":836,"name":"BigDeac","steam_id":76561198091237274,"connected_time":5351000000000,"state":"active","ping":56},{"user_id":886,"name":"spaceboots","steam_id":76561197977322319,"connected_time":248000000000,"state":"active","ping":63},{"user_id":852,"name":"joe","steam_id":76561198045781320,"connected_time":3543000000000,"state":"active","ping":70},{"user_id":883,"name":"Hezxp","steam_id":76561198312931111,"connected_time":365000000000,"state":"active","ping":77},{"user_id":884,"name":"anyakitten","steam_id":76561197994492154,"connected_time":341000000000,"state":"active","ping":165},{"user_id":861,"name":"incredirocks","steam_id":76561198061079993,"connected_time":2445000000000,"state":"active","ping":45},{"user_id":887,"name":"Pyyr","steam_id":76561198123491005,"connected_time":136000000000,"state":"active","ping":44},{"user_id":826,"name":"car","steam_id":76561198999217575,"connected_time":6483000000000,"state":"active","ping":79},{"user_id":885,"name":"ALBINO LESBIAN MIDGET","steam_id":76561198122691714,"connected_time":334000000000,"state":"active","ping":83},{"user_id":873,"name":"Useless","steam_id":76561198117206414,"connected_time":1646000000000,"state":"active","ping":75},{"user_id":829,"name":"Sophie","steam_id":76561198170408057,"connected_time":5905000000000,"state":"active","ping":60},{"user_id":881,"name":"craZend","steam_id":76561198848063795,"connected_time":470000000000,"state":"active","ping":74},{"user_id":835,"name":"noah","steam_id":76561198173310157,"connected_time":5416000000000,"state":"active","ping":58},{"user_id":888,"name":"JNCC","steam_id":76561198100942212,"connected_time":119000000000,"state":"active","ping":75},{"user_id":889,"name":"Willem Dafoe","steam_id":76561198037453253,"connected_time":106000000000,"state":"active","ping":64},{"user_id":875,"name":"the private","steam_id":76561198232500756,"connected_time":1475000000000,"state":"active","ping":82},{"user_id":880,"name":"nullptr","steam_id":76561198111790388,"connected_time":542000000000,"state":"active","ping":87},{"user_id":890,"name":"fernando","steam_id":76561198142586591,"connected_time":62000000000,"state":"active","ping":90}]},{"server_id":106,"name":"Uncletopia | Chicago | 2 | All Maps","name_short":"chi-2","host":"chi-1.us.uncletopia.com","port":27025,"enabled":true,"region":"us-central","cc":"us","latitude":41.881832,"longitude":-87.62318,"reserved":0,"last_update":"0001-01-01T00:00:00Z","name_a2s":"Uncletopia | Chicago | 2 | All Maps","protocol":17,"map":"pl_swiftwater_final1","folder":"tf","game":"Team Fortress","app_id":440,"player_count":20,"max_players":24,"Bots":0,"server_type":"Dedicated","server_os":"Linux","password":true,"vac":true,"version":"7932396","steam_id":85568392924469985,"keywords":["nocrits","nodmgspread","payload","uncletopia"],"game_id":440,"stv_port":27026,"stv_name":"Uncletopia | Chicago | 2 | All Maps | STV","players":[{"user_id":867,"name":"tim-","steam_id":76561199119101315,"connected_time":2971000000000,"state":"active","ping":65},{"user_id":901,"name":"IanFishooks","steam_id":76561199403427527,"connected_time":344000000000,"state":"active","ping":84},{"user_id":903,"name":"E P H E M E R A L","steam_id":76561198128614882,"connected_time":104000000000,"state":"active","ping":87},{"user_id":855,"name":"breathing meat donut","steam_id":76561198123566649,"connected_time":3531000000000,"state":"active","ping":90},{"user_id":841,"name":"Happy Yaoi Friday","steam_id":76561198111290441,"connected_time":3876000000000,"state":"active","ping":56},{"user_id":845,"name":"bigbird","steam_id":76561199205908479,"connected_time":3795000000000,"state":"active","ping":68},{"user_id":846,"name":"ultralisk52","steam_id":76561198051666604,"connected_time":3783000000000,"state":"active","ping":59},{"user_id":884,"name":"mel","steam_id":76561198215559840,"connected_time":1143000000000,"state":"active","ping":60},{"user_id":893,"name":"Ultimate Gohan","steam_id":76561198065614782,"connected_time":847000000000,"state":"active","ping":61},{"user_id":895,"name":"kaputon","steam_id":76561198146299782,"connected_time":700000000000,"state":"active","ping":60},{"user_id":900,"name":"exten-z","steam_id":76561198004359190,"connected_time":400000000000,"state":"active","ping":61},{"user_id":868,"name":"[SNC] Zora","steam_id":76561198303061584,"connected_time":2959000000000,"state":"active","ping":71},{"user_id":889,"name":"Fig Newton","steam_id":76561198064255155,"connected_time":1000000000000,"state":"active","ping":67},{"user_id":904,"name":"1-800-GHOST-DANCE","steam_id":76561198835430429,"connected_time":103000000000,"state":"active","ping":75},{"user_id":894,"name":"if looks could kill","steam_id":76561198172732375,"connected_time":847000000000,"state":"active","ping":60},{"user_id":851,"name":"Lucide","steam_id":76561197998530400,"connected_time":3717000000000,"state":"active","ping":102},{"user_id":886,"name":"LazyPoet","steam_id":76561198285997898,"connected_time":1087000000000,"state":"active","ping":73},{"user_id":875,"name":"paetho YT (new vid!)","steam_id":76561198152690003,"connected_time":2219000000000,"state":"active","ping":60},{"user_id":852,"name":"FRANKY!!!","steam_id":76561199211305343,"connected_time":3709000000000,"state":"active","ping":97},{"user_id":857,"name":"Furious George","steam_id":76561198405111646,"connected_time":3488000000000,"state":"active","ping":98}]},{"server_id":402,"name":"Uncletopia | Chicago | 3 | All Maps","name_short":"chi-3","host":"chi-1.us.uncletopia.com","port":27035,"enabled":true,"region":"us-central","cc":"us","latitude":41.881832,"longitude":-87.62318,"reserved":0,"last_update":"0001-01-01T00:00:00Z","name_a2s":"Uncletopia | Chicago | 3 | All Maps","protocol":17,"map":"pl_badwater","folder":"tf","game":"Team Fortress","app_id":440,"player_count":21,"max_players":24,"Bots":0,"server_type":"Dedicated","server_os":"Linux","password":true,"vac":true,"version":"7932396","steam_id":85568392924515191,"keywords":["nocrits","nodmgspread","payload","uncletopia"],"game_id":440,"stv_port":27036,"stv_name":"Uncletopia | Chicago | 3 | All Maps | STV","players":[{"user_id":452,"name":"Robo Boss","steam_id":76561199067098696,"connected_time":1253000000000,"state":"active","ping":77},{"user_id":462,"name":"jarrettconsult","steam_id":76561198249998262,"connected_time":620000000000,"state":"active","ping":74},{"user_id":465,"name":"pirate pete","steam_id":76561198151048590,"connected_time":432000000000,"state":"active","ping":59},{"user_id":455,"name":"Love","steam_id":76561199173445015,"connected_time":982000000000,"state":"active","ping":51},{"user_id":463,"name":"vaporeon impregnator","steam_id":76561198085304380,"connected_time":535000000000,"state":"active","ping":36},{"user_id":467,"name":"neptune","steam_id":76561198383404869,"connected_time":392000000000,"state":"active","ping":119},{"user_id":468,"name":"theconqueror","steam_id":76561199229806456,"connected_time":234000000000,"state":"active","ping":72},{"user_id":354,"name":"Alecto","steam_id":76561198042476864,"connected_time":8505000000000,"state":"active","ping":50},{"user_id":469,"name":"Miner2495","steam_id":76561198445904523,"connected_time":214000000000,"state":"active","ping":69},{"user_id":470,"name":"TheEntireU.S.SenateInATrenchcoa","steam_id":76561198165208572,"connected_time":191000000000,"state":"active","ping":57},{"user_id":471,"name":"Skeleton Hotel","steam_id":76561198041704727,"connected_time":186000000000,"state":"active","ping":46},{"user_id":426,"name":"Tri-Dot","steam_id":76561199075186597,"connected_time":3748000000000,"state":"active","ping":68},{"user_id":472,"name":"Dark Clementine","steam_id":76561199061604280,"connected_time":186000000000,"state":"active","ping":59},{"user_id":473,"name":"durandal","steam_id":76561198419974243,"connected_time":181000000000,"state":"active","ping":75},{"user_id":474,"name":"AL","steam_id":76561198381136912,"connected_time":167000000000,"state":"active","ping":60},{"user_id":450,"name":"Cult of neurodivergency üè≥","steam_id":76561199112194007,"connected_time":2112000000000,"state":"active","ping":83},{"user_id":383,"name":"Your Loyal Familiar","steam_id":76561198106476075,"connected_time":6582000000000,"state":"active","ping":77},{"user_id":427,"name":"ShawnLmao","steam_id":76561198350691501,"connected_time":2994000000000,"state":"active","ping":82},{"user_id":447,"name":"Begrip","steam_id":76561198091990094,"connected_time":2286000000000,"state":"active","ping":68},{"user_id":411,"name":"0vii","steam_id":76561198117084598,"connected_time":5189000000000,"state":"active","ping":75},{"user_id":476,"name":"Drunk Driver","steam_id":76561199030493166,"connected_time":114000000000,"state":"active","ping":117}]},{"server_id":403,"name":"Uncletopia | Chicago | 4 | All Maps","name_short":"chi-4","host":"chi-1.us.uncletopia.com","port":27045,"enabled":true,"region":"us-central","cc":"us","latitude":41.881832,"longitude":-87.62318,"reserved":0,"last_update":"0001-01-01T00:00:00Z","name_a2s":"Uncletopia | Chicago | 4 | All Maps","protocol":17,"map":"pl_pier","folder":"tf","game":"Team Fortress","app_id":440,"player_count":24,"max_players":24,"Bots":0,"server_type":"Dedicated","server_os":"Linux","password":true,"vac":true,"version":"7932396","steam_id":85568392924515193,"keywords":["nocrits","nodmgspread","payload","uncletopia"],"game_id":440,"stv_port":27046,"stv_name":"Uncletopia | Chicago | 4 | All Maps | STV","players":[{"user_id":454,"name":"eat Pant","steam_id":76561197974965536,"connected_time":4500000000000,"state":"active","ping":61},{"user_id":468,"name":"D UCK","steam_id":76561198075844142,"connected_time":3073000000000,"state":"active","ping":52},{"user_id":475,"name":"The Horselords and Animal Gods","steam_id":76561197975094050,"connected_time":2788000000000,"state":"active","ping":102},{"user_id":477,"name":"ARegularJohnDoe","steam_id":76561198015020139,"connected_time":1990000000000,"state":"active","ping":57},{"user_id":476,"name":"brian eno","steam_id":76561198109901138,"connected_time":2237000000000,"state":"active","ping":72},{"user_id":486,"name":"dulg","steam_id":76561198127640309,"connected_time":937000000000,"state":"active","ping":83},{"user_id":481,"name":"jooby","steam_id":76561198131065492,"connected_time":1849000000000,"state":"active","ping":68},{"user_id":479,"name":"*","steam_id":76561198173047169,"connected_time":1880000000000,"state":"active","ping":60},{"user_id":438,"name":"Truffles","steam_id":76561198095868800,"connected_time":5546000000000,"state":"active","ping":83},{"user_id":462,"name":"Grand","steam_id":76561198290143399,"connected_time":3804000000000,"state":"active","ping":74},{"user_id":440,"name":"DanW","steam_id":76561198143707391,"connected_time":5405000000000,"state":"active","ping":67},{"user_id":482,"name":"Trainzack","steam_id":76561198009479333,"connected_time":1836000000000,"state":"active","ping":135},{"user_id":464,"name":"captainspatklz","steam_id":76561198432167270,"connected_time":3674000000000,"state":"active","ping":75},{"user_id":467,"name":"MEATBALL","steam_id":76561198028499312,"connected_time":3334000000000,"state":"active","ping":60},{"user_id":402,"name":"Ayylmao","steam_id":76561198104780147,"connected_time":8244000000000,"state":"active","ping":45},{"user_id":480,"name":"Random","steam_id":76561198318879454,"connected_time":1878000000000,"state":"active","ping":58},{"user_id":362,"name":"Swash","steam_id":76561197969421355,"connected_time":12388000000000,"state":"active","ping":60},{"user_id":485,"name":"Commodore","steam_id":76561198042112852,"connected_time":1297000000000,"state":"active","ping":66},{"user_id":463,"name":"hej","steam_id":76561197996366940,"connected_time":3709000000000,"state":"active","ping":60},{"user_id":450,"name":"Wuh oh","steam_id":76561198151746084,"connected_time":5013000000000,"state":"active","ping":85},{"user_id":483,"name":"Conk Creet","steam_id":76561198415850476,"connected_time":1814000000000,"state":"active","ping":55},{"user_id":484,"name":"BigFat","steam_id":76561198881765759,"connected_time":1773000000000,"state":"active","ping":91},{"user_id":460,"name":"But First You've Got To Get Mad","steam_id":76561197973496224,"connected_time":3946000000000,"state":"active","ping":67},{"user_id":366,"name":"Lia_Rein","steam_id":76561198151569597,"connected_time":11992000000000,"state":"active","ping":142}]},{"server_id":36,"name":"Uncletopia | Chicago | 5 | All Maps","name_short":"chi-5","host":"chi-2.us.uncletopia.com","port":27015,"enabled":true,"region":"us-central","cc":"us","latitude":41.881832,"longitude":-87.62318,"reserved":0,"last_update":"0001-01-01T00:00:00Z","name_a2s":"Uncletopia | Chicago | 5 | All Maps","protocol":17,"map":"cp_sunshine","folder":"tf","game":"Team Fortress","app_id":440,"player_count":22,"max_players":24,"Bots":0,"server_type":"Dedicated","server_os":"Linux","password":true,"vac":true,"version":"7932396","steam_id":85568392924866362,"keywords":["cp","nocrits","nodmgspread","uncletopia"],"game_id":440,"stv_port":27016,"stv_name":"Uncletopia | Chicago | 5 | All Maps | STV","players":[{"user_id":502,"name":"None of that $9.99 bullshit","steam_id":76561198116169903,"connected_time":1023000000000,"state":"active","ping":49},{"user_id":483,"name":"Anne Boonchuy","steam_id":76561198914114704,"connected_time":2526000000000,"state":"active","ping":103},{"user_id":479,"name":"AcousticMayo","steam_id":76561198041848354,"connected_time":2692000000000,"state":"active","ping":111},{"user_id":503,"name":"silverspark","steam_id":76561198277421732,"connected_time":992000000000,"state":"active","ping":107},{"user_id":528,"name":"Sipder","steam_id":76561198147474387,"connected_time":28000000000,"state":"spawning","ping":54},{"user_id":525,"name":"BrownMemeSter","steam_id":76561198113745020,"connected_time":202000000000,"state":"active","ping":70},{"user_id":482,"name":"solid skank","steam_id":76561198993837204,"connected_time":2672000000000,"state":"active","ping":67},{"user_id":504,"name":"Dodo","steam_id":76561198136880364,"connected_time":987000000000,"state":"active","ping":90},{"user_id":489,"name":"dwinos","steam_id":76561199067138402,"connected_time":1647000000000,"state":"active","ping":72},{"user_id":520,"name":"kite man","steam_id":76561198156336213,"connected_time":548000000000,"state":"active","ping":81},{"user_id":505,"name":"Jose.Gonzalez.2007","steam_id":76561198125709363,"connected_time":984000000000,"state":"active","ping":62},{"user_id":491,"name":"sheeum","steam_id":76561198277403366,"connected_time":1600000000000,"state":"active","ping":86},{"user_id":506,"name":"theredspycoo","steam_id":76561199417718007,"connected_time":976000000000,"state":"active","ping":97},{"user_id":529,"name":"touhou2010@gmail.com","steam_id":76561198045844070,"connected_time":26000000000,"state":"active","ping":66},{"user_id":510,"name":"checkswing","steam_id":76561198999816132,"connected_time":798000000000,"state":"active","ping":79},{"user_id":499,"name":"Demonica","steam_id":76561198841858340,"connected_time":1103000000000,"state":"active","ping":68},{"user_id":500,"name":"BreakfastTacos","steam_id":76561198847620442,"connected_time":1098000000000,"state":"active","ping":99},{"user_id":512,"name":"SaaxoM","steam_id":76561198208256603,"connected_time":770000000000,"state":"active","ping":61},{"user_id":518,"name":"RagingRoosevelt","steam_id":76561197985483153,"connected_time":573000000000,"state":"active","ping":96},{"user_id":515,"name":"‚ú™ goofbears -iwnl-","steam_id":76561199100831175,"connected_time":667000000000,"state":"active","ping":60},{"user_id":519,"name":"cliftoce","steam_id":76561197998912007,"connected_time":564000000000,"state":"active","ping":90},{"user_id":524,"name":"Bone Daddy","steam_id":76561198037836736,"connected_time":246000000000,"state":"active","ping":84}]},{"server_id":37,"name":"Uncletopia | Chicago | 6 | All Maps","name_short":"chi-6","host":"chi-2.us.uncletopia.com","port":27025,"enabled":true,"region":"us-central","cc":"us","latitude":41.881832,"longitude":-87.62318,"reserved":0,"last_update":"0001-01-01T00:00:00Z","name_a2s":"Uncletopia | Chicago | 6 | All Maps","protocol":17,"map":"koth_viaduct","folder":"tf","game":"Team Fortress","app_id":440,"player_count":21,"max_players":24,"Bots":0,"server_type":"Dedicated","server_os":"Linux","password":true,"vac":true,"version":"7932396","steam_id":85568392924866363,"keywords":["cp","nocrits","nodmgspread","uncletopia"],"game_id":440,"stv_port":27026,"stv_name":"Uncletopia | Chicago | 6 | All Maps | STV","players":[{"user_id":588,"name":"Fuzzy","steam_id":76561199100612353,"connected_time":146000000000,"state":"active","ping":58},{"user_id":529,"name":"Vladikr1","steam_id":76561198401495362,"connected_time":7400000000000,"state":"active","ping":58},{"user_id":580,"name":"Still Alive","steam_id":76561198042523000,"connected_time":736000000000,"state":"active","ping":55},{"user_id":570,"name":"AnonymousCritter","steam_id":76561198864475187,"connected_time":1980000000000,"state":"active","ping":53},{"user_id":564,"name":"C Papi","steam_id":76561198027779564,"connected_time":3501000000000,"state":"active","ping":51},{"user_id":590,"name":"Mutzy‚Ñ¢","steam_id":76561198085858203,"connected_time":52000000000,"state":"active","ping":58},{"user_id":544,"name":"Galmart","steam_id":76561199122036524,"connected_time":5961000000000,"state":"active","ping":77},{"user_id":571,"name":"herb","steam_id":76561198185980055,"connected_time":1952000000000,"state":"active","ping":64},{"user_id":567,"name":"Sumireko Gaming","steam_id":76561199013422135,"connected_time":2420000000000,"state":"active","ping":66},{"user_id":509,"name":"Walrusto","steam_id":76561198829644616,"connected_time":8753000000000,"state":"active","ping":79},{"user_id":587,"name":"eryn üó∫","steam_id":76561198004433070,"connected_time":281000000000,"state":"active","ping":110},{"user_id":589,"name":"BuCookie","steam_id":76561198089890170,"connected_time":99000000000,"state":"active","ping":86},{"user_id":491,"name":"trappy (washed)","steam_id":76561198402801140,"connected_time":9934000000000,"state":"active","ping":54},{"user_id":547,"name":"Help","steam_id":76561198316494223,"connected_time":5791000000000,"state":"active","ping":100},{"user_id":527,"name":"Xx_haZe_xX","steam_id":76561198243743666,"connected_time":8042000000000,"state":"active","ping":448},{"user_id":591,"name":"banan team fortes","steam_id":76561199073621650,"connected_time":40000000000,"state":"active","ping":101},{"user_id":386,"name":"daemon","steam_id":76561198001541433,"connected_time":18622000000000,"state":"active","ping":60},{"user_id":483,"name":"squash the beef","steam_id":76561198277163301,"connected_time":10721000000000,"state":"active","ping":67},{"user_id":585,"name":"jimmycricket","steam_id":76561199232877274,"connected_time":557000000000,"state":"active","ping":79},{"user_id":583,"name":"GoldtoothFour","steam_id":76561198055529332,"connected_time":675000000000,"state":"active","ping":55},{"user_id":569,"name":"DarkHero","steam_id":76561198197125710,"connected_time":2027000000000,"state":"active","ping":63}]},{"server_id":38,"name":"Uncletopia | Chicago | 7 | Stopwatch Beta","name_short":"chi-7","host":"chi-2.us.uncletopia.com","port":27035,"enabled":true,"region":"us-central","cc":"us","latitude":41.881832,"longitude":-87.62318,"reserved":0,"last_update":"0001-01-01T00:00:00Z","name_a2s":"Uncletopia | Chicago | 7 | Stopwatch Beta","protocol":17,"map":"pl_borneo","folder":"tf","game":"Team Fortress","app_id":440,"player_count":0,"max_players":24,"Bots":0,"server_type":"Dedicated","server_os":"Linux","password":true,"vac":true,"version":"7932396","steam_id":85568392924866364,"keywords":["nocrits","nodmgspread","payload","uncletopia"],"game_id":440,"stv_port":27036,"stv_name":"Uncletopia | Chicago | 7 | Stopwatch Beta | STV","players":null},{"server_id":39,"name":"Uncletopia | Chicago | 8 | Community","name_short":"chi-8","host":"chi-2.us.uncletopia.com","port":27045,"enabled":true,"region":"us-central","cc":"us","latitude":41.881832,"longitude":-87.62318,"reserved":0,"last_update":"0001-01-01T00:00:00Z","name_a2s":"Uncletopia | Chicago | 8 | Community","protocol":17,"map":"workshop/pl_cashworks_final1.ugc2904065412","folder":"tf","game":"Team Fortress","app_id":440,"player_count":12,"max_players":24,"Bots":0,"server_type":"Dedicated","server_os":"Linux","password":true,"vac":true,"version":"7932396","steam_id":85568392924866365,"keywords":["nocrits","nodmgspread","payload","uncletopia"],"game_id":440,"stv_port":27046,"stv_name":"Uncletopia | Chicago | 8 | Community | STV","players":[{"user_id":547,"name":"SleepyCanary","steam_id":76561198071770434,"connected_time":8222000000000,"state":"active","ping":110},{"user_id":612,"name":"TechnoBear2099","steam_id":76561198238863596,"connected_time":2589000000000,"state":"active","ping":66},{"user_id":628,"name":"G.bo","steam_id":76561198085176270,"connected_time":658000000000,"state":"active","ping":107},{"user_id":635,"name":"Chryx","steam_id":76561198798966157,"connected_time":17000000000,"state":"spawning","ping":306},{"user_id":634,"name":"Aldinach","steam_id":76561198079912615,"connected_time":201000000000,"state":"active","ping":45},{"user_id":590,"name":"Jork","steam_id":76561198121415366,"connected_time":4285000000000,"state":"active","ping":84},{"user_id":633,"name":"mogwaihudson","steam_id":76561199486770715,"connected_time":270000000000,"state":"active","ping":134},{"user_id":632,"name":"Danmar33","steam_id":76561198056453091,"connected_time":422000000000,"state":"active","ping":60},{"user_id":608,"name":"JSlayz","steam_id":76561198853768655,"connected_time":2845000000000,"state":"active","ping":44},{"user_id":548,"name":"Eggregis-Thumbs","steam_id":76561198310566277,"connected_time":8222000000000,"state":"active","ping":56},{"user_id":626,"name":"‚òÇBliffenstimmers‚òÇ","steam_id":76561198059984896,"connected_time":831000000000,"state":"active","ping":84},{"user_id":591,"name":"Skiddy","steam_id":76561198125942665,"connected_time":4265000000000,"state":"active","ping":70}]},{"server_id":8,"name":"Uncletopia | Dallas | 1 | All Maps","name_short":"dal-1","host":"dal-1.us.uncletopia.com","port":27015,"enabled":true,"region":"us-central","cc":"us","latitude":32.779167,"longitude":-96.80889,"reserved":0,"last_update":"0001-01-01T00:00:00Z","name_a2s":"Uncletopia | Dallas | 1 | All Maps","protocol":17,"map":"pl_snowycoast","folder":"tf","game":"Team Fortress","app_id":440,"player_count":21,"max_players":24,"Bots":0,"server_type":"Dedicated","server_os":"Linux","password":true,"vac":true,"version":"7932396","steam_id":85568392924469986,"keywords":["nocrits","nodmgspread","payload","uncletopia"],"game_id":440,"stv_port":27016,"stv_name":"Uncletopia | Dallas | 1 | All Maps | STV","players":[{"user_id":456,"name":"ChottoAMinute","steam_id":76561198873157775,"connected_time":3807000000000,"state":"active","ping":40},{"user_id":471,"name":"MikeMan232","steam_id":76561197991652472,"connected_time":2299000000000,"state":"active","ping":96},{"user_id":458,"name":"Tommy Provolone","steam_id":76561198170062377,"connected_time":3252000000000,"state":"active","ping":61},{"user_id":466,"name":"LittleFieryOne","steam_id":76561198107463724,"connected_time":2708000000000,"state":"active","ping":79},{"user_id":537,"name":"Local Babyfur Unicorn","steam_id":76561198155526516,"connected_time":41000000000,"state":"active","ping":34},{"user_id":534,"name":"MoonWolf","steam_id":76561198095735033,"connected_time":438000000000,"state":"active","ping":60},{"user_id":526,"name":"FanaticSalt","steam_id":76561199380123059,"connected_time":794000000000,"state":"active","ping":42},{"user_id":527,"name":"SaxyThePhone","steam_id":76561199439167761,"connected_time":743000000000,"state":"active","ping":74},{"user_id":433,"name":"Ghetto Smosh Fan","steam_id":76561198097272509,"connected_time":6222000000000,"state":"active","ping":48},{"user_id":538,"name":"Scout","steam_id":76561198140517330,"connected_time":12000000000,"state":"spawning","ping":63},{"user_id":445,"name":"GLG MUTT","steam_id":76561198147785541,"connected_time":5125000000000,"state":"active","ping":59},{"user_id":474,"name":"Bird","steam_id":76561198231624620,"connected_time":2109000000000,"state":"active","ping":61},{"user_id":518,"name":"Malevolo Cucaracho","steam_id":76561198055822497,"connected_time":1044000000000,"state":"active","ping":128},{"user_id":462,"name":"GLG.Liz","steam_id":76561198021957956,"connected_time":3187000000000,"state":"active","ping":46},{"user_id":535,"name":"Omegalite","steam_id":76561198796787101,"connected_time":283000000000,"state":"active","ping":50},{"user_id":525,"name":"sapphoroth","steam_id":76561198062263639,"connected_time":853000000000,"state":"active","ping":48},{"user_id":473,"name":"Arcana","steam_id":76561198120924164,"connected_time":2282000000000,"state":"active","ping":70},{"user_id":533,"name":"HanakoToast","steam_id":76561198045233131,"connected_time":507000000000,"state":"active","ping":76},{"user_id":451,"name":"cypherzero","steam_id":76561199182960322,"connected_time":4940000000000,"state":"active","ping":51},{"user_id":491,"name":"Motreir","steam_id":76561198151717946,"connected_time":1617000000000,"state":"active","ping":77},{"user_id":536,"name":"geen","steam_id":76561197999318398,"connected_time":76000000000,"state":"active","ping":73}]},{"server_id":108,"name":"Uncletopia | Dallas | 2 | All Maps","name_short":"dal-2","host":"dal-1.us.uncletopia.com","port":27025,"enabled":true,"region":"us-central","cc":"us","latitude":32.779167,"longitude":-96.80889,"reserved":0,"last_update":"0001-01-01T00:00:00Z","name_a2s":"Uncletopia | Dallas | 2 | All Maps","protocol":17,"map":"pl_badwater","folder":"tf","game":"Team Fortress","app_id":440,"player_count":19,"max_players":24,"Bots":0,"server_type":"Dedicated","server_os":"Linux","password":true,"vac":true,"version":"7932396","steam_id":85568392924469988,"keywords":["nocrits","nodmgspread","payload","uncletopia"],"game_id":440,"stv_port":27026,"stv_name":"Uncletopia | Dallas | 2 | All Maps | STV","players":[{"user_id":297,"name":"SwiftChuck","steam_id":76561199023362169,"connected_time":1265000000000,"state":"active","ping":39},{"user_id":270,"name":"Bunni","steam_id":76561198065169997,"connected_time":5026000000000,"state":"active","ping":104},{"user_id":199,"name":"aisu","steam_id":76561198043768507,"connected_time":11408000000000,"state":"active","ping":79},{"user_id":263,"name":"Booboo Kitty","steam_id":76561198192459727,"connected_time":5724000000000,"state":"active","ping":90},{"user_id":301,"name":"WalrusNyetheBonkGuy","steam_id":76561197995626774,"connected_time":53000000000,"state":"active","ping":94},{"user_id":296,"name":"JimPlatinum","steam_id":76561198950714198,"connected_time":1306000000000,"state":"active","ping":69},{"user_id":300,"name":"lucasgamer4life","steam_id":76561198129816242,"connected_time":187000000000,"state":"active","ping":83},{"user_id":284,"name":"Faraday","steam_id":76561198089928357,"connected_time":2822000000000,"state":"active","ping":51},{"user_id":239,"name":"Clumsy","steam_id":76561198056345245,"connected_time":8640000000000,"state":"active","ping":61},{"user_id":257,"name":"HAT-WEARING‚Ñ¢ Maggot Gamer Cat","steam_id":76561197973992705,"connected_time":7148000000000,"state":"active","ping":87},{"user_id":285,"name":"Bean Marrow","steam_id":76561198116650223,"connected_time":2790000000000,"state":"active","ping":63},{"user_id":302,"name":"JayAyVee","steam_id":76561198292402299,"connected_time":3000000000,"state":"spawning","ping":67},{"user_id":286,"name":"Cagnus Marlsen","steam_id":76561198063341193,"connected_time":2726000000000,"state":"active","ping":41},{"user_id":287,"name":"Onyx","steam_id":76561198275349640,"connected_time":2706000000000,"state":"active","ping":58},{"user_id":288,"name":"Zippy","steam_id":76561198279229422,"connected_time":2665000000000,"state":"active","ping":85},{"user_id":293,"name":"SleeplessCollin","steam_id":76561198968140914,"connected_time":1910000000000,"state":"active","ping":60},{"user_id":275,"name":"Dr Oshawott","steam_id":76561198042021629,"connected_time":4048000000000,"state":"active","ping":86},{"user_id":282,"name":"parkace","steam_id":76561198079476666,"connected_time":3326000000000,"state":"active","ping":69},{"user_id":281,"name":"ash","steam_id":76561198127890645,"connected_time":3733000000000,"state":"active","ping":87}]},{"server_id":5,"name":"Uncletopia | Frankfurt | 1 | All Maps","name_short":"frk-1","host":"frk-1.de.uncletopia.com","port":27015,"enabled":true,"region":"eu","cc":"de","latitude":50.110924,"longitude":8.682127,"reserved":0,"last_update":"0001-01-01T00:00:00Z","name_a2s":"Uncletopia | Frankfurt | 1 | All Maps","protocol":17,"map":"pl_badwater","folder":"tf","game":"Team Fortress","app_id":440,"player_count":0,"max_players":24,"Bots":0,"server_type":"Dedicated","server_os":"Linux","password":true,"vac":true,"version":"7932396","steam_id":85568392924469989,"keywords":["nocrits","nodmgspread","payload","uncletopia"],"game_id":440,"stv_port":27016,"stv_name":"Uncletopia | Frankfurt | 1 | All Maps | STV","players":null},{"server_id":110,"name":"Uncletopia | Frankfurt | 2 | All Maps","name_short":"frk-2","host":"frk-1.de.uncletopia.com","port":27025,"enabled":true,"region":"eu","cc":"de","latitude":50.110924,"longitude":8.682127,"reserved":0,"last_update":"0001-01-01T00:00:00Z","name_a2s":"Uncletopia | Frankfurt | 2 | All Maps","protocol":17,"map":"pl_borneo","folder":"tf","game":"Team Fortress","app_id":440,"player_count":0,"max_players":24,"Bots":0,"server_type":"Dedicated","server_os":"Linux","password":true,"vac":true,"version":"7932396","steam_id":85568392924469990,"keywords":["nocrits","nodmgspread","payload","uncletopia"],"game_id":440,"stv_port":27026,"stv_name":"Uncletopia | Frankfurt | 2 | All Maps | STV","players":null},{"server_id":308,"name":"Uncletopia | Frankfurt | 3 | All Maps","name_short":"frk-3","host":"frk-1.de.uncletopia.com","port":27035,"enabled":true,"region":"eu","cc":"de","latitude":50.110924,"longitude":8.682127,"reserved":0,"last_update":"0001-01-01T00:00:00Z","name_a2s":"Uncletopia | Frankfurt | 3 | All Maps","protocol":17,"map":"pl_badwater","folder":"tf","game":"Team Fortress","app_id":440,"player_count":0,"max_players":24,"Bots":0,"server_type":"Dedicated","server_os":"Linux","password":true,"vac":true,"version":"7932396","steam_id":85568392924504274,"keywords":["nocrits","nodmgspread","payload","uncletopia"],"game_id":440,"stv_port":27036,"stv_name":"Uncletopia | Frankfurt | 3 | All Maps | STV","players":null},{"server_id":309,"name":"Uncletopia | Frankfurt | 4 | All Maps","name_short":"frk-4","host":"frk-1.de.uncletopia.com","port":27045,"enabled":true,"region":"eu","cc":"de","latitude":50.110924,"longitude":8.682127,"reserved":0,"last_update":"0001-01-01T00:00:00Z","name_a2s":"Uncletopia | Frankfurt | 4 | All Maps","protocol":17,"map":"pl_upward","folder":"tf","game":"Team Fortress","app_id":440,"player_count":0,"max_players":24,"Bots":0,"server_type":"Dedicated","server_os":"Linux","password":true,"vac":true,"version":"7932396","steam_id":85568392924504275,"keywords":["nocrits","nodmgspread","payload","uncletopia"],"game_id":440,"stv_port":27046,"stv_name":"Uncletopia | Frankfurt | 4 | All Maps | STV","players":null},{"server_id":310,"name":"Uncletopia | Frankfurt | 5 | All Maps","name_short":"frk-5","host":"frk-1.de.uncletopia.com","port":27055,"enabled":true,"region":"eu","cc":"de","latitude":50.110924,"longitude":8.682127,"reserved":0,"last_update":"0001-01-01T00:00:00Z","name_a2s":"Uncletopia | Frankfurt | 5 | All Maps","protocol":17,"map":"pl_badwater","folder":"tf","game":"Team Fortress","app_id":440,"player_count":0,"max_players":24,"Bots":0,"server_type":"Dedicated","server_os":"Linux","password":true,"vac":true,"version":"7932396","steam_id":85568392924504277,"keywords":["nocrits","nodmgspread","payload","uncletopia"],"game_id":440,"stv_port":27056,"stv_name":"Uncletopia | Frankfurt | 5 | All Maps | STV","players":null},{"server_id":311,"name":"Uncletopia | Frankfurt | 6 | All Maps","name_short":"frk-6","host":"frk-1.de.uncletopia.com","port":27065,"enabled":true,"region":"eu","cc":"de","latitude":50.110924,"longitude":8.682127,"reserved":0,"last_update":"0001-01-01T00:00:00Z","name_a2s":"Uncletopia | Frankfurt | 6 | All Maps","protocol":17,"map":"koth_viaduct","folder":"tf","game":"Team Fortress","app_id":440,"player_count":0,"max_players":24,"Bots":0,"server_type":"Dedicated","server_os":"Linux","password":true,"vac":true,"version":"7932396","steam_id":85568392924504278,"keywords":["cp","nocrits","nodmgspread","uncletopia"],"game_id":440,"stv_port":27066,"stv_name":"Uncletopia | Frankfurt | 6 | All Maps | STV","players":null},{"server_id":23,"name":"Uncletopia | Frankfurt | 7 | Stopwatch Beta","name_short":"frk-7","host":"frk-1.de.uncletopia.com","port":27075,"enabled":true,"region":"eu","cc":"de","latitude":50.110924,"longitude":8.682127,"reserved":0,"last_update":"0001-01-01T00:00:00Z","name_a2s":"Uncletopia | Frankfurt | 7 | Stopwatch Beta","protocol":17,"map":"pl_snowycoast","folder":"tf","game":"Team Fortress","app_id":440,"player_count":0,"max_players":24,"Bots":0,"server_type":"Dedicated","server_os":"Linux","password":true,"vac":true,"version":"7932396","steam_id":85568392924742827,"keywords":["nocrits","nodmgspread","payload","uncletopia"],"game_id":440,"stv_port":27076,"stv_name":"Uncletopia | Frankfurt | 7 | Stopwatch Beta | STV","players":null},{"server_id":24,"name":"Uncletopia | Frankfurt | 8 | Community","name_short":"frk-8","host":"frk-1.de.uncletopia.com","port":27085,"enabled":true,"region":"eu","cc":"de","latitude":50.110924,"longitude":8.682127,"reserved":0,"last_update":"0001-01-01T00:00:00Z","name_a2s":"Uncletopia | Frankfurt | 8 | Community","protocol":17,"map":"pl_barnblitz","folder":"tf","game":"Team Fortress","app_id":440,"player_count":0,"max_players":24,"Bots":0,"server_type":"Dedicated","server_os":"Linux","password":true,"vac":true,"version":"7932396","steam_id":85568392924742828,"keywords":["nocrits","nodmgspread","payload","uncletopia"],"game_id":440,"stv_port":27086,"stv_name":"Uncletopia | Frankfurt | 8 | Community | STV","players":null},{"server_id":202,"name":"Uncletopia | Hong Kong | 1 | All Maps","name_short":"hgk-1","host":"hgk-1.hk.uncletopia.com","port":27015,"enabled":true,"region":"asia","cc":"hk","latitude":22.302711,"longitude":114.177216,"reserved":0,"last_update":"0001-01-01T00:00:00Z","name_a2s":"Uncletopia | Hong Kong | 1 | All Maps","protocol":17,"map":"pl_snowycoast","folder":"tf","game":"Team Fortress","app_id":440,"player_count":24,"max_players":24,"Bots":0,"server_type":"Dedicated","server_os":"Linux","password":true,"vac":true,"version":"7932396","steam_id":85568392924494504,"keywords":["nocrits","nodmgspread","payload","uncletopia"],"game_id":440,"stv_port":27016,"stv_name":"Uncletopia | Hong Kong | 1 | All Maps | STV","players":[{"user_id":71,"name":"something malicious is brewing ","steam_id":76561198074339034,"connected_time":611000000000,"state":"active","ping":75},{"user_id":64,"name":"ÂÖâÂ§¥Âº∫","steam_id":76561198045255591,"connected_time":1309000000000,"state":"active","ping":116},{"user_id":53,"name":"screaming sniper","steam_id":76561199085568674,"connected_time":2203000000000,"state":"active","ping":76},{"user_id":24,"name":"MS PowerPoint","steam_id":76561198369523192,"connected_time":3948000000000,"state":"active","ping":72},{"user_id":28,"name":"Hay","steam_id":76561199438952901,"connected_time":3518000000000,"state":"active","ping":54},{"user_id":26,"name":"KUZCO","steam_id":76561198115298835,"connected_time":3573000000000,"state":"active","ping":66},{"user_id":65,"name":"Shotty 2 Hotty","steam_id":76561199174449723,"connected_time":1130000000000,"state":"active","ping":117},{"user_id":73,"name":"Lu","steam_id":76561198320532821,"connected_time":439000000000,"state":"active","ping":61},{"user_id":54,"name":"17","steam_id":76561198241530712,"connected_time":2111000000000,"state":"active","ping":60},{"user_id":45,"name":"qb_r","steam_id":76561198412329672,"connected_time":2819000000000,"state":"active","ping":90},{"user_id":58,"name":"Samoyed","steam_id":76561198299150410,"connected_time":1805000000000,"state":"active","ping":103},{"user_id":74,"name":"Ê≠ª","steam_id":76561198240766004,"connected_time":407000000000,"state":"active","ping":86},{"user_id":37,"name":"hotgamerth","steam_id":76561199026418153,"connected_time":3182000000000,"state":"active","ping":100},{"user_id":75,"name":"Yoimiya","steam_id":76561198813103989,"connected_time":368000000000,"state":"active","ping":75},{"user_id":38,"name":"Dokutah, Husband of W","steam_id":76561199273390091,"connected_time":3174000000000,"state":"active","ping":59},{"user_id":39,"name":"wom","steam_id":76561199375834537,"connected_time":3129000000000,"state":"active","ping":77},{"user_id":72,"name":"ÍπÄÍ¥ëÎßå","steam_id":76561198295279503,"connected_time":516000000000,"state":"active","ping":109},{"user_id":67,"name":"SICSIN","steam_id":76561198083923462,"connected_time":1022000000000,"state":"active","ping":75},{"user_id":76,"name":"NOPE","steam_id":76561199244543572,"connected_time":353000000000,"state":"active","ping":65},{"user_id":49,"name":"KHMaster","steam_id":76561199198453345,"connected_time":2510000000000,"state":"active","ping":68},{"user_id":77,"name":"Med","steam_id":76561199087727164,"connected_time":239000000000,"state":"active","ping":91},{"user_id":48,"name":"Yo","steam_id":76561199071452693,"connected_time":2655000000000,"state":"active","ping":108},{"user_id":50,"name":"Ivy","steam_id":76561199020222424,"connected_time":2488000000000,"state":"active","ping":123},{"user_id":78,"name":"why wont my gun shoot?","steam_id":76561199249938987,"connected_time":234000000000,"state":"active","ping":43}]},{"server_id":1,"name":"Uncletopia | Los Angeles | 1 | All Maps","name_short":"lax-1","host":"lax-1.us.uncletopia.com","port":27015,"enabled":true,"region":"us-west","cc":"us","latitude":33.94279,"longitude":-118.41004,"reserved":0,"last_update":"0001-01-01T00:00:00Z","name_a2s":"Uncletopia | Los Angeles | 1 | All Maps","protocol":17,"map":"pl_goldrush","folder":"tf","game":"Team Fortress","app_id":440,"player_count":24,"max_players":24,"Bots":0,"server_type":"Dedicated","server_os":"Linux","password":true,"vac":true,"version":"7932396","steam_id":85568392924469991,"keywords":["nocrits","nodmgspread","payload","uncletopia"],"game_id":440,"stv_port":27016,"stv_name":"Uncletopia | Los Angeles | 1 | All Maps | STV","players":[{"user_id":376,"name":"5mech","steam_id":76561198979167520,"connected_time":9000000000,"state":"spawning","ping":136},{"user_id":365,"name":"a chicken","steam_id":76561198313121580,"connected_time":936000000000,"state":"active","ping":45},{"user_id":369,"name":"Goth Spy Boyfriend","steam_id":76561198104086771,"connected_time":338000000000,"state":"active","ping":46},{"user_id":359,"name":"Bheem","steam_id":76561198170453459,"connected_time":1463000000000,"state":"active","ping":74},{"user_id":360,"name":"arnosra21","steam_id":76561199128386600,"connected_time":1440000000000,"state":"active","ping":67},{"user_id":340,"name":"Sahalanthro","steam_id":76561199073298722,"connected_time":2595000000000,"state":"active","ping":47},{"user_id":347,"name":"Feel the bern","steam_id":76561198078824519,"connected_time":1883000000000,"state":"active","ping":47},{"user_id":330,"name":"Hindmost","steam_id":76561199081837220,"connected_time":3095000000000,"state":"active","ping":96},{"user_id":364,"name":"slingo","steam_id":76561198010022856,"connected_time":1056000000000,"state":"active","ping":88},{"user_id":370,"name":"(retro)","steam_id":76561199039424313,"connected_time":213000000000,"state":"active","ping":86},{"user_id":328,"name":"flo rida","steam_id":76561198226169704,"connected_time":3167000000000,"state":"active","ping":53},{"user_id":263,"name":"..flop","steam_id":76561197989058876,"connected_time":7260000000000,"state":"active","ping":79},{"user_id":349,"name":"ejschild745","steam_id":76561199013388867,"connected_time":1854000000000,"state":"active","ping":99},{"user_id":350,"name":"what da dog doin","steam_id":76561198090573639,"connected_time":1786000000000,"state":"active","ping":54},{"user_id":374,"name":"xbox record that","steam_id":76561198150117455,"connected_time":174000000000,"state":"active","ping":55},{"user_id":280,"name":"vioxynteris","steam_id":76561198161428666,"connected_time":6126000000000,"state":"active","ping":32},{"user_id":334,"name":"porksoda","steam_id":76561198021451377,"connected_time":2829000000000,"state":"active","ping":76},{"user_id":371,"name":"Mr8bittripper","steam_id":76561198133894229,"connected_time":207000000000,"state":"active","ping":79},{"user_id":375,"name":"Hope-1","steam_id":76561198216917887,"connected_time":35000000000,"state":"active","ping":88},{"user_id":358,"name":"vuldrin","steam_id":76561198383695069,"connected_time":1511000000000,"state":"active","ping":63},{"user_id":373,"name":"Hawksgamer","steam_id":76561198152405941,"connected_time":191000000000,"state":"active","ping":80},{"user_id":366,"name":"McDonald","steam_id":76561199028533497,"connected_time":582000000000,"state":"active","ping":53},{"user_id":355,"name":"sweaterfan","steam_id":76561199389567214,"connected_time":1560000000000,"state":"active","ping":100},{"user_id":356,"name":"scamchez","steam_id":76561198447562701,"connected_time":1550000000000,"state":"active","ping":69}]},{"server_id":112,"name":"Uncletopia | Los Angeles | 2 | All Maps","name_short":"lax-2","host":"lax-1.us.uncletopia.com","port":27025,"enabled":true,"region":"us-west","cc":"us","latitude":33.94279,"longitude":-118.41004,"reserved":0,"last_update":"0001-01-01T00:00:00Z","name_a2s":"Uncletopia | Los Angeles | 2 | All Maps","protocol":17,"map":"cp_dustbowl","folder":"tf","game":"Team Fortress","app_id":440,"player_count":23,"max_players":24,"Bots":0,"server_type":"Dedicated","server_os":"Linux","password":true,"vac":true,"version":"7932396","steam_id":85568392924469992,"keywords":["cp","nocrits","nodmgspread","uncletopia"],"game_id":440,"stv_port":27026,"stv_name":"Uncletopia | Los Angeles | 2 | All Maps | STV","players":[{"user_id":447,"name":"tweet","steam_id":76561198166515735,"connected_time":2981000000000,"state":"active","ping":53},{"user_id":466,"name":"MALWARE9000","steam_id":76561198065238093,"connected_time":1170000000000,"state":"active","ping":98},{"user_id":472,"name":"A Mexican Guy","steam_id":76561198324944145,"connected_time":498000000000,"state":"active","ping":81},{"user_id":471,"name":"Throatwobbler Mangrove","steam_id":76561198334044006,"connected_time":562000000000,"state":"active","ping":39},{"user_id":423,"name":"dairy delinquent","steam_id":76561198971552734,"connected_time":4590000000000,"state":"active","ping":37},{"user_id":456,"name":"Person Man","steam_id":76561198293857963,"connected_time":2078000000000,"state":"active","ping":66},{"user_id":451,"name":"An00bis","steam_id":76561198044084508,"connected_time":2580000000000,"state":"active","ping":45},{"user_id":371,"name":"123","steam_id":76561198106308056,"connected_time":7821000000000,"state":"active","ping":178},{"user_id":429,"name":"DrWilloughby","steam_id":76561198095260357,"connected_time":4182000000000,"state":"active","ping":67},{"user_id":421,"name":"perc 10","steam_id":76561198116471653,"connected_time":4612000000000,"state":"active","ping":53},{"user_id":463,"name":"SCUD missile up your ass","steam_id":76561198066452726,"connected_time":1510000000000,"state":"active","ping":46},{"user_id":440,"name":"Mimi","steam_id":76561198069220874,"connected_time":3452000000000,"state":"active","ping":59},{"user_id":469,"name":"Oof","steam_id":76561198353567674,"connected_time":945000000000,"state":"active","ping":56},{"user_id":374,"name":"riSygneD","steam_id":76561198331618687,"connected_time":7737000000000,"state":"active","ping":31},{"user_id":428,"name":"Galactamarx","steam_id":76561198028065755,"connected_time":4198000000000,"state":"active","ping":96},{"user_id":424,"name":"beeble!","steam_id":76561198219538525,"connected_time":4585000000000,"state":"active","ping":87},{"user_id":473,"name":"fonz!E","steam_id":76561197987165510,"connected_time":497000000000,"state":"active","ping":49},{"user_id":465,"name":"Sky","steam_id":76561198097549374,"connected_time":1439000000000,"state":"active","ping":85},{"user_id":453,"name":"Squatter1","steam_id":76561198078987734,"connected_time":2472000000000,"state":"active","ping":79},{"user_id":458,"name":"zuna","steam_id":76561199038981515,"connected_time":2075000000000,"state":"active","ping":49},{"user_id":474,"name":"Escapist Robot","steam_id":76561198121501913,"connected_time":369000000000,"state":"active","ping":58},{"user_id":414,"name":"Moonlily","steam_id":76561198852670061,"connected_time":5263000000000,"state":"active","ping":78},{"user_id":475,"name":"Your Favorite Fearless Hero","steam_id":76561199127590316,"connected_time":353000000000,"state":"active","ping":76}]},{"server_id":324,"name":"Uncletopia | Los Angeles | 3 | All Maps","name_short":"lax-3","host":"lax-1.us.uncletopia.com","port":27035,"enabled":true,"region":"us-west","cc":"us","latitude":33.94279,"longitude":-118.41004,"reserved":0,"last_update":"0001-01-01T00:00:00Z","name_a2s":"Uncletopia | Los Angeles | 3 | All Maps","protocol":17,"map":"pl_pier","folder":"tf","game":"Team Fortress","app_id":440,"player_count":24,"max_players":24,"Bots":0,"server_type":"Dedicated","server_os":"Linux","password":true,"vac":true,"version":"7932396","steam_id":85568392924510198,"keywords":["nocrits","nodmgspread","payload","uncletopia"],"game_id":440,"stv_port":27036,"stv_name":"Uncletopia | Los Angeles | 3 | All Maps | STV","players":[{"user_id":443,"name":"Starkiller","steam_id":76561198101643120,"connected_time":1184000000000,"state":"active","ping":79},{"user_id":463,"name":"Jasonnator","steam_id":76561198308017082,"connected_time":19000000000,"state":"active","ping":93},{"user_id":451,"name":"dyyd7706","steam_id":76561199230461523,"connected_time":894000000000,"state":"active","ping":119},{"user_id":458,"name":"I. C. Wiener","steam_id":76561198062777610,"connected_time":490000000000,"state":"active","ping":41},{"user_id":404,"name":"Conbud","steam_id":76561198046954825,"connected_time":4776000000000,"state":"active","ping":109},{"user_id":441,"name":"Shabooyaroll-call","steam_id":76561198112306237,"connected_time":1283000000000,"state":"active","ping":57},{"user_id":459,"name":"Gary Sinfeld","steam_id":76561198042274074,"connected_time":461000000000,"state":"active","ping":75},{"user_id":440,"name":"2Fort Cactus","steam_id":76561199273395913,"connected_time":1457000000000,"state":"active","ping":82},{"user_id":461,"name":"Raian","steam_id":76561199138048671,"connected_time":257000000000,"state":"active","ping":41},{"user_id":420,"name":"Alex YiiK","steam_id":76561199086339263,"connected_time":3121000000000,"state":"active","ping":85},{"user_id":456,"name":"JaxWuzHere","steam_id":76561199104731312,"connected_time":662000000000,"state":"active","ping":62},{"user_id":395,"name":"taunt kill warrior","steam_id":76561198072515851,"connected_time":5043000000000,"state":"active","ping":55},{"user_id":452,"name":"nerfthemedium","steam_id":76561198179833102,"connected_time":882000000000,"state":"active","ping":63},{"user_id":426,"name":"Mr. Carfox","steam_id":76561198041664428,"connected_time":2506000000000,"state":"active","ping":50},{"user_id":453,"name":"MetaGamingYT","steam_id":76561199012319554,"connected_time":878000000000,"state":"active","ping":58},{"user_id":397,"name":"Red","steam_id":76561198009772689,"connected_time":4920000000000,"state":"active","ping":105},{"user_id":416,"name":"breakfast","steam_id":76561198043712978,"connected_time":3995000000000,"state":"active","ping":67},{"user_id":460,"name":"Dive(z)","steam_id":76561198140843225,"connected_time":381000000000,"state":"active","ping":71},{"user_id":438,"name":"Catherine","steam_id":76561198125233120,"connected_time":1646000000000,"state":"active","ping":58},{"user_id":439,"name":"holy moly","steam_id":76561198954734348,"connected_time":1644000000000,"state":"active","ping":45},{"user_id":454,"name":"Schnitz","steam_id":76561198265484253,"connected_time":860000000000,"state":"active","ping":58},{"user_id":391,"name":"Phaze","steam_id":76561198025267071,"connected_time":5242000000000,"state":"active","ping":84},{"user_id":462,"name":"‚ô†Silver‚ô†","steam_id":76561198206109224,"connected_time":222000000000,"state":"active","ping":107},{"user_id":455,"name":"Toastee","steam_id":76561198085410969,"connected_time":840000000000,"state":"active","ping":100}]},{"server_id":25,"name":"Uncletopia | Los Angeles | 4 | Stopwatch Beta","name_short":"lax-4","host":"lax-1.us.uncletopia.com","port":27045,"enabled":true,"region":"us-west","cc":"us","latitude":33.94279,"longitude":-118.41004,"reserved":0,"last_update":"0001-01-01T00:00:00Z","name_a2s":"Uncletopia | Los Angeles | 4 | Stopwatch Beta","protocol":17,"map":"koth_highpass","folder":"tf","game":"Team Fortress","app_id":440,"player_count":20,"max_players":24,"Bots":0,"server_type":"Dedicated","server_os":"Linux","password":true,"vac":true,"version":"7932396","steam_id":85568392924510199,"keywords":["cp","nocrits","nodmgspread","uncletopia"],"game_id":440,"stv_port":27046,"stv_name":"Uncletopia | Los Angeles | 4 | Stopwatch Beta | STV","players":[{"user_id":135,"name":"DerpyDewott","steam_id":76561198132860765,"connected_time":1980000000000,"state":"active","ping":58},{"user_id":134,"name":"Super Saiyan Bear","steam_id":76561198063118280,"connected_time":2011000000000,"state":"active","ping":60},{"user_id":142,"name":"Klip","steam_id":76561198316254429,"connected_time":1460000000000,"state":"active","ping":83},{"user_id":86,"name":"Misty Blu ‚úø","steam_id":76561198011442255,"connected_time":6558000000000,"state":"active","ping":46},{"user_id":140,"name":"Taco+Taco=Burrito","steam_id":76561198063128663,"connected_time":1670000000000,"state":"active","ping":44},{"user_id":141,"name":"johnman gooberguy","steam_id":76561199014859764,"connected_time":1619000000000,"state":"active","ping":71},{"user_id":143,"name":"The Assistant Regional Manager","steam_id":76561199221484936,"connected_time":1426000000000,"state":"active","ping":79},{"user_id":145,"name":"Legendstorm09","steam_id":76561199131721629,"connected_time":1290000000000,"state":"active","ping":103},{"user_id":144,"name":"sams","steam_id":76561199093161260,"connected_time":1314000000000,"state":"active","ping":69},{"user_id":153,"name":"Scorpion","steam_id":76561198325651066,"connected_time":664000000000,"state":"active","ping":74},{"user_id":158,"name":"Tacobell","steam_id":76561197963619134,"connected_time":146000000000,"state":"active","ping":62},{"user_id":68,"name":"Mr_Moose","steam_id":76561198152815154,"connected_time":8829000000000,"state":"active","ping":82},{"user_id":115,"name":"naturia","steam_id":76561198092317849,"connected_time":4290000000000,"state":"active","ping":45},{"user_id":116,"name":"-_-","steam_id":76561198048754646,"connected_time":4286000000000,"state":"active","ping":44},{"user_id":149,"name":"Jomdac","steam_id":76561198150447896,"connected_time":837000000000,"state":"active","ping":46},{"user_id":150,"name":"Garfelf","steam_id":76561198419850129,"connected_time":798000000000,"state":"active","ping":107},{"user_id":38,"name":"Allison Ghost ‚∏ª‚∏ª‚∏ª‚∏∫‚∏∫","steam_id":76561198053851548,"connected_time":10454000000000,"state":"active","ping":74},{"user_id":42,"name":"Battle Engineer","steam_id":76561198145396989,"connected_time":10350000000000,"state":"active","ping":45},{"user_id":159,"name":"lasagnalarry12","steam_id":76561198162688146,"connected_time":12000000000,"state":"spawning","ping":60},{"user_id":154,"name":"Axelfreeze14","steam_id":76561198436383913,"connected_time":658000000000,"state":"active","ping":76}]},{"server_id":11,"name":"Uncletopia | London | 1 | All Maps","name_short":"lon-1","host":"lon-1.uk.uncletopia.com","port":27015,"enabled":true,"region":"eu","cc":"gb","latitude":51.509865,"longitude":-0.118092,"reserved":0,"last_update":"0001-01-01T00:00:00Z","name_a2s":"Uncletopia | London | 1 | All Maps","protocol":17,"map":"koth_cascade","folder":"tf","game":"Team Fortress","app_id":440,"player_count":0,"max_players":24,"Bots":0,"server_type":"Dedicated","server_os":"Linux","password":true,"vac":true,"version":"7932396","steam_id":85568392924367362,"keywords":["cp","nocrits","nodmgspread","uncletopia"],"game_id":440,"stv_port":27016,"stv_name":"Uncletopia | London | 1 | All Maps | STV","players":null},{"server_id":114,"name":"Uncletopia | London | 2 | All Maps","name_short":"lon-2","host":"lon-1.uk.uncletopia.com","port":27025,"enabled":true,"region":"eu","cc":"gb","latitude":51.509865,"longitude":-0.118092,"reserved":0,"last_update":"0001-01-01T00:00:00Z","name_a2s":"Uncletopia | London | 2 | All Maps","protocol":17,"map":"koth_lakeside_final","folder":"tf","game":"Team Fortress","app_id":440,"player_count":0,"max_players":24,"Bots":0,"server_type":"Dedicated","server_os":"Linux","password":true,"vac":true,"version":"7932396","steam_id":85568392924470941,"keywords":["cp","nocrits","nodmgspread","uncletopia"],"game_id":440,"stv_port":27026,"stv_name":"Uncletopia | London | 2 | All Maps | STV","players":null},{"server_id":320,"name":"Uncletopia | London | 3 | All Maps","name_short":"lon-3","host":"lon-1.uk.uncletopia.com","port":27035,"enabled":true,"region":"eu","cc":"gb","latitude":51.509865,"longitude":-0.118092,"reserved":0,"last_update":"0001-01-01T00:00:00Z","name_a2s":"Uncletopia | London | 3 | All Maps","protocol":17,"map":"pl_upward","folder":"tf","game":"Team Fortress","app_id":440,"player_count":0,"max_players":24,"Bots":0,"server_type":"Dedicated","server_os":"Linux","password":true,"vac":true,"version":"7932396","steam_id":85568392924510192,"keywords":["nocrits","nodmgspread","payload","uncletopia"],"game_id":440,"stv_port":27036,"stv_name":"Uncletopia | London | 3 | All Maps | STV","players":null},{"server_id":321,"name":"Uncletopia | London | 4 | All Maps","name_short":"lon-4","host":"lon-1.uk.uncletopia.com","port":27045,"enabled":true,"region":"eu","cc":"gb","latitude":51.509865,"longitude":-0.118092,"reserved":0,"last_update":"0001-01-01T00:00:00Z","name_a2s":"Uncletopia | London | 4 | All Maps","protocol":17,"map":"pl_barnblitz","folder":"tf","game":"Team Fortress","app_id":440,"player_count":0,"max_players":24,"Bots":0,"server_type":"Dedicated","server_os":"Linux","password":true,"vac":true,"version":"7932396","steam_id":85568392924510193,"keywords":["nocrits","nodmgspread","payload","uncletopia"],"game_id":440,"stv_port":27046,"stv_name":"Uncletopia | London | 4 | All Maps | STV","players":null},{"server_id":21,"name":"Uncletopia | London | 5 | All Maps","name_short":"lon-5","host":"lon-1.uk.uncletopia.com","port":27055,"enabled":true,"region":"eu","cc":"gb","latitude":51.509865,"longitude":-0.118092,"reserved":0,"last_update":"0001-01-01T00:00:00Z","name_a2s":"Uncletopia | London | 5 | All Maps","protocol":17,"map":"pl_badwater","folder":"tf","game":"Team Fortress","app_id":440,"player_count":0,"max_players":24,"Bots":0,"server_type":"Dedicated","server_os":"Linux","password":true,"vac":true,"version":"7932396","steam_id":85568392924742829,"keywords":["nocrits","nodmgspread","payload","uncletopia"],"game_id":440,"stv_port":27056,"stv_name":"Uncletopia | London | 5 | All Maps | STV","players":null},{"server_id":22,"name":"Uncletopia | London | 6 | All Maps","name_short":"lon-6","host":"lon-1.uk.uncletopia.com","port":27065,"enabled":true,"region":"eu","cc":"gb","latitude":51.509865,"longitude":-0.118092,"reserved":0,"last_update":"0001-01-01T00:00:00Z","name_a2s":"Uncletopia | London | 6 | All Maps","protocol":17,"map":"pl_upward","folder":"tf","game":"Team Fortress","app_id":440,"player_count":0,"max_players":24,"Bots":0,"server_type":"Dedicated","server_os":"Linux","password":true,"vac":true,"version":"7932396","steam_id":85568392924742830,"keywords":["nocrits","nodmgspread","payload","uncletopia"],"game_id":440,"stv_port":27066,"stv_name":"Uncletopia | London | 6 | All Maps | STV","players":null},{"server_id":40,"name":"Uncletopia | London | 7 | No Payload","name_short":"lon-7","host":"lon-1.uk.uncletopia.com","port":27075,"enabled":true,"region":"eu","cc":"gb","latitude":51.509865,"longitude":-0.118092,"reserved":0,"last_update":"0001-01-01T00:00:00Z","name_a2s":"Uncletopia | London | 7 | No Payload","protocol":17,"map":"koth_lazarus","folder":"tf","game":"Team Fortress","app_id":440,"player_count":0,"max_players":24,"Bots":0,"server_type":"Dedicated","server_os":"Linux","password":true,"vac":true,"version":"7932396","steam_id":85568392924964314,"keywords":["cp","nocrits","nodmgspread","uncletopia"],"game_id":440,"stv_port":27076,"stv_name":"Uncletopia | London | 7 | No Payload | STV","players":null},{"server_id":41,"name":"Uncletopia | London | 8 | Community","name_short":"lon-8","host":"lon-1.uk.uncletopia.com","port":27085,"enabled":true,"region":"eu","cc":"gb","latitude":51.509865,"longitude":-0.118092,"reserved":0,"last_update":"0001-01-01T00:00:00Z","name_a2s":"Uncletopia | London | 8 | Community","protocol":17,"map":"workshop/koth_trenchfoot_b1a.ugc731436616","folder":"tf","game":"Team Fortress","app_id":440,"player_count":0,"max_players":24,"Bots":0,"server_type":"Dedicated","server_os":"Linux","password":true,"vac":true,"version":"7932396","steam_id":85568392924964315,"keywords":["cp","nocrits","nodmgspread","uncletopia"],"game_id":440,"stv_port":27086,"stv_name":"Uncletopia | London | 8 | Community | STV","players":null},{"server_id":300,"name":"Uncletopia | Montr√©al | 1 | All Maps","name_short":"mtl-1","host":"mtl-1.ca.uncletopia.com","port":27015,"enabled":true,"region":"us-east","cc":"ca","latitude":45.50889,"longitude":-73.56167,"reserved":0,"last_update":"0001-01-01T00:00:00Z","name_a2s":"Uncletopia | Montr√©al | 1 | All Maps","protocol":17,"map":"koth_cascade","folder":"tf","game":"Team Fortress","app_id":440,"player_count":0,"max_players":24,"Bots":0,"server_type":"Dedicated","server_os":"Linux","password":true,"vac":true,"version":"7932396","steam_id":85568392924500087,"keywords":["cp","nocrits","nodmgspread","uncletopia"],"game_id":440,"stv_port":27016,"stv_name":"Uncletopia | Montr√©al | 1 | All Maps | STV","players":null},{"server_id":301,"name":"Uncletopia | Montr√©al | 2 | All Maps","name_short":"mtl-2","host":"mtl-1.ca.uncletopia.com","port":27025,"enabled":true,"region":"us-east","cc":"ca","latitude":45.50889,"longitude":-73.56167,"reserved":0,"last_update":"0001-01-01T00:00:00Z","name_a2s":"Uncletopia | Montr√©al | 2 | All Maps","protocol":17,"map":"koth_lakeside_final","folder":"tf","game":"Team Fortress","app_id":440,"player_count":0,"max_players":24,"Bots":0,"server_type":"Dedicated","server_os":"Linux","password":true,"vac":true,"version":"7932396","steam_id":85568392924500088,"keywords":["cp","nocrits","nodmgspread","uncletopia"],"game_id":440,"stv_port":27026,"stv_name":"Uncletopia | Montr√©al | 2 | All Maps | STV","players":null},{"server_id":302,"name":"Uncletopia | Montr√©al | 3 | All Maps","name_short":"mtl-3","host":"mtl-1.ca.uncletopia.com","port":27035,"enabled":true,"region":"us-east","cc":"ca","latitude":45.50889,"longitude":-73.56167,"reserved":0,"last_update":"0001-01-01T00:00:00Z","name_a2s":"Uncletopia | Montr√©al | 3 | All Maps","protocol":17,"map":"koth_cascade","folder":"tf","game":"Team Fortress","app_id":440,"player_count":0,"max_players":24,"Bots":0,"server_type":"Dedicated","server_os":"Linux","password":true,"vac":true,"version":"7932396","steam_id":85568392924500089,"keywords":["cp","nocrits","nodmgspread","uncletopia"],"game_id":440,"stv_port":27036,"stv_name":"Uncletopia | Montr√©al | 3 | All Maps | STV","players":null},{"server_id":303,"name":"Uncletopia | Montr√©al | 4 | No Payload","name_short":"mtl-4","host":"mtl-1.ca.uncletopia.com","port":27045,"enabled":true,"region":"us-east","cc":"ca","latitude":45.50889,"longitude":-73.56167,"reserved":0,"last_update":"0001-01-01T00:00:00Z","name_a2s":"Uncletopia | Montr√©al | 4 | No Payload","protocol":17,"map":"cp_dustbowl","folder":"tf","game":"Team Fortress","app_id":440,"player_count":0,"max_players":24,"Bots":0,"server_type":"Dedicated","server_os":"Linux","password":true,"vac":true,"version":"7932396","steam_id":85568392924500090,"keywords":["cp","nocrits","nodmgspread","uncletopia"],"game_id":440,"stv_port":27046,"stv_name":"Uncletopia | Montr√©al | 4 | No Payload | STV","players":null},{"server_id":13,"name":"Uncletopia | New York City | 1 | All Maps","name_short":"nyc-1","host":"nyc-1.us.uncletopia.com","port":27015,"enabled":true,"region":"us-east","cc":"us","latitude":40.73061,"longitude":-73.93524,"reserved":0,"last_update":"0001-01-01T00:00:00Z","name_a2s":"Uncletopia | New York City | 1 | All Maps","protocol":17,"map":"pl_upward","folder":"tf","game":"Team Fortress","app_id":440,"player_count":20,"max_players":24,"Bots":0,"server_type":"Dedicated","server_os":"Linux","password":true,"vac":true,"version":"7932396","steam_id":85568392924469993,"keywords":["nocrits","nodmgspread","payload","uncletopia"],"game_id":440,"stv_port":27016,"stv_name":"Uncletopia | New York City | 1 | All Maps | STV","players":[{"user_id":569,"name":"Starfruit66","steam_id":76561198069917277,"connected_time":1033000000000,"state":"active","ping":111},{"user_id":543,"name":"FoxySnxp","steam_id":76561199189748718,"connected_time":2587000000000,"state":"active","ping":55},{"user_id":553,"name":"dismal","steam_id":76561198084763105,"connected_time":1602000000000,"state":"active","ping":72},{"user_id":578,"name":"LambKraut","steam_id":76561198061695514,"connected_time":11000000000,"state":"spawning","ping":59},{"user_id":550,"name":"the comedic","steam_id":76561199060324705,"connected_time":2200000000000,"state":"active","ping":138},{"user_id":577,"name":"The Cow Vampire","steam_id":76561198004035358,"connected_time":234000000000,"state":"active","ping":111},{"user_id":558,"name":"Disco Fever","steam_id":76561198069532215,"connected_time":1426000000000,"state":"active","ping":50},{"user_id":565,"name":"wise","steam_id":76561198030066204,"connected_time":1248000000000,"state":"active","ping":30},{"user_id":561,"name":"shoobs","steam_id":76561198042507255,"connected_time":1304000000000,"state":"active","ping":100},{"user_id":573,"name":"Mangoue","steam_id":76561198844686784,"connected_time":584000000000,"state":"active","ping":69},{"user_id":572,"name":"LiftN","steam_id":76561198167974713,"connected_time":793000000000,"state":"active","ping":63},{"user_id":574,"name":"Slick","steam_id":76561198071949167,"connected_time":567000000000,"state":"active","ping":126},{"user_id":575,"name":"only a spoonful","steam_id":76561198113180616,"connected_time":525000000000,"state":"active","ping":70},{"user_id":563,"name":"Menlymen","steam_id":76561198046508051,"connected_time":1264000000000,"state":"active","ping":82},{"user_id":576,"name":"The Gorbachev Red Spot","steam_id":76561198034512871,"connected_time":461000000000,"state":"active","ping":86},{"user_id":541,"name":"Horrizan","steam_id":76561197965028480,"connected_time":3002000000000,"state":"active","ping":78},{"user_id":549,"name":"ApertureCity","steam_id":76561198004153607,"connected_time":2261000000000,"state":"active","ping":66},{"user_id":539,"name":"Exio","steam_id":76561198218639325,"connected_time":3158000000000,"state":"active","ping":66},{"user_id":566,"name":"Doubting Dave","steam_id":76561198066410749,"connected_time":1238000000000,"state":"active","ping":136},{"user_id":568,"name":"whitr","steam_id":76561198043981478,"connected_time":1082000000000,"state":"active","ping":107}]},{"server_id":14,"name":"Uncletopia | New York City | 2 | All Maps","name_short":"nyc-2","host":"nyc-1.us.uncletopia.com","port":27025,"enabled":true,"region":"us-east","cc":"us","latitude":40.73061,"longitude":-73.93524,"reserved":0,"last_update":"0001-01-01T00:00:00Z","name_a2s":"Uncletopia | New York City | 2 | All Maps","protocol":17,"map":"pl_frontier_final","folder":"tf","game":"Team Fortress","app_id":440,"player_count":24,"max_players":24,"Bots":0,"server_type":"Dedicated","server_os":"Linux","password":true,"vac":true,"version":"7932396","steam_id":85568392924469994,"keywords":["nocrits","nodmgspread","payload","uncletopia"],"game_id":440,"stv_port":27026,"stv_name":"Uncletopia | New York City | 2 | All Maps | STV","players":[{"user_id":473,"name":"extra purple","steam_id":76561198044344111,"connected_time":1928000000000,"state":"active","ping":55},{"user_id":496,"name":"Thespikedballofdoom","steam_id":76561198128793141,"connected_time":182000000000,"state":"active","ping":53},{"user_id":457,"name":"Vaudeville Villain","steam_id":76561199212093339,"connected_time":3510000000000,"state":"active","ping":87},{"user_id":476,"name":"spreadable arse","steam_id":76561198032259680,"connected_time":1873000000000,"state":"active","ping":60},{"user_id":482,"name":"Jazz2T","steam_id":76561198154418867,"connected_time":1512000000000,"state":"active","ping":103},{"user_id":477,"name":"Rigby","steam_id":76561198131652100,"connected_time":1866000000000,"state":"active","ping":82},{"user_id":464,"name":"Clear Sights","steam_id":76561198006215683,"connected_time":3169000000000,"state":"active","ping":79},{"user_id":410,"name":"Foonut","steam_id":76561198075740574,"connected_time":6270000000000,"state":"active","ping":69},{"user_id":490,"name":"nori_420","steam_id":76561199117134203,"connected_time":690000000000,"state":"active","ping":133},{"user_id":452,"name":"Selenddron","steam_id":76561198130341338,"connected_time":3626000000000,"state":"active","ping":106},{"user_id":493,"name":"Krobalt","steam_id":76561198167570971,"connected_time":612000000000,"state":"active","ping":126},{"user_id":427,"name":"Zack","steam_id":76561198308083836,"connected_time":5148000000000,"state":"active","ping":52},{"user_id":492,"name":"Purplesphere","steam_id":76561198202786833,"connected_time":644000000000,"state":"active","ping":178},{"user_id":494,"name":"dzcreeper","steam_id":76561198072250723,"connected_time":562000000000,"state":"active","ping":111},{"user_id":485,"name":"Paul Allen","steam_id":76561198036032168,"connected_time":1406000000000,"state":"active","ping":58},{"user_id":480,"name":"Amaretto Sour","steam_id":76561198063112844,"connected_time":1835000000000,"state":"active","ping":54},{"user_id":419,"name":"n00dles","steam_id":76561198062517391,"connected_time":5965000000000,"state":"active","ping":64},{"user_id":470,"name":"HeavenHearst","steam_id":76561198066083947,"connected_time":2284000000000,"state":"active","ping":49},{"user_id":400,"name":"Pizza","steam_id":76561198118748364,"connected_time":7329000000000,"state":"active","ping":72},{"user_id":461,"name":"gIBBY","steam_id":76561198080099598,"connected_time":3503000000000,"state":"active","ping":40},{"user_id":495,"name":"|AG| Level","steam_id":76561198063633592,"connected_time":502000000000,"state":"active","ping":100},{"user_id":483,"name":"m","steam_id":76561198017539604,"connected_time":1505000000000,"state":"active","ping":75},{"user_id":489,"name":"Ludcmorais","steam_id":76561198359217809,"connected_time":946000000000,"state":"active","ping":173},{"user_id":486,"name":"Model CHP-3Y","steam_id":76561198107806145,"connected_time":1246000000000,"state":"active","ping":65}]},{"server_id":15,"name":"Uncletopia | New York City | 3 | Stopwatch Beta","name_short":"nyc-3","host":"nyc-1.us.uncletopia.com","port":27035,"enabled":true,"region":"us-east","cc":"us","latitude":40.73061,"longitude":-73.93524,"reserved":0,"last_update":"0001-01-01T00:00:00Z","name_a2s":"Uncletopia | New York City | 3 | Stopwatch Beta","protocol":17,"map":"workshop/koth_clearcut_b15.ugc2107050255","folder":"tf","game":"Team Fortress","app_id":440,"player_count":0,"max_players":24,"Bots":0,"server_type":"Dedicated","server_os":"Linux","password":true,"vac":true,"version":"7932396","steam_id":85568392924742820,"keywords":["cp","nocrits","nodmgspread","uncletopia"],"game_id":440,"stv_port":27036,"stv_name":"Uncletopia | New York City | 3 | Stopwatch Beta | STV","players":null},{"server_id":16,"name":"Uncletopia | New York City | 4 | Community","name_short":"nyc-4","host":"nyc-1.us.uncletopia.com","port":27045,"enabled":true,"region":"us-east","cc":"us","latitude":40.73061,"longitude":-73.93524,"reserved":0,"last_update":"0001-01-01T00:00:00Z","name_a2s":"Uncletopia | New York City | 4 | Community","protocol":17,"map":"workshop/koth_ramjam_rc1.ugc459778887","folder":"tf","game":"Team Fortress","app_id":440,"player_count":0,"max_players":24,"Bots":0,"server_type":"Dedicated","server_os":"Linux","password":true,"vac":true,"version":"7932396","steam_id":85568392924742821,"keywords":["cp","nocrits","nodmgspread","uncletopia"],"game_id":440,"stv_port":27046,"stv_name":"Uncletopia | New York City | 4 | Community | STV","players":null},{"server_id":142,"name":"Uncletopia | S√£o Paulo | 1 | All Maps","name_short":"sao-1","host":"sao-1.br.uncletopia.com","port":27015,"enabled":true,"region":"sa","cc":"br","latitude":-23.533773,"longitude":-46.62529,"reserved":0,"last_update":"0001-01-01T00:00:00Z","name_a2s":"Uncletopia | S√£o Paulo | 1 | All Maps","protocol":17,"map":"koth_cascade","folder":"tf","game":"Team Fortress","app_id":440,"player_count":0,"max_players":24,"Bots":0,"server_type":"Dedicated","server_os":"Linux","password":true,"vac":true,"version":"7932396","steam_id":85568392924469996,"keywords":["cp","nocrits","nodmgspread","uncletopia"],"game_id":440,"stv_port":27016,"stv_name":"Uncletopia | S√£o Paulo | 1 | All Maps | STV","players":null},{"server_id":143,"name":"Uncletopia | S√£o Paulo | 2 | All Maps","name_short":"sao-2","host":"sao-2.br.uncletopia.com","port":27015,"enabled":true,"region":"sa","cc":"br","latitude":-23.533773,"longitude":-46.62529,"reserved":0,"last_update":"0001-01-01T00:00:00Z","name_a2s":"Uncletopia | S√£o Paulo | 2 | All Maps","protocol":17,"map":"cp_sunshine","folder":"tf","game":"Team Fortress","app_id":440,"player_count":0,"max_players":24,"Bots":0,"server_type":"Dedicated","server_os":"Linux","password":true,"vac":true,"version":"7932396","steam_id":85568392924485349,"keywords":["cp","nocrits","nodmgspread","uncletopia"],"game_id":440,"stv_port":27016,"stv_name":"Uncletopia | S√£o Paulo | 2 | All Maps | STV","players":null},{"server_id":7,"name":"Uncletopia | Seattle | 1 | All Maps","name_short":"sea-1","host":"sea-1.us.uncletopia.com","port":27015,"enabled":true,"region":"us-west","cc":"us","latitude":47.608013,"longitude":-122.33517,"reserved":0,"last_update":"0001-01-01T00:00:00Z","name_a2s":"Uncletopia | Seattle | 1 | All Maps","protocol":17,"map":"pl_frontier_final","folder":"tf","game":"Team Fortress","app_id":440,"player_count":24,"max_players":24,"Bots":0,"server_type":"Dedicated","server_os":"Linux","password":true,"vac":true,"version":"7932396","steam_id":85568392924469997,"keywords":["nocrits","nodmgspread","payload","uncletopia"],"game_id":440,"stv_port":27016,"stv_name":"Uncletopia | Seattle | 1 | All Maps | STV","players":[{"user_id":478,"name":"BlazedBunny","steam_id":76561198243610560,"connected_time":1272000000000,"state":"active","ping":73},{"user_id":486,"name":"Pixy","steam_id":76561197979944173,"connected_time":853000000000,"state":"active","ping":61},{"user_id":487,"name":"Nadnerp \u003c3","steam_id":76561198030189225,"connected_time":840000000000,"state":"active","ping":61},{"user_id":448,"name":"io_est","steam_id":76561198079538952,"connected_time":4367000000000,"state":"active","ping":56},{"user_id":501,"name":"mike, man spreads on ttc","steam_id":76561198225411004,"connected_time":43000000000,"state":"spawning","ping":60},{"user_id":490,"name":"Evanb","steam_id":76561198042057792,"connected_time":702000000000,"state":"active","ping":46},{"user_id":489,"name":"spenca","steam_id":76561198025371154,"connected_time":747000000000,"state":"active","ping":75},{"user_id":476,"name":"Hamburglar Hunk [Team Win]","steam_id":76561197993332112,"connected_time":1820000000000,"state":"active","ping":101},{"user_id":483,"name":"goldhed","steam_id":76561198051751133,"connected_time":1007000000000,"state":"active","ping":55},{"user_id":429,"name":"TROY","steam_id":76561197983852176,"connected_time":6642000000000,"state":"active","ping":80},{"user_id":494,"name":"Metalogic","steam_id":76561198049469629,"connected_time":551000000000,"state":"active","ping":62},{"user_id":499,"name":"‚ô• Milo Stefferson ‚ô• (Soupca","steam_id":76561198056269538,"connected_time":286000000000,"state":"active","ping":63},{"user_id":425,"name":"selvhat","steam_id":76561198114225509,"connected_time":6775000000000,"state":"active","ping":80},{"user_id":471,"name":"Zee‚úû","steam_id":76561198274550638,"connected_time":2308000000000,"state":"active","ping":118},{"user_id":500,"name":"greens beans","steam_id":76561198153611491,"connected_time":80000000000,"state":"active","ping":45},{"user_id":482,"name":"JAZZ anon","steam_id":76561198123835200,"connected_time":1058000000000,"state":"active","ping":59},{"user_id":480,"name":"Barbados Slim","steam_id":76561199483183459,"connected_time":1187000000000,"state":"active","ping":62},{"user_id":498,"name":"‚ô•reZinz‚ô•","steam_id":76561198307789060,"connected_time":298000000000,"state":"active","ping":56},{"user_id":492,"name":"lil boogie","steam_id":76561198064059721,"connected_time":691000000000,"state":"active","ping":46},{"user_id":417,"name":"Tom Skirrett","steam_id":76561198014600788,"connected_time":6834000000000,"state":"active","ping":67},{"user_id":493,"name":"bishiro","steam_id":76561198129564488,"connected_time":688000000000,"state":"active","ping":57},{"user_id":495,"name":"Ashanti Clan","steam_id":76561198032651105,"connected_time":527000000000,"state":"active","ping":63},{"user_id":496,"name":"Mia Foxx ‚ù§","steam_id":76561198044337051,"connected_time":503000000000,"state":"active","ping":92},{"user_id":468,"name":"t","steam_id":76561198175988929,"connected_time":2545000000000,"state":"active","ping":58}]},{"server_id":119,"name":"Uncletopia | Seattle | 2 | All Maps","name_short":"sea-2","host":"sea-1.us.uncletopia.com","port":27025,"enabled":true,"region":"us-west","cc":"us","latitude":47.608013,"longitude":-122.33517,"reserved":0,"last_update":"0001-01-01T00:00:00Z","name_a2s":"Uncletopia | Seattle | 2 | All Maps","protocol":17,"map":"koth_nucleus","folder":"tf","game":"Team Fortress","app_id":440,"player_count":24,"max_players":24,"Bots":0,"server_type":"Dedicated","server_os":"Linux","password":true,"vac":true,"version":"7932396","steam_id":85568392924469998,"keywords":["cp","nocrits","nodmgspread","uncletopia"],"game_id":440,"stv_port":27026,"stv_name":"Uncletopia | Seattle | 2 | All Maps | STV","players":[{"user_id":841,"name":"Ducks","steam_id":76561198130038345,"connected_time":3117000000000,"state":"active","ping":67},{"user_id":863,"name":"mega","steam_id":76561198089520959,"connected_time":26000000000,"state":"active","ping":100},{"user_id":860,"name":"Funkboi","steam_id":76561198046235038,"connected_time":1012000000000,"state":"active","ping":100},{"user_id":791,"name":"PillCosby","steam_id":76561199396184696,"connected_time":7749000000000,"state":"active","ping":50},{"user_id":840,"name":"gorlab","steam_id":76561198025089694,"connected_time":3147000000000,"state":"active","ping":60},{"user_id":853,"name":"OmgItsTylenol","steam_id":76561198053421855,"connected_time":1343000000000,"state":"active","ping":52},{"user_id":843,"name":"NEBULA","steam_id":76561198086878595,"connected_time":3003000000000,"state":"active","ping":75},{"user_id":846,"name":"Retesaurus","steam_id":76561198045189319,"connected_time":2535000000000,"state":"active","ping":46},{"user_id":852,"name":"Chocc-_-","steam_id":76561198068070211,"connected_time":1347000000000,"state":"active","ping":84},{"user_id":847,"name":"he/him whimper","steam_id":76561198097175164,"connected_time":2522000000000,"state":"active","ping":131},{"user_id":859,"name":"lasky","steam_id":76561198017030029,"connected_time":1102000000000,"state":"active","ping":70},{"user_id":851,"name":"todd","steam_id":76561198096671524,"connected_time":1357000000000,"state":"active","ping":70},{"user_id":815,"name":"SmallErection","steam_id":76561198071770147,"connected_time":5606000000000,"state":"active","ping":61},{"user_id":861,"name":"Ayayayayayahuasca","steam_id":76561199002906056,"connected_time":732000000000,"state":"active","ping":49},{"user_id":848,"name":"Jello","steam_id":76561198047795233,"connected_time":2411000000000,"state":"active","ping":84},{"user_id":857,"name":"delight","steam_id":76561197980280272,"connected_time":1213000000000,"state":"active","ping":45},{"user_id":862,"name":"Sniff","steam_id":76561198010270922,"connected_time":199000000000,"state":"active","ping":59},{"user_id":855,"name":"Muralo","steam_id":76561198202160268,"connected_time":1340000000000,"state":"active","ping":54},{"user_id":836,"name":"Florist","steam_id":76561198009121060,"connected_time":3902000000000,"state":"active","ping":46},{"user_id":825,"name":"i.love.ants.321","steam_id":76561198169755734,"connected_time":4967000000000,"state":"active","ping":72},{"user_id":817,"name":"Seriously Bruh","steam_id":76561198070408485,"connected_time":5564000000000,"state":"active","ping":60},{"user_id":839,"name":"Tea","steam_id":76561198004133638,"connected_time":3384000000000,"state":"active","ping":79},{"user_id":709,"name":"beam man","steam_id":76561198060567341,"connected_time":13483000000000,"state":"active","ping":112},{"user_id":803,"name":"jorts","steam_id":76561199041179985,"connected_time":7023000000000,"state":"active","ping":58}]},{"server_id":406,"name":"Uncletopia | Seattle | 3 | Stopwatch Beta","name_short":"sea-3","host":"sea-1.us.uncletopia.com","port":27035,"enabled":true,"region":"us-west","cc":"us","latitude":47.608013,"longitude":-122.33517,"reserved":0,"last_update":"0001-01-01T00:00:00Z","name_a2s":"Uncletopia | Seattle | 3 | Stopwatch Beta","protocol":17,"map":"workshop/koth_bagel_rc6.ugc2514036946","folder":"tf","game":"Team Fortress","app_id":440,"player_count":0,"max_players":24,"Bots":0,"server_type":"Dedicated","server_os":"Linux","password":true,"vac":true,"version":"7932396","steam_id":85568392924515217,"keywords":["cp","nocrits","nodmgspread","uncletopia"],"game_id":440,"stv_port":27036,"stv_name":"Uncletopia | Seattle | 3 | Stopwatch Beta | STV","players":null},{"server_id":17,"name":"Uncletopia | San Francisco | 1 | All Maps","name_short":"sfo-1","host":"sfo-1.us.uncletopia.com","port":27015,"enabled":true,"region":"us-west","cc":"us","latitude":37.77397,"longitude":-122.4313,"reserved":0,"last_update":"0001-01-01T00:00:00Z","name_a2s":"Uncletopia | San Francisco | 1 | All Maps","protocol":17,"map":"pl_pier","folder":"tf","game":"Team Fortress","app_id":440,"player_count":22,"max_players":24,"Bots":0,"server_type":"Dedicated","server_os":"Linux","password":true,"vac":true,"version":"7932396","steam_id":85568392924469999,"keywords":["nocrits","nodmgspread","payload","uncletopia"],"game_id":440,"stv_port":27016,"stv_name":"Uncletopia | San Francisco | 1 | All Maps | STV","players":[{"user_id":283,"name":"WaveSmash","steam_id":76561198208785485,"connected_time":775000000000,"state":"active","ping":61},{"user_id":280,"name":"dudescore","steam_id":76561199091453555,"connected_time":972000000000,"state":"active","ping":58},{"user_id":294,"name":"LLaigend","steam_id":76561199099862138,"connected_time":167000000000,"state":"active","ping":82},{"user_id":289,"name":"(TPT) Ghost","steam_id":76561198123262873,"connected_time":494000000000,"state":"active","ping":72},{"user_id":273,"name":"Mikidy","steam_id":76561197972958970,"connected_time":1284000000000,"state":"active","ping":72},{"user_id":295,"name":"lil uzi squirt","steam_id":76561198045926594,"connected_time":82000000000,"state":"active","ping":53},{"user_id":269,"name":"Mengle","steam_id":76561198001953684,"connected_time":1403000000000,"state":"active","ping":107},{"user_id":261,"name":"El Gato Paranoico","steam_id":76561198116567116,"connected_time":2023000000000,"state":"active","ping":104},{"user_id":257,"name":"Zero","steam_id":76561198137754636,"connected_time":2795000000000,"state":"active","ping":56},{"user_id":271,"name":"Imabox","steam_id":76561199206177858,"connected_time":1332000000000,"state":"active","ping":68},{"user_id":293,"name":"MerkyWaters","steam_id":76561197998853063,"connected_time":387000000000,"state":"active","ping":69},{"user_id":211,"name":"corrupted spy","steam_id":76561198018689620,"connected_time":7651000000000,"state":"active","ping":69},{"user_id":278,"name":"ramm","steam_id":76561199192289015,"connected_time":1123000000000,"state":"active","ping":70},{"user_id":275,"name":"SQbuilder","steam_id":76561198076473375,"connected_time":1190000000000,"state":"active","ping":45},{"user_id":239,"name":"mndbrkn","steam_id":76561198054390505,"connected_time":5062000000000,"state":"active","ping":97},{"user_id":281,"name":"Stoofy","steam_id":76561198280750328,"connected_time":917000000000,"state":"active","ping":71},{"user_id":277,"name":"The Muffin Man","steam_id":76561198988065564,"connected_time":1152000000000,"state":"active","ping":112},{"user_id":296,"name":"‚ò≠Borris‚ò≠","steam_id":76561198011136886,"connected_time":57000000000,"state":"active","ping":77},{"user_id":284,"name":"JuliaDragon","steam_id":76561198175727790,"connected_time":775000000000,"state":"active","ping":85},{"user_id":286,"name":"pan","steam_id":76561198093968095,"connected_time":736000000000,"state":"active","ping":45},{"user_id":290,"name":"‚ô•","steam_id":76561198824691581,"connected_time":480000000000,"state":"active","ping":113},{"user_id":297,"name":"CEOlifestyle","steam_id":76561198025747866,"connected_time":45000000000,"state":"active","ping":66}]},{"server_id":18,"name":"Uncletopia | San Francisco | 2 | All Maps","name_short":"sfo-2","host":"sfo-1.us.uncletopia.com","port":27025,"enabled":true,"region":"us-west","cc":"us","latitude":37.77397,"longitude":-122.4313,"reserved":0,"last_update":"0001-01-01T00:00:00Z","name_a2s":"Uncletopia | San Francisco | 2 | All Maps","protocol":17,"map":"pl_frontier_final","folder":"tf","game":"Team Fortress","app_id":440,"player_count":24,"max_players":24,"Bots":0,"server_type":"Dedicated","server_os":"Linux","password":true,"vac":true,"version":"7932396","steam_id":85568392924470000,"keywords":["nocrits","nodmgspread","payload","uncletopia"],"game_id":440,"stv_port":27026,"stv_name":"Uncletopia | San Francisco | 2 | All Maps | STV","players":[{"user_id":331,"name":"Berd","steam_id":76561198373079031,"connected_time":276000000000,"state":"active","ping":60},{"user_id":271,"name":"trackpad gaming | f2p","steam_id":76561198840414371,"connected_time":4414000000000,"state":"active","ping":60},{"user_id":272,"name":"The premium licking experience","steam_id":76561199213456232,"connected_time":4414000000000,"state":"active","ping":60},{"user_id":324,"name":"speed","steam_id":76561198074489549,"connected_time":672000000000,"state":"active","ping":57},{"user_id":292,"name":"noellehound","steam_id":76561198108844158,"connected_time":3185000000000,"state":"active","ping":67},{"user_id":315,"name":"minerkid2004","steam_id":76561198044262827,"connected_time":1626000000000,"state":"active","ping":47},{"user_id":311,"name":"JawnyMac","steam_id":76561198179529599,"connected_time":1977000000000,"state":"active","ping":53},{"user_id":248,"name":"BreadGod","steam_id":76561198050665205,"connected_time":5914000000000,"state":"active","ping":104},{"user_id":306,"name":"Spruce","steam_id":76561198081684676,"connected_time":2753000000000,"state":"active","ping":75},{"user_id":332,"name":"ryqset","steam_id":76561198349299874,"connected_time":182000000000,"state":"active","ping":107},{"user_id":251,"name":"supcupman","steam_id":76561198051513866,"connected_time":5898000000000,"state":"active","ping":84},{"user_id":232,"name":"lili","steam_id":76561199391478575,"connected_time":6733000000000,"state":"active","ping":85},{"user_id":326,"name":"red","steam_id":76561198325486281,"connected_time":574000000000,"state":"active","ping":59},{"user_id":294,"name":"Big Blue","steam_id":76561198084930108,"connected_time":3093000000000,"state":"active","ping":63},{"user_id":313,"name":"Clornk (Destroyer of Happiness)","steam_id":76561198360396485,"connected_time":1652000000000,"state":"active","ping":61},{"user_id":303,"name":"Real Kenny G","steam_id":76561198360620446,"connected_time":2862000000000,"state":"active","ping":48},{"user_id":320,"name":"Marc G","steam_id":76561198062650363,"connected_time":1146000000000,"state":"active","ping":75},{"user_id":333,"name":"TheSquirrelofHuscurl","steam_id":76561198073379623,"connected_time":181000000000,"state":"active","ping":135},{"user_id":322,"name":"R5-D4","steam_id":76561198025196439,"connected_time":999000000000,"state":"active","ping":68},{"user_id":307,"name":"UnusualTofu","steam_id":76561198060103750,"connected_time":2657000000000,"state":"active","ping":67},{"user_id":328,"name":"big car","steam_id":76561198067082350,"connected_time":539000000000,"state":"active","ping":47},{"user_id":334,"name":"weed","steam_id":76561199128192017,"connected_time":112000000000,"state":"active","ping":75},{"user_id":319,"name":"French Crouton","steam_id":76561198238317762,"connected_time":1186000000000,"state":"active","ping":53},{"user_id":336,"name":"HydriusYin","steam_id":76561198071591352,"connected_time":13000000000,"state":"active","ping":104}]},{"server_id":19,"name":"Uncletopia | San Francisco | 3 | Stopwatch Beta","name_short":"sfo-3","host":"sfo-1.us.uncletopia.com","port":27035,"enabled":true,"region":"us-west","cc":"us","latitude":37.77397,"longitude":-122.4313,"reserved":0,"last_update":"0001-01-01T00:00:00Z","name_a2s":"Uncletopia | San Francisco | 3 | Stopwatch Beta","protocol":17,"map":"cp_sunshine","folder":"tf","game":"Team Fortress","app_id":440,"player_count":5,"max_players":24,"Bots":0,"server_type":"Dedicated","server_os":"Linux","password":true,"vac":true,"version":"7932396","steam_id":85568392924742824,"keywords":["cp","nocrits","nodmgspread","uncletopia"],"game_id":440,"stv_port":27036,"stv_name":"Uncletopia | San Francisco | 3 | Stopwatch Beta | STV","players":[{"user_id":49,"name":"mango cafe","steam_id":76561198142328193,"connected_time":272000000000,"state":"active","ping":62},{"user_id":28,"name":"blackwillow83@hotmail.com","steam_id":76561199467334502,"connected_time":3528000000000,"state":"active","ping":42},{"user_id":21,"name":"Thequirka","steam_id":76561198968058652,"connected_time":4041000000000,"state":"active","ping":61},{"user_id":46,"name":"Phoenix","steam_id":76561199465534945,"connected_time":1885000000000,"state":"active","ping":81},{"user_id":40,"name":"Throws Before BrosÛ†Ä°","steam_id":76561197992905530,"connected_time":2118000000000,"state":"active","ping":39}]},{"server_id":20,"name":"Uncletopia | San Francisco | 4 | Community","name_short":"sfo-4","host":"sfo-1.us.uncletopia.com","port":27045,"enabled":true,"region":"us-west","cc":"us","latitude":37.77397,"longitude":-122.4313,"reserved":0,"last_update":"0001-01-01T00:00:00Z","name_a2s":"Uncletopia | San Francisco | 4 | Community","protocol":17,"map":"workshop/koth_kemptown_rc1.ugc767410655","folder":"tf","game":"Team Fortress","app_id":440,"player_count":0,"max_players":24,"Bots":0,"server_type":"Dedicated","server_os":"Linux","password":true,"vac":true,"version":"7932396","steam_id":85568392924742826,"keywords":["cp","nocrits","nodmgspread","uncletopia"],"game_id":440,"stv_port":27046,"stv_name":"Uncletopia | San Francisco | 4 | Community | STV","players":null},{"server_id":141,"name":"Uncletopia | Sydney | 1 | All Maps","name_short":"syd-1","host":"syd-1.au.uncletopia.com","port":27015,"enabled":true,"region":"au","cc":"au","latitude":-33.865143,"longitude":151.2099,"reserved":0,"last_update":"0001-01-01T00:00:00Z","name_a2s":"Uncletopia | Sydney | 1 | All Maps","protocol":17,"map":"koth_highpass","folder":"tf","game":"Team Fortress","app_id":440,"player_count":9,"max_players":24,"Bots":0,"server_type":"Dedicated","server_os":"Linux","password":true,"vac":true,"version":"7932396","steam_id":85568392924470001,"keywords":["cp","nocrits","nodmgspread","uncletopia"],"game_id":440,"stv_port":27016,"stv_name":"Uncletopia | Sydney | 1 | All Maps | STV","players":[{"user_id":21,"name":"DiceKingRequiem","steam_id":76561199090665280,"connected_time":2057000000000,"state":"active","ping":69},{"user_id":24,"name":"Goblin_Terrorist","steam_id":76561198868949713,"connected_time":1795000000000,"state":"active","ping":127},{"user_id":32,"name":"xandersalias","steam_id":76561198352460253,"connected_time":294000000000,"state":"active","ping":69},{"user_id":33,"name":"Bilbo Swaggins","steam_id":76561198984446872,"connected_time":222000000000,"state":"active","ping":58},{"user_id":28,"name":"Long_Neck","steam_id":76561198059207275,"connected_time":941000000000,"state":"active","ping":85},{"user_id":30,"name":"CheeseFlag126","steam_id":76561199262769917,"connected_time":835000000000,"state":"active","ping":65},{"user_id":31,"name":"Okie Dokie","steam_id":76561198125237921,"connected_time":718000000000,"state":"active","ping":41},{"user_id":34,"name":"¬Ø\\_(„ÉÑ)_/¬Ø","steam_id":76561199206182584,"connected_time":189000000000,"state":"active","ping":54},{"user_id":35,"name":"Max!","steam_id":76561198100740818,"connected_time":71000000000,"state":"active","ping":59}]},{"server_id":123,"name":"Uncletopia | Sydney | 2 | All Maps","name_short":"syd-2","host":"syd-1.au.uncletopia.com","port":27025,"enabled":true,"region":"au","cc":"au","latitude":-33.865143,"longitude":151.2099,"reserved":0,"last_update":"0001-01-01T00:00:00Z","name_a2s":"Uncletopia | Sydney | 2 | All Maps","protocol":17,"map":"cp_dustbowl","folder":"tf","game":"Team Fortress","app_id":440,"player_count":24,"max_players":24,"Bots":0,"server_type":"Dedicated","server_os":"Linux","password":true,"vac":true,"version":"7932396","steam_id":85568392924470002,"keywords":["cp","nocrits","nodmgspread","uncletopia"],"game_id":440,"stv_port":27026,"stv_name":"Uncletopia | Sydney | 2 | All Maps | STV","players":[{"user_id":367,"name":"Lotuses","steam_id":76561199045059964,"connected_time":138000000000,"state":"active","ping":109},{"user_id":356,"name":"Owlenstein‚Ñ¢","steam_id":76561198093983826,"connected_time":1395000000000,"state":"active","ping":124},{"user_id":362,"name":"RickDog","steam_id":76561198160382607,"connected_time":965000000000,"state":"active","ping":65},{"user_id":331,"name":"Jodelk√∂nig Franzl Lang","steam_id":76561198007667830,"connected_time":4275000000000,"state":"active","ping":57},{"user_id":307,"name":"superbob event manager","steam_id":76561198272422193,"connected_time":5564000000000,"state":"active","ping":61},{"user_id":244,"name":"Zieria","steam_id":76561199261811388,"connected_time":10413000000000,"state":"active","ping":43},{"user_id":343,"name":"tom :D","steam_id":76561198073393715,"connected_time":2705000000000,"state":"active","ping":93},{"user_id":363,"name":"JBonesturtle","steam_id":76561199092667269,"connected_time":951000000000,"state":"active","ping":91},{"user_id":315,"name":"b4sedhk","steam_id":76561198831069486,"connected_time":5187000000000,"state":"active","ping":59},{"user_id":345,"name":"Pickled Cow","steam_id":76561198292517991,"connected_time":2576000000000,"state":"active","ping":44},{"user_id":330,"name":"uven","steam_id":76561198080981482,"connected_time":4341000000000,"state":"active","ping":38},{"user_id":365,"name":"armCHAMP Billie Eilish feet mmm","steam_id":76561198044752424,"connected_time":593000000000,"state":"active","ping":51},{"user_id":342,"name":"Yeat","steam_id":76561198202555552,"connected_time":2946000000000,"state":"active","ping":36},{"user_id":311,"name":"Muffin","steam_id":76561198075391119,"connected_time":5413000000000,"state":"active","ping":55},{"user_id":366,"name":"Ishanu","steam_id":76561198009397092,"connected_time":169000000000,"state":"active","ping":74},{"user_id":348,"name":"tim88435","steam_id":76561198089653987,"connected_time":2254000000000,"state":"active","ping":54},{"user_id":317,"name":"4-Star Yelp Review","steam_id":76561197995258180,"connected_time":5148000000000,"state":"active","ping":48},{"user_id":368,"name":"maburaho1","steam_id":76561198211416633,"connected_time":26000000000,"state":"active","ping":75},{"user_id":364,"name":"wazza","steam_id":76561198081910343,"connected_time":608000000000,"state":"active","ping":47},{"user_id":349,"name":"Whyyan","steam_id":76561198123825900,"connected_time":2048000000000,"state":"active","ping":69},{"user_id":353,"name":"Lace","steam_id":76561198290993506,"connected_time":1658000000000,"state":"active","ping":93},{"user_id":352,"name":"Warren","steam_id":76561198120350917,"connected_time":1765000000000,"state":"active","ping":42},{"user_id":359,"name":"weezer","steam_id":76561199439508788,"connected_time":1262000000000,"state":"active","ping":63},{"user_id":351,"name":"mike nolan","steam_id":76561198276734162,"connected_time":1907000000000,"state":"active","ping":72}]},{"server_id":395,"name":"Uncletopia | Sydney | 3 | All Maps","name_short":"syd-3","host":"syd-1.au.uncletopia.com","port":27035,"enabled":true,"region":"au","cc":"au","latitude":-33.865143,"longitude":151.2099,"reserved":0,"last_update":"0001-01-01T00:00:00Z","name_a2s":"Uncletopia | Sydney | 3 | All Maps","protocol":17,"map":"cp_snakewater_final1","folder":"tf","game":"Team Fortress","app_id":440,"player_count":0,"max_players":24,"Bots":0,"server_type":"Dedicated","server_os":"Linux","password":true,"vac":true,"version":"7932396","steam_id":85568392925194467,"keywords":["cp","nocrits","nodmgspread","uncletopia"],"game_id":440,"stv_port":27036,"stv_name":"Uncletopia | Sydney | 3 | All Maps | STV","players":null},{"server_id":396,"name":"Uncletopia | Sydney | 4 | All Maps","name_short":"syd-4","host":"syd-1.au.uncletopia.com","port":27045,"enabled":true,"region":"au","cc":"au","latitude":-33.865143,"longitude":151.2099,"reserved":0,"last_update":"0001-01-01T00:00:00Z","name_a2s":"Uncletopia | Sydney | 4 | All Maps","protocol":17,"map":"cp_sunshine","folder":"tf","game":"Team Fortress","app_id":440,"player_count":0,"max_players":24,"Bots":0,"server_type":"Dedicated","server_os":"Linux","password":true,"vac":true,"version":"7932396","steam_id":85568392925397958,"keywords":["cp","nocrits","nodmgspread","uncletopia"],"game_id":440,"stv_port":27046,"stv_name":"Uncletopia | Sydney | 4 | All Maps | STV","players":null},{"server_id":58,"name":"Uncletopia | Sydney | 5 | Stopwatch Beta","name_short":"syd-5","host":"syd-1.au.uncletopia.com","port":27055,"enabled":true,"region":"au","cc":"au","latitude":-33.865143,"longitude":151.2099,"reserved":0,"last_update":"0001-01-01T00:00:00Z","name_a2s":"Uncletopia | Sydney | 5 | Stopwatch Beta","protocol":17,"map":"pl_borneo","folder":"tf","game":"Team Fortress","app_id":440,"player_count":0,"max_players":24,"Bots":0,"server_type":"Dedicated","server_os":"Linux","password":true,"vac":true,"version":"7932396","steam_id":85568392925397959,"keywords":["nocrits","nodmgspread","payload","uncletopia"],"game_id":440,"stv_port":27056,"stv_name":"Uncletopia | Sydney | 5 | Stopwatch Beta | STV","players":null},{"server_id":59,"name":"Uncletopia | Sydney | 6 | Community","name_short":"syd-6","host":"syd-1.au.uncletopia.com","port":27065,"enabled":true,"region":"au","cc":"au","latitude":-33.865143,"longitude":151.2099,"reserved":0,"last_update":"0001-01-01T00:00:00Z","name_a2s":"Uncletopia | Sydney | 6 | Community","protocol":17,"map":"workshop/koth_product_final.ugc454272353","folder":"tf","game":"Team Fortress","app_id":440,"player_count":0,"max_players":24,"Bots":0,"server_type":"Dedicated","server_os":"Linux","password":true,"vac":true,"version":"7932396","steam_id":85568392925397960,"keywords":["cp","nocrits","nodmgspread","uncletopia"],"game_id":440,"stv_port":27066,"stv_name":"Uncletopia | Sydney | 6 | Community | STV","players":null},{"server_id":49,"name":"Uncletopia | Warsaw | 1 | All Maps","name_short":"waw-1","host":"waw-1.pl.uncletopia.com","port":27015,"enabled":true,"region":"eu","cc":"pl","latitude":52.2297,"longitude":21.017532,"reserved":0,"last_update":"0001-01-01T00:00:00Z","name_a2s":"","protocol":0,"map":"","folder":"","game":"","app_id":0,"player_count":0,"max_players":0,"Bots":0,"server_type":"","server_os":"","password":false,"vac":false,"version":"","steam_id":0,"keywords":null,"game_id":0,"stv_port":0,"stv_name":"","players":null},{"server_id":50,"name":"Uncletopia | Warsaw | 2 | All Maps","name_short":"waw-2","host":"waw-1.pl.uncletopia.com","port":27025,"enabled":true,"region":"eu","cc":"pl","latitude":52.2297,"longitude":21.017532,"reserved":0,"last_update":"0001-01-01T00:00:00Z","name_a2s":"Uncletopia | Warsaw | 2 | All Maps","protocol":17,"map":"cp_dustbowl","folder":"tf","game":"Team Fortress","app_id":440,"player_count":4,"max_players":24,"Bots":0,"server_type":"Dedicated","server_os":"Linux","password":true,"vac":true,"version":"7932396","steam_id":85568392925397851,"keywords":["cp","nocrits","nodmgspread","uncletopia"],"game_id":440,"stv_port":27026,"stv_name":"Uncletopia | Warsaw | 2 | All Maps | STV","players":[{"user_id":3,"name":"odko.mir","steam_id":76561199135301650,"connected_time":1326000000000,"state":"active","ping":179},{"user_id":4,"name":"tuuguu","steam_id":76561199218314905,"connected_time":1320000000000,"state":"active","ping":177},{"user_id":6,"name":"Punishment","steam_id":76561199488819530,"connected_time":884000000000,"state":"active","ping":167},{"user_id":7,"name":"H‚ÇÇSO‚ÇÑ","steam_id":76561198846349729,"connected_time":203000000000,"state":"active","ping":109}]},{"server_id":51,"name":"Uncletopia | Warsaw | 3 | All Maps","name_short":"waw-3","host":"waw-1.pl.uncletopia.com","port":27035,"enabled":true,"region":"eu","cc":"pl","latitude":52.2297,"longitude":21.017532,"reserved":0,"last_update":"0001-01-01T00:00:00Z","name_a2s":"Uncletopia | Warsaw | 3 | All Maps","protocol":17,"map":"koth_lakeside_final","folder":"tf","game":"Team Fortress","app_id":440,"player_count":0,"max_players":24,"Bots":0,"server_type":"Dedicated","server_os":"Linux","password":true,"vac":true,"version":"7932396","steam_id":85568392925397852,"keywords":["cp","nocrits","nodmgspread","uncletopia"],"game_id":440,"stv_port":27036,"stv_name":"Uncletopia | Warsaw | 3 | All Maps | STV","players":null},{"server_id":52,"name":"Uncletopia | Warsaw | 4 | All Maps","name_short":"waw-4","host":"waw-1.pl.uncletopia.com","port":27045,"enabled":true,"region":"eu","cc":"pl","latitude":52.2297,"longitude":21.017532,"reserved":0,"last_update":"0001-01-01T00:00:00Z","name_a2s":"Uncletopia | Warsaw | 4 | All Maps","protocol":17,"map":"pl_swiftwater_final1","folder":"tf","game":"Team Fortress","app_id":440,"player_count":0,"max_players":24,"Bots":0,"server_type":"Dedicated","server_os":"Linux","password":true,"vac":true,"version":"7932396","steam_id":85568392925397853,"keywords":["nocrits","nodmgspread","payload","uncletopia"],"game_id":440,"stv_port":27046,"stv_name":"Uncletopia | Warsaw | 4 | All Maps | STV","players":null},{"server_id":53,"name":"Uncletopia | Warsaw | 5 | Stopwatch Beta","name_short":"waw-5","host":"waw-1.pl.uncletopia.com","port":27055,"enabled":true,"region":"eu","cc":"pl","latitude":52.2297,"longitude":21.017532,"reserved":0,"last_update":"0001-01-01T00:00:00Z","name_a2s":"Uncletopia | Warsaw | 5 | Stopwatch Beta","protocol":17,"map":"koth_highpass","folder":"tf","game":"Team Fortress","app_id":440,"player_count":0,"max_players":24,"Bots":0,"server_type":"Dedicated","server_os":"Linux","password":true,"vac":true,"version":"7932396","steam_id":85568392925397854,"keywords":["cp","nocrits","nodmgspread","uncletopia"],"game_id":440,"stv_port":27056,"stv_name":"Uncletopia | Warsaw | 5 | Stopwatch Beta | STV","players":null},{"server_id":54,"name":"Uncletopia | Warsaw | 6 | Community","name_short":"waw-6","host":"waw-1.pl.uncletopia.com","port":27065,"enabled":true,"region":"eu","cc":"pl","latitude":52.2297,"longitude":21.017532,"reserved":0,"last_update":"0001-01-01T00:00:00Z","name_a2s":"Uncletopia | Warsaw | 6 | Community","protocol":17,"map":"pl_upward","folder":"tf","game":"Team Fortress","app_id":440,"player_count":0,"max_players":24,"Bots":0,"server_type":"Dedicated","server_os":"Linux","password":true,"vac":true,"version":"7932396","steam_id":85568392925397856,"keywords":["nocrits","nodmgspread","payload","uncletopia"],"game_id":440,"stv_port":27066,"stv_name":"Uncletopia | Warsaw | 6 | Community | STV","players":null}]}