{"status":true,"message":"","result":[{"server_id":9,"name":"Uncletopia | Atlanta | 1 | All Maps","name_short":"atl-1","host":"atl-1.us.uncletopia.com","port":27015,"enabled":true,"region":"us-east","cc":"us","latitude":33.753746,"longitude":-84.38633,"reserved":0,"last_update":"0001-01-01T00:00:00Z","name_a2s":"Uncletopia | Atlanta | 1 | All Maps","protocol":17,"map":"pl_snowycoast","folder":"tf","game":"Team Fortress","app_id":440,"player_count":0,"max_players":24,"Bots":0,"server_type":"Dedicated","server_os":"Linux","password":true,"vac":true,"version":"7742253","steam_id":85568392924469982,"keywords":["nocrits","nodmgspread","payload","uncletopia"],"game_id":440,"stv_port":27016,"stv_name":"Uncletopia | Atlanta | 1 | All Maps | STV","players":null},{"server_id":400,"name":"Uncletopia | Atlanta | 3 | Stopwatch Beta","name_short":"atl-3","host":"atl-1.us.uncletopia.com","port":27035,"enabled":true,"region":"us-east","cc":"us","latitude":33.753746,"longitude":-84.38633,"reserved":0,"last_update":"0001-01-01T00:00:00Z","name_a2s":"Uncletopia | Atlanta | 3 | Stopwatch Beta","protocol":17,"map":"pl_pier","folder":"tf","game":"Team Fortress","app_id":440,"player_count":0,"max_players":24,"Bots":0,"server_type":"Dedicated","server_os":"Linux","password":true,"vac":true,"version":"7742253","steam_id":85568392924515187,"keywords":["nocrits","nodmgspread","payload","uncletopia"],"game_id":440,"stv_port":27036,"stv_name":"Uncletopia | Atlanta | 3 | Stopwatch Beta | STV","players":null},{"server_id":401,"name":"Uncletopia | Atlanta | 4 | No Payload","name_short":"atl-4","host":"atl-1.us.uncletopia.com","port":27045,"enabled":true,"region":"us-east","cc":"us","latitude":33.753746,"longitude":-84.38633,"reserved":0,"last_update":"0001-01-01T00:00:00Z","name_a2s":"Uncletopia | Atlanta | 4 | No Payload","protocol":17,"map":"pl_pier","folder":"tf","game":"Team Fortress","app_id":440,"player_count":0,"max_players":24,"Bots":0,"server_type":"Dedicated","server_os":"Linux","password":true,"vac":true,"version":"7723704","steam_id":85568392924515188,"keywords":["nocrits","nodmgspread","payload","uncletopia"],"game_id":440,"stv_port":27046,"stv_name":"Uncletopia | Atlanta | 4 | No Payload | STV","players":null},{"server_id":2,"name":"Uncletopia | Chicago | 1 | All Maps","name_short":"chi-1","host":"chi-1.us.uncletopia.com","port":27015,"enabled":true,"region":"us-central","cc":"us","latitude":41.881832,"longitude":-87.62318,"reserved":0,"last_update":"0001-01-01T00:00:00Z","name_a2s":"Uncletopia | Chicago | 1 | All Maps","protocol":17,"map":"pl_barnblitz","folder":"tf","game":"Team Fortress","app_id":440,"player_count":0,"max_players":24,"Bots":0,"server_type":"Dedicated","server_os":"Linux","password":true,"vac":true,"version":"7742253","steam_id":85568392924469984,"keywords":["nocrits","nodmgspread","payload","uncletopia"],"game_id":440,"stv_port":27016,"stv_name":"Uncletopia | Chicago | 1 | All Maps | STV","players":null},{"server_id":106,"name":"Uncletopia | Chicago | 2 | All Maps","name_short":"chi-2","host":"chi-1.us.uncletopia.com","port":27025,"enabled":true,"region":"us-central","cc":"us","latitude":41.881832,"longitude":-87.62318,"reserved":0,"last_update":"0001-01-01T00:00:00Z","name_a2s":"Uncletopia | Chicago | 2 | All Maps","protocol":17,"map":"pl_snowycoast","folder":"tf","game":"Team Fortress","app_id":440,"player_count":0,"max_players":24,"Bots":0,"server_type":"Dedicated","server_os":"Linux","password":true,"vac":true,"version":"7742253","steam_id":85568392924469985,"keywords":["nocrits","nodmgspread","payload","uncletopia"],"game_id":440,"stv_port":27026,"stv_name":"Uncletopia | Chicago | 2 | All Maps | STV","players":null},{"server_id":402,"name":"Uncletopia | Chicago | 3 | All Maps","name_short":"chi-3","host":"chi-1.us.uncletopia.com","port":27035,"enabled":true,"region":"us-central","cc":"us","latitude":41.881832,"longitude":-87.62318,"reserved":0,"last_update":"0001-01-01T00:00:00Z","name_a2s":"Uncletopia | Chicago | 3 | All Maps","protocol":17,"map":"koth_viaduct","folder":"tf","game":"Team Fortress","app_id":440,"player_count":0,"max_players":24,"Bots":0,"server_type":"Dedicated","server_os":"Linux","password":true,"vac":true,"version":"7742253","steam_id":85568392924515191,"keywords":["cp","nocrits","nodmgspread","uncletopia"],"game_id":440,"stv_port":27036,"stv_name":"Uncletopia | Chicago | 3 | All Maps | STV","players":null},{"server_id":403,"name":"Uncletopia | Chicago | 4 | All Maps","name_short":"chi-4","host":"chi-1.us.uncletopia.com","port":27045,"enabled":true,"region":"us-central","cc":"us","latitude":41.881832,"longitude":-87.62318,"reserved":0,"last_update":"0001-01-01T00:00:00Z","name_a2s":"Uncletopia | Chicago | 4 | All Maps","protocol":17,"map":"koth_lakeside_final","folder":"tf","game":"Team Fortress","app_id":440,"player_count":0,"max_players":24,"Bots":0,"server_type":"Dedicated","server_os":"Linux","password":true,"vac":true,"version":"7742253","steam_id":85568392924515193,"keywords":["cp","nocrits","nodmgspread","uncletopia"],"game_id":440,"stv_port":27046,"stv_name":"Uncletopia | Chicago | 4 | All Maps | STV","players":null},{"server_id":36,"name":"Uncletopia | Chicago | 5 | All Maps","name_short":"chi-5","host":"chi-2.us.uncletopia.com","port":27015,"enabled":true,"region":"us-central","cc":"us","latitude":41.881832,"longitude":-87.62318,"reserved":0,"last_update":"0001-01-01T00:00:00Z","name_a2s":"Uncletopia | Chicago | 5 | All Maps","protocol":17,"map":"pl_swiftwater_final1","folder":"tf","game":"Team Fortress","app_id":440,"player_count":25,"max_players":24,"Bots":0,"server_type":"Dedicated","server_os":"Linux","password":true,"vac":true,"version":"7742253","steam_id":85568392924866362,"keywords":["nocrits","nodmgspread","payload","uncletopia"],"game_id":440,"stv_port":27016,"stv_name":"Uncletopia | Chicago | 5 | All Maps | STV","players":[{"user_id":53,"name":"weslerrr","steam_id":76561198292480110,"connected_time":1820000000000,"state":"active","ping":51},{"user_id":37,"name":"Daz","steam_id":76561198041431938,"connected_time":3484000000000,"state":"active","ping":73},{"user_id":46,"name":"technoninja395","steam_id":76561199368978007,"connected_time":2103000000000,"state":"active","ping":57},{"user_id":38,"name":"Obama Nood","steam_id":76561198301526239,"connected_time":3256000000000,"state":"active","ping":91},{"user_id":47,"name":"Mani","steam_id":76561198139428711,"connected_time":2088000000000,"state":"active","ping":58},{"user_id":14,"name":"Casual Costanza","steam_id":76561198024409325,"connected_time":6555000000000,"state":"active","ping":61},{"user_id":71,"name":"Ripheart","steam_id":76561198089661561,"connected_time":6000000000,"state":"spawning","ping":60},{"user_id":43,"name":"swan","steam_id":76561198012569200,"connected_time":2539000000000,"state":"active","ping":70},{"user_id":67,"name":"Toaster","steam_id":76561198856398048,"connected_time":1036000000000,"state":"active","ping":86},{"user_id":41,"name":"Souper Scott","steam_id":76561198045518926,"connected_time":2994000000000,"state":"active","ping":57},{"user_id":16,"name":"StŒürm","steam_id":76561198140983063,"connected_time":6288000000000,"state":"active","ping":53},{"user_id":27,"name":"SkyLark","steam_id":76561198303618132,"connected_time":5063000000000,"state":"active","ping":99},{"user_id":42,"name":"Deltaco","steam_id":76561198094572694,"connected_time":2894000000000,"state":"active","ping":119},{"user_id":68,"name":"Dexter","steam_id":76561198050149035,"connected_time":512000000000,"state":"active","ping":74},{"user_id":52,"name":"shokie","steam_id":76561197997961542,"connected_time":1853000000000,"state":"active","ping":61},{"user_id":66,"name":"Rick Assley","steam_id":76561198365019199,"connected_time":1052000000000,"state":"active","ping":61},{"user_id":51,"name":"Soap Man","steam_id":76561198000490235,"connected_time":1915000000000,"state":"active","ping":115},{"user_id":63,"name":"Purpurite","steam_id":76561198882824881,"connected_time":1458000000000,"state":"active","ping":56},{"user_id":70,"name":"Do Moose go Moo?","steam_id":76561198073550620,"connected_time":279000000000,"state":"active","ping":48},{"user_id":58,"name":"Mr. Pink","steam_id":76561198065858172,"connected_time":1549000000000,"state":"active","ping":67},{"user_id":59,"name":"Mayor Milo","steam_id":76561198024246523,"connected_time":1546000000000,"state":"active","ping":66},{"user_id":60,"name":"carrot cake","steam_id":76561198055174915,"connected_time":1524000000000,"state":"active","ping":74},{"user_id":69,"name":"Shoop!","steam_id":76561198960010297,"connected_time":508000000000,"state":"active","ping":43},{"user_id":62,"name":"Jawbone17","steam_id":76561198043939302,"connected_time":1515000000000,"state":"active","ping":116},{"user_id":72,"name":"Rumpelforeskin","steam_id":76561198022105119,"connected_time":4000000000,"state":"spawning","ping":88}]},{"server_id":37,"name":"Uncletopia | Chicago | 6 | All Maps","name_short":"chi-6","host":"chi-2.us.uncletopia.com","port":27025,"enabled":true,"region":"us-central","cc":"us","latitude":41.881832,"longitude":-87.62318,"reserved":0,"last_update":"0001-01-01T00:00:00Z","name_a2s":"Uncletopia | Chicago | 6 | All Maps","protocol":17,"map":"cp_sunshine","folder":"tf","game":"Team Fortress","app_id":440,"player_count":0,"max_players":24,"Bots":0,"server_type":"Dedicated","server_os":"Linux","password":true,"vac":true,"version":"7742253","steam_id":85568392924866363,"keywords":["cp","nocrits","nodmgspread","uncletopia"],"game_id":440,"stv_port":27026,"stv_name":"Uncletopia | Chicago | 6 | All Maps | STV","players":null},{"server_id":38,"name":"Uncletopia | Chicago | 7 | Stopwatch Beta","name_short":"chi-7","host":"chi-2.us.uncletopia.com","port":27035,"enabled":true,"region":"us-central","cc":"us","latitude":41.881832,"longitude":-87.62318,"reserved":0,"last_update":"0001-01-01T00:00:00Z","name_a2s":"Uncletopia | Chicago | 7 | Stopwatch Beta","protocol":17,"map":"koth_lakeside_final","folder":"tf","game":"Team Fortress","app_id":440,"player_count":0,"max_players":24,"Bots":0,"server_type":"Dedicated","server_os":"Linux","password":true,"vac":true,"version":"7742253","steam_id":85568392924866364,"keywords":["cp","nocrits","nodmgspread","uncletopia"],"game_id":440,"stv_port":27036,"stv_name":"Uncletopia | Chicago | 7 | Stopwatch Beta | STV","players":null},{"server_id":39,"name":"Uncletopia | Chicago | 8 | Community","name_short":"chi-8","host":"chi-2.us.uncletopia.com","port":27045,"enabled":true,"region":"us-central","cc":"us","latitude":41.881832,"longitude":-87.62318,"reserved":0,"last_update":"0001-01-01T00:00:00Z","name_a2s":"Uncletopia | Chicago | 8 | Community","protocol":17,"map":"koth_lakeside_final","folder":"tf","game":"Team Fortress","app_id":440,"player_count":0,"max_players":24,"Bots":0,"server_type":"Dedicated","server_os":"Linux","password":true,"vac":true,"version":"7742253","steam_id":85568392924866365,"keywords":["cp","nocrits","nodmgspread","uncletopia"],"game_id":440,"stv_port":27046,"stv_name":"Uncletopia | Chicago | 8 | Community | STV","players":null},{"server_id":8,"name":"Uncletopia | Dallas | 1 | All Maps","name_short":"dal-1","host":"dal-1.us.uncletopia.com","port":27015,"enabled":true,"region":"us-central","cc":"us","latitude":32.779167,"longitude":-96.80889,"reserved":0,"last_update":"0001-01-01T00:00:00Z","name_a2s":"Uncletopia | Dallas | 1 | All Maps","protocol":17,"map":"pl_badwater","folder":"tf","game":"Team Fortress","app_id":440,"player_count":24,"max_players":24,"Bots":0,"server_type":"Dedicated","server_os":"Linux","password":true,"vac":true,"version":"7742253","steam_id":85568392924469986,"keywords":["nocrits","nodmgspread","payload","uncletopia"],"game_id":440,"stv_port":27016,"stv_name":"Uncletopia | Dallas | 1 | All Maps | STV","players":[{"user_id":81,"name":"obbeymaster19","steam_id":76561199197244143,"connected_time":365000000000,"state":"active","ping":76},{"user_id":74,"name":"bsrob","steam_id":76561197972148002,"connected_time":655000000000,"state":"active","ping":77},{"user_id":5,"name":"That70sDog","steam_id":76561198119396142,"connected_time":6685000000000,"state":"active","ping":65},{"user_id":75,"name":"bdkaine1","steam_id":76561198133545467,"connected_time":647000000000,"state":"active","ping":71},{"user_id":76,"name":"About That Gift I Owed Ya","steam_id":76561198071506287,"connected_time":627000000000,"state":"active","ping":92},{"user_id":16,"name":"Thicc Boi","steam_id":76561199013378707,"connected_time":6352000000000,"state":"active","ping":70},{"user_id":11,"name":"Mastergimmick","steam_id":76561198995180884,"connected_time":6476000000000,"state":"active","ping":64},{"user_id":64,"name":"hola","steam_id":76561198873043242,"connected_time":1269000000000,"state":"active","ping":125},{"user_id":77,"name":"-","steam_id":76561198021308963,"connected_time":612000000000,"state":"active","ping":60},{"user_id":47,"name":"microwaving a cinnamon roll","steam_id":76561198328109873,"connected_time":3261000000000,"state":"active","ping":89},{"user_id":21,"name":"pretty cool","steam_id":76561199064758232,"connected_time":4963000000000,"state":"active","ping":53},{"user_id":78,"name":"clems17","steam_id":76561199420685482,"connected_time":609000000000,"state":"active","ping":156},{"user_id":72,"name":"ColonelKermit","steam_id":76561198318215660,"connected_time":699000000000,"state":"active","ping":75},{"user_id":66,"name":"dosimeter","steam_id":76561198039608940,"connected_time":1246000000000,"state":"active","ping":106},{"user_id":80,"name":"El Pootis","steam_id":76561198835626936,"connected_time":487000000000,"state":"active","ping":106},{"user_id":61,"name":"MyamE","steam_id":76561198133278462,"connected_time":2032000000000,"state":"active","ping":88},{"user_id":86,"name":"demolondon the thrice","steam_id":76561198936116083,"connected_time":93000000000,"state":"active","ping":127},{"user_id":67,"name":"summerlis","steam_id":76561198165324438,"connected_time":1246000000000,"state":"active","ping":80},{"user_id":54,"name":"who ate the cheese","steam_id":76561198275408467,"connected_time":2595000000000,"state":"active","ping":47},{"user_id":43,"name":"1000 Ping","steam_id":76561198098330939,"connected_time":3420000000000,"state":"active","ping":93},{"user_id":56,"name":"twitch.tv/fembotomy","steam_id":76561198102681457,"connected_time":2438000000000,"state":"active","ping":71},{"user_id":84,"name":"Jailbreak","steam_id":76561198802085218,"connected_time":245000000000,"state":"active","ping":57},{"user_id":59,"name":"Red","steam_id":76561197998285162,"connected_time":2140000000000,"state":"active","ping":87},{"user_id":87,"name":"Tywhip","steam_id":76561199207545191,"connected_time":9000000000,"state":"spawning","ping":179}]},{"server_id":108,"name":"Uncletopia | Dallas | 2 | All Maps","name_short":"dal-2","host":"dal-1.us.uncletopia.com","port":27025,"enabled":true,"region":"us-central","cc":"us","latitude":32.779167,"longitude":-96.80889,"reserved":0,"last_update":"0001-01-01T00:00:00Z","name_a2s":"Uncletopia | Dallas | 2 | All Maps","protocol":17,"map":"cp_process_final","folder":"tf","game":"Team Fortress","app_id":440,"player_count":0,"max_players":24,"Bots":0,"server_type":"Dedicated","server_os":"Linux","password":true,"vac":true,"version":"7742253","steam_id":85568392924469988,"keywords":["cp","nocrits","nodmgspread","uncletopia"],"game_id":440,"stv_port":27026,"stv_name":"Uncletopia | Dallas | 2 | All Maps | STV","players":null},{"server_id":5,"name":"Uncletopia | Frankfurt | 1 | All Maps","name_short":"frk-1","host":"frk-1.de.uncletopia.com","port":27015,"enabled":true,"region":"eu","cc":"de","latitude":50.110924,"longitude":8.682127,"reserved":0,"last_update":"0001-01-01T00:00:00Z","name_a2s":"Uncletopia | Frankfurt | 1 | All Maps","protocol":17,"map":"pl_pier","folder":"tf","game":"Team Fortress","app_id":440,"player_count":24,"max_players":24,"Bots":0,"server_type":"Dedicated","server_os":"Linux","password":true,"vac":true,"version":"7742253","steam_id":85568392924469989,"keywords":["nocrits","nodmgspread","payload","uncletopia"],"game_id":440,"stv_port":27016,"stv_name":"Uncletopia | Frankfurt | 1 | All Maps | STV","players":[{"user_id":247,"name":"The Green Uncle","steam_id":76561198257163156,"connected_time":3101000000000,"state":"active","ping":80},{"user_id":248,"name":":\u003e","steam_id":76561198349324196,"connected_time":3081000000000,"state":"active","ping":171},{"user_id":272,"name":"[ü•õüçáüçì]ReseF","steam_id":76561198049390479,"connected_time":873000000000,"state":"active","ping":97},{"user_id":271,"name":"Fat Pigeon","steam_id":76561198817940142,"connected_time":918000000000,"state":"active","ping":47},{"user_id":239,"name":"YMC agent_richi","steam_id":76561199218542987,"connected_time":4230000000000,"state":"active","ping":46},{"user_id":233,"name":"Chilchang Billing","steam_id":76561197993300020,"connected_time":4811000000000,"state":"active","ping":64},{"user_id":209,"name":"yuh","steam_id":76561199005555839,"connected_time":6452000000000,"state":"active","ping":67},{"user_id":262,"name":"–ì–¥–µ –º–æ—Ä–µ?","steam_id":76561197979625544,"connected_time":1735000000000,"state":"active","ping":84},{"user_id":263,"name":"F2P gameing","steam_id":76561198834713682,"connected_time":1693000000000,"state":"active","ping":76},{"user_id":274,"name":"ratoshin","steam_id":76561198194433657,"connected_time":817000000000,"state":"active","ping":45},{"user_id":260,"name":"Cobb Salads","steam_id":76561197971140507,"connected_time":2278000000000,"state":"active","ping":72},{"user_id":250,"name":"Seail_M","steam_id":76561198002405605,"connected_time":3057000000000,"state":"active","ping":53},{"user_id":245,"name":"Lukas","steam_id":76561198009118452,"connected_time":3109000000000,"state":"active","ping":52},{"user_id":254,"name":"Teamtrevien","steam_id":76561198085513932,"connected_time":2993000000000,"state":"active","ping":68},{"user_id":278,"name":"SugipuLaur","steam_id":76561199138556623,"connected_time":191000000000,"state":"active","ping":73},{"user_id":261,"name":"MidnightMoth","steam_id":76561198842238362,"connected_time":2259000000000,"state":"active","ping":89},{"user_id":234,"name":"...","steam_id":76561198969234594,"connected_time":4799000000000,"state":"active","ping":58},{"user_id":252,"name":"DOME","steam_id":76561198085155381,"connected_time":3030000000000,"state":"active","ping":72},{"user_id":256,"name":"WinRAR‚Ñ¢","steam_id":76561198056522270,"connected_time":2961000000000,"state":"active","ping":54},{"user_id":267,"name":"Mr. Hunts","steam_id":76561197981910397,"connected_time":1367000000000,"state":"active","ping":74},{"user_id":269,"name":"anairat","steam_id":76561198863788240,"connected_time":1034000000000,"state":"active","ping":77},{"user_id":279,"name":"kotamine","steam_id":76561198068907991,"connected_time":4000000000,"state":"spawning","ping":61},{"user_id":266,"name":"Little boy from RIZZario","steam_id":76561198157406151,"connected_time":1381000000000,"state":"active","ping":71},{"user_id":238,"name":"Barlemon","steam_id":76561198255758457,"connected_time":4274000000000,"state":"active","ping":88}]},{"server_id":110,"name":"Uncletopia | Frankfurt | 2 | All Maps","name_short":"frk-2","host":"frk-1.de.uncletopia.com","port":27025,"enabled":true,"region":"eu","cc":"de","latitude":50.110924,"longitude":8.682127,"reserved":0,"last_update":"0001-01-01T00:00:00Z","name_a2s":"Uncletopia | Frankfurt | 2 | All Maps","protocol":17,"map":"pl_swiftwater_final1","folder":"tf","game":"Team Fortress","app_id":440,"player_count":0,"max_players":24,"Bots":0,"server_type":"Dedicated","server_os":"Linux","password":true,"vac":true,"version":"7742253","steam_id":85568392924469990,"keywords":["nocrits","nodmgspread","payload","uncletopia"],"game_id":440,"stv_port":27026,"stv_name":"Uncletopia | Frankfurt | 2 | All Maps | STV","players":null},{"server_id":308,"name":"Uncletopia | Frankfurt | 3 | All Maps","name_short":"frk-3","host":"frk-1.de.uncletopia.com","port":27035,"enabled":true,"region":"eu","cc":"de","latitude":50.110924,"longitude":8.682127,"reserved":0,"last_update":"0001-01-01T00:00:00Z","name_a2s":"Uncletopia | Frankfurt | 3 | All Maps","protocol":17,"map":"pl_frontier_final","folder":"tf","game":"Team Fortress","app_id":440,"player_count":0,"max_players":24,"Bots":0,"server_type":"Dedicated","server_os":"Linux","password":true,"vac":true,"version":"7742253","steam_id":85568392924504274,"keywords":["nocrits","nodmgspread","payload","uncletopia"],"game_id":440,"stv_port":27036,"stv_name":"Uncletopia | Frankfurt | 3 | All Maps | STV","players":null},{"server_id":309,"name":"Uncletopia | Frankfurt | 4 | All Maps","name_short":"frk-4","host":"frk-1.de.uncletopia.com","port":27045,"enabled":true,"region":"eu","cc":"de","latitude":50.110924,"longitude":8.682127,"reserved":0,"last_update":"0001-01-01T00:00:00Z","name_a2s":"Uncletopia | Frankfurt | 4 | All Maps","protocol":17,"map":"pl_pier","folder":"tf","game":"Team Fortress","app_id":440,"player_count":24,"max_players":24,"Bots":0,"server_type":"Dedicated","server_os":"Linux","password":true,"vac":true,"version":"7742253","steam_id":85568392924504275,"keywords":["nocrits","nodmgspread","payload","uncletopia"],"game_id":440,"stv_port":27046,"stv_name":"Uncletopia | Frankfurt | 4 | All Maps | STV","players":[{"user_id":58,"name":"loop zoop","steam_id":76561198969373800,"connected_time":915000000000,"state":"active","ping":69},{"user_id":54,"name":"kwasny","steam_id":76561199033981024,"connected_time":1237000000000,"state":"active","ping":74},{"user_id":47,"name":"your_local_penguin","steam_id":76561199224954346,"connected_time":1387000000000,"state":"active","ping":80},{"user_id":10,"name":"Surfyx","steam_id":76561199110545477,"connected_time":2875000000000,"state":"active","ping":61},{"user_id":46,"name":"L√∂ys√§ Masa","steam_id":76561198343396172,"connected_time":1601000000000,"state":"active","ping":79},{"user_id":43,"name":"TheWorstPlayerOfVideoGames","steam_id":76561198343793351,"connected_time":1827000000000,"state":"active","ping":60},{"user_id":51,"name":"Tobi Kunn","steam_id":76561198361013020,"connected_time":1291000000000,"state":"active","ping":79},{"user_id":15,"name":"svepitos","steam_id":76561198287351235,"connected_time":2563000000000,"state":"active","ping":60},{"user_id":18,"name":"Graf von Scyth","steam_id":76561198198497733,"connected_time":2501000000000,"state":"active","ping":58},{"user_id":29,"name":"a gangsta","steam_id":76561198086709652,"connected_time":2169000000000,"state":"active","ping":60},{"user_id":55,"name":"engie?","steam_id":76561198331852832,"connected_time":1151000000000,"state":"active","ping":87},{"user_id":60,"name":".::[SerafeTTiN]::.","steam_id":76561198009471724,"connected_time":779000000000,"state":"active","ping":87},{"user_id":48,"name":"333","steam_id":76561198029805235,"connected_time":1384000000000,"state":"active","ping":65},{"user_id":25,"name":"AforeKingDwarf","steam_id":76561198043562926,"connected_time":2294000000000,"state":"active","ping":53},{"user_id":26,"name":"Avoonix","steam_id":76561198186954897,"connected_time":2283000000000,"state":"active","ping":61},{"user_id":33,"name":"GregerUlander","steam_id":76561198152375055,"connected_time":2125000000000,"state":"active","ping":70},{"user_id":31,"name":"kaT","steam_id":76561198879664338,"connected_time":2157000000000,"state":"active","ping":57},{"user_id":61,"name":"25CmOfDick!","steam_id":76561199233979726,"connected_time":728000000000,"state":"active","ping":82},{"user_id":34,"name":"Cuthbert","steam_id":76561198204649481,"connected_time":2096000000000,"state":"active","ping":102},{"user_id":62,"name":"Clamor_","steam_id":76561198104368295,"connected_time":721000000000,"state":"active","ping":88},{"user_id":49,"name":"MAKENTAKEN","steam_id":76561199127359587,"connected_time":1355000000000,"state":"active","ping":93},{"user_id":37,"name":"gart","steam_id":76561198203394358,"connected_time":2074000000000,"state":"active","ping":97},{"user_id":44,"name":"El`Capitano Flex","steam_id":76561198061813730,"connected_time":1781000000000,"state":"active","ping":67},{"user_id":57,"name":"L√∂ss√∂","steam_id":76561197994254413,"connected_time":927000000000,"state":"active","ping":66}]},{"server_id":310,"name":"Uncletopia | Frankfurt | 5 | All Maps","name_short":"frk-5","host":"frk-1.de.uncletopia.com","port":27055,"enabled":true,"region":"eu","cc":"de","latitude":50.110924,"longitude":8.682127,"reserved":0,"last_update":"0001-01-01T00:00:00Z","name_a2s":"Uncletopia | Frankfurt | 5 | All Maps","protocol":17,"map":"cp_mountainlab","folder":"tf","game":"Team Fortress","app_id":440,"player_count":1,"max_players":24,"Bots":0,"server_type":"Dedicated","server_os":"Linux","password":true,"vac":true,"version":"7742253","steam_id":85568392924504277,"keywords":["cp","nocrits","nodmgspread","uncletopia"],"game_id":440,"stv_port":27056,"stv_name":"Uncletopia | Frankfurt | 5 | All Maps | STV","players":[{"user_id":15,"name":"dhejja025","steam_id":76561199462021667,"connected_time":71000000000,"state":"spawning","ping":192}]},{"server_id":311,"name":"Uncletopia | Frankfurt | 6 | All Maps","name_short":"frk-6","host":"frk-1.de.uncletopia.com","port":27065,"enabled":true,"region":"eu","cc":"de","latitude":50.110924,"longitude":8.682127,"reserved":0,"last_update":"0001-01-01T00:00:00Z","name_a2s":"Uncletopia | Frankfurt | 6 | All Maps","protocol":17,"map":"koth_king","folder":"tf","game":"Team Fortress","app_id":440,"player_count":24,"max_players":24,"Bots":0,"server_type":"Dedicated","server_os":"Linux","password":true,"vac":true,"version":"7742253","steam_id":85568392924504278,"keywords":["cp","nocrits","nodmgspread","uncletopia"],"game_id":440,"stv_port":27066,"stv_name":"Uncletopia | Frankfurt | 6 | All Maps | STV","players":[{"user_id":166,"name":"Blondie","steam_id":76561198080631634,"connected_time":2290000000000,"state":"active","ping":57},{"user_id":163,"name":"–ò–Ω—Å–ø–µ–∫—Ç–æ—Ä –ê—Ç–∞—Å","steam_id":76561199175688390,"connected_time":2444000000000,"state":"active","ping":76},{"user_id":214,"name":"nhstefanov","steam_id":76561198811811405,"connected_time":104000000000,"state":"active","ping":70},{"user_id":197,"name":"Will","steam_id":76561198088266191,"connected_time":792000000000,"state":"active","ping":119},{"user_id":203,"name":"What's for dinner ?","steam_id":76561198199110998,"connected_time":556000000000,"state":"active","ping":64},{"user_id":188,"name":"one fish two fish","steam_id":76561199081098581,"connected_time":1161000000000,"state":"active","ping":80},{"user_id":162,"name":"apple","steam_id":76561198116932635,"connected_time":2451000000000,"state":"active","ping":58},{"user_id":209,"name":"Gequip123","steam_id":76561198124438707,"connected_time":163000000000,"state":"active","ping":46},{"user_id":210,"name":"Th√§as","steam_id":76561198264708239,"connected_time":162000000000,"state":"active","ping":62},{"user_id":190,"name":"EmissaryOfTheLord","steam_id":76561199130305263,"connected_time":1138000000000,"state":"active","ping":47},{"user_id":208,"name":"Francis_Elric","steam_id":76561198063002471,"connected_time":183000000000,"state":"active","ping":74},{"user_id":211,"name":"Klik","steam_id":76561198891046692,"connected_time":156000000000,"state":"active","ping":70},{"user_id":204,"name":"FishNachoz","steam_id":76561198026519426,"connected_time":476000000000,"state":"active","ping":64},{"user_id":184,"name":"alko_bone","steam_id":76561198557773514,"connected_time":1219000000000,"state":"active","ping":113},{"user_id":175,"name":"garloid farmer","steam_id":76561197995194628,"connected_time":1855000000000,"state":"active","ping":61},{"user_id":176,"name":"Romultra","steam_id":76561198354105082,"connected_time":1835000000000,"state":"active","ping":54},{"user_id":205,"name":"Acxsa","steam_id":76561198098979449,"connected_time":431000000000,"state":"active","ping":63},{"user_id":207,"name":"KuhlerKarl","steam_id":76561198411211564,"connected_time":195000000000,"state":"active","ping":65},{"user_id":146,"name":"Toasty5050","steam_id":76561198073540881,"connected_time":3956000000000,"state":"active","ping":46},{"user_id":212,"name":"mightyvolts","steam_id":76561198404172173,"connected_time":156000000000,"state":"active","ping":187},{"user_id":134,"name":"JeanCorben","steam_id":76561197965133561,"connected_time":4226000000000,"state":"active","ping":45},{"user_id":147,"name":"Rimx","steam_id":76561198053034840,"connected_time":3943000000000,"state":"active","ping":95},{"user_id":202,"name":"PabloGamerPro5000","steam_id":76561198358173553,"connected_time":696000000000,"state":"active","ping":77},{"user_id":186,"name":"man builds a sandcastle (rare)","steam_id":76561199012566222,"connected_time":1193000000000,"state":"active","ping":48}]},{"server_id":23,"name":"Uncletopia | Frankfurt | 7 | Stopwatch Beta","name_short":"frk-7","host":"frk-1.de.uncletopia.com","port":27075,"enabled":true,"region":"eu","cc":"de","latitude":50.110924,"longitude":8.682127,"reserved":0,"last_update":"0001-01-01T00:00:00Z","name_a2s":"Uncletopia | Frankfurt | 7 | Stopwatch Beta","protocol":17,"map":"pl_badwater","folder":"tf","game":"Team Fortress","app_id":440,"player_count":0,"max_players":24,"Bots":0,"server_type":"Dedicated","server_os":"Linux","password":true,"vac":true,"version":"7742253","steam_id":85568392924742827,"keywords":["nocrits","nodmgspread","payload","uncletopia"],"game_id":440,"stv_port":27076,"stv_name":"Uncletopia | Frankfurt | 7 | Stopwatch Beta | STV","players":null},{"server_id":24,"name":"Uncletopia | Frankfurt | 8 | Community","name_short":"frk-8","host":"frk-1.de.uncletopia.com","port":27085,"enabled":true,"region":"eu","cc":"de","latitude":50.110924,"longitude":8.682127,"reserved":0,"last_update":"0001-01-01T00:00:00Z","name_a2s":"Uncletopia | Frankfurt | 8 | Community","protocol":17,"map":"workshop/koth_ramjam_rc1.ugc459778887","folder":"tf","game":"Team Fortress","app_id":440,"player_count":0,"max_players":24,"Bots":0,"server_type":"Dedicated","server_os":"Linux","password":true,"vac":true,"version":"7742253","steam_id":85568392924742828,"keywords":["cp","nocrits","nodmgspread","uncletopia"],"game_id":440,"stv_port":27086,"stv_name":"Uncletopia | Frankfurt | 8 | Community | STV","players":null},{"server_id":202,"name":"Uncletopia | Hong Kong | 1 | All Maps","name_short":"hgk-1","host":"hgk-1.hk.uncletopia.com","port":27015,"enabled":true,"region":"asia","cc":"hk","latitude":22.302711,"longitude":114.177216,"reserved":0,"last_update":"0001-01-01T00:00:00Z","name_a2s":"Uncletopia | Hong Kong | 1 | All Maps","protocol":17,"map":"pl_borneo","folder":"tf","game":"Team Fortress","app_id":440,"player_count":26,"max_players":24,"Bots":0,"server_type":"Dedicated","server_os":"Linux","password":true,"vac":true,"version":"7742253","steam_id":85568392924494504,"keywords":["nocrits","nodmgspread","payload","uncletopia"],"game_id":440,"stv_port":27016,"stv_name":"Uncletopia | Hong Kong | 1 | All Maps | STV","players":[{"user_id":928,"name":"lettuce at 58p","steam_id":76561199401283123,"connected_time":144000000000,"state":"active","ping":91},{"user_id":892,"name":":)","steam_id":76561198437941450,"connected_time":399000000000,"state":"active","ping":75},{"user_id":929,"name":"MAGNUS","steam_id":76561198208990721,"connected_time":135000000000,"state":"active","ping":80},{"user_id":893,"name":"Doormann","steam_id":76561199219230108,"connected_time":383000000000,"state":"active","ping":74},{"user_id":924,"name":"no vc no c","steam_id":76561197989503095,"connected_time":165000000000,"state":"active","ping":97},{"user_id":927,"name":"aisha","steam_id":76561198132172320,"connected_time":148000000000,"state":"active","ping":83},{"user_id":947,"name":"spy from the team fortress 2","steam_id":76561199146847474,"connected_time":19000000000,"state":"spawning","ping":49},{"user_id":599,"name":"I love air conditioning","steam_id":76561198811532659,"connected_time":5099000000000,"state":"active","ping":78},{"user_id":923,"name":"floatingdeadfish","steam_id":76561198414875516,"connected_time":173000000000,"state":"active","ping":69},{"user_id":601,"name":"r/leroy","steam_id":76561199137927625,"connected_time":4759000000000,"state":"active","ping":95},{"user_id":925,"name":"Â§âÊÖã„ÅÆÁ•û","steam_id":76561199017344476,"connected_time":165000000000,"state":"active","ping":97},{"user_id":602,"name":"Steve","steam_id":76561198429235506,"connected_time":4732000000000,"state":"active","ping":80},{"user_id":693,"name":"PissDrinker98","steam_id":76561198856157761,"connected_time":2163000000000,"state":"active","ping":102},{"user_id":926,"name":"Banana Milk","steam_id":76561198005156257,"connected_time":152000000000,"state":"active","ping":126},{"user_id":949,"name":"professional esports fortnite","steam_id":76561198337887896,"connected_time":0,"state":"connecting","ping":0},{"user_id":504,"name":"Bertengkar","steam_id":76561198213031155,"connected_time":12352000000000,"state":"active","ping":102},{"user_id":861,"name":"Vladimir Spencer Pootis","steam_id":76561198144686119,"connected_time":526000000000,"state":"active","ping":57},{"user_id":579,"name":"tybrl","steam_id":76561198055553140,"connected_time":6353000000000,"state":"active","ping":91},{"user_id":611,"name":"unchi","steam_id":76561197969873415,"connected_time":3620000000000,"state":"active","ping":102},{"user_id":469,"name":"Zacy","steam_id":76561198114841670,"connected_time":16007000000000,"state":"active","ping":79},{"user_id":603,"name":"Ïø†ÌÇ§","steam_id":76561197997220367,"connected_time":4720000000000,"state":"active","ping":52},{"user_id":616,"name":"Du57Y","steam_id":76561198120973476,"connected_time":3492000000000,"state":"active","ping":71},{"user_id":623,"name":"Milk‚ù§ (currently banned in ut","steam_id":76561198163911560,"connected_time":3372000000000,"state":"active","ping":119},{"user_id":723,"name":"Diavolo Diablo","steam_id":76561198166295333,"connected_time":1720000000000,"state":"active","ping":88},{"user_id":622,"name":"BuchiRyu","steam_id":76561198137607311,"connected_time":3372000000000,"state":"active","ping":105},{"user_id":888,"name":"SugarDaddy9000","steam_id":76561198390047743,"connected_time":410000000000,"state":"active","ping":106}]},{"server_id":1,"name":"Uncletopia | Los Angeles | 1 | All Maps","name_short":"lax-1","host":"lax-1.us.uncletopia.com","port":27015,"enabled":true,"region":"us-west","cc":"us","latitude":33.94279,"longitude":-118.41004,"reserved":0,"last_update":"0001-01-01T00:00:00Z","name_a2s":"Uncletopia | Los Angeles | 1 | All Maps","protocol":17,"map":"koth_lakeside_final","folder":"tf","game":"Team Fortress","app_id":440,"player_count":0,"max_players":24,"Bots":0,"server_type":"Dedicated","server_os":"Linux","password":true,"vac":true,"version":"7742253","steam_id":85568392924469991,"keywords":["cp","nocrits","nodmgspread","uncletopia"],"game_id":440,"stv_port":27016,"stv_name":"Uncletopia | Los Angeles | 1 | All Maps | STV","players":null},{"server_id":112,"name":"Uncletopia | Los Angeles | 2 | All Maps","name_short":"lax-2","host":"lax-1.us.uncletopia.com","port":27025,"enabled":true,"region":"us-west","cc":"us","latitude":33.94279,"longitude":-118.41004,"reserved":0,"last_update":"0001-01-01T00:00:00Z","name_a2s":"Uncletopia | Los Angeles | 2 | All Maps","protocol":17,"map":"ctf_turbine","folder":"tf","game":"Team Fortress","app_id":440,"player_count":0,"max_players":24,"Bots":0,"server_type":"Dedicated","server_os":"Linux","password":true,"vac":true,"version":"7742253","steam_id":85568392924469992,"keywords":["ctf","nocrits","nodmgspread","uncletopia"],"game_id":440,"stv_port":27026,"stv_name":"Uncletopia | Los Angeles | 2 | All Maps | STV","players":null},{"server_id":324,"name":"Uncletopia | Los Angeles | 3 | All Maps","name_short":"lax-3","host":"lax-1.us.uncletopia.com","port":27035,"enabled":true,"region":"us-west","cc":"us","latitude":33.94279,"longitude":-118.41004,"reserved":0,"last_update":"0001-01-01T00:00:00Z","name_a2s":"Uncletopia | Los Angeles | 3 | All Maps","protocol":17,"map":"pl_swiftwater_final1","folder":"tf","game":"Team Fortress","app_id":440,"player_count":0,"max_players":24,"Bots":0,"server_type":"Dedicated","server_os":"Linux","password":true,"vac":true,"version":"7742253","steam_id":85568392924510198,"keywords":["nocrits","nodmgspread","payload","uncletopia"],"game_id":440,"stv_port":27036,"stv_name":"Uncletopia | Los Angeles | 3 | All Maps | STV","players":null},{"server_id":25,"name":"Uncletopia | Los Angeles | 4 | Stopwatch Beta","name_short":"lax-4","host":"lax-1.us.uncletopia.com","port":27045,"enabled":true,"region":"us-west","cc":"us","latitude":33.94279,"longitude":-118.41004,"reserved":0,"last_update":"0001-01-01T00:00:00Z","name_a2s":"Uncletopia | Los Angeles | 4 | Stopwatch Beta","protocol":17,"map":"pl_borneo","folder":"tf","game":"Team Fortress","app_id":440,"player_count":0,"max_players":24,"Bots":0,"server_type":"Dedicated","server_os":"Linux","password":true,"vac":true,"version":"7742253","steam_id":85568392924510199,"keywords":["nocrits","nodmgspread","payload","uncletopia"],"game_id":440,"stv_port":27046,"stv_name":"Uncletopia | Los Angeles | 4 | Stopwatch Beta | STV","players":null},{"server_id":11,"name":"Uncletopia | London | 1 | All Maps","name_short":"lon-1","host":"lon-1.uk.uncletopia.com","port":27015,"enabled":true,"region":"eu","cc":"gb","latitude":51.509865,"longitude":-0.118092,"reserved":0,"last_update":"0001-01-01T00:00:00Z","name_a2s":"Uncletopia | London | 1 | All Maps","protocol":17,"map":"pl_borneo","folder":"tf","game":"Team Fortress","app_id":440,"player_count":24,"max_players":24,"Bots":0,"server_type":"Dedicated","server_os":"Linux","password":true,"vac":true,"version":"7742253","steam_id":85568392924367362,"keywords":["nocrits","nodmgspread","payload","uncletopia"],"game_id":440,"stv_port":27016,"stv_name":"Uncletopia | London | 1 | All Maps | STV","players":[{"user_id":137,"name":"‚ô£–ë—Ä–µ–¥–æ–≤—ã–π –ú–µ—Å—è—Ü","steam_id":76561198796404149,"connected_time":1472000000000,"state":"active","ping":99},{"user_id":129,"name":"redder","steam_id":76561198168231617,"connected_time":2532000000000,"state":"active","ping":49},{"user_id":132,"name":"Doggo","steam_id":76561198091909701,"connected_time":1867000000000,"state":"active","ping":91},{"user_id":150,"name":"Oak","steam_id":76561198248567360,"connected_time":448000000000,"state":"active","ping":42},{"user_id":138,"name":"poliakov.noam","steam_id":76561199259322961,"connected_time":1391000000000,"state":"active","ping":96},{"user_id":128,"name":"Shabab","steam_id":76561198095932210,"connected_time":2769000000000,"state":"active","ping":63},{"user_id":149,"name":"kreeekz","steam_id":76561198014431602,"connected_time":575000000000,"state":"active","ping":82},{"user_id":30,"name":"FUKTARD2005","steam_id":76561198839121591,"connected_time":8753000000000,"state":"active","ping":60},{"user_id":84,"name":"BarrackOmaha","steam_id":76561198027922724,"connected_time":6432000000000,"state":"active","ping":70},{"user_id":139,"name":"lore","steam_id":76561198120984188,"connected_time":1267000000000,"state":"active","ping":74},{"user_id":88,"name":"t0ksi","steam_id":76561198107240798,"connected_time":6282000000000,"state":"active","ping":77},{"user_id":141,"name":"SIUUUUUUU","steam_id":76561198364121077,"connected_time":867000000000,"state":"active","ping":90},{"user_id":140,"name":"nudjura","steam_id":76561198281986139,"connected_time":1119000000000,"state":"active","ping":41},{"user_id":131,"name":"[Mg] Z√© P√©qu√©no","steam_id":76561198000927489,"connected_time":2146000000000,"state":"active","ping":65},{"user_id":147,"name":"Kompot","steam_id":76561198281613592,"connected_time":768000000000,"state":"active","ping":79},{"user_id":152,"name":"Nine","steam_id":76561199146032349,"connected_time":292000000000,"state":"active","ping":50},{"user_id":86,"name":"”ã‘º◊ü.maS","steam_id":76561198114953928,"connected_time":6344000000000,"state":"active","ping":71},{"user_id":148,"name":"Green","steam_id":76561198183580019,"connected_time":654000000000,"state":"active","ping":71},{"user_id":133,"name":"random_player691","steam_id":76561199209946306,"connected_time":1805000000000,"state":"active","ping":56},{"user_id":144,"name":"Lessoz","steam_id":76561199211572036,"connected_time":811000000000,"state":"active","ping":91},{"user_id":151,"name":"fayaman","steam_id":76561198111807532,"connected_time":339000000000,"state":"active","ping":60},{"user_id":106,"name":"Senator Armstrong","steam_id":76561198984346408,"connected_time":4270000000000,"state":"active","ping":80},{"user_id":134,"name":"yeldad","steam_id":76561198447264153,"connected_time":1793000000000,"state":"active","ping":130},{"user_id":135,"name":"Pvt. Grichmann","steam_id":76561197977589522,"connected_time":1571000000000,"state":"active","ping":90}]},{"server_id":114,"name":"Uncletopia | London | 2 | All Maps","name_short":"lon-2","host":"lon-1.uk.uncletopia.com","port":27025,"enabled":true,"region":"eu","cc":"gb","latitude":51.509865,"longitude":-0.118092,"reserved":0,"last_update":"0001-01-01T00:00:00Z","name_a2s":"Uncletopia | London | 2 | All Maps","protocol":17,"map":"koth_harvest_final","folder":"tf","game":"Team Fortress","app_id":440,"player_count":24,"max_players":24,"Bots":0,"server_type":"Dedicated","server_os":"Linux","password":true,"vac":true,"version":"7742253","steam_id":85568392924470941,"keywords":["cp","nocrits","nodmgspread","uncletopia"],"game_id":440,"stv_port":27026,"stv_name":"Uncletopia | London | 2 | All Maps | STV","players":[{"user_id":8,"name":"Mr Xbow","steam_id":76561198862864460,"connected_time":5835000000000,"state":"active","ping":50},{"user_id":65,"name":"Mal ‚òÖ","steam_id":76561198262337669,"connected_time":966000000000,"state":"active","ping":72},{"user_id":12,"name":"VK2124 :D","steam_id":76561198111130688,"connected_time":4526000000000,"state":"active","ping":59},{"user_id":76,"name":"SZEFUS","steam_id":76561198838793385,"connected_time":292000000000,"state":"active","ping":95},{"user_id":59,"name":"Dr. Enforcicle (real)","steam_id":76561198964471859,"connected_time":1083000000000,"state":"active","ping":118},{"user_id":77,"name":"ShoobyDooby","steam_id":76561198118473910,"connected_time":219000000000,"state":"active","ping":52},{"user_id":60,"name":"Dr Sex","steam_id":76561198029044617,"connected_time":1048000000000,"state":"active","ping":48},{"user_id":78,"name":"Big man","steam_id":76561198830190615,"connected_time":4000000000,"state":"spawning","ping":120},{"user_id":20,"name":"tori_spring #savetf2","steam_id":76561199375975842,"connected_time":4220000000000,"state":"active","ping":39},{"user_id":75,"name":"Rat, the ungodly rat #SaveTF2","steam_id":76561199126577423,"connected_time":311000000000,"state":"active","ping":66},{"user_id":71,"name":"Honey_Darlin","steam_id":76561199437522058,"connected_time":736000000000,"state":"active","ping":148},{"user_id":63,"name":"Akiron","steam_id":76561199267799044,"connected_time":1012000000000,"state":"active","ping":93},{"user_id":27,"name":"Mr. Luck | SFM","steam_id":76561198088255641,"connected_time":3954000000000,"state":"active","ping":105},{"user_id":29,"name":"Merry Yuletide","steam_id":76561198032359132,"connected_time":3845000000000,"state":"active","ping":45},{"user_id":53,"name":"11037","steam_id":76561198351154533,"connected_time":1651000000000,"state":"active","ping":52},{"user_id":33,"name":"Hasan","steam_id":76561198144344647,"connected_time":3755000000000,"state":"active","ping":93},{"user_id":66,"name":"big heavy is heavy heavy","steam_id":76561198300059652,"connected_time":964000000000,"state":"active","ping":58},{"user_id":74,"name":"Super_Shlepa","steam_id":76561199384098212,"connected_time":394000000000,"state":"active","ping":101},{"user_id":35,"name":"ducks","steam_id":76561198148378654,"connected_time":3680000000000,"state":"active","ping":91},{"user_id":51,"name":"nachtraaf","steam_id":76561197960473205,"connected_time":1702000000000,"state":"active","ping":54},{"user_id":67,"name":"B√™teChien","steam_id":76561198405559437,"connected_time":958000000000,"state":"active","ping":70},{"user_id":50,"name":"Akirus","steam_id":76561198369831090,"connected_time":1736000000000,"state":"active","ping":111},{"user_id":68,"name":"Mr. Burp","steam_id":76561198042927314,"connected_time":939000000000,"state":"active","ping":48},{"user_id":69,"name":"Jonkheervanflep","steam_id":76561198006853101,"connected_time":938000000000,"state":"active","ping":98}]},{"server_id":320,"name":"Uncletopia | London | 3 | All Maps","name_short":"lon-3","host":"lon-1.uk.uncletopia.com","port":27035,"enabled":true,"region":"eu","cc":"gb","latitude":51.509865,"longitude":-0.118092,"reserved":0,"last_update":"0001-01-01T00:00:00Z","name_a2s":"Uncletopia | London | 3 | All Maps","protocol":17,"map":"pl_upward","folder":"tf","game":"Team Fortress","app_id":440,"player_count":0,"max_players":24,"Bots":0,"server_type":"Dedicated","server_os":"Linux","password":true,"vac":true,"version":"7742253","steam_id":85568392924510192,"keywords":["nocrits","nodmgspread","payload","uncletopia"],"game_id":440,"stv_port":27036,"stv_name":"Uncletopia | London | 3 | All Maps | STV","players":null},{"server_id":321,"name":"Uncletopia | London | 4 | All Maps","name_short":"lon-4","host":"lon-1.uk.uncletopia.com","port":27045,"enabled":true,"region":"eu","cc":"gb","latitude":51.509865,"longitude":-0.118092,"reserved":0,"last_update":"0001-01-01T00:00:00Z","name_a2s":"Uncletopia | London | 4 | All Maps","protocol":17,"map":"pl_badwater","folder":"tf","game":"Team Fortress","app_id":440,"player_count":24,"max_players":24,"Bots":0,"server_type":"Dedicated","server_os":"Linux","password":true,"vac":true,"version":"7742253","steam_id":85568392924510193,"keywords":["nocrits","nodmgspread","payload","uncletopia"],"game_id":440,"stv_port":27046,"stv_name":"Uncletopia | London | 4 | All Maps | STV","players":[{"user_id":335,"name":"your dads bald spot","steam_id":76561199383437138,"connected_time":4962000000000,"state":"active","ping":122},{"user_id":419,"name":"jorogumo","steam_id":76561198838277022,"connected_time":75000000000,"state":"active","ping":75},{"user_id":367,"name":"S0LDaTo","steam_id":76561198269413360,"connected_time":2698000000000,"state":"active","ping":68},{"user_id":380,"name":"cult","steam_id":76561198188647690,"connected_time":1698000000000,"state":"active","ping":76},{"user_id":409,"name":"üåº HugeE","steam_id":76561198245495152,"connected_time":641000000000,"state":"active","ping":60},{"user_id":407,"name":"Nin","steam_id":76561198227246584,"connected_time":859000000000,"state":"active","ping":65},{"user_id":372,"name":"LAMC","steam_id":76561199066888917,"connected_time":2572000000000,"state":"active","ping":69},{"user_id":402,"name":"avarage evangelion fan","steam_id":76561198083359604,"connected_time":971000000000,"state":"active","ping":67},{"user_id":374,"name":"Welder","steam_id":76561198355300561,"connected_time":2538000000000,"state":"active","ping":69},{"user_id":399,"name":"Iru","steam_id":76561198077602040,"connected_time":1138000000000,"state":"active","ping":60},{"user_id":353,"name":"Penis Contortionist","steam_id":76561198073663784,"connected_time":3433000000000,"state":"active","ping":42},{"user_id":334,"name":"SoupER","steam_id":76561198063056668,"connected_time":5050000000000,"state":"active","ping":45},{"user_id":325,"name":"Koli","steam_id":76561197992428783,"connected_time":5441000000000,"state":"active","ping":60},{"user_id":413,"name":"ferbherbs","steam_id":76561198885656965,"connected_time":281000000000,"state":"active","ping":56},{"user_id":411,"name":"F1-M","steam_id":76561198198409875,"connected_time":387000000000,"state":"active","ping":124},{"user_id":405,"name":"Johnny Rabbit","steam_id":76561198038742215,"connected_time":893000000000,"state":"active","ping":106},{"user_id":338,"name":"1 month Big Earner challenge","steam_id":76561198799097492,"connected_time":4784000000000,"state":"active","ping":46},{"user_id":408,"name":"Fran","steam_id":76561198339019518,"connected_time":768000000000,"state":"active","ping":70},{"user_id":416,"name":"kramer","steam_id":76561198117761965,"connected_time":175000000000,"state":"active","ping":116},{"user_id":328,"name":"Jonas Destark","steam_id":76561198030327441,"connected_time":5369000000000,"state":"active","ping":61},{"user_id":378,"name":"snake9544","steam_id":76561198083076205,"connected_time":2105000000000,"state":"active","ping":58},{"user_id":384,"name":"rmz.ssj","steam_id":76561198329613930,"connected_time":1528000000000,"state":"active","ping":56},{"user_id":356,"name":"hinfort","steam_id":76561198046354794,"connected_time":3418000000000,"state":"active","ping":56},{"user_id":386,"name":"Kurage","steam_id":76561198021221288,"connected_time":1511000000000,"state":"active","ping":75}]},{"server_id":21,"name":"Uncletopia | London | 5 | All Maps","name_short":"lon-5","host":"lon-1.uk.uncletopia.com","port":27055,"enabled":true,"region":"eu","cc":"gb","latitude":51.509865,"longitude":-0.118092,"reserved":0,"last_update":"0001-01-01T00:00:00Z","name_a2s":"Uncletopia | London | 5 | All Maps","protocol":17,"map":"pl_frontier_final","folder":"tf","game":"Team Fortress","app_id":440,"player_count":0,"max_players":24,"Bots":0,"server_type":"Dedicated","server_os":"Linux","password":true,"vac":true,"version":"7742253","steam_id":85568392924742829,"keywords":["nocrits","nodmgspread","payload","uncletopia"],"game_id":440,"stv_port":27056,"stv_name":"Uncletopia | London | 5 | All Maps | STV","players":null},{"server_id":22,"name":"Uncletopia | London | 6 | All Maps","name_short":"lon-6","host":"lon-1.uk.uncletopia.com","port":27065,"enabled":true,"region":"eu","cc":"gb","latitude":51.509865,"longitude":-0.118092,"reserved":0,"last_update":"0001-01-01T00:00:00Z","name_a2s":"Uncletopia | London | 6 | All Maps","protocol":17,"map":"pl_borneo","folder":"tf","game":"Team Fortress","app_id":440,"player_count":1,"max_players":24,"Bots":0,"server_type":"Dedicated","server_os":"Linux","password":true,"vac":true,"version":"7742253","steam_id":85568392924742830,"keywords":["nocrits","nodmgspread","payload","uncletopia"],"game_id":440,"stv_port":27066,"stv_name":"Uncletopia | London | 6 | All Maps | STV","players":[{"user_id":5,"name":"all snipers are edgy cowards","steam_id":76561198060200599,"connected_time":85000000000,"state":"active","ping":94}]},{"server_id":40,"name":"Uncletopia | London | 7 | No Payload","name_short":"lon-7","host":"lon-1.uk.uncletopia.com","port":27075,"enabled":true,"region":"eu","cc":"gb","latitude":51.509865,"longitude":-0.118092,"reserved":0,"last_update":"0001-01-01T00:00:00Z","name_a2s":"Uncletopia | London | 7 | No Payload","protocol":17,"map":"koth_viaduct","folder":"tf","game":"Team Fortress","app_id":440,"player_count":0,"max_players":24,"Bots":0,"server_type":"Dedicated","server_os":"Linux","password":true,"vac":true,"version":"7742253","steam_id":85568392924964314,"keywords":["cp","nocrits","nodmgspread","uncletopia"],"game_id":440,"stv_port":27076,"stv_name":"Uncletopia | London | 7 | No Payload | STV","players":null},{"server_id":41,"name":"Uncletopia | London | 8 | Community","name_short":"lon-8","host":"lon-1.uk.uncletopia.com","port":27085,"enabled":true,"region":"eu","cc":"gb","latitude":51.509865,"longitude":-0.118092,"reserved":0,"last_update":"0001-01-01T00:00:00Z","name_a2s":"Uncletopia | London | 8 | Community","protocol":17,"map":"workshop/koth_ashville_final.ugc2130459942","folder":"tf","game":"Team Fortress","app_id":440,"player_count":0,"max_players":24,"Bots":0,"server_type":"Dedicated","server_os":"Linux","password":true,"vac":true,"version":"7742253","steam_id":85568392924964315,"keywords":["cp","nocrits","nodmgspread","uncletopia"],"game_id":440,"stv_port":27086,"stv_name":"Uncletopia | London | 8 | Community | STV","players":null},{"server_id":300,"name":"Uncletopia | Montr√©al | 1 | All Maps","name_short":"mtl-1","host":"mtl-1.ca.uncletopia.com","port":27015,"enabled":true,"region":"us-east","cc":"ca","latitude":45.50889,"longitude":-73.56167,"reserved":0,"last_update":"0001-01-01T00:00:00Z","name_a2s":"Uncletopia | Montr√©al | 1 | All Maps","protocol":17,"map":"cp_snakewater_final1","folder":"tf","game":"Team Fortress","app_id":440,"player_count":0,"max_players":24,"Bots":0,"server_type":"Dedicated","server_os":"Linux","password":true,"vac":true,"version":"7742253","steam_id":85568392924500087,"keywords":["cp","nocrits","nodmgspread","uncletopia"],"game_id":440,"stv_port":27016,"stv_name":"Uncletopia | Montr√©al | 1 | All Maps | STV","players":null},{"server_id":301,"name":"Uncletopia | Montr√©al | 2 | All Maps","name_short":"mtl-2","host":"mtl-1.ca.uncletopia.com","port":27025,"enabled":true,"region":"us-east","cc":"ca","latitude":45.50889,"longitude":-73.56167,"reserved":0,"last_update":"0001-01-01T00:00:00Z","name_a2s":"Uncletopia | Montr√©al | 2 | All Maps","protocol":17,"map":"koth_highpass","folder":"tf","game":"Team Fortress","app_id":440,"player_count":0,"max_players":24,"Bots":0,"server_type":"Dedicated","server_os":"Linux","password":true,"vac":true,"version":"7742253","steam_id":85568392924500088,"keywords":["cp","nocrits","nodmgspread","uncletopia"],"game_id":440,"stv_port":27026,"stv_name":"Uncletopia | Montr√©al | 2 | All Maps | STV","players":null},{"server_id":302,"name":"Uncletopia | Montr√©al | 3 | All Maps","name_short":"mtl-3","host":"mtl-1.ca.uncletopia.com","port":27035,"enabled":true,"region":"us-east","cc":"ca","latitude":45.50889,"longitude":-73.56167,"reserved":0,"last_update":"0001-01-01T00:00:00Z","name_a2s":"Uncletopia | Montr√©al | 3 | All Maps","protocol":17,"map":"cp_mountainlab","folder":"tf","game":"Team Fortress","app_id":440,"player_count":0,"max_players":24,"Bots":0,"server_type":"Dedicated","server_os":"Linux","password":true,"vac":true,"version":"7742253","steam_id":85568392924500089,"keywords":["cp","nocrits","nodmgspread","uncletopia"],"game_id":440,"stv_port":27036,"stv_name":"Uncletopia | Montr√©al | 3 | All Maps | STV","players":null},{"server_id":303,"name":"Uncletopia | Montr√©al | 4 | No Payload","name_short":"mtl-4","host":"mtl-1.ca.uncletopia.com","port":27045,"enabled":true,"region":"us-east","cc":"ca","latitude":45.50889,"longitude":-73.56167,"reserved":0,"last_update":"0001-01-01T00:00:00Z","name_a2s":"Uncletopia | Montr√©al | 4 | No Payload","protocol":17,"map":"cp_snakewater_final1","folder":"tf","game":"Team Fortress","app_id":440,"player_count":0,"max_players":24,"Bots":0,"server_type":"Dedicated","server_os":"Linux","password":true,"vac":true,"version":"7742253","steam_id":85568392924500090,"keywords":["cp","nocrits","nodmgspread","uncletopia"],"game_id":440,"stv_port":27046,"stv_name":"Uncletopia | Montr√©al | 4 | No Payload | STV","players":null},{"server_id":13,"name":"Uncletopia | New York City | 1 | All Maps","name_short":"nyc-1","host":"nyc-1.us.uncletopia.com","port":27015,"enabled":true,"region":"us-east","cc":"us","latitude":40.73061,"longitude":-73.93524,"reserved":0,"last_update":"0001-01-01T00:00:00Z","name_a2s":"Uncletopia | New York City | 1 | All Maps","protocol":17,"map":"cp_mountainlab","folder":"tf","game":"Team Fortress","app_id":440,"player_count":0,"max_players":24,"Bots":0,"server_type":"Dedicated","server_os":"Linux","password":true,"vac":true,"version":"7742253","steam_id":85568392924469993,"keywords":["cp","nocrits","nodmgspread","uncletopia"],"game_id":440,"stv_port":27016,"stv_name":"Uncletopia | New York City | 1 | All Maps | STV","players":null},{"server_id":14,"name":"Uncletopia | New York City | 2 | All Maps","name_short":"nyc-2","host":"nyc-1.us.uncletopia.com","port":27025,"enabled":true,"region":"us-east","cc":"us","latitude":40.73061,"longitude":-73.93524,"reserved":0,"last_update":"0001-01-01T00:00:00Z","name_a2s":"Uncletopia | New York City | 2 | All Maps","protocol":17,"map":"cp_altitude","folder":"tf","game":"Team Fortress","app_id":440,"player_count":0,"max_players":24,"Bots":0,"server_type":"Dedicated","server_os":"Linux","password":true,"vac":true,"version":"7742253","steam_id":85568392924469994,"keywords":["cp","nocrits","nodmgspread","uncletopia"],"game_id":440,"stv_port":27026,"stv_name":"Uncletopia | New York City | 2 | All Maps | STV","players":null},{"server_id":15,"name":"Uncletopia | New York City | 3 | Stopwatch Beta","name_short":"nyc-3","host":"nyc-1.us.uncletopia.com","port":27035,"enabled":true,"region":"us-east","cc":"us","latitude":40.73061,"longitude":-73.93524,"reserved":0,"last_update":"0001-01-01T00:00:00Z","name_a2s":"Uncletopia | New York City | 3 | Stopwatch Beta","protocol":17,"map":"pl_pier","folder":"tf","game":"Team Fortress","app_id":440,"player_count":0,"max_players":24,"Bots":0,"server_type":"Dedicated","server_os":"Linux","password":true,"vac":true,"version":"7742253","steam_id":85568392924742820,"keywords":["nocrits","nodmgspread","payload","uncletopia"],"game_id":440,"stv_port":27036,"stv_name":"Uncletopia | New York City | 3 | Stopwatch Beta | STV","players":null},{"server_id":16,"name":"Uncletopia | New York City | 4 | Community","name_short":"nyc-4","host":"nyc-1.us.uncletopia.com","port":27045,"enabled":true,"region":"us-east","cc":"us","latitude":40.73061,"longitude":-73.93524,"reserved":0,"last_update":"0001-01-01T00:00:00Z","name_a2s":"Uncletopia | New York City | 4 | Community","protocol":17,"map":"koth_viaduct","folder":"tf","game":"Team Fortress","app_id":440,"player_count":0,"max_players":24,"Bots":0,"server_type":"Dedicated","server_os":"Linux","password":true,"vac":true,"version":"7742253","steam_id":85568392924742821,"keywords":["cp","nocrits","nodmgspread","uncletopia"],"game_id":440,"stv_port":27046,"stv_name":"Uncletopia | New York City | 4 | Community | STV","players":null},{"server_id":142,"name":"Uncletopia | S√£o Paulo | 1 | All Maps","name_short":"sao-1","host":"sao-1.br.uncletopia.com","port":27015,"enabled":true,"region":"sa","cc":"br","latitude":-23.533773,"longitude":-46.62529,"reserved":0,"last_update":"0001-01-01T00:00:00Z","name_a2s":"Uncletopia | S√£o Paulo | 1 | All Maps","protocol":17,"map":"koth_viaduct","folder":"tf","game":"Team Fortress","app_id":440,"player_count":0,"max_players":24,"Bots":0,"server_type":"Dedicated","server_os":"Linux","password":true,"vac":true,"version":"7742253","steam_id":85568392924469996,"keywords":["cp","nocrits","nodmgspread","uncletopia"],"game_id":440,"stv_port":27016,"stv_name":"Uncletopia | S√£o Paulo | 1 | All Maps | STV","players":null},{"server_id":143,"name":"Uncletopia | S√£o Paulo | 2 | All Maps","name_short":"sao-2","host":"sao-2.br.uncletopia.com","port":27015,"enabled":true,"region":"sa","cc":"br","latitude":-23.533773,"longitude":-46.62529,"reserved":0,"last_update":"0001-01-01T00:00:00Z","name_a2s":"Uncletopia | S√£o Paulo | 2 | All Maps","protocol":17,"map":"koth_viaduct","folder":"tf","game":"Team Fortress","app_id":440,"player_count":0,"max_players":24,"Bots":0,"server_type":"Dedicated","server_os":"Linux","password":true,"vac":true,"version":"7742253","steam_id":85568392924485349,"keywords":["cp","nocrits","nodmgspread","uncletopia"],"game_id":440,"stv_port":27016,"stv_name":"Uncletopia | S√£o Paulo | 2 | All Maps | STV","players":null},{"server_id":7,"name":"Uncletopia | Seattle | 1 | All Maps","name_short":"sea-1","host":"sea-1.us.uncletopia.com","port":27015,"enabled":true,"region":"us-west","cc":"us","latitude":47.608013,"longitude":-122.33517,"reserved":0,"last_update":"0001-01-01T00:00:00Z","name_a2s":"Uncletopia | Seattle | 1 | All Maps","protocol":17,"map":"cp_dustbowl","folder":"tf","game":"Team Fortress","app_id":440,"player_count":0,"max_players":24,"Bots":0,"server_type":"Dedicated","server_os":"Linux","password":true,"vac":true,"version":"7742253","steam_id":85568392924469997,"keywords":["cp","nocrits","nodmgspread","uncletopia"],"game_id":440,"stv_port":27016,"stv_name":"Uncletopia | Seattle | 1 | All Maps | STV","players":null},{"server_id":119,"name":"Uncletopia | Seattle | 2 | All Maps","name_short":"sea-2","host":"sea-1.us.uncletopia.com","port":27025,"enabled":true,"region":"us-west","cc":"us","latitude":47.608013,"longitude":-122.33517,"reserved":0,"last_update":"0001-01-01T00:00:00Z","name_a2s":"Uncletopia | Seattle | 2 | All Maps","protocol":17,"map":"pl_barnblitz","folder":"tf","game":"Team Fortress","app_id":440,"player_count":0,"max_players":24,"Bots":0,"server_type":"Dedicated","server_os":"Linux","password":true,"vac":true,"version":"7742253","steam_id":85568392924469998,"keywords":["nocrits","nodmgspread","payload","uncletopia"],"game_id":440,"stv_port":27026,"stv_name":"Uncletopia | Seattle | 2 | All Maps | STV","players":null},{"server_id":406,"name":"Uncletopia | Seattle | 3 | Stopwatch Beta","name_short":"sea-3","host":"sea-1.us.uncletopia.com","port":27035,"enabled":true,"region":"us-west","cc":"us","latitude":47.608013,"longitude":-122.33517,"reserved":0,"last_update":"0001-01-01T00:00:00Z","name_a2s":"Uncletopia | Seattle | 3 | Stopwatch Beta","protocol":17,"map":"cp_sunshine","folder":"tf","game":"Team Fortress","app_id":440,"player_count":0,"max_players":24,"Bots":0,"server_type":"Dedicated","server_os":"Linux","password":true,"vac":true,"version":"7742253","steam_id":85568392924515217,"keywords":["cp","nocrits","nodmgspread","uncletopia"],"game_id":440,"stv_port":27036,"stv_name":"Uncletopia | Seattle | 3 | Stopwatch Beta | STV","players":null},{"server_id":17,"name":"Uncletopia | San Francisco | 1 | All Maps","name_short":"sfo-1","host":"sfo-1.us.uncletopia.com","port":27015,"enabled":true,"region":"us-west","cc":"us","latitude":37.77397,"longitude":-122.4313,"reserved":0,"last_update":"0001-01-01T00:00:00Z","name_a2s":"Uncletopia | San Francisco | 1 | All Maps","protocol":17,"map":"cp_altitude","folder":"tf","game":"Team Fortress","app_id":440,"player_count":0,"max_players":24,"Bots":0,"server_type":"Dedicated","server_os":"Linux","password":true,"vac":true,"version":"7742253","steam_id":85568392924469999,"keywords":["cp","nocrits","nodmgspread","uncletopia"],"game_id":440,"stv_port":27016,"stv_name":"Uncletopia | San Francisco | 1 | All Maps | STV","players":null},{"server_id":18,"name":"Uncletopia | San Francisco | 2 | All Maps","name_short":"sfo-2","host":"sfo-1.us.uncletopia.com","port":27025,"enabled":true,"region":"us-west","cc":"us","latitude":37.77397,"longitude":-122.4313,"reserved":0,"last_update":"0001-01-01T00:00:00Z","name_a2s":"Uncletopia | San Francisco | 2 | All Maps","protocol":17,"map":"cp_altitude","folder":"tf","game":"Team Fortress","app_id":440,"player_count":0,"max_players":24,"Bots":0,"server_type":"Dedicated","server_os":"Linux","password":true,"vac":true,"version":"7742253","steam_id":85568392924470000,"keywords":["cp","nocrits","nodmgspread","uncletopia"],"game_id":440,"stv_port":27026,"stv_name":"Uncletopia | San Francisco | 2 | All Maps | STV","players":null},{"server_id":19,"name":"Uncletopia | San Francisco | 3 | Stopwatch Beta","name_short":"sfo-3","host":"sfo-1.us.uncletopia.com","port":27035,"enabled":true,"region":"us-west","cc":"us","latitude":37.77397,"longitude":-122.4313,"reserved":0,"last_update":"0001-01-01T00:00:00Z","name_a2s":"Uncletopia | San Francisco | 3 | Stopwatch Beta","protocol":17,"map":"cp_snakewater_final1","folder":"tf","game":"Team Fortress","app_id":440,"player_count":0,"max_players":24,"Bots":0,"server_type":"Dedicated","server_os":"Linux","password":true,"vac":true,"version":"7742253","steam_id":85568392924742824,"keywords":["cp","nocrits","nodmgspread","uncletopia"],"game_id":440,"stv_port":27036,"stv_name":"Uncletopia | San Francisco | 3 | Stopwatch Beta | STV","players":null},{"server_id":20,"name":"Uncletopia | San Francisco | 4 | Community","name_short":"sfo-4","host":"sfo-1.us.uncletopia.com","port":27045,"enabled":true,"region":"us-west","cc":"us","latitude":37.77397,"longitude":-122.4313,"reserved":0,"last_update":"0001-01-01T00:00:00Z","name_a2s":"Uncletopia | San Francisco | 4 | Community","protocol":17,"map":"cp_dustbowl","folder":"tf","game":"Team Fortress","app_id":440,"player_count":0,"max_players":24,"Bots":0,"server_type":"Dedicated","server_os":"Linux","password":true,"vac":true,"version":"7742253","steam_id":85568392924742826,"keywords":["cp","nocrits","nodmgspread","uncletopia"],"game_id":440,"stv_port":27046,"stv_name":"Uncletopia | San Francisco | 4 | Community | STV","players":null},{"server_id":141,"name":"Uncletopia | Sydney | 1 | All Maps","name_short":"syd-1","host":"syd-1.au.uncletopia.com","port":27015,"enabled":true,"region":"au","cc":"au","latitude":-33.865143,"longitude":151.2099,"reserved":0,"last_update":"0001-01-01T00:00:00Z","name_a2s":"Uncletopia | Sydney | 1 | All Maps","protocol":17,"map":"pl_badwater","folder":"tf","game":"Team Fortress","app_id":440,"player_count":0,"max_players":24,"Bots":0,"server_type":"Dedicated","server_os":"Linux","password":true,"vac":true,"version":"7742253","steam_id":85568392924470001,"keywords":["nocrits","nodmgspread","payload","uncletopia"],"game_id":440,"stv_port":27016,"stv_name":"Uncletopia | Sydney | 1 | All Maps | STV","players":null},{"server_id":123,"name":"Uncletopia | Sydney | 2 | All Maps","name_short":"syd-2","host":"syd-1.au.uncletopia.com","port":27025,"enabled":true,"region":"au","cc":"au","latitude":-33.865143,"longitude":151.2099,"reserved":0,"last_update":"0001-01-01T00:00:00Z","name_a2s":"Uncletopia | Sydney | 2 | All Maps","protocol":17,"map":"cp_dustbowl","folder":"tf","game":"Team Fortress","app_id":440,"player_count":5,"max_players":24,"Bots":0,"server_type":"Dedicated","server_os":"Linux","password":true,"vac":true,"version":"7742253","steam_id":85568392924470002,"keywords":["cp","nocrits","nodmgspread","uncletopia"],"game_id":440,"stv_port":27026,"stv_name":"Uncletopia | Sydney | 2 | All Maps | STV","players":[{"user_id":369,"name":"oldboy is a good movie","steam_id":76561199057568663,"connected_time":134000000000,"state":"active","ping":49},{"user_id":368,"name":"MR BEAST NUMBER 1 FAN","steam_id":76561198846610729,"connected_time":418000000000,"state":"active","ping":215},{"user_id":364,"name":"wombraider","steam_id":76561199375834537,"connected_time":714000000000,"state":"active","ping":141},{"user_id":233,"name":"Alex","steam_id":76561198020099643,"connected_time":8881000000000,"state":"active","ping":54},{"user_id":335,"name":"xfol","steam_id":76561197973048879,"connected_time":2497000000000,"state":"active","ping":55}]},{"server_id":395,"name":"Uncletopia | Sydney | 3 | All Maps","name_short":"syd-3","host":"syd-1.au.uncletopia.com","port":27035,"enabled":true,"region":"au","cc":"au","latitude":-33.865143,"longitude":151.2099,"reserved":0,"last_update":"0001-01-01T00:00:00Z","name_a2s":"Uncletopia | Sydney | 3 | All Maps","protocol":17,"map":"cp_process_final","folder":"tf","game":"Team Fortress","app_id":440,"player_count":0,"max_players":24,"Bots":0,"server_type":"Dedicated","server_os":"Linux","password":true,"vac":true,"version":"7742253","steam_id":85568392925194467,"keywords":["cp","nocrits","nodmgspread","uncletopia"],"game_id":440,"stv_port":27036,"stv_name":"Uncletopia | Sydney | 3 | All Maps | STV","players":null},{"server_id":396,"name":"Uncletopia | Sydney | 4 | All Maps","name_short":"syd-4","host":"syd-1.au.uncletopia.com","port":27045,"enabled":true,"region":"au","cc":"au","latitude":-33.865143,"longitude":151.2099,"reserved":0,"last_update":"0001-01-01T00:00:00Z","name_a2s":"Uncletopia | Sydney | 4 | All Maps","protocol":17,"map":"ctf_2fort","folder":"tf","game":"Team Fortress","app_id":440,"player_count":0,"max_players":24,"Bots":0,"server_type":"Dedicated","server_os":"Linux","password":true,"vac":true,"version":"7742253","steam_id":85568392925397958,"keywords":["ctf","nocrits","nodmgspread","uncletopia"],"game_id":440,"stv_port":27046,"stv_name":"Uncletopia | Sydney | 4 | All Maps | STV","players":null},{"server_id":58,"name":"Uncletopia | Sydney | 5 | Stopwatch Beta","name_short":"syd-5","host":"syd-1.au.uncletopia.com","port":27055,"enabled":true,"region":"au","cc":"au","latitude":-33.865143,"longitude":151.2099,"reserved":0,"last_update":"0001-01-01T00:00:00Z","name_a2s":"Uncletopia | Sydney | 5 | Stopwatch Beta","protocol":17,"map":"workshop/koth_bagel_rc5.ugc2514036946","folder":"tf","game":"Team Fortress","app_id":440,"player_count":0,"max_players":24,"Bots":0,"server_type":"Dedicated","server_os":"Linux","password":true,"vac":true,"version":"7742253","steam_id":85568392925397959,"keywords":["cp","nocrits","nodmgspread","uncletopia"],"game_id":440,"stv_port":27056,"stv_name":"Uncletopia | Sydney | 5 | Stopwatch Beta | STV","players":null},{"server_id":59,"name":"Uncletopia | Sydney | 6 | Community","name_short":"syd-6","host":"syd-1.au.uncletopia.com","port":27065,"enabled":true,"region":"au","cc":"au","latitude":-33.865143,"longitude":151.2099,"reserved":0,"last_update":"0001-01-01T00:00:00Z","name_a2s":"Uncletopia | Sydney | 6 | Community","protocol":17,"map":"workshop/pl_cactuscanyon_redux_rc4b.ugc2579644293","folder":"tf","game":"Team Fortress","app_id":440,"player_count":0,"max_players":24,"Bots":0,"server_type":"Dedicated","server_os":"Linux","password":true,"vac":true,"version":"7742253","steam_id":85568392925397960,"keywords":["nocrits","nodmgspread","payload","uncletopia"],"game_id":440,"stv_port":27066,"stv_name":"Uncletopia | Sydney | 6 | Community | STV","players":null},{"server_id":49,"name":"Uncletopia | Warsaw | 1 | All Maps","name_short":"waw-1","host":"waw-1.pl.uncletopia.com","port":27015,"enabled":true,"region":"eu","cc":"pl","latitude":52.2297,"longitude":21.017532,"reserved":0,"last_update":"0001-01-01T00:00:00Z","name_a2s":"","protocol":0,"map":"","folder":"","game":"","app_id":0,"player_count":0,"max_players":0,"Bots":0,"server_type":"","server_os":"","password":false,"vac":false,"version":"","steam_id":0,"keywords":null,"game_id":0,"stv_port":0,"stv_name":"","players":null},{"server_id":50,"name":"Uncletopia | Warsaw | 2 | All Maps","name_short":"waw-2","host":"waw-1.pl.uncletopia.com","port":27025,"enabled":true,"region":"eu","cc":"pl","latitude":52.2297,"longitude":21.017532,"reserved":0,"last_update":"0001-01-01T00:00:00Z","name_a2s":"Uncletopia | Warsaw | 2 | All Maps","protocol":17,"map":"koth_lakeside_final","folder":"tf","game":"Team Fortress","app_id":440,"player_count":0,"max_players":24,"Bots":0,"server_type":"Dedicated","server_os":"Linux","password":true,"vac":true,"version":"7742253","steam_id":85568392925397851,"keywords":["cp","nocrits","nodmgspread","uncletopia"],"game_id":440,"stv_port":27026,"stv_name":"Uncletopia | Warsaw | 2 | All Maps | STV","players":null},{"server_id":51,"name":"Uncletopia | Warsaw | 3 | All Maps","name_short":"waw-3","host":"waw-1.pl.uncletopia.com","port":27035,"enabled":true,"region":"eu","cc":"pl","latitude":52.2297,"longitude":21.017532,"reserved":0,"last_update":"0001-01-01T00:00:00Z","name_a2s":"Uncletopia | Warsaw | 3 | All Maps","protocol":17,"map":"cp_sunshine","folder":"tf","game":"Team Fortress","app_id":440,"player_count":3,"max_players":24,"Bots":0,"server_type":"Dedicated","server_os":"Linux","password":true,"vac":true,"version":"7742253","steam_id":85568392925397852,"keywords":["cp","nocrits","nodmgspread","uncletopia"],"game_id":440,"stv_port":27036,"stv_name":"Uncletopia | Warsaw | 3 | All Maps | STV","players":[{"user_id":4,"name":"smart fella","steam_id":76561198315732431,"connected_time":2258000000000,"state":"active","ping":93},{"user_id":5,"name":"Cosmic Yoshi","steam_id":76561199195528497,"connected_time":2244000000000,"state":"active","ping":250},{"user_id":8,"name":"UNO, The Ubisoft Original","steam_id":76561198846784757,"connected_time":603000000000,"state":"active","ping":74}]},{"server_id":52,"name":"Uncletopia | Warsaw | 4 | All Maps","name_short":"waw-4","host":"waw-1.pl.uncletopia.com","port":27045,"enabled":true,"region":"eu","cc":"pl","latitude":52.2297,"longitude":21.017532,"reserved":0,"last_update":"0001-01-01T00:00:00Z","name_a2s":"Uncletopia | Warsaw | 4 | All Maps","protocol":17,"map":"pl_swiftwater_final1","folder":"tf","game":"Team Fortress","app_id":440,"player_count":0,"max_players":24,"Bots":0,"server_type":"Dedicated","server_os":"Linux","password":true,"vac":true,"version":"7742253","steam_id":85568392925397853,"keywords":["nocrits","nodmgspread","payload","uncletopia"],"game_id":440,"stv_port":27046,"stv_name":"Uncletopia | Warsaw | 4 | All Maps | STV","players":null},{"server_id":53,"name":"Uncletopia | Warsaw | 5 | Stopwatch Beta","name_short":"waw-5","host":"waw-1.pl.uncletopia.com","port":27055,"enabled":true,"region":"eu","cc":"pl","latitude":52.2297,"longitude":21.017532,"reserved":0,"last_update":"0001-01-01T00:00:00Z","name_a2s":"Uncletopia | Warsaw | 5 | Stopwatch Beta","protocol":17,"map":"pl_swiftwater_final1","folder":"tf","game":"Team Fortress","app_id":440,"player_count":0,"max_players":24,"Bots":0,"server_type":"Dedicated","server_os":"Linux","password":true,"vac":true,"version":"7742253","steam_id":85568392925397854,"keywords":["nocrits","nodmgspread","payload","uncletopia"],"game_id":440,"stv_port":27056,"stv_name":"Uncletopia | Warsaw | 5 | Stopwatch Beta | STV","players":null},{"server_id":54,"name":"Uncletopia | Warsaw | 6 | Community","name_short":"waw-6","host":"waw-1.pl.uncletopia.com","port":27065,"enabled":true,"region":"eu","cc":"pl","latitude":52.2297,"longitude":21.017532,"reserved":0,"last_update":"0001-01-01T00:00:00Z","name_a2s":"Uncletopia | Warsaw | 6 | Community","protocol":17,"map":"koth_highpass","folder":"tf","game":"Team Fortress","app_id":440,"player_count":0,"max_players":24,"Bots":0,"server_type":"Dedicated","server_os":"Linux","password":true,"vac":true,"version":"7742253","steam_id":85568392925397856,"keywords":["cp","nocrits","nodmgspread","uncletopia"],"game_id":440,"stv_port":27066,"stv_name":"Uncletopia | Warsaw | 6 | Community | STV","players":null}]}