{"status":true,"message":"","result":[{"server_id":9,"name":"Uncletopia | Atlanta | 1 | All Maps","name_short":"atl-1","host":"atl-1.us.uncletopia.com","port":27015,"enabled":true,"region":"us-east","cc":"us","latitude":33.753746,"longitude":-84.38633,"reserved":0,"last_update":"0001-01-01T00:00:00Z","name_a2s":"Uncletopia | Atlanta | 1 | All Maps","protocol":17,"map":"pl_upward","folder":"tf","game":"Team Fortress","app_id":440,"player_count":24,"max_players":24,"Bots":0,"server_type":"Dedicated","server_os":"Linux","password":true,"vac":true,"version":"7961495","steam_id":85568392924469982,"keywords":["nocrits","nodmgspread","payload","uncletopia"],"game_id":440,"stv_port":27016,"stv_name":"Uncletopia | Atlanta | 1 | All Maps | STV","players":[{"user_id":211,"name":"mangokip","steam_id":76561198156471516,"connected_time":690000000000,"state":"active","ping":54},{"user_id":6,"name":"Obelisk","steam_id":76561198049416866,"connected_time":19305000000000,"state":"active","ping":53},{"user_id":156,"name":"ATL1 | cola","steam_id":76561198374390458,"connected_time":6838000000000,"state":"active","ping":62},{"user_id":132,"name":"ma0re","steam_id":76561199231971506,"connected_time":7948000000000,"state":"active","ping":62},{"user_id":168,"name":"ATL 1 | Save your wifi","steam_id":76561198286147372,"connected_time":6332000000000,"state":"active","ping":63},{"user_id":172,"name":"marguerite","steam_id":76561198170873495,"connected_time":5707000000000,"state":"active","ping":53},{"user_id":178,"name":"Lily (she/her)","steam_id":76561198355495948,"connected_time":4555000000000,"state":"active","ping":53},{"user_id":185,"name":"ash","steam_id":76561198127890645,"connected_time":3132000000000,"state":"active","ping":64},{"user_id":203,"name":"snakeghoul","steam_id":76561199018056408,"connected_time":1893000000000,"state":"active","ping":134},{"user_id":78,"name":"Le4n!!!","steam_id":76561198045522596,"connected_time":13780000000000,"state":"active","ping":70},{"user_id":192,"name":"Pango","steam_id":76561198069811545,"connected_time":2793000000000,"state":"active","ping":41},{"user_id":175,"name":"lil hog","steam_id":76561199230929836,"connected_time":4931000000000,"state":"active","ping":88},{"user_id":202,"name":"Furlong","steam_id":76561198249206656,"connected_time":2068000000000,"state":"active","ping":90},{"user_id":214,"name":"Big Cat","steam_id":76561198115695203,"connected_time":466000000000,"state":"active","ping":45},{"user_id":191,"name":"shaderoses","steam_id":76561198070800500,"connected_time":2898000000000,"state":"active","ping":62},{"user_id":183,"name":"Maestro","steam_id":76561198157325020,"connected_time":3825000000000,"state":"active","ping":63},{"user_id":193,"name":"DeezNoodlez","steam_id":76561198246700372,"connected_time":2628000000000,"state":"active","ping":60},{"user_id":184,"name":"Decolour","steam_id":76561199045608372,"connected_time":3457000000000,"state":"active","ping":74},{"user_id":205,"name":"1998 Volvo S70 T5","steam_id":76561198258615044,"connected_time":1558000000000,"state":"active","ping":86},{"user_id":218,"name":"Ping","steam_id":76561199206514106,"connected_time":258000000000,"state":"active","ping":76},{"user_id":198,"name":"RangeDad","steam_id":76561198028186133,"connected_time":2453000000000,"state":"active","ping":46},{"user_id":213,"name":"GG.KexruTv","steam_id":76561198374399876,"connected_time":466000000000,"state":"active","ping":56},{"user_id":196,"name":"Brown_Dream","steam_id":76561198975766145,"connected_time":2615000000000,"state":"active","ping":64},{"user_id":210,"name":"Albino Jellyfish","steam_id":76561198208561097,"connected_time":709000000000,"state":"active","ping":60}]},{"server_id":104,"name":"Uncletopia | Atlanta | 2 | All Maps","name_short":"atl-2","host":"atl-1.us.uncletopia.com","port":27025,"enabled":true,"region":"us-east","cc":"us","latitude":33.753746,"longitude":-84.38633,"reserved":0,"last_update":"0001-01-01T00:00:00Z","name_a2s":"Uncletopia | Atlanta | 2 | All Maps","protocol":17,"map":"pl_upward","folder":"tf","game":"Team Fortress","app_id":440,"player_count":19,"max_players":24,"Bots":0,"server_type":"Dedicated","server_os":"Linux","password":true,"vac":true,"version":"7961495","steam_id":85568392924469983,"keywords":["nocrits","nodmgspread","payload","uncletopia"],"game_id":440,"stv_port":27026,"stv_name":"Uncletopia | Atlanta | 2 | All Maps | STV","players":[{"user_id":16,"name":"Kitty","steam_id":76561198123758854,"connected_time":6316000000000,"state":"active","ping":59},{"user_id":118,"name":"Butters495","steam_id":76561197998689042,"connected_time":71000000000,"state":"active","ping":73},{"user_id":79,"name":"Insert Edgy Name","steam_id":76561197971948876,"connected_time":1932000000000,"state":"active","ping":80},{"user_id":104,"name":"Scita","steam_id":76561198066861559,"connected_time":820000000000,"state":"active","ping":58},{"user_id":80,"name":"BIG LION","steam_id":76561198091880358,"connected_time":1929000000000,"state":"active","ping":60},{"user_id":74,"name":"DaMultiversalist","steam_id":76561198239552412,"connected_time":2579000000000,"state":"active","ping":65},{"user_id":110,"name":"CiderL0rd","steam_id":76561198020316366,"connected_time":506000000000,"state":"active","ping":74},{"user_id":119,"name":"Rotarius","steam_id":76561198109893506,"connected_time":17000000000,"state":"spawning","ping":100},{"user_id":105,"name":"Flint","steam_id":76561198066547582,"connected_time":809000000000,"state":"active","ping":89},{"user_id":117,"name":"TheCartoon1st","steam_id":76561198973999063,"connected_time":77000000000,"state":"active","ping":39},{"user_id":114,"name":"KingBoss","steam_id":76561198206346569,"connected_time":351000000000,"state":"active","ping":61},{"user_id":88,"name":"ALonelyGhostE","steam_id":76561198184787290,"connected_time":1463000000000,"state":"active","ping":83},{"user_id":112,"name":"Buck","steam_id":76561198064244796,"connected_time":464000000000,"state":"active","ping":64},{"user_id":100,"name":"SARCASTICMCSPASTIC","steam_id":76561198292205987,"connected_time":1130000000000,"state":"active","ping":85},{"user_id":97,"name":"GibbusGod","steam_id":76561199232436690,"connected_time":1187000000000,"state":"active","ping":54},{"user_id":41,"name":"LoGrove","steam_id":76561197969305602,"connected_time":4503000000000,"state":"active","ping":71},{"user_id":101,"name":"ShofaX","steam_id":76561198199768014,"connected_time":1119000000000,"state":"active","ping":64},{"user_id":44,"name":"Professional Procrastinator","steam_id":76561198004301945,"connected_time":4409000000000,"state":"active","ping":65},{"user_id":102,"name":"Poo","steam_id":76561198265144507,"connected_time":1104000000000,"state":"active","ping":65}]},{"server_id":400,"name":"Uncletopia | Atlanta | 3 | Stopwatch","name_short":"atl-3","host":"atl-1.us.uncletopia.com","port":27035,"enabled":true,"region":"us-east","cc":"us","latitude":33.753746,"longitude":-84.38633,"reserved":0,"last_update":"0001-01-01T00:00:00Z","name_a2s":"Uncletopia | Atlanta | 3 | Stopwatch","protocol":17,"map":"workshop/koth_ashville_final.ugc2130459942","folder":"tf","game":"Team Fortress","app_id":440,"player_count":0,"max_players":24,"Bots":0,"server_type":"Dedicated","server_os":"Linux","password":true,"vac":true,"version":"7961495","steam_id":85568392924515187,"keywords":["cp","nocrits","nodmgspread","uncletopia"],"game_id":440,"stv_port":27036,"stv_name":"Uncletopia | Atlanta | 3 | Stopwatch | STV","players":null},{"server_id":401,"name":"Uncletopia | Atlanta | 4 | Community","name_short":"atl-4","host":"atl-1.us.uncletopia.com","port":27045,"enabled":true,"region":"us-east","cc":"us","latitude":33.753746,"longitude":-84.38633,"reserved":0,"last_update":"0001-01-01T00:00:00Z","name_a2s":"Uncletopia | Atlanta | 4 | Community","protocol":17,"map":"workshop/cp_glassworks_rc7a.ugc454118349","folder":"tf","game":"Team Fortress","app_id":440,"player_count":0,"max_players":24,"Bots":0,"server_type":"Dedicated","server_os":"Linux","password":true,"vac":true,"version":"7961495","steam_id":85568392924515188,"keywords":["cp","nocrits","nodmgspread","uncletopia"],"game_id":440,"stv_port":27046,"stv_name":"Uncletopia | Atlanta | 4 | Community | STV","players":null},{"server_id":2,"name":"Uncletopia | Chicago | 1 | All Maps","name_short":"chi-1","host":"chi-1.us.uncletopia.com","port":27015,"enabled":true,"region":"us-central","cc":"us","latitude":41.881832,"longitude":-87.62318,"reserved":0,"last_update":"0001-01-01T00:00:00Z","name_a2s":"Uncletopia | Chicago | 1 | All Maps","protocol":17,"map":"cp_dustbowl","folder":"tf","game":"Team Fortress","app_id":440,"player_count":24,"max_players":24,"Bots":0,"server_type":"Dedicated","server_os":"Linux","password":true,"vac":true,"version":"7961495","steam_id":85568392924469984,"keywords":["cp","nocrits","nodmgspread","uncletopia"],"game_id":440,"stv_port":27016,"stv_name":"Uncletopia | Chicago | 1 | All Maps | STV","players":[{"user_id":483,"name":"fetid horse carcass (lesbian)","steam_id":76561198117139659,"connected_time":3152000000000,"state":"active","ping":135},{"user_id":498,"name":"Traceback","steam_id":76561197993212340,"connected_time":2318000000000,"state":"active","ping":74},{"user_id":523,"name":"meo ♥","steam_id":76561197992719272,"connected_time":474000000000,"state":"active","ping":43},{"user_id":517,"name":"Enemy goblin","steam_id":76561198045793516,"connected_time":1077000000000,"state":"active","ping":57},{"user_id":494,"name":"samallwise","steam_id":76561199011855102,"connected_time":2398000000000,"state":"active","ping":54},{"user_id":426,"name":"Dr. Necrofeelya","steam_id":76561198396814056,"connected_time":6910000000000,"state":"active","ping":75},{"user_id":477,"name":"corned beef","steam_id":76561199366782761,"connected_time":3735000000000,"state":"active","ping":160},{"user_id":514,"name":"Bloodborne","steam_id":76561198072541436,"connected_time":1213000000000,"state":"active","ping":49},{"user_id":511,"name":"minecraft 3","steam_id":76561198352396058,"connected_time":1557000000000,"state":"active","ping":63},{"user_id":518,"name":"emeraldrhymes","steam_id":76561198842486176,"connected_time":1018000000000,"state":"active","ping":72},{"user_id":509,"name":"Gamut","steam_id":76561199185822800,"connected_time":1900000000000,"state":"active","ping":111},{"user_id":513,"name":"Snom","steam_id":76561198333827920,"connected_time":1289000000000,"state":"active","ping":86},{"user_id":519,"name":"Templar Night |HM|","steam_id":76561199199434668,"connected_time":1001000000000,"state":"active","ping":48},{"user_id":521,"name":"AdorableMew","steam_id":76561198186706405,"connected_time":953000000000,"state":"active","ping":60},{"user_id":463,"name":"Howster002","steam_id":76561198323965902,"connected_time":4631000000000,"state":"active","ping":87},{"user_id":488,"name":"SleepiestCrow","steam_id":76561198042018679,"connected_time":2909000000000,"state":"active","ping":50},{"user_id":500,"name":"The Power","steam_id":76561198060566884,"connected_time":2297000000000,"state":"active","ping":148},{"user_id":501,"name":"†","steam_id":76561198091770232,"connected_time":2293000000000,"state":"active","ping":71},{"user_id":512,"name":"Živojin Mirić","steam_id":76561198250175892,"connected_time":1502000000000,"state":"active","ping":166},{"user_id":487,"name":"Do Online Now Guys","steam_id":76561198120551862,"connected_time":2948000000000,"state":"active","ping":63},{"user_id":505,"name":"Mrs.Frizzle","steam_id":76561198117157085,"connected_time":2249000000000,"state":"active","ping":74},{"user_id":491,"name":"okay","steam_id":76561198024973008,"connected_time":2701000000000,"state":"active","ping":74},{"user_id":492,"name":"King Cotton","steam_id":76561198292444376,"connected_time":2690000000000,"state":"active","ping":83},{"user_id":496,"name":"rickyrickyricky","steam_id":76561198041765918,"connected_time":2375000000000,"state":"active","ping":68}]},{"server_id":106,"name":"Uncletopia | Chicago | 2 | All Maps","name_short":"chi-2","host":"chi-1.us.uncletopia.com","port":27025,"enabled":true,"region":"us-central","cc":"us","latitude":41.881832,"longitude":-87.62318,"reserved":0,"last_update":"0001-01-01T00:00:00Z","name_a2s":"Uncletopia | Chicago | 2 | All Maps","protocol":17,"map":"pl_borneo","folder":"tf","game":"Team Fortress","app_id":440,"player_count":4,"max_players":24,"Bots":0,"server_type":"Dedicated","server_os":"Linux","password":true,"vac":true,"version":"7961495","steam_id":85568392924469985,"keywords":["nocrits","nodmgspread","payload","uncletopia"],"game_id":440,"stv_port":27026,"stv_name":"Uncletopia | Chicago | 2 | All Maps | STV","players":[{"user_id":20,"name":"OH BOY","steam_id":76561199052273428,"connected_time":337000000000,"state":"active","ping":48},{"user_id":21,"name":"doing the sponge","steam_id":76561198058209703,"connected_time":183000000000,"state":"active","ping":47},{"user_id":22,"name":"Im totally a hacker","steam_id":76561198888005736,"connected_time":39000000000,"state":"spawning","ping":68},{"user_id":23,"name":"BurdBrain","steam_id":76561197962097737,"connected_time":2000000000,"state":"spawning","ping":367}]},{"server_id":402,"name":"Uncletopia | Chicago | 3 | All Maps","name_short":"chi-3","host":"chi-1.us.uncletopia.com","port":27035,"enabled":true,"region":"us-central","cc":"us","latitude":41.881832,"longitude":-87.62318,"reserved":0,"last_update":"0001-01-01T00:00:00Z","name_a2s":"Uncletopia | Chicago | 3 | All Maps","protocol":17,"map":"koth_viaduct","folder":"tf","game":"Team Fortress","app_id":440,"player_count":0,"max_players":24,"Bots":0,"server_type":"Dedicated","server_os":"Linux","password":true,"vac":true,"version":"7961495","steam_id":85568392924515191,"keywords":["cp","nocrits","nodmgspread","uncletopia"],"game_id":440,"stv_port":27036,"stv_name":"Uncletopia | Chicago | 3 | All Maps | STV","players":null},{"server_id":403,"name":"Uncletopia | Chicago | 4 | All Maps","name_short":"chi-4","host":"chi-1.us.uncletopia.com","port":27045,"enabled":true,"region":"us-central","cc":"us","latitude":41.881832,"longitude":-87.62318,"reserved":0,"last_update":"0001-01-01T00:00:00Z","name_a2s":"Uncletopia | Chicago | 4 | All Maps","protocol":17,"map":"pl_frontier_final","folder":"tf","game":"Team Fortress","app_id":440,"player_count":24,"max_players":24,"Bots":0,"server_type":"Dedicated","server_os":"Linux","password":true,"vac":true,"version":"7961495","steam_id":85568392924515193,"keywords":["nocrits","nodmgspread","payload","uncletopia"],"game_id":440,"stv_port":27046,"stv_name":"Uncletopia | Chicago | 4 | All Maps | STV","players":[{"user_id":388,"name":"Jerk Tryhard (roleplay)","steam_id":76561199470538309,"connected_time":2619000000000,"state":"active","ping":198},{"user_id":391,"name":"Cheesecurd","steam_id":76561199198254897,"connected_time":2161000000000,"state":"active","ping":60},{"user_id":407,"name":"june 2010 ballsack incident","steam_id":76561198337692867,"connected_time":679000000000,"state":"active","ping":68},{"user_id":415,"name":"YoyoMama","steam_id":76561198260113828,"connected_time":200000000000,"state":"active","ping":106},{"user_id":408,"name":"Six Piece Chicken McNobody","steam_id":76561198129848222,"connected_time":650000000000,"state":"active","ping":48},{"user_id":409,"name":"BusDad","steam_id":76561198031531145,"connected_time":627000000000,"state":"active","ping":60},{"user_id":414,"name":"gogurt","steam_id":76561199051096093,"connected_time":429000000000,"state":"active","ping":62},{"user_id":368,"name":"Point then Click","steam_id":76561198076133259,"connected_time":3358000000000,"state":"active","ping":105},{"user_id":410,"name":"lactoser","steam_id":76561199121003583,"connected_time":600000000000,"state":"active","ping":65},{"user_id":384,"name":"Fiiib","steam_id":76561198119105438,"connected_time":2963000000000,"state":"active","ping":65},{"user_id":386,"name":"HumFreY","steam_id":76561198076639682,"connected_time":2872000000000,"state":"active","ping":72},{"user_id":369,"name":"DEADHORSE","steam_id":76561198066342171,"connected_time":3354000000000,"state":"active","ping":79},{"user_id":381,"name":"Gunkzilla","steam_id":76561198068228415,"connected_time":3015000000000,"state":"active","ping":60},{"user_id":347,"name":"mini boss","steam_id":76561198062763756,"connected_time":5164000000000,"state":"active","ping":53},{"user_id":259,"name":"Chadmander","steam_id":76561197974136337,"connected_time":10724000000000,"state":"active","ping":40},{"user_id":411,"name":"alpa","steam_id":76561198299084601,"connected_time":591000000000,"state":"active","ping":97},{"user_id":404,"name":"slasher4713","steam_id":76561199033532858,"connected_time":835000000000,"state":"active","ping":52},{"user_id":406,"name":"Blaze","steam_id":76561198043797702,"connected_time":775000000000,"state":"active","ping":53},{"user_id":413,"name":"leeeeeeeeeeeeeeeeeeeeeeeeeee","steam_id":76561199083322731,"connected_time":471000000000,"state":"active","ping":84},{"user_id":393,"name":"mkl","steam_id":76561197986401685,"connected_time":2102000000000,"state":"active","ping":77},{"user_id":397,"name":"biden cart 15 dollars","steam_id":76561198253731826,"connected_time":1873000000000,"state":"active","ping":64},{"user_id":389,"name":"Zodyxajon","steam_id":76561198165561581,"connected_time":2274000000000,"state":"active","ping":74},{"user_id":390,"name":"marlow","steam_id":76561198094408360,"connected_time":2234000000000,"state":"active","ping":64},{"user_id":398,"name":"joosssh","steam_id":76561198072130805,"connected_time":1430000000000,"state":"active","ping":162}]},{"server_id":36,"name":"Uncletopia | Chicago | 5 | All Maps","name_short":"chi-5","host":"chi-2.us.uncletopia.com","port":27015,"enabled":true,"region":"us-central","cc":"us","latitude":41.881832,"longitude":-87.62318,"reserved":0,"last_update":"0001-01-01T00:00:00Z","name_a2s":"Uncletopia | Chicago | 5 | All Maps","protocol":17,"map":"pl_snowycoast","folder":"tf","game":"Team Fortress","app_id":440,"player_count":24,"max_players":24,"Bots":0,"server_type":"Dedicated","server_os":"Linux","password":true,"vac":true,"version":"7961495","steam_id":85568392924866362,"keywords":["nocrits","nodmgspread","payload","uncletopia"],"game_id":440,"stv_port":27016,"stv_name":"Uncletopia | Chicago | 5 | All Maps | STV","players":[{"user_id":196,"name":"hearttron","steam_id":76561198994842331,"connected_time":442000000000,"state":"active","ping":82},{"user_id":50,"name":"Scarecrow","steam_id":76561198045870511,"connected_time":10887000000000,"state":"active","ping":47},{"user_id":189,"name":"royal hooters","steam_id":76561198068022595,"connected_time":789000000000,"state":"active","ping":65},{"user_id":174,"name":"Snimca","steam_id":76561198453519709,"connected_time":1661000000000,"state":"active","ping":67},{"user_id":137,"name":"MillerWhite","steam_id":76561198076060357,"connected_time":4319000000000,"state":"active","ping":72},{"user_id":192,"name":"ol' musty","steam_id":76561198081075865,"connected_time":656000000000,"state":"active","ping":60},{"user_id":131,"name":"Godmode","steam_id":76561198076240365,"connected_time":4969000000000,"state":"active","ping":69},{"user_id":195,"name":"We Make It Look Easy™","steam_id":76561198024442760,"connected_time":510000000000,"state":"active","ping":59},{"user_id":190,"name":"Flourish (she/her)","steam_id":76561198087413354,"connected_time":782000000000,"state":"active","ping":106},{"user_id":171,"name":"Beany","steam_id":76561198102299438,"connected_time":1904000000000,"state":"active","ping":47},{"user_id":129,"name":"shut the fuck up and listen","steam_id":76561198018093835,"connected_time":5279000000000,"state":"active","ping":69},{"user_id":182,"name":"Kitt(eh)  ∑:3","steam_id":76561198110858518,"connected_time":1422000000000,"state":"active","ping":64},{"user_id":183,"name":"team fortress garbage","steam_id":76561198099804614,"connected_time":1333000000000,"state":"active","ping":66},{"user_id":169,"name":"Rekamon","steam_id":76561198068963204,"connected_time":1966000000000,"state":"active","ping":89},{"user_id":161,"name":"Lennu","steam_id":76561198060730154,"connected_time":2541000000000,"state":"active","ping":75},{"user_id":89,"name":"chen","steam_id":76561198064872330,"connected_time":7995000000000,"state":"active","ping":76},{"user_id":179,"name":"soop","steam_id":76561199486461335,"connected_time":1491000000000,"state":"active","ping":62},{"user_id":180,"name":"brains","steam_id":76561198197388678,"connected_time":1485000000000,"state":"active","ping":60},{"user_id":193,"name":"Deathninja952","steam_id":76561199066489355,"connected_time":540000000000,"state":"active","ping":85},{"user_id":181,"name":"Jrock","steam_id":76561198045715996,"connected_time":1471000000000,"state":"active","ping":84},{"user_id":168,"name":"YUNG NASTYMAN","steam_id":76561198039710677,"connected_time":2027000000000,"state":"active","ping":85},{"user_id":188,"name":"Siz","steam_id":76561198072962154,"connected_time":850000000000,"state":"active","ping":72},{"user_id":165,"name":"bikerkid207","steam_id":76561198390782783,"connected_time":2352000000000,"state":"active","ping":61},{"user_id":191,"name":"TheoLynwood","steam_id":76561198079596878,"connected_time":760000000000,"state":"active","ping":66}]},{"server_id":37,"name":"Uncletopia | Chicago | 6 | All Maps","name_short":"chi-6","host":"chi-2.us.uncletopia.com","port":27025,"enabled":true,"region":"us-central","cc":"us","latitude":41.881832,"longitude":-87.62318,"reserved":0,"last_update":"0001-01-01T00:00:00Z","name_a2s":"Uncletopia | Chicago | 6 | All Maps","protocol":17,"map":"cp_dustbowl","folder":"tf","game":"Team Fortress","app_id":440,"player_count":24,"max_players":24,"Bots":0,"server_type":"Dedicated","server_os":"Linux","password":true,"vac":true,"version":"7961495","steam_id":85568392924866363,"keywords":["cp","nocrits","nodmgspread","uncletopia"],"game_id":440,"stv_port":27026,"stv_name":"Uncletopia | Chicago | 6 | All Maps | STV","players":[{"user_id":56,"name":"Riandox","steam_id":76561198130577326,"connected_time":423000000000,"state":"active","ping":60},{"user_id":42,"name":"Lilac System","steam_id":76561198130771971,"connected_time":2263000000000,"state":"active","ping":80},{"user_id":57,"name":"the dragon","steam_id":76561198222580424,"connected_time":47000000000,"state":"spawning","ping":79},{"user_id":45,"name":"Lithos","steam_id":76561198039915895,"connected_time":1513000000000,"state":"active","ping":75},{"user_id":58,"name":"S1r Gibby","steam_id":76561198107152354,"connected_time":47000000000,"state":"spawning","ping":56},{"user_id":49,"name":"r3sgem","steam_id":76561199159082325,"connected_time":1148000000000,"state":"active","ping":63},{"user_id":21,"name":"Uwu Micster","steam_id":76561198843890616,"connected_time":3185000000000,"state":"active","ping":82},{"user_id":43,"name":"an' im doin it foa ma dawta","steam_id":76561199161322235,"connected_time":2221000000000,"state":"active","ping":75},{"user_id":35,"name":"Mix","steam_id":76561198835593895,"connected_time":2398000000000,"state":"active","ping":131},{"user_id":44,"name":"meh","steam_id":76561198136808129,"connected_time":2047000000000,"state":"active","ping":66},{"user_id":19,"name":"Natsuki the Scunt","steam_id":76561199175922684,"connected_time":3427000000000,"state":"active","ping":110},{"user_id":26,"name":"River","steam_id":76561198053962431,"connected_time":3031000000000,"state":"active","ping":77},{"user_id":27,"name":"Evelynn the Fox","steam_id":76561198050946208,"connected_time":3029000000000,"state":"active","ping":78},{"user_id":29,"name":"LiterallyDJ","steam_id":76561198030293743,"connected_time":2898000000000,"state":"active","ping":90},{"user_id":30,"name":"beyonder","steam_id":76561198045844070,"connected_time":2853000000000,"state":"active","ping":77},{"user_id":31,"name":"BreakfastTacos","steam_id":76561198847620442,"connected_time":2838000000000,"state":"active","ping":64},{"user_id":32,"name":"Lunagriff","steam_id":76561198036889008,"connected_time":2796000000000,"state":"active","ping":78},{"user_id":33,"name":"\u003c=Itachi uchiha=\u003e","steam_id":76561199162355715,"connected_time":2755000000000,"state":"active","ping":75},{"user_id":46,"name":"Mer","steam_id":76561198192171041,"connected_time":1483000000000,"state":"active","ping":102},{"user_id":50,"name":"harold","steam_id":76561199016285746,"connected_time":1127000000000,"state":"active","ping":99},{"user_id":51,"name":"Hovg9000","steam_id":76561199191556710,"connected_time":1093000000000,"state":"active","ping":77},{"user_id":52,"name":"pim","steam_id":76561198095163441,"connected_time":1075000000000,"state":"active","ping":73},{"user_id":54,"name":"Tom Dude","steam_id":76561198093913484,"connected_time":765000000000,"state":"active","ping":62},{"user_id":55,"name":"JimboMcJimmy","steam_id":76561198030656209,"connected_time":765000000000,"state":"active","ping":145}]},{"server_id":38,"name":"Uncletopia | Chicago | 7 | Stopwatch","name_short":"chi-7","host":"chi-2.us.uncletopia.com","port":27035,"enabled":true,"region":"us-central","cc":"us","latitude":41.881832,"longitude":-87.62318,"reserved":0,"last_update":"0001-01-01T00:00:00Z","name_a2s":"Uncletopia | Chicago | 7 | Stopwatch","protocol":17,"map":"workshop/koth_clearcut_b15.ugc2107050255","folder":"tf","game":"Team Fortress","app_id":440,"player_count":0,"max_players":24,"Bots":0,"server_type":"Dedicated","server_os":"Linux","password":true,"vac":true,"version":"7961495","steam_id":85568392924866364,"keywords":["cp","nocrits","nodmgspread","uncletopia"],"game_id":440,"stv_port":27036,"stv_name":"Uncletopia | Chicago | 7 | Stopwatch | STV","players":null},{"server_id":39,"name":"Uncletopia | Chicago | 8 | Community","name_short":"chi-8","host":"chi-2.us.uncletopia.com","port":27045,"enabled":true,"region":"us-central","cc":"us","latitude":41.881832,"longitude":-87.62318,"reserved":0,"last_update":"0001-01-01T00:00:00Z","name_a2s":"Uncletopia | Chicago | 8 | Community","protocol":17,"map":"workshop/koth_slaughter_rc1.ugc1712845210","folder":"tf","game":"Team Fortress","app_id":440,"player_count":0,"max_players":24,"Bots":0,"server_type":"Dedicated","server_os":"Linux","password":true,"vac":true,"version":"7961495","steam_id":85568392924866365,"keywords":["cp","nocrits","nodmgspread","uncletopia"],"game_id":440,"stv_port":27046,"stv_name":"Uncletopia | Chicago | 8 | Community | STV","players":null},{"server_id":8,"name":"Uncletopia | Dallas | 1 | All Maps","name_short":"dal-1","host":"dal-1.us.uncletopia.com","port":27015,"enabled":true,"region":"us-central","cc":"us","latitude":32.779167,"longitude":-96.80889,"reserved":0,"last_update":"0001-01-01T00:00:00Z","name_a2s":"Uncletopia | Dallas | 1 | All Maps","protocol":17,"map":"pl_badwater","folder":"tf","game":"Team Fortress","app_id":440,"player_count":24,"max_players":24,"Bots":0,"server_type":"Dedicated","server_os":"Linux","password":true,"vac":true,"version":"7961495","steam_id":85568392924469986,"keywords":["nocrits","nodmgspread","payload","uncletopia"],"game_id":440,"stv_port":27016,"stv_name":"Uncletopia | Dallas | 1 | All Maps | STV","players":[{"user_id":463,"name":"Raspylightining","steam_id":76561198148343305,"connected_time":1505000000000,"state":"active","ping":71},{"user_id":464,"name":"selvhat","steam_id":76561198114225509,"connected_time":1440000000000,"state":"active","ping":65},{"user_id":475,"name":"Cat Fanada","steam_id":76561198116765135,"connected_time":733000000000,"state":"active","ping":107},{"user_id":476,"name":"schmuck","steam_id":76561198143789773,"connected_time":451000000000,"state":"active","ping":58},{"user_id":441,"name":"errant","steam_id":76561197961758410,"connected_time":3373000000000,"state":"active","ping":44},{"user_id":433,"name":"Average Sniper","steam_id":76561198981106464,"connected_time":4022000000000,"state":"active","ping":113},{"user_id":462,"name":"Da Policia","steam_id":76561198012762789,"connected_time":1702000000000,"state":"active","ping":45},{"user_id":444,"name":"Anonymoose","steam_id":76561198862312405,"connected_time":2833000000000,"state":"active","ping":110},{"user_id":435,"name":"floofy","steam_id":76561198389769098,"connected_time":4000000000000,"state":"active","ping":83},{"user_id":418,"name":"StretchySnail59","steam_id":76561198073535005,"connected_time":5949000000000,"state":"active","ping":77},{"user_id":482,"name":"dawgamez","steam_id":76561198089293509,"connected_time":146000000000,"state":"active","ping":46},{"user_id":446,"name":"BunnyMaster2019","steam_id":76561198319458624,"connected_time":2567000000000,"state":"active","ping":69},{"user_id":437,"name":"(TWoN Adric)","steam_id":76561197999304024,"connected_time":3892000000000,"state":"active","ping":45},{"user_id":467,"name":"the rat gets the cheese","steam_id":76561199077027954,"connected_time":1353000000000,"state":"active","ping":83},{"user_id":458,"name":"Slope115117","steam_id":76561199028794627,"connected_time":1815000000000,"state":"active","ping":73},{"user_id":468,"name":"HoratiusTheDwarf","steam_id":76561198031488911,"connected_time":1292000000000,"state":"active","ping":85},{"user_id":470,"name":"Topaz Tom","steam_id":76561199214479904,"connected_time":1245000000000,"state":"active","ping":73},{"user_id":452,"name":"CEO of burger","steam_id":76561198973438214,"connected_time":2436000000000,"state":"active","ping":67},{"user_id":459,"name":"scrimblo","steam_id":76561199150833796,"connected_time":1812000000000,"state":"active","ping":88},{"user_id":481,"name":"TacoMan","steam_id":76561198049405741,"connected_time":368000000000,"state":"active","ping":105},{"user_id":478,"name":"THE LAW","steam_id":76561198085700801,"connected_time":412000000000,"state":"active","ping":86},{"user_id":480,"name":"bingus","steam_id":76561198110046630,"connected_time":394000000000,"state":"active","ping":64},{"user_id":456,"name":"i gnaw on Funko Pops™","steam_id":76561199122152458,"connected_time":2018000000000,"state":"active","ping":59},{"user_id":472,"name":"jadene11","steam_id":76561199369221113,"connected_time":814000000000,"state":"active","ping":74}]},{"server_id":108,"name":"Uncletopia | Dallas | 2 | All Maps","name_short":"dal-2","host":"dal-1.us.uncletopia.com","port":27025,"enabled":true,"region":"us-central","cc":"us","latitude":32.779167,"longitude":-96.80889,"reserved":0,"last_update":"0001-01-01T00:00:00Z","name_a2s":"Uncletopia | Dallas | 2 | All Maps","protocol":17,"map":"cp_snakewater_final1","folder":"tf","game":"Team Fortress","app_id":440,"player_count":24,"max_players":24,"Bots":0,"server_type":"Dedicated","server_os":"Linux","password":true,"vac":true,"version":"7961495","steam_id":85568392924469988,"keywords":["cp","nocrits","nodmgspread","uncletopia"],"game_id":440,"stv_port":27026,"stv_name":"Uncletopia | Dallas | 2 | All Maps | STV","players":[{"user_id":121,"name":"Bones0010","steam_id":76561198096186958,"connected_time":2900000000000,"state":"active","ping":56},{"user_id":120,"name":"feleven","steam_id":76561198853721046,"connected_time":2982000000000,"state":"active","ping":85},{"user_id":109,"name":"Dragus","steam_id":76561198032967285,"connected_time":3668000000000,"state":"active","ping":73},{"user_id":142,"name":"sanxi's cave","steam_id":76561199034371191,"connected_time":1202000000000,"state":"active","ping":173},{"user_id":50,"name":"eyes on the prize","steam_id":76561198184076165,"connected_time":7020000000000,"state":"active","ping":152},{"user_id":145,"name":"Mr.Frundles","steam_id":76561198134559026,"connected_time":899000000000,"state":"active","ping":95},{"user_id":138,"name":"R.O.B","steam_id":76561198131599943,"connected_time":1367000000000,"state":"active","ping":112},{"user_id":135,"name":"i got a new old mouse","steam_id":76561198421913648,"connected_time":1796000000000,"state":"active","ping":104},{"user_id":129,"name":"Paulktw1","steam_id":76561198362380245,"connected_time":2321000000000,"state":"active","ping":175},{"user_id":139,"name":"Beanos85","steam_id":76561199103337508,"connected_time":1346000000000,"state":"active","ping":65},{"user_id":140,"name":"2JZ_","steam_id":76561198064027289,"connected_time":1255000000000,"state":"active","ping":86},{"user_id":125,"name":"freesia","steam_id":76561198127525888,"connected_time":2505000000000,"state":"active","ping":48},{"user_id":148,"name":"Yahomes","steam_id":76561199478391681,"connected_time":558000000000,"state":"active","ping":89},{"user_id":99,"name":"chiswola","steam_id":76561198046920142,"connected_time":4330000000000,"state":"active","ping":87},{"user_id":66,"name":"stargaazer","steam_id":76561199010142579,"connected_time":6501000000000,"state":"active","ping":76},{"user_id":143,"name":"VelocityCubeR","steam_id":76561198044351011,"connected_time":1157000000000,"state":"active","ping":81},{"user_id":141,"name":"short bus enthusiast","steam_id":76561198069380992,"connected_time":1251000000000,"state":"active","ping":61},{"user_id":144,"name":"Dr Smeggman","steam_id":76561197966614845,"connected_time":988000000000,"state":"active","ping":152},{"user_id":70,"name":"Fresh Lychee","steam_id":76561198045399559,"connected_time":6420000000000,"state":"active","ping":77},{"user_id":118,"name":"Sir.TopHats","steam_id":76561198267326839,"connected_time":3071000000000,"state":"active","ping":63},{"user_id":113,"name":"105 °Cola","steam_id":76561198193537542,"connected_time":3470000000000,"state":"active","ping":103},{"user_id":90,"name":"The World's Softest Sandwich","steam_id":76561198015577707,"connected_time":5650000000000,"state":"active","ping":80},{"user_id":147,"name":"Snitzman","steam_id":76561198068303272,"connected_time":734000000000,"state":"active","ping":74},{"user_id":134,"name":"Shrebbie","steam_id":76561198875230824,"connected_time":2172000000000,"state":"active","ping":85}]},{"server_id":404,"name":"Uncletopia | Dallas | 3 | All Maps","name_short":"dal-3","host":"dal-1.us.uncletopia.com","port":27035,"enabled":true,"region":"us-central","cc":"us","latitude":32.779167,"longitude":-96.80889,"reserved":0,"last_update":"0001-01-01T00:00:00Z","name_a2s":"Uncletopia | Dallas | 3 | All Maps","protocol":17,"map":"pl_pier","folder":"tf","game":"Team Fortress","app_id":440,"player_count":14,"max_players":24,"Bots":0,"server_type":"Dedicated","server_os":"Linux","password":true,"vac":true,"version":"7961495","steam_id":85568392924515219,"keywords":["nocrits","nodmgspread","payload","uncletopia"],"game_id":440,"stv_port":27036,"stv_name":"Uncletopia | Dallas | 3 | All Maps | STV","players":[{"user_id":13,"name":"AB","steam_id":76561199487899460,"connected_time":2811000000000,"state":"active","ping":94},{"user_id":14,"name":"♥ Tomboy ♥","steam_id":76561198069881436,"connected_time":2315000000000,"state":"active","ping":75},{"user_id":32,"name":"Certified Hood Classic","steam_id":76561199086159354,"connected_time":5000000000,"state":"spawning","ping":29},{"user_id":18,"name":"therealmrstarfish","steam_id":76561198974482075,"connected_time":709000000000,"state":"active","ping":60},{"user_id":19,"name":"LLLFarm2012","steam_id":76561199199786915,"connected_time":567000000000,"state":"active","ping":73},{"user_id":21,"name":"kiwi","steam_id":76561198052177917,"connected_time":444000000000,"state":"active","ping":91},{"user_id":29,"name":"HappyHarby","steam_id":76561198056965702,"connected_time":124000000000,"state":"active","ping":79},{"user_id":24,"name":"milk then cereal","steam_id":76561198047168548,"connected_time":319000000000,"state":"active","ping":73},{"user_id":25,"name":"slowdance","steam_id":76561198097427947,"connected_time":302000000000,"state":"active","ping":128},{"user_id":26,"name":"Timmy The Tyrant","steam_id":76561199156409732,"connected_time":299000000000,"state":"active","ping":52},{"user_id":27,"name":"googy doogy","steam_id":76561199025852100,"connected_time":220000000000,"state":"active","ping":69},{"user_id":28,"name":"Posadist","steam_id":76561198024407472,"connected_time":213000000000,"state":"active","ping":67},{"user_id":30,"name":"Kat-Chan","steam_id":76561198815823728,"connected_time":61000000000,"state":"active","ping":109},{"user_id":31,"name":"cyren caster","steam_id":76561198204509499,"connected_time":54000000000,"state":"active","ping":85}]},{"server_id":405,"name":"Uncletopia | Dallas | 4 | Community","name_short":"dal-4","host":"dal-1.us.uncletopia.com","port":27045,"enabled":true,"region":"us-central","cc":"us","latitude":32.779167,"longitude":-96.80889,"reserved":0,"last_update":"0001-01-01T00:00:00Z","name_a2s":"Uncletopia | Dallas | 4 | Community","protocol":17,"map":"workshop/koth_trenchfoot_ab1.ugc731436616","folder":"tf","game":"Team Fortress","app_id":440,"player_count":0,"max_players":24,"Bots":0,"server_type":"Dedicated","server_os":"Linux","password":true,"vac":true,"version":"7961495","steam_id":85568392924515220,"keywords":["cp","nocrits","nodmgspread","uncletopia"],"game_id":440,"stv_port":27046,"stv_name":"Uncletopia | Dallas | 4 | Community | STV","players":null},{"server_id":5,"name":"Uncletopia | Frankfurt | 1 | All Maps","name_short":"frk-1","host":"frk-1.de.uncletopia.com","port":27015,"enabled":true,"region":"eu","cc":"de","latitude":50.110924,"longitude":8.682127,"reserved":0,"last_update":"0001-01-01T00:00:00Z","name_a2s":"Uncletopia | Frankfurt | 1 | All Maps","protocol":17,"map":"pl_borneo","folder":"tf","game":"Team Fortress","app_id":440,"player_count":24,"max_players":24,"Bots":0,"server_type":"Dedicated","server_os":"Linux","password":true,"vac":true,"version":"7961495","steam_id":85568392924469989,"keywords":["nocrits","nodmgspread","payload","uncletopia"],"game_id":440,"stv_port":27016,"stv_name":"Uncletopia | Frankfurt | 1 | All Maps | STV","players":[{"user_id":555,"name":"flick","steam_id":76561198083505031,"connected_time":663000000000,"state":"active","ping":54},{"user_id":532,"name":"tallen","steam_id":76561198061708595,"connected_time":2588000000000,"state":"active","ping":75},{"user_id":551,"name":"Umme","steam_id":76561198053809566,"connected_time":807000000000,"state":"active","ping":64},{"user_id":556,"name":"GermanBoy","steam_id":76561199230176650,"connected_time":590000000000,"state":"active","ping":54},{"user_id":526,"name":"acetamiprid","steam_id":76561198058012525,"connected_time":3361000000000,"state":"active","ping":51},{"user_id":560,"name":"☁ Lou1smeister ☁","steam_id":76561198004032968,"connected_time":411000000000,"state":"active","ping":64},{"user_id":550,"name":"smell_my_cheese","steam_id":76561198008517427,"connected_time":847000000000,"state":"active","ping":57},{"user_id":475,"name":"Vershal Smershal","steam_id":76561198116223995,"connected_time":7660000000000,"state":"active","ping":60},{"user_id":563,"name":"UpsetPuppy11","steam_id":76561199060288033,"connected_time":84000000000,"state":"active","ping":79},{"user_id":534,"name":"Mr_Pulse_","steam_id":76561198095001602,"connected_time":2487000000000,"state":"active","ping":89},{"user_id":533,"name":"Doritoshredder","steam_id":76561198826710752,"connected_time":2530000000000,"state":"active","ping":111},{"user_id":538,"name":"xavier","steam_id":76561198076494034,"connected_time":1494000000000,"state":"active","ping":50},{"user_id":535,"name":"Ozzie","steam_id":76561197992915315,"connected_time":2481000000000,"state":"active","ping":63},{"user_id":564,"name":"Blacksuit26","steam_id":76561198308415969,"connected_time":52000000000,"state":"spawning","ping":78},{"user_id":513,"name":"★poyo★","steam_id":76561198150078959,"connected_time":3904000000000,"state":"active","ping":60},{"user_id":544,"name":"Milk","steam_id":76561198125876588,"connected_time":1119000000000,"state":"active","ping":57},{"user_id":514,"name":"gei nas x","steam_id":76561199204740482,"connected_time":3859000000000,"state":"active","ping":75},{"user_id":529,"name":"hide on bush","steam_id":76561198149967445,"connected_time":3195000000000,"state":"active","ping":48},{"user_id":467,"name":"Kvicha Kvaratskhelia","steam_id":76561198179339326,"connected_time":8725000000000,"state":"active","ping":79},{"user_id":545,"name":"xva","steam_id":76561198969286813,"connected_time":1073000000000,"state":"active","ping":64},{"user_id":549,"name":"pablo","steam_id":76561198087800030,"connected_time":879000000000,"state":"active","ping":45},{"user_id":547,"name":"W","steam_id":76561199501358967,"connected_time":1041000000000,"state":"active","ping":62},{"user_id":557,"name":"bryophyta","steam_id":76561197968945306,"connected_time":554000000000,"state":"active","ping":77},{"user_id":559,"name":"SocialistBacon","steam_id":76561198055872267,"connected_time":523000000000,"state":"active","ping":99}]},{"server_id":110,"name":"Uncletopia | Frankfurt | 2 | All Maps","name_short":"frk-2","host":"frk-1.de.uncletopia.com","port":27025,"enabled":true,"region":"eu","cc":"de","latitude":50.110924,"longitude":8.682127,"reserved":0,"last_update":"0001-01-01T00:00:00Z","name_a2s":"Uncletopia | Frankfurt | 2 | All Maps","protocol":17,"map":"cp_process_final","folder":"tf","game":"Team Fortress","app_id":440,"player_count":16,"max_players":24,"Bots":0,"server_type":"Dedicated","server_os":"Linux","password":true,"vac":true,"version":"7961495","steam_id":85568392924469990,"keywords":["cp","nocrits","nodmgspread","uncletopia"],"game_id":440,"stv_port":27026,"stv_name":"Uncletopia | Frankfurt | 2 | All Maps | STV","players":[{"user_id":793,"name":"Ace","steam_id":76561198279398145,"connected_time":1036000000000,"state":"active","ping":45},{"user_id":806,"name":"hench frog","steam_id":76561198445120460,"connected_time":145000000000,"state":"active","ping":62},{"user_id":809,"name":"BD[PL]","steam_id":76561198115995871,"connected_time":90000000000,"state":"active","ping":103},{"user_id":810,"name":"gio123wgio","steam_id":76561199114382953,"connected_time":75000000000,"state":"active","ping":97},{"user_id":811,"name":"warui ne","steam_id":76561198079524152,"connected_time":50000000000,"state":"active","ping":70},{"user_id":730,"name":"wiserclub6","steam_id":76561198312144351,"connected_time":5286000000000,"state":"active","ping":84},{"user_id":731,"name":"Billy Herrington","steam_id":76561198205193503,"connected_time":5184000000000,"state":"active","ping":75},{"user_id":800,"name":"wavelength","steam_id":76561198154677956,"connected_time":481000000000,"state":"active","ping":59},{"user_id":788,"name":"cactus sandwich","steam_id":76561198164210779,"connected_time":1572000000000,"state":"active","ping":86},{"user_id":781,"name":"tombouctou","steam_id":76561198065132197,"connected_time":1743000000000,"state":"active","ping":110},{"user_id":789,"name":"MadeInLibreOffice.exe","steam_id":76561198138542192,"connected_time":1548000000000,"state":"active","ping":49},{"user_id":756,"name":"housing crisis#savetf2","steam_id":76561198119984382,"connected_time":3290000000000,"state":"active","ping":54},{"user_id":805,"name":"Kappa","steam_id":76561198089341471,"connected_time":294000000000,"state":"active","ping":56},{"user_id":790,"name":"joachym","steam_id":76561198428579761,"connected_time":1545000000000,"state":"active","ping":45},{"user_id":801,"name":"Motherboard","steam_id":76561198130191090,"connected_time":475000000000,"state":"active","ping":57},{"user_id":804,"name":"justKleby","steam_id":76561198833249164,"connected_time":396000000000,"state":"active","ping":79}]},{"server_id":308,"name":"Uncletopia | Frankfurt | 3 | All Maps","name_short":"frk-3","host":"frk-1.de.uncletopia.com","port":27035,"enabled":true,"region":"eu","cc":"de","latitude":50.110924,"longitude":8.682127,"reserved":0,"last_update":"0001-01-01T00:00:00Z","name_a2s":"Uncletopia | Frankfurt | 3 | All Maps","protocol":17,"map":"koth_viaduct","folder":"tf","game":"Team Fortress","app_id":440,"player_count":0,"max_players":24,"Bots":0,"server_type":"Dedicated","server_os":"Linux","password":true,"vac":true,"version":"7961495","steam_id":85568392924504274,"keywords":["cp","nocrits","nodmgspread","uncletopia"],"game_id":440,"stv_port":27036,"stv_name":"Uncletopia | Frankfurt | 3 | All Maps | STV","players":null},{"server_id":309,"name":"Uncletopia | Frankfurt | 4 | All Maps","name_short":"frk-4","host":"frk-1.de.uncletopia.com","port":27045,"enabled":true,"region":"eu","cc":"de","latitude":50.110924,"longitude":8.682127,"reserved":0,"last_update":"0001-01-01T00:00:00Z","name_a2s":"Uncletopia | Frankfurt | 4 | All Maps","protocol":17,"map":"pl_badwater","folder":"tf","game":"Team Fortress","app_id":440,"player_count":24,"max_players":24,"Bots":0,"server_type":"Dedicated","server_os":"Linux","password":true,"vac":true,"version":"7961495","steam_id":85568392924504275,"keywords":["nocrits","nodmgspread","payload","uncletopia"],"game_id":440,"stv_port":27046,"stv_name":"Uncletopia | Frankfurt | 4 | All Maps | STV","players":[{"user_id":618,"name":"Xander","steam_id":76561198994815903,"connected_time":2955000000000,"state":"active","ping":94},{"user_id":647,"name":"Senpyro","steam_id":76561199317284938,"connected_time":2060000000000,"state":"active","ping":41},{"user_id":678,"name":"Volkyas","steam_id":76561198170372965,"connected_time":460000000000,"state":"active","ping":47},{"user_id":687,"name":"lore","steam_id":76561198120984188,"connected_time":112000000000,"state":"active","ping":61},{"user_id":652,"name":"Skulldow","steam_id":76561198431433977,"connected_time":1733000000000,"state":"active","ping":60},{"user_id":676,"name":"rajAs","steam_id":76561198035928111,"connected_time":547000000000,"state":"active","ping":49},{"user_id":677,"name":"Ink in veins","steam_id":76561199082262091,"connected_time":523000000000,"state":"active","ping":70},{"user_id":662,"name":"efffcraft","steam_id":76561198306317166,"connected_time":1120000000000,"state":"active","ping":92},{"user_id":658,"name":"UJAGaming","steam_id":76561198147959101,"connected_time":1476000000000,"state":"active","ping":81},{"user_id":623,"name":"Hollyhobs (RIP)","steam_id":76561198402363748,"connected_time":2717000000000,"state":"active","ping":51},{"user_id":654,"name":"Sholunan","steam_id":76561198062435739,"connected_time":1682000000000,"state":"active","ping":63},{"user_id":682,"name":"mata","steam_id":76561198129526578,"connected_time":319000000000,"state":"active","ping":54},{"user_id":684,"name":"mekintoch","steam_id":76561198122525383,"connected_time":228000000000,"state":"active","ping":64},{"user_id":681,"name":"Huskai","steam_id":76561198141512362,"connected_time":389000000000,"state":"active","ping":45},{"user_id":689,"name":"anta baka?","steam_id":76561198037810091,"connected_time":41000000000,"state":"active","ping":100},{"user_id":626,"name":"Cataleptic","steam_id":76561197997966949,"connected_time":2548000000000,"state":"active","ping":75},{"user_id":630,"name":"david.barabas1963","steam_id":76561198075232017,"connected_time":2345000000000,"state":"active","ping":52},{"user_id":340,"name":"❤Speedbump❤","steam_id":76561198388690313,"connected_time":19212000000000,"state":"active","ping":49},{"user_id":649,"name":"benjels big day","steam_id":76561198025970709,"connected_time":1942000000000,"state":"active","ping":47},{"user_id":686,"name":"[T]aKer","steam_id":76561198001778013,"connected_time":156000000000,"state":"active","ping":48},{"user_id":675,"name":"The Big J","steam_id":76561198158202901,"connected_time":566000000000,"state":"active","ping":52},{"user_id":666,"name":"tyhilde09","steam_id":76561199416036160,"connected_time":1024000000000,"state":"active","ping":168},{"user_id":635,"name":"tomydjoh","steam_id":76561198077421906,"connected_time":2297000000000,"state":"active","ping":58},{"user_id":646,"name":"L1nuS","steam_id":76561199017922842,"connected_time":2087000000000,"state":"active","ping":82}]},{"server_id":310,"name":"Uncletopia | Frankfurt | 5 | All Maps","name_short":"frk-5","host":"frk-1.de.uncletopia.com","port":27055,"enabled":true,"region":"eu","cc":"de","latitude":50.110924,"longitude":8.682127,"reserved":0,"last_update":"0001-01-01T00:00:00Z","name_a2s":"Uncletopia | Frankfurt | 5 | All Maps","protocol":17,"map":"pl_pier","folder":"tf","game":"Team Fortress","app_id":440,"player_count":23,"max_players":24,"Bots":0,"server_type":"Dedicated","server_os":"Linux","password":true,"vac":true,"version":"7961495","steam_id":85568392924504277,"keywords":["nocrits","nodmgspread","payload","uncletopia"],"game_id":440,"stv_port":27056,"stv_name":"Uncletopia | Frankfurt | 5 | All Maps | STV","players":[{"user_id":929,"name":"Molty","steam_id":76561198004360335,"connected_time":2064000000000,"state":"active","ping":55},{"user_id":952,"name":"rainbowscree","steam_id":76561198114210501,"connected_time":321000000000,"state":"active","ping":91},{"user_id":918,"name":"MENTABETAI","steam_id":76561198049728799,"connected_time":2237000000000,"state":"active","ping":75},{"user_id":953,"name":"Dommy","steam_id":76561197990864747,"connected_time":259000000000,"state":"active","ping":51},{"user_id":939,"name":"Noel0114","steam_id":76561199143605211,"connected_time":1654000000000,"state":"active","ping":67},{"user_id":957,"name":"randompixel","steam_id":76561198003941207,"connected_time":187000000000,"state":"active","ping":58},{"user_id":915,"name":"Razef","steam_id":76561198030309484,"connected_time":2421000000000,"state":"active","ping":46},{"user_id":909,"name":"Lers","steam_id":76561198061619788,"connected_time":3308000000000,"state":"active","ping":50},{"user_id":961,"name":"Joo ♦","steam_id":76561197987609203,"connected_time":17000000000,"state":"spawning","ping":74},{"user_id":944,"name":"JAG JOBBAR EEHEHHH.","steam_id":76561198061122902,"connected_time":1335000000000,"state":"active","ping":75},{"user_id":955,"name":"TidB","steam_id":76561198055342304,"connected_time":210000000000,"state":"active","ping":47},{"user_id":933,"name":"rodney mullen","steam_id":76561198030155915,"connected_time":1922000000000,"state":"active","ping":71},{"user_id":641,"name":"fish","steam_id":76561198092096689,"connected_time":17832000000000,"state":"active","ping":45},{"user_id":948,"name":"Fargo","steam_id":76561198801474941,"connected_time":751000000000,"state":"active","ping":48},{"user_id":959,"name":"C.I.","steam_id":76561197972438196,"connected_time":141000000000,"state":"active","ping":57},{"user_id":922,"name":"sowakarana","steam_id":76561199405633261,"connected_time":2152000000000,"state":"active","ping":51},{"user_id":949,"name":"Blackbeard's Onlyfans Leak","steam_id":76561199098456903,"connected_time":702000000000,"state":"active","ping":54},{"user_id":934,"name":"DigyB","steam_id":76561198014442345,"connected_time":1914000000000,"state":"active","ping":67},{"user_id":958,"name":"Assassin+","steam_id":76561197994310420,"connected_time":158000000000,"state":"active","ping":72},{"user_id":950,"name":"Superiumentarius","steam_id":76561198081642249,"connected_time":541000000000,"state":"active","ping":49},{"user_id":842,"name":"ツFreddYツ","steam_id":76561198018780925,"connected_time":5578000000000,"state":"active","ping":59},{"user_id":956,"name":"Jansku","steam_id":76561198321340149,"connected_time":205000000000,"state":"active","ping":78},{"user_id":946,"name":"meep","steam_id":76561198159934649,"connected_time":1176000000000,"state":"active","ping":73}]},{"server_id":311,"name":"Uncletopia | Frankfurt | 6 | All Maps","name_short":"frk-6","host":"frk-1.de.uncletopia.com","port":27065,"enabled":true,"region":"eu","cc":"de","latitude":50.110924,"longitude":8.682127,"reserved":0,"last_update":"0001-01-01T00:00:00Z","name_a2s":"Uncletopia | Frankfurt | 6 | All Maps","protocol":17,"map":"pl_barnblitz","folder":"tf","game":"Team Fortress","app_id":440,"player_count":6,"max_players":24,"Bots":0,"server_type":"Dedicated","server_os":"Linux","password":true,"vac":true,"version":"7961495","steam_id":85568392924504278,"keywords":["nocrits","nodmgspread","payload","uncletopia"],"game_id":440,"stv_port":27066,"stv_name":"Uncletopia | Frankfurt | 6 | All Maps | STV","players":[{"user_id":479,"name":"sans353CZ#savetf2","steam_id":76561198829760127,"connected_time":34000000000,"state":"active","ping":51},{"user_id":470,"name":"Miraak","steam_id":76561198173825737,"connected_time":591000000000,"state":"active","ping":63},{"user_id":471,"name":"ErM1k","steam_id":76561198105485172,"connected_time":570000000000,"state":"active","ping":49},{"user_id":472,"name":"birthday boy","steam_id":76561198350442800,"connected_time":496000000000,"state":"active","ping":60},{"user_id":478,"name":"rcfoster419","steam_id":76561199141688353,"connected_time":88000000000,"state":"active","ping":130},{"user_id":444,"name":"REN","steam_id":76561198000596385,"connected_time":4303000000000,"state":"active","ping":80}]},{"server_id":23,"name":"Uncletopia | Frankfurt | 7 | Stopwatch","name_short":"frk-7","host":"frk-1.de.uncletopia.com","port":27075,"enabled":true,"region":"eu","cc":"de","latitude":50.110924,"longitude":8.682127,"reserved":0,"last_update":"0001-01-01T00:00:00Z","name_a2s":"Uncletopia | Frankfurt | 7 | Stopwatch","protocol":17,"map":"koth_highpass","folder":"tf","game":"Team Fortress","app_id":440,"player_count":0,"max_players":24,"Bots":0,"server_type":"Dedicated","server_os":"Linux","password":true,"vac":true,"version":"7961495","steam_id":85568392924742827,"keywords":["cp","nocrits","nodmgspread","uncletopia"],"game_id":440,"stv_port":27076,"stv_name":"Uncletopia | Frankfurt | 7 | Stopwatch | STV","players":null},{"server_id":24,"name":"Uncletopia | Frankfurt | 8 | Community","name_short":"frk-8","host":"frk-1.de.uncletopia.com","port":27085,"enabled":true,"region":"eu","cc":"de","latitude":50.110924,"longitude":8.682127,"reserved":0,"last_update":"0001-01-01T00:00:00Z","name_a2s":"Uncletopia | Frankfurt | 8 | Community","protocol":17,"map":"workshop/pl_fifthcurve_rc1.ugc648227046","folder":"tf","game":"Team Fortress","app_id":440,"player_count":0,"max_players":24,"Bots":0,"server_type":"Dedicated","server_os":"Linux","password":true,"vac":true,"version":"7961495","steam_id":85568392924742828,"keywords":["nocrits","nodmgspread","payload","uncletopia"],"game_id":440,"stv_port":27086,"stv_name":"Uncletopia | Frankfurt | 8 | Community | STV","players":null},{"server_id":202,"name":"Uncletopia | Hong Kong | 1 | All Maps","name_short":"hgk-1","host":"hgk-1.hk.uncletopia.com","port":27015,"enabled":true,"region":"asia","cc":"hk","latitude":22.302711,"longitude":114.177216,"reserved":0,"last_update":"0001-01-01T00:00:00Z","name_a2s":"Uncletopia | Hong Kong | 1 | All Maps","protocol":17,"map":"pl_barnblitz","folder":"tf","game":"Team Fortress","app_id":440,"player_count":0,"max_players":24,"Bots":0,"server_type":"Dedicated","server_os":"Linux","password":true,"vac":true,"version":"7961495","steam_id":85568392924494504,"keywords":["nocrits","nodmgspread","payload","uncletopia"],"game_id":440,"stv_port":27016,"stv_name":"Uncletopia | Hong Kong | 1 | All Maps | STV","players":null},{"server_id":1,"name":"Uncletopia | Los Angeles | 1 | All Maps","name_short":"lax-1","host":"lax-1.us.uncletopia.com","port":27015,"enabled":true,"region":"us-west","cc":"us","latitude":33.94279,"longitude":-118.41004,"reserved":0,"last_update":"0001-01-01T00:00:00Z","name_a2s":"Uncletopia | Los Angeles | 1 | All Maps","protocol":17,"map":"pl_pier","folder":"tf","game":"Team Fortress","app_id":440,"player_count":0,"max_players":24,"Bots":0,"server_type":"Dedicated","server_os":"Linux","password":true,"vac":true,"version":"7961495","steam_id":85568392924469991,"keywords":["nocrits","nodmgspread","payload","uncletopia"],"game_id":440,"stv_port":27016,"stv_name":"Uncletopia | Los Angeles | 1 | All Maps | STV","players":null},{"server_id":112,"name":"Uncletopia | Los Angeles | 2 | All Maps","name_short":"lax-2","host":"lax-1.us.uncletopia.com","port":27025,"enabled":true,"region":"us-west","cc":"us","latitude":33.94279,"longitude":-118.41004,"reserved":0,"last_update":"0001-01-01T00:00:00Z","name_a2s":"Uncletopia | Los Angeles | 2 | All Maps","protocol":17,"map":"koth_cascade","folder":"tf","game":"Team Fortress","app_id":440,"player_count":0,"max_players":24,"Bots":0,"server_type":"Dedicated","server_os":"Linux","password":true,"vac":true,"version":"7961495","steam_id":85568392924469992,"keywords":["cp","nocrits","nodmgspread","uncletopia"],"game_id":440,"stv_port":27026,"stv_name":"Uncletopia | Los Angeles | 2 | All Maps | STV","players":null},{"server_id":324,"name":"Uncletopia | Los Angeles | 3 | All Maps","name_short":"lax-3","host":"lax-1.us.uncletopia.com","port":27035,"enabled":true,"region":"us-west","cc":"us","latitude":33.94279,"longitude":-118.41004,"reserved":0,"last_update":"0001-01-01T00:00:00Z","name_a2s":"Uncletopia | Los Angeles | 3 | All Maps","protocol":17,"map":"pl_pier","folder":"tf","game":"Team Fortress","app_id":440,"player_count":0,"max_players":24,"Bots":0,"server_type":"Dedicated","server_os":"Linux","password":true,"vac":true,"version":"7961495","steam_id":85568392924510198,"keywords":["nocrits","nodmgspread","payload","uncletopia"],"game_id":440,"stv_port":27036,"stv_name":"Uncletopia | Los Angeles | 3 | All Maps | STV","players":null},{"server_id":25,"name":"Uncletopia | Los Angeles | 4 | Stopwatch","name_short":"lax-4","host":"lax-1.us.uncletopia.com","port":27045,"enabled":true,"region":"us-west","cc":"us","latitude":33.94279,"longitude":-118.41004,"reserved":0,"last_update":"0001-01-01T00:00:00Z","name_a2s":"Uncletopia | Los Angeles | 4 | Stopwatch","protocol":17,"map":"workshop/koth_product_final.ugc454272353","folder":"tf","game":"Team Fortress","app_id":440,"player_count":0,"max_players":24,"Bots":0,"server_type":"Dedicated","server_os":"Linux","password":true,"vac":true,"version":"7961495","steam_id":85568392924510199,"keywords":["cp","nocrits","nodmgspread","uncletopia"],"game_id":440,"stv_port":27046,"stv_name":"Uncletopia | Los Angeles | 4 | Stopwatch | STV","players":null},{"server_id":11,"name":"Uncletopia | London | 1 | All Maps","name_short":"lon-1","host":"lon-1.uk.uncletopia.com","port":27015,"enabled":true,"region":"eu","cc":"gb","latitude":51.509865,"longitude":-0.118092,"reserved":0,"last_update":"0001-01-01T00:00:00Z","name_a2s":"Uncletopia | London | 1 | All Maps","protocol":17,"map":"pl_thundermountain","folder":"tf","game":"Team Fortress","app_id":440,"player_count":24,"max_players":24,"Bots":0,"server_type":"Dedicated","server_os":"Linux","password":true,"vac":true,"version":"7961495","steam_id":85568392924367362,"keywords":["nocrits","nodmgspread","payload","uncletopia"],"game_id":440,"stv_port":27016,"stv_name":"Uncletopia | London | 1 | All Maps | STV","players":[{"user_id":599,"name":"Pinkchup","steam_id":76561198106802803,"connected_time":678000000000,"state":"active","ping":90},{"user_id":517,"name":"whimsy.","steam_id":76561198878171763,"connected_time":9733000000000,"state":"active","ping":50},{"user_id":581,"name":"Kphi(i)","steam_id":76561198970587061,"connected_time":2863000000000,"state":"active","ping":170},{"user_id":593,"name":"Pipper","steam_id":76561197970326616,"connected_time":1365000000000,"state":"active","ping":60},{"user_id":588,"name":"mertefe","steam_id":76561199237126613,"connected_time":1491000000000,"state":"active","ping":95},{"user_id":582,"name":"nudjura","steam_id":76561198281986139,"connected_time":2844000000000,"state":"active","ping":32},{"user_id":551,"name":"Aku+","steam_id":76561198813782795,"connected_time":5984000000000,"state":"active","ping":74},{"user_id":555,"name":"eeeeee","steam_id":76561198017786875,"connected_time":5876000000000,"state":"active","ping":69},{"user_id":579,"name":"Hardlight","steam_id":76561198128064834,"connected_time":2877000000000,"state":"active","ping":70},{"user_id":558,"name":"Kahvi","steam_id":76561198723244199,"connected_time":5020000000000,"state":"active","ping":82},{"user_id":594,"name":"sora (live!)","steam_id":76561198096547662,"connected_time":1253000000000,"state":"active","ping":56},{"user_id":507,"name":"ber.","steam_id":76561197993892057,"connected_time":10183000000000,"state":"active","ping":90},{"user_id":565,"name":"giclure :;","steam_id":76561197986362828,"connected_time":4546000000000,"state":"active","ping":78},{"user_id":589,"name":"19raic","steam_id":76561199093514786,"connected_time":1473000000000,"state":"active","ping":57},{"user_id":549,"name":"impossible whopper eater","steam_id":76561198058641805,"connected_time":6022000000000,"state":"active","ping":54},{"user_id":556,"name":"Carrotcracker","steam_id":76561198034862396,"connected_time":5827000000000,"state":"active","ping":73},{"user_id":585,"name":"Rx07","steam_id":76561199013720618,"connected_time":1713000000000,"state":"active","ping":95},{"user_id":600,"name":"gibb (heLP HELP HELP)","steam_id":76561198074097655,"connected_time":78000000000,"state":"active","ping":86},{"user_id":597,"name":"jonesy","steam_id":76561198073975078,"connected_time":684000000000,"state":"active","ping":38},{"user_id":592,"name":"UTCL1 alice","steam_id":76561198180361759,"connected_time":1416000000000,"state":"active","ping":41},{"user_id":598,"name":"SuperBob103","steam_id":76561199175360012,"connected_time":682000000000,"state":"active","ping":57},{"user_id":550,"name":"tapeworms!","steam_id":76561198069649097,"connected_time":6022000000000,"state":"active","ping":38},{"user_id":538,"name":"flappi","steam_id":76561198072892783,"connected_time":8220000000000,"state":"active","ping":64},{"user_id":596,"name":"AnanasGerste","steam_id":76561198133825211,"connected_time":1150000000000,"state":"active","ping":46}]},{"server_id":114,"name":"Uncletopia | London | 2 | All Maps","name_short":"lon-2","host":"lon-1.uk.uncletopia.com","port":27025,"enabled":true,"region":"eu","cc":"gb","latitude":51.509865,"longitude":-0.118092,"reserved":0,"last_update":"0001-01-01T00:00:00Z","name_a2s":"Uncletopia | London | 2 | All Maps","protocol":17,"map":"pl_borneo","folder":"tf","game":"Team Fortress","app_id":440,"player_count":24,"max_players":24,"Bots":0,"server_type":"Dedicated","server_os":"Linux","password":true,"vac":true,"version":"7961495","steam_id":85568392924470941,"keywords":["nocrits","nodmgspread","payload","uncletopia"],"game_id":440,"stv_port":27026,"stv_name":"Uncletopia | London | 2 | All Maps | STV","players":[{"user_id":280,"name":"Frazzle","steam_id":76561198262577951,"connected_time":6211000000000,"state":"active","ping":56},{"user_id":345,"name":"SavageLucario39","steam_id":76561199455012132,"connected_time":733000000000,"state":"active","ping":151},{"user_id":346,"name":"Kebab","steam_id":76561198194449091,"connected_time":688000000000,"state":"active","ping":135},{"user_id":316,"name":"cuddles","steam_id":76561198805181599,"connected_time":4301000000000,"state":"active","ping":56},{"user_id":347,"name":"mary","steam_id":76561198014828037,"connected_time":669000000000,"state":"active","ping":54},{"user_id":348,"name":"This And Gauge","steam_id":76561198051852765,"connected_time":665000000000,"state":"active","ping":75},{"user_id":331,"name":"Lark","steam_id":76561198066937447,"connected_time":2886000000000,"state":"active","ping":92},{"user_id":335,"name":"Tegnerud","steam_id":76561198214185612,"connected_time":2313000000000,"state":"active","ping":76},{"user_id":349,"name":"agent chubo","steam_id":76561199029137789,"connected_time":659000000000,"state":"active","ping":140},{"user_id":341,"name":"Spajro","steam_id":76561198257383813,"connected_time":1753000000000,"state":"active","ping":59},{"user_id":320,"name":"bongo","steam_id":76561198015489880,"connected_time":3969000000000,"state":"active","ping":44},{"user_id":334,"name":"Ephix","steam_id":76561197977164055,"connected_time":2706000000000,"state":"active","ping":58},{"user_id":311,"name":"Leituga","steam_id":76561198051127598,"connected_time":4382000000000,"state":"active","ping":75},{"user_id":350,"name":"SeaKane","steam_id":76561198165453318,"connected_time":641000000000,"state":"active","ping":49},{"user_id":351,"name":"Forsén","steam_id":76561199131971501,"connected_time":609000000000,"state":"active","ping":75},{"user_id":342,"name":"ChPerette 🎮","steam_id":76561198060004887,"connected_time":1751000000000,"state":"active","ping":45},{"user_id":352,"name":"Spurt","steam_id":76561198078523852,"connected_time":577000000000,"state":"active","ping":58},{"user_id":287,"name":"medick","steam_id":76561199380849468,"connected_time":5518000000000,"state":"active","ping":62},{"user_id":344,"name":"Firestarter","steam_id":76561197960538156,"connected_time":1041000000000,"state":"active","ping":45},{"user_id":343,"name":"SpacePig","steam_id":76561198044662873,"connected_time":1473000000000,"state":"active","ping":83},{"user_id":322,"name":"Bill Carr","steam_id":76561198110033943,"connected_time":3677000000000,"state":"active","ping":42},{"user_id":337,"name":"LiterallyRyanGosling","steam_id":76561199017856691,"connected_time":2137000000000,"state":"active","ping":57},{"user_id":353,"name":"murderwow","steam_id":76561198024566944,"connected_time":571000000000,"state":"active","ping":106},{"user_id":267,"name":"lulu","steam_id":76561199147764133,"connected_time":7111000000000,"state":"active","ping":75}]},{"server_id":320,"name":"Uncletopia | London | 3 | All Maps","name_short":"lon-3","host":"lon-1.uk.uncletopia.com","port":27035,"enabled":true,"region":"eu","cc":"gb","latitude":51.509865,"longitude":-0.118092,"reserved":0,"last_update":"0001-01-01T00:00:00Z","name_a2s":"Uncletopia | London | 3 | All Maps","protocol":17,"map":"pl_barnblitz","folder":"tf","game":"Team Fortress","app_id":440,"player_count":23,"max_players":24,"Bots":0,"server_type":"Dedicated","server_os":"Linux","password":true,"vac":true,"version":"7961495","steam_id":85568392924510192,"keywords":["nocrits","nodmgspread","payload","uncletopia"],"game_id":440,"stv_port":27036,"stv_name":"Uncletopia | London | 3 | All Maps | STV","players":[{"user_id":146,"name":"snayke","steam_id":76561198077822932,"connected_time":208000000000,"state":"active","ping":71},{"user_id":138,"name":"yall boots hats??","steam_id":76561198097396447,"connected_time":1015000000000,"state":"active","ping":49},{"user_id":132,"name":"Saken","steam_id":76561198049075295,"connected_time":1395000000000,"state":"active","ping":59},{"user_id":116,"name":"ScapeGoat","steam_id":76561198137868829,"connected_time":2692000000000,"state":"active","ping":42},{"user_id":139,"name":"randem_","steam_id":76561198338793755,"connected_time":988000000000,"state":"active","ping":41},{"user_id":137,"name":"Labracababrador","steam_id":76561198255280285,"connected_time":1157000000000,"state":"active","ping":57},{"user_id":119,"name":"novo:DDD","steam_id":76561198051096323,"connected_time":2607000000000,"state":"active","ping":29},{"user_id":86,"name":"Henry","steam_id":76561198108018305,"connected_time":5804000000000,"state":"active","ping":76},{"user_id":133,"name":"The Panzarott","steam_id":76561198202846015,"connected_time":1338000000000,"state":"active","ping":70},{"user_id":58,"name":"jack'o classes","steam_id":76561199030218131,"connected_time":6569000000000,"state":"active","ping":44},{"user_id":134,"name":"Mr.Cupcake","steam_id":76561198152711174,"connected_time":1320000000000,"state":"active","ping":70},{"user_id":43,"name":"Kaza","steam_id":76561198033509686,"connected_time":6822000000000,"state":"active","ping":52},{"user_id":140,"name":"jovi_","steam_id":76561198449280552,"connected_time":979000000000,"state":"active","ping":56},{"user_id":131,"name":"ZePequenio","steam_id":76561197968506094,"connected_time":1462000000000,"state":"active","ping":51},{"user_id":81,"name":"lark","steam_id":76561198091724522,"connected_time":5946000000000,"state":"active","ping":59},{"user_id":129,"name":"my mom","steam_id":76561199225201569,"connected_time":1815000000000,"state":"active","ping":114},{"user_id":142,"name":"fluffs","steam_id":76561198436106996,"connected_time":934000000000,"state":"active","ping":44},{"user_id":147,"name":"kenzou","steam_id":76561199180054996,"connected_time":131000000000,"state":"active","ping":60},{"user_id":85,"name":"cropping","steam_id":76561198026586456,"connected_time":5885000000000,"state":"active","ping":59},{"user_id":122,"name":"htraB","steam_id":76561198043122677,"connected_time":2558000000000,"state":"active","ping":68},{"user_id":123,"name":"the joy of recycling","steam_id":76561198138509827,"connected_time":2558000000000,"state":"active","ping":75},{"user_id":145,"name":"gagalak","steam_id":76561198089979108,"connected_time":445000000000,"state":"active","ping":105},{"user_id":143,"name":"[SpA]Scatterbrain","steam_id":76561197998639769,"connected_time":784000000000,"state":"active","ping":55}]},{"server_id":321,"name":"Uncletopia | London | 4 | All Maps","name_short":"lon-4","host":"lon-1.uk.uncletopia.com","port":27045,"enabled":true,"region":"eu","cc":"gb","latitude":51.509865,"longitude":-0.118092,"reserved":0,"last_update":"0001-01-01T00:00:00Z","name_a2s":"Uncletopia | London | 4 | All Maps","protocol":17,"map":"cp_metalworks","folder":"tf","game":"Team Fortress","app_id":440,"player_count":24,"max_players":24,"Bots":0,"server_type":"Dedicated","server_os":"Linux","password":true,"vac":true,"version":"7961495","steam_id":85568392924510193,"keywords":["cp","nocrits","nodmgspread","uncletopia"],"game_id":440,"stv_port":27046,"stv_name":"Uncletopia | London | 4 | All Maps | STV","players":[{"user_id":432,"name":"Jappy","steam_id":76561198112444032,"connected_time":1029000000000,"state":"active","ping":39},{"user_id":390,"name":"beepboop007","steam_id":76561199152819950,"connected_time":3486000000000,"state":"active","ping":83},{"user_id":426,"name":"Cg Studios","steam_id":76561198286908002,"connected_time":1653000000000,"state":"active","ping":38},{"user_id":358,"name":"finbar","steam_id":76561198056812396,"connected_time":8012000000000,"state":"active","ping":87},{"user_id":398,"name":"class1driller","steam_id":76561198029068574,"connected_time":3237000000000,"state":"active","ping":75},{"user_id":436,"name":"Laru","steam_id":76561197998838438,"connected_time":244000000000,"state":"active","ping":76},{"user_id":400,"name":"Havelyn","steam_id":76561198036159862,"connected_time":3180000000000,"state":"active","ping":125},{"user_id":427,"name":"Wellink","steam_id":76561198854204494,"connected_time":1634000000000,"state":"active","ping":70},{"user_id":434,"name":"Bad Guy","steam_id":76561199039772329,"connected_time":917000000000,"state":"active","ping":126},{"user_id":430,"name":"333res","steam_id":76561198148106704,"connected_time":1456000000000,"state":"active","ping":90},{"user_id":420,"name":"BOLAXA","steam_id":76561198228406008,"connected_time":2334000000000,"state":"active","ping":77},{"user_id":402,"name":"Butt Fangs Fetish","steam_id":76561198038130063,"connected_time":3158000000000,"state":"active","ping":80},{"user_id":384,"name":"Mega Man Legends 3","steam_id":76561198014110199,"connected_time":4086000000000,"state":"active","ping":45},{"user_id":433,"name":"Cezaru7252","steam_id":76561198815955374,"connected_time":988000000000,"state":"active","ping":87},{"user_id":405,"name":"mumbler","steam_id":76561197970641239,"connected_time":2965000000000,"state":"active","ping":59},{"user_id":428,"name":"sloppy transgirl toppy","steam_id":76561198057092208,"connected_time":1625000000000,"state":"active","ping":75},{"user_id":407,"name":"QuestRanger","steam_id":76561198050378951,"connected_time":2952000000000,"state":"active","ping":60},{"user_id":408,"name":"tntisbased","steam_id":76561198371466555,"connected_time":2929000000000,"state":"active","ping":41},{"user_id":415,"name":"rob","steam_id":76561198122211848,"connected_time":2605000000000,"state":"active","ping":92},{"user_id":424,"name":"Overseer Boots","steam_id":76561199115636221,"connected_time":1973000000000,"state":"active","ping":51},{"user_id":422,"name":"zdr","steam_id":76561198191074514,"connected_time":2103000000000,"state":"active","ping":76},{"user_id":435,"name":"h","steam_id":76561198282952165,"connected_time":776000000000,"state":"active","ping":84},{"user_id":376,"name":"5tv^","steam_id":76561198063129586,"connected_time":5198000000000,"state":"active","ping":45},{"user_id":409,"name":"Aspartus","steam_id":76561198101385763,"connected_time":2908000000000,"state":"active","ping":45}]},{"server_id":21,"name":"Uncletopia | London | 5 | All Maps","name_short":"lon-5","host":"lon-1.uk.uncletopia.com","port":27055,"enabled":true,"region":"eu","cc":"gb","latitude":51.509865,"longitude":-0.118092,"reserved":0,"last_update":"0001-01-01T00:00:00Z","name_a2s":"Uncletopia | London | 5 | All Maps","protocol":17,"map":"pl_frontier_final","folder":"tf","game":"Team Fortress","app_id":440,"player_count":24,"max_players":24,"Bots":0,"server_type":"Dedicated","server_os":"Linux","password":true,"vac":true,"version":"7961495","steam_id":85568392924742829,"keywords":["nocrits","nodmgspread","payload","uncletopia"],"game_id":440,"stv_port":27056,"stv_name":"Uncletopia | London | 5 | All Maps | STV","players":[{"user_id":329,"name":"Janner","steam_id":76561198127045282,"connected_time":845000000000,"state":"active","ping":47},{"user_id":316,"name":"D_Ink","steam_id":76561198267716662,"connected_time":1660000000000,"state":"active","ping":37},{"user_id":269,"name":"NitPig","steam_id":76561198212991935,"connected_time":4984000000000,"state":"active","ping":76},{"user_id":334,"name":"Joey Sexbang","steam_id":76561198001514139,"connected_time":671000000000,"state":"active","ping":43},{"user_id":296,"name":"flamingosaurus","steam_id":76561198051455397,"connected_time":3986000000000,"state":"active","ping":46},{"user_id":283,"name":"Aftiks","steam_id":76561198875182686,"connected_time":4285000000000,"state":"active","ping":85},{"user_id":337,"name":"levap","steam_id":76561197987688539,"connected_time":562000000000,"state":"active","ping":90},{"user_id":338,"name":"Octomal800","steam_id":76561199453595616,"connected_time":560000000000,"state":"active","ping":115},{"user_id":315,"name":"fector","steam_id":76561199204249586,"connected_time":1746000000000,"state":"active","ping":108},{"user_id":339,"name":"Artgrendadier","steam_id":76561198063305359,"connected_time":541000000000,"state":"active","ping":119},{"user_id":347,"name":"etc","steam_id":76561197998394797,"connected_time":272000000000,"state":"active","ping":48},{"user_id":333,"name":"Flying skyhigh","steam_id":76561198372971096,"connected_time":681000000000,"state":"active","ping":86},{"user_id":263,"name":"vk rat makes me erect","steam_id":76561198355965587,"connected_time":5219000000000,"state":"active","ping":71},{"user_id":335,"name":"wowee","steam_id":76561198005838256,"connected_time":653000000000,"state":"active","ping":42},{"user_id":313,"name":"sussy baka","steam_id":76561198368758532,"connected_time":1930000000000,"state":"active","ping":83},{"user_id":340,"name":"powej","steam_id":76561198056381418,"connected_time":535000000000,"state":"active","ping":37},{"user_id":341,"name":"justpixels","steam_id":76561198143717568,"connected_time":525000000000,"state":"active","ping":102},{"user_id":345,"name":"blondie.747","steam_id":76561198045099492,"connected_time":375000000000,"state":"active","ping":118},{"user_id":346,"name":"manure merchant","steam_id":76561198010109316,"connected_time":366000000000,"state":"active","ping":53},{"user_id":304,"name":"v0ddo","steam_id":76561198092745537,"connected_time":2672000000000,"state":"active","ping":53},{"user_id":343,"name":"graey","steam_id":76561198024987293,"connected_time":500000000000,"state":"active","ping":45},{"user_id":311,"name":"Kernel Panic","steam_id":76561198215811047,"connected_time":2236000000000,"state":"active","ping":43},{"user_id":327,"name":"Dei Genetrix","steam_id":76561198305678122,"connected_time":1010000000000,"state":"active","ping":49},{"user_id":328,"name":"Lewylow","steam_id":76561198005425686,"connected_time":1006000000000,"state":"active","ping":78}]},{"server_id":22,"name":"Uncletopia | London | 6 | All Maps","name_short":"lon-6","host":"lon-1.uk.uncletopia.com","port":27065,"enabled":true,"region":"eu","cc":"gb","latitude":51.509865,"longitude":-0.118092,"reserved":0,"last_update":"0001-01-01T00:00:00Z","name_a2s":"Uncletopia | London | 6 | All Maps","protocol":17,"map":"pl_swiftwater_final1","folder":"tf","game":"Team Fortress","app_id":440,"player_count":18,"max_players":24,"Bots":0,"server_type":"Dedicated","server_os":"Linux","password":true,"vac":true,"version":"7961495","steam_id":85568392924742830,"keywords":["nocrits","nodmgspread","payload","uncletopia"],"game_id":440,"stv_port":27066,"stv_name":"Uncletopia | London | 6 | All Maps | STV","players":[{"user_id":69,"name":"H-say","steam_id":76561198177400362,"connected_time":8210000000000,"state":"active","ping":77},{"user_id":158,"name":"NepMyh","steam_id":76561198152265316,"connected_time":1110000000000,"state":"active","ping":46},{"user_id":163,"name":"Seal","steam_id":76561198244988552,"connected_time":302000000000,"state":"active","ping":72},{"user_id":64,"name":"ArmedWithWings","steam_id":76561198154615474,"connected_time":8436000000000,"state":"active","ping":75},{"user_id":82,"name":"syms","steam_id":76561198066679812,"connected_time":6926000000000,"state":"active","ping":77},{"user_id":164,"name":"Dave Mustaine","steam_id":76561199022099906,"connected_time":293000000000,"state":"active","ping":65},{"user_id":103,"name":"Lemon","steam_id":76561198188535947,"connected_time":5397000000000,"state":"active","ping":59},{"user_id":170,"name":"Smarge","steam_id":76561198120035423,"connected_time":73000000000,"state":"active","ping":45},{"user_id":167,"name":"A Wild Ferrothorn","steam_id":76561198042261828,"connected_time":194000000000,"state":"active","ping":48},{"user_id":168,"name":"BruhOP5","steam_id":76561199393006206,"connected_time":192000000000,"state":"active","ping":210},{"user_id":169,"name":"R8N - Obismal","steam_id":76561198007482714,"connected_time":148000000000,"state":"active","ping":75},{"user_id":171,"name":"Inforsitec","steam_id":76561198216770168,"connected_time":66000000000,"state":"active","ping":57},{"user_id":172,"name":"Ray William Johnson from =3","steam_id":76561198129755592,"connected_time":61000000000,"state":"active","ping":32},{"user_id":173,"name":"SunSill","steam_id":76561198159219899,"connected_time":7000000000,"state":"spawning","ping":119},{"user_id":132,"name":"Garth Marenghi","steam_id":76561198009830164,"connected_time":3234000000000,"state":"active","ping":44},{"user_id":149,"name":"Arctic","steam_id":76561199100669439,"connected_time":1920000000000,"state":"active","ping":46},{"user_id":133,"name":"Tengger Cavalry","steam_id":76561198002539859,"connected_time":3230000000000,"state":"active","ping":43},{"user_id":66,"name":"kurd","steam_id":76561198116530769,"connected_time":8422000000000,"state":"active","ping":95}]},{"server_id":40,"name":"Uncletopia | London | 7 | Stopwatch","name_short":"lon-7","host":"lon-1.uk.uncletopia.com","port":27075,"enabled":true,"region":"eu","cc":"gb","latitude":51.509865,"longitude":-0.118092,"reserved":0,"last_update":"0001-01-01T00:00:00Z","name_a2s":"Uncletopia | London | 7 | Stopwatch","protocol":17,"map":"workshop/koth_ashville_final.ugc2130459942","folder":"tf","game":"Team Fortress","app_id":440,"player_count":0,"max_players":24,"Bots":0,"server_type":"Dedicated","server_os":"Linux","password":true,"vac":true,"version":"7961495","steam_id":85568392924964314,"keywords":["cp","nocrits","nodmgspread","uncletopia"],"game_id":440,"stv_port":27076,"stv_name":"Uncletopia | London | 7 | Stopwatch | STV","players":null},{"server_id":41,"name":"Uncletopia | London | 8 | Community","name_short":"lon-8","host":"lon-1.uk.uncletopia.com","port":27085,"enabled":true,"region":"eu","cc":"gb","latitude":51.509865,"longitude":-0.118092,"reserved":0,"last_update":"0001-01-01T00:00:00Z","name_a2s":"Uncletopia | London | 8 | Community","protocol":17,"map":"workshop/pl_boundary_final1.ugc456799153","folder":"tf","game":"Team Fortress","app_id":440,"player_count":0,"max_players":24,"Bots":0,"server_type":"Dedicated","server_os":"Linux","password":true,"vac":true,"version":"7961495","steam_id":85568392924964315,"keywords":["nocrits","nodmgspread","payload","uncletopia"],"game_id":440,"stv_port":27086,"stv_name":"Uncletopia | London | 8 | Community | STV","players":null},{"server_id":300,"name":"Uncletopia | Montréal | 1 | One Thousand Uncles","name_short":"mtl-1","host":"mtl-1.ca.uncletopia.com","port":27015,"enabled":true,"region":"us-east","cc":"ca","latitude":45.50889,"longitude":-73.56167,"reserved":0,"last_update":"0001-01-01T00:00:00Z","name_a2s":"Uncletopia | Montréal | 1 | One Thousand Uncles","protocol":17,"map":"pl_chilly","folder":"tf","game":"Team Fortress","app_id":440,"player_count":0,"max_players":32,"Bots":0,"server_type":"Dedicated","server_os":"Linux","password":true,"vac":true,"version":"7961495","steam_id":85568392924500087,"keywords":["alltalk","danepve","increased_maxplayers","norespawntime","payload","uncletopia"],"game_id":440,"stv_port":0,"stv_name":"","players":null},{"server_id":301,"name":"Uncletopia | Montréal | 2 | One Thousand Uncles","name_short":"mtl-2","host":"mtl-1.ca.uncletopia.com","port":27025,"enabled":true,"region":"us-east","cc":"ca","latitude":45.50889,"longitude":-73.56167,"reserved":0,"last_update":"0001-01-01T00:00:00Z","name_a2s":"Uncletopia | Montréal | 2 | One Thousand Uncles","protocol":17,"map":"pl_snowycoast","folder":"tf","game":"Team Fortress","app_id":440,"player_count":0,"max_players":32,"Bots":0,"server_type":"Dedicated","server_os":"Linux","password":true,"vac":true,"version":"7961495","steam_id":85568392924500088,"keywords":["alltalk","danepve","increased_maxplayers","norespawntime","payload","uncletopia"],"game_id":440,"stv_port":0,"stv_name":"","players":null},{"server_id":302,"name":"Uncletopia | Montréal | 3 | One Thousand Uncles","name_short":"mtl-3","host":"mtl-1.ca.uncletopia.com","port":27035,"enabled":true,"region":"us-east","cc":"ca","latitude":45.50889,"longitude":-73.56167,"reserved":0,"last_update":"0001-01-01T00:00:00Z","name_a2s":"Uncletopia | Montréal | 3 | One Thousand Uncles","protocol":17,"map":"pl_goldrush","folder":"tf","game":"Team Fortress","app_id":440,"player_count":19,"max_players":32,"Bots":16,"server_type":"Dedicated","server_os":"Linux","password":true,"vac":true,"version":"7961495","steam_id":85568392924500089,"keywords":["alltalk","bots","danepve","increased_maxplayers","norespawntime","payload","uncletopia"],"game_id":440,"stv_port":0,"stv_name":"","players":[{"user_id":117,"name":"vielfras01012333","steam_id":76561198092119256,"connected_time":192000000000,"state":"active","ping":148},{"user_id":118,"name":"Eric Cartman Gaming","steam_id":76561199382783363,"connected_time":171000000000,"state":"active","ping":89},{"user_id":135,"name":"drrdfdddd122","steam_id":76561199304776530,"connected_time":36000000000,"state":"active","ping":67}]},{"server_id":13,"name":"Uncletopia | New York City | 1 | All Maps","name_short":"nyc-1","host":"nyc-1.us.uncletopia.com","port":27015,"enabled":true,"region":"us-east","cc":"us","latitude":40.73061,"longitude":-73.93524,"reserved":0,"last_update":"0001-01-01T00:00:00Z","name_a2s":"Uncletopia | New York City | 1 | All Maps","protocol":17,"map":"pl_upward","folder":"tf","game":"Team Fortress","app_id":440,"player_count":24,"max_players":24,"Bots":0,"server_type":"Dedicated","server_os":"Linux","password":true,"vac":true,"version":"7961495","steam_id":85568392924469993,"keywords":["nocrits","nodmgspread","payload","uncletopia"],"game_id":440,"stv_port":27016,"stv_name":"Uncletopia | New York City | 1 | All Maps | STV","players":[{"user_id":275,"name":"Doffy","steam_id":76561198307816360,"connected_time":1456000000000,"state":"active","ping":56},{"user_id":238,"name":"dangergirl99","steam_id":76561198121651564,"connected_time":3213000000000,"state":"active","ping":41},{"user_id":282,"name":"dog","steam_id":76561198263873491,"connected_time":848000000000,"state":"active","ping":58},{"user_id":261,"name":"Squope","steam_id":76561198983129293,"connected_time":2126000000000,"state":"active","ping":46},{"user_id":263,"name":"TARP","steam_id":76561198981788304,"connected_time":2108000000000,"state":"active","ping":38},{"user_id":230,"name":"CRAZY engineer","steam_id":76561198887937902,"connected_time":4118000000000,"state":"active","ping":51},{"user_id":283,"name":"Cr_15","steam_id":76561198411772062,"connected_time":783000000000,"state":"active","ping":69},{"user_id":191,"name":"Stonks","steam_id":76561199490085068,"connected_time":6251000000000,"state":"active","ping":55},{"user_id":280,"name":"CadenLCheese","steam_id":76561199105517435,"connected_time":973000000000,"state":"active","ping":109},{"user_id":291,"name":"Xavibite","steam_id":76561198209380493,"connected_time":260000000000,"state":"active","ping":45},{"user_id":281,"name":"NIPPLELESS CAGE","steam_id":76561198025099747,"connected_time":901000000000,"state":"active","ping":54},{"user_id":186,"name":"Aokuma","steam_id":76561198808387179,"connected_time":6555000000000,"state":"active","ping":41},{"user_id":284,"name":"Space Lizard","steam_id":76561198056798193,"connected_time":668000000000,"state":"active","ping":88},{"user_id":245,"name":"Littletoughie","steam_id":76561198066103628,"connected_time":2870000000000,"state":"active","ping":45},{"user_id":247,"name":"Batvision","steam_id":76561198029561301,"connected_time":2727000000000,"state":"active","ping":74},{"user_id":286,"name":"PinkLemonade","steam_id":76561198799286228,"connected_time":623000000000,"state":"active","ping":58},{"user_id":287,"name":"lwyr","steam_id":76561198007982579,"connected_time":622000000000,"state":"active","ping":36},{"user_id":276,"name":"Chezaus","steam_id":76561198317397837,"connected_time":1435000000000,"state":"active","ping":63},{"user_id":288,"name":"tobywizardc","steam_id":76561199056849377,"connected_time":621000000000,"state":"active","ping":92},{"user_id":267,"name":"hooley","steam_id":76561198041923067,"connected_time":2018000000000,"state":"active","ping":58},{"user_id":289,"name":"Zayd","steam_id":76561199076481015,"connected_time":610000000000,"state":"active","ping":53},{"user_id":269,"name":"DolphiN | RGL.gg","steam_id":76561198048614515,"connected_time":2003000000000,"state":"active","ping":54},{"user_id":290,"name":"Clyde","steam_id":76561198158206236,"connected_time":606000000000,"state":"active","ping":113},{"user_id":274,"name":"6ix *","steam_id":76561198415484497,"connected_time":1557000000000,"state":"active","ping":176}]},{"server_id":14,"name":"Uncletopia | New York City | 2 | All Maps","name_short":"nyc-2","host":"nyc-1.us.uncletopia.com","port":27025,"enabled":true,"region":"us-east","cc":"us","latitude":40.73061,"longitude":-73.93524,"reserved":0,"last_update":"0001-01-01T00:00:00Z","name_a2s":"Uncletopia | New York City | 2 | All Maps","protocol":17,"map":"pl_borneo","folder":"tf","game":"Team Fortress","app_id":440,"player_count":24,"max_players":24,"Bots":0,"server_type":"Dedicated","server_os":"Linux","password":true,"vac":true,"version":"7961495","steam_id":85568392924469994,"keywords":["nocrits","nodmgspread","payload","uncletopia"],"game_id":440,"stv_port":27026,"stv_name":"Uncletopia | New York City | 2 | All Maps | STV","players":[{"user_id":383,"name":"Officer Chef","steam_id":76561198310658990,"connected_time":1793000000000,"state":"active","ping":65},{"user_id":336,"name":"Mr. Squirt","steam_id":76561198174755679,"connected_time":5006000000000,"state":"active","ping":45},{"user_id":372,"name":"ADRIEN BRODY","steam_id":76561198009299473,"connected_time":3068000000000,"state":"active","ping":43},{"user_id":384,"name":"Nilantive","steam_id":76561198177565082,"connected_time":1792000000000,"state":"active","ping":58},{"user_id":399,"name":"Niλiwiλi, ▼iscount of ▼io","steam_id":76561198009193777,"connected_time":1161000000000,"state":"active","ping":63},{"user_id":378,"name":"Hojo","steam_id":76561197976544480,"connected_time":2657000000000,"state":"active","ping":61},{"user_id":423,"name":"BigPapaBrogan","steam_id":76561199012814165,"connected_time":382000000000,"state":"active","ping":59},{"user_id":357,"name":"Chicken Nugget","steam_id":76561198082601232,"connected_time":4092000000000,"state":"active","ping":57},{"user_id":385,"name":"AstronautPug","steam_id":76561198162372709,"connected_time":1786000000000,"state":"active","ping":82},{"user_id":401,"name":"HungryPenguin","steam_id":76561198039803880,"connected_time":945000000000,"state":"active","ping":47},{"user_id":405,"name":"Thr33boys","steam_id":76561198035639627,"connected_time":881000000000,"state":"active","ping":58},{"user_id":387,"name":"Dr.StrangeGlove","steam_id":76561198286114229,"connected_time":1720000000000,"state":"active","ping":75},{"user_id":359,"name":"Matthew 10:39","steam_id":76561198121933439,"connected_time":4067000000000,"state":"active","ping":65},{"user_id":428,"name":"epic cheeseburger","steam_id":76561198041995180,"connected_time":140000000000,"state":"active","ping":82},{"user_id":388,"name":"THGAwesome","steam_id":76561198162847218,"connected_time":1717000000000,"state":"active","ping":47},{"user_id":427,"name":"emerge","steam_id":76561198186882891,"connected_time":278000000000,"state":"active","ping":53},{"user_id":400,"name":"IKEA CherryChair","steam_id":76561198185055443,"connected_time":1009000000000,"state":"active","ping":80},{"user_id":389,"name":"runescape legend","steam_id":76561198077791373,"connected_time":1707000000000,"state":"active","ping":74},{"user_id":390,"name":"russames","steam_id":76561198007535911,"connected_time":1696000000000,"state":"active","ping":69},{"user_id":426,"name":"Conjurer","steam_id":76561198316256275,"connected_time":361000000000,"state":"active","ping":46},{"user_id":391,"name":"Crayfry","steam_id":76561198146525237,"connected_time":1664000000000,"state":"active","ping":63},{"user_id":424,"name":"oppenheimer style","steam_id":76561198026664629,"connected_time":374000000000,"state":"active","ping":50},{"user_id":425,"name":"Bacchus","steam_id":76561198113244990,"connected_time":366000000000,"state":"active","ping":54},{"user_id":403,"name":"Jason","steam_id":76561198107058140,"connected_time":935000000000,"state":"active","ping":45}]},{"server_id":15,"name":"Uncletopia | New York City | 3 | Stopwatch","name_short":"nyc-3","host":"nyc-1.us.uncletopia.com","port":27035,"enabled":true,"region":"us-east","cc":"us","latitude":40.73061,"longitude":-73.93524,"reserved":0,"last_update":"0001-01-01T00:00:00Z","name_a2s":"Uncletopia | New York City | 3 | Stopwatch","protocol":17,"map":"koth_lakeside_final","folder":"tf","game":"Team Fortress","app_id":440,"player_count":0,"max_players":24,"Bots":0,"server_type":"Dedicated","server_os":"Linux","password":true,"vac":true,"version":"7961495","steam_id":85568392924742820,"keywords":["cp","nocrits","nodmgspread","uncletopia"],"game_id":440,"stv_port":27036,"stv_name":"Uncletopia | New York City | 3 | Stopwatch | STV","players":null},{"server_id":16,"name":"Uncletopia | New York City | 4 | Community","name_short":"nyc-4","host":"nyc-1.us.uncletopia.com","port":27045,"enabled":true,"region":"us-east","cc":"us","latitude":40.73061,"longitude":-73.93524,"reserved":0,"last_update":"0001-01-01T00:00:00Z","name_a2s":"Uncletopia | New York City | 4 | Community","protocol":17,"map":"workshop/pl_shoreleave_rc2.ugc1238849347","folder":"tf","game":"Team Fortress","app_id":440,"player_count":0,"max_players":24,"Bots":0,"server_type":"Dedicated","server_os":"Linux","password":true,"vac":true,"version":"7961495","steam_id":85568392924742821,"keywords":["nocrits","nodmgspread","payload","uncletopia"],"game_id":440,"stv_port":27046,"stv_name":"Uncletopia | New York City | 4 | Community | STV","players":null},{"server_id":142,"name":"Uncletopia | São Paulo | 1 | All Maps","name_short":"sao-1","host":"sao-1.br.uncletopia.com","port":27015,"enabled":true,"region":"sa","cc":"br","latitude":-23.533773,"longitude":-46.62529,"reserved":0,"last_update":"0001-01-01T00:00:00Z","name_a2s":"Uncletopia | São Paulo | 1 | All Maps","protocol":17,"map":"koth_highpass","folder":"tf","game":"Team Fortress","app_id":440,"player_count":0,"max_players":24,"Bots":0,"server_type":"Dedicated","server_os":"Linux","password":true,"vac":true,"version":"7961495","steam_id":85568392924469996,"keywords":["cp","nocrits","nodmgspread","uncletopia"],"game_id":440,"stv_port":27016,"stv_name":"Uncletopia | São Paulo | 1 | All Maps | STV","players":null},{"server_id":143,"name":"Uncletopia | São Paulo | 2 | Community","name_short":"sao-2","host":"sao-2.br.uncletopia.com","port":27015,"enabled":true,"region":"sa","cc":"br","latitude":-23.533773,"longitude":-46.62529,"reserved":0,"last_update":"0001-01-01T00:00:00Z","name_a2s":"Uncletopia | São Paulo | 2 | Community","protocol":17,"map":"workshop/koth_jamram_rc1a.ugc2964065613","folder":"tf","game":"Team Fortress","app_id":440,"player_count":0,"max_players":24,"Bots":0,"server_type":"Dedicated","server_os":"Linux","password":true,"vac":true,"version":"7961495","steam_id":85568392924485349,"keywords":["cp","nocrits","nodmgspread","uncletopia"],"game_id":440,"stv_port":27016,"stv_name":"Uncletopia | São Paulo | 2 | Community | STV","players":null},{"server_id":7,"name":"Uncletopia | Seattle | 1 | All Maps","name_short":"sea-1","host":"sea-1.us.uncletopia.com","port":27015,"enabled":true,"region":"us-west","cc":"us","latitude":47.608013,"longitude":-122.33517,"reserved":0,"last_update":"0001-01-01T00:00:00Z","name_a2s":"Uncletopia | Seattle | 1 | All Maps","protocol":17,"map":"pl_frontier_final","folder":"tf","game":"Team Fortress","app_id":440,"player_count":23,"max_players":24,"Bots":0,"server_type":"Dedicated","server_os":"Linux","password":true,"vac":true,"version":"7961495","steam_id":85568392924469997,"keywords":["nocrits","nodmgspread","payload","uncletopia"],"game_id":440,"stv_port":27016,"stv_name":"Uncletopia | Seattle | 1 | All Maps | STV","players":[{"user_id":161,"name":"Macandchess","steam_id":76561198255783176,"connected_time":106000000000,"state":"active","ping":101},{"user_id":151,"name":"kn0n","steam_id":76561198249172818,"connected_time":299000000000,"state":"active","ping":90},{"user_id":97,"name":"folly","steam_id":76561198133933158,"connected_time":1749000000000,"state":"active","ping":67},{"user_id":129,"name":"Hiro","steam_id":76561198103601761,"connected_time":593000000000,"state":"active","ping":106},{"user_id":112,"name":"Banana Man","steam_id":76561199012105803,"connected_time":1109000000000,"state":"active","ping":45},{"user_id":50,"name":"\\(^o^)/","steam_id":76561199169859135,"connected_time":4781000000000,"state":"active","ping":54},{"user_id":49,"name":"Shit (REAL)","steam_id":76561198206490352,"connected_time":4961000000000,"state":"active","ping":74},{"user_id":153,"name":"ack.awesome676","steam_id":76561199109415958,"connected_time":285000000000,"state":"active","ping":70},{"user_id":54,"name":"Tavarish","steam_id":76561199440563080,"connected_time":4361000000000,"state":"active","ping":45},{"user_id":113,"name":"Mii Guest C, From Wii Sports","steam_id":76561198197964803,"connected_time":1094000000000,"state":"active","ping":54},{"user_id":81,"name":"zlaggaming68","steam_id":76561199140665706,"connected_time":3240000000000,"state":"active","ping":62},{"user_id":154,"name":"nat","steam_id":76561198179923093,"connected_time":280000000000,"state":"active","ping":92},{"user_id":95,"name":"Hazel The Maid Boy :3","steam_id":76561199247095754,"connected_time":2031000000000,"state":"active","ping":63},{"user_id":124,"name":"SATURN","steam_id":76561198116023052,"connected_time":662000000000,"state":"active","ping":83},{"user_id":156,"name":"AT✪MIC","steam_id":76561198100385184,"connected_time":272000000000,"state":"active","ping":79},{"user_id":102,"name":"The Grungler","steam_id":76561198126561438,"connected_time":1725000000000,"state":"active","ping":80},{"user_id":157,"name":"Sudsen","steam_id":76561198370603787,"connected_time":267000000000,"state":"active","ping":73},{"user_id":162,"name":"zinnk","steam_id":76561198092081825,"connected_time":79000000000,"state":"active","ping":59},{"user_id":158,"name":"vfa","steam_id":76561198055729118,"connected_time":262000000000,"state":"active","ping":61},{"user_id":159,"name":"gbGb","steam_id":76561198238155164,"connected_time":247000000000,"state":"active","ping":104},{"user_id":110,"name":"Fami","steam_id":76561198193580105,"connected_time":1175000000000,"state":"active","ping":83},{"user_id":160,"name":"Leonardo Decappaccino","steam_id":76561198829737019,"connected_time":240000000000,"state":"active","ping":49},{"user_id":147,"name":"trackball gaming","steam_id":76561198057371485,"connected_time":332000000000,"state":"active","ping":75}]},{"server_id":119,"name":"Uncletopia | Seattle | 2 | All Maps","name_short":"sea-2","host":"sea-1.us.uncletopia.com","port":27025,"enabled":true,"region":"us-west","cc":"us","latitude":47.608013,"longitude":-122.33517,"reserved":0,"last_update":"0001-01-01T00:00:00Z","name_a2s":"Uncletopia | Seattle | 2 | All Maps","protocol":17,"map":"koth_viaduct","folder":"tf","game":"Team Fortress","app_id":440,"player_count":0,"max_players":24,"Bots":0,"server_type":"Dedicated","server_os":"Linux","password":true,"vac":true,"version":"7961495","steam_id":85568392924469998,"keywords":["cp","nocrits","nodmgspread","uncletopia"],"game_id":440,"stv_port":27026,"stv_name":"Uncletopia | Seattle | 2 | All Maps | STV","players":null},{"server_id":406,"name":"Uncletopia | Seattle | 3 | Stopwatch","name_short":"sea-3","host":"sea-1.us.uncletopia.com","port":27035,"enabled":true,"region":"us-west","cc":"us","latitude":47.608013,"longitude":-122.33517,"reserved":0,"last_update":"0001-01-01T00:00:00Z","name_a2s":"Uncletopia | Seattle | 3 | Stopwatch","protocol":17,"map":"pl_upward","folder":"tf","game":"Team Fortress","app_id":440,"player_count":0,"max_players":24,"Bots":0,"server_type":"Dedicated","server_os":"Linux","password":true,"vac":true,"version":"7961495","steam_id":85568392924515217,"keywords":["nocrits","nodmgspread","payload","uncletopia"],"game_id":440,"stv_port":27036,"stv_name":"Uncletopia | Seattle | 3 | Stopwatch | STV","players":null},{"server_id":17,"name":"Uncletopia | San Francisco | 1 | All Maps","name_short":"sfo-1","host":"sfo-1.us.uncletopia.com","port":27015,"enabled":true,"region":"us-west","cc":"us","latitude":37.77397,"longitude":-122.4313,"reserved":0,"last_update":"0001-01-01T00:00:00Z","name_a2s":"Uncletopia | San Francisco | 1 | All Maps","protocol":17,"map":"ctf_turbine","folder":"tf","game":"Team Fortress","app_id":440,"player_count":24,"max_players":24,"Bots":0,"server_type":"Dedicated","server_os":"Linux","password":true,"vac":true,"version":"7961495","steam_id":85568392924469999,"keywords":["ctf","nocrits","nodmgspread","uncletopia"],"game_id":440,"stv_port":27016,"stv_name":"Uncletopia | San Francisco | 1 | All Maps | STV","players":[{"user_id":366,"name":"The Lovers?","steam_id":76561198066619792,"connected_time":945000000000,"state":"active","ping":70},{"user_id":377,"name":"A_b","steam_id":76561198149140645,"connected_time":302000000000,"state":"active","ping":119},{"user_id":356,"name":"Frank Accardi","steam_id":76561198017275707,"connected_time":1301000000000,"state":"active","ping":60},{"user_id":287,"name":"Marzbee115","steam_id":76561198095821025,"connected_time":5627000000000,"state":"active","ping":58},{"user_id":385,"name":"Drakeo","steam_id":76561198068214572,"connected_time":214000000000,"state":"active","ping":49},{"user_id":354,"name":"rhsiegetank","steam_id":76561198359829118,"connected_time":1388000000000,"state":"active","ping":42},{"user_id":335,"name":"SQbuilder","steam_id":76561198076473375,"connected_time":2904000000000,"state":"active","ping":46},{"user_id":367,"name":"Lucas","steam_id":76561198399704604,"connected_time":941000000000,"state":"active","ping":49},{"user_id":378,"name":"mcdonald's cashier","steam_id":76561198064631164,"connected_time":288000000000,"state":"active","ping":53},{"user_id":388,"name":"voip","steam_id":76561198251603164,"connected_time":91000000000,"state":"active","ping":58},{"user_id":314,"name":"=Silver=","steam_id":76561198292307127,"connected_time":4391000000000,"state":"active","ping":90},{"user_id":320,"name":"Trips","steam_id":76561198054581597,"connected_time":4157000000000,"state":"active","ping":47},{"user_id":340,"name":"Spicy Churro","steam_id":76561197992913147,"connected_time":2603000000000,"state":"active","ping":54},{"user_id":368,"name":"The Hoagie Hero","steam_id":76561198057569298,"connected_time":875000000000,"state":"active","ping":106},{"user_id":337,"name":"Mentally Ill Woman","steam_id":76561198072030567,"connected_time":2797000000000,"state":"active","ping":105},{"user_id":369,"name":"Captain Underbelly","steam_id":76561198811270935,"connected_time":832000000000,"state":"active","ping":81},{"user_id":382,"name":"MORE BOUNCE TO THE OUNCE","steam_id":76561198243399336,"connected_time":273000000000,"state":"active","ping":60},{"user_id":383,"name":"Ulysses","steam_id":76561199274171088,"connected_time":257000000000,"state":"active","ping":74},{"user_id":380,"name":"bansheerubber","steam_id":76561198042009362,"connected_time":282000000000,"state":"active","ping":70},{"user_id":384,"name":"Eden","steam_id":76561198081284664,"connected_time":236000000000,"state":"active","ping":60},{"user_id":389,"name":"TMTrainer","steam_id":76561198279609240,"connected_time":52000000000,"state":"active","ping":103},{"user_id":338,"name":"gasoline covered fawn","steam_id":76561198043684960,"connected_time":2785000000000,"state":"active","ping":98},{"user_id":362,"name":"Kid named download","steam_id":76561199192074448,"connected_time":1136000000000,"state":"active","ping":123},{"user_id":373,"name":"FROYO b4nny","steam_id":76561197970669109,"connected_time":354000000000,"state":"active","ping":55}]},{"server_id":18,"name":"Uncletopia | San Francisco | 2 | All Maps","name_short":"sfo-2","host":"sfo-1.us.uncletopia.com","port":27025,"enabled":true,"region":"us-west","cc":"us","latitude":37.77397,"longitude":-122.4313,"reserved":0,"last_update":"0001-01-01T00:00:00Z","name_a2s":"Uncletopia | San Francisco | 2 | All Maps","protocol":17,"map":"pl_borneo","folder":"tf","game":"Team Fortress","app_id":440,"player_count":0,"max_players":24,"Bots":0,"server_type":"Dedicated","server_os":"Linux","password":true,"vac":true,"version":"7961495","steam_id":85568392924470000,"keywords":["nocrits","nodmgspread","payload","uncletopia"],"game_id":440,"stv_port":27026,"stv_name":"Uncletopia | San Francisco | 2 | All Maps | STV","players":null},{"server_id":19,"name":"Uncletopia | San Francisco | 3 | Stopwatch","name_short":"sfo-3","host":"sfo-1.us.uncletopia.com","port":27035,"enabled":true,"region":"us-west","cc":"us","latitude":37.77397,"longitude":-122.4313,"reserved":0,"last_update":"0001-01-01T00:00:00Z","name_a2s":"Uncletopia | San Francisco | 3 | Stopwatch","protocol":17,"map":"workshop/koth_product_final.ugc454272353","folder":"tf","game":"Team Fortress","app_id":440,"player_count":0,"max_players":24,"Bots":0,"server_type":"Dedicated","server_os":"Linux","password":true,"vac":true,"version":"7961495","steam_id":85568392924742824,"keywords":["cp","nocrits","nodmgspread","uncletopia"],"game_id":440,"stv_port":27036,"stv_name":"Uncletopia | San Francisco | 3 | Stopwatch | STV","players":null},{"server_id":20,"name":"Uncletopia | San Francisco | 4 | Community","name_short":"sfo-4","host":"sfo-1.us.uncletopia.com","port":27045,"enabled":true,"region":"us-west","cc":"us","latitude":37.77397,"longitude":-122.4313,"reserved":0,"last_update":"0001-01-01T00:00:00Z","name_a2s":"Uncletopia | San Francisco | 4 | Community","protocol":17,"map":"workshop/cp_propaganda_b18.ugc1603743849","folder":"tf","game":"Team Fortress","app_id":440,"player_count":0,"max_players":24,"Bots":0,"server_type":"Dedicated","server_os":"Linux","password":true,"vac":true,"version":"7961495","steam_id":85568392924742826,"keywords":["cp","nocrits","nodmgspread","uncletopia"],"game_id":440,"stv_port":27046,"stv_name":"Uncletopia | San Francisco | 4 | Community | STV","players":null},{"server_id":141,"name":"Uncletopia | Sydney | 1 | All Maps","name_short":"syd-1","host":"syd-1.au.uncletopia.com","port":27015,"enabled":true,"region":"au","cc":"au","latitude":-33.865143,"longitude":151.2099,"reserved":0,"last_update":"0001-01-01T00:00:00Z","name_a2s":"Uncletopia | Sydney | 1 | All Maps","protocol":17,"map":"koth_nucleus","folder":"tf","game":"Team Fortress","app_id":440,"player_count":0,"max_players":24,"Bots":0,"server_type":"Dedicated","server_os":"Linux","password":true,"vac":true,"version":"7961495","steam_id":85568392924470001,"keywords":["cp","nocrits","nodmgspread","uncletopia"],"game_id":440,"stv_port":27016,"stv_name":"Uncletopia | Sydney | 1 | All Maps | STV","players":null},{"server_id":123,"name":"Uncletopia | Sydney | 2 | All Maps","name_short":"syd-2","host":"syd-1.au.uncletopia.com","port":27025,"enabled":true,"region":"au","cc":"au","latitude":-33.865143,"longitude":151.2099,"reserved":0,"last_update":"0001-01-01T00:00:00Z","name_a2s":"Uncletopia | Sydney | 2 | All Maps","protocol":17,"map":"cp_fastlane","folder":"tf","game":"Team Fortress","app_id":440,"player_count":0,"max_players":24,"Bots":0,"server_type":"Dedicated","server_os":"Linux","password":true,"vac":true,"version":"7961495","steam_id":85568392924470002,"keywords":["cp","nocrits","nodmgspread","uncletopia"],"game_id":440,"stv_port":27026,"stv_name":"Uncletopia | Sydney | 2 | All Maps | STV","players":null},{"server_id":395,"name":"Uncletopia | Sydney | 3 | All Maps","name_short":"syd-3","host":"syd-1.au.uncletopia.com","port":27035,"enabled":true,"region":"au","cc":"au","latitude":-33.865143,"longitude":151.2099,"reserved":0,"last_update":"0001-01-01T00:00:00Z","name_a2s":"Uncletopia | Sydney | 3 | All Maps","protocol":17,"map":"cp_metalworks","folder":"tf","game":"Team Fortress","app_id":440,"player_count":0,"max_players":24,"Bots":0,"server_type":"Dedicated","server_os":"Linux","password":true,"vac":true,"version":"7961495","steam_id":85568392925194467,"keywords":["cp","nocrits","nodmgspread","uncletopia"],"game_id":440,"stv_port":27036,"stv_name":"Uncletopia | Sydney | 3 | All Maps | STV","players":null},{"server_id":396,"name":"Uncletopia | Sydney | 4 | All Maps","name_short":"syd-4","host":"syd-1.au.uncletopia.com","port":27045,"enabled":true,"region":"au","cc":"au","latitude":-33.865143,"longitude":151.2099,"reserved":0,"last_update":"0001-01-01T00:00:00Z","name_a2s":"Uncletopia | Sydney | 4 | All Maps","protocol":17,"map":"koth_cascade","folder":"tf","game":"Team Fortress","app_id":440,"player_count":0,"max_players":24,"Bots":0,"server_type":"Dedicated","server_os":"Linux","password":true,"vac":true,"version":"7961495","steam_id":85568392925397958,"keywords":["cp","nocrits","nodmgspread","uncletopia"],"game_id":440,"stv_port":27046,"stv_name":"Uncletopia | Sydney | 4 | All Maps | STV","players":null},{"server_id":58,"name":"Uncletopia | Sydney | 5 | Stopwatch","name_short":"syd-5","host":"syd-1.au.uncletopia.com","port":27055,"enabled":true,"region":"au","cc":"au","latitude":-33.865143,"longitude":151.2099,"reserved":0,"last_update":"0001-01-01T00:00:00Z","name_a2s":"Uncletopia | Sydney | 5 | Stopwatch","protocol":17,"map":"workshop/koth_product_final.ugc454272353","folder":"tf","game":"Team Fortress","app_id":440,"player_count":0,"max_players":24,"Bots":0,"server_type":"Dedicated","server_os":"Linux","password":true,"vac":true,"version":"7961495","steam_id":85568392925397959,"keywords":["cp","nocrits","nodmgspread","uncletopia"],"game_id":440,"stv_port":27056,"stv_name":"Uncletopia | Sydney | 5 | Stopwatch | STV","players":null},{"server_id":59,"name":"Uncletopia | Sydney | 6 | Community","name_short":"syd-6","host":"syd-1.au.uncletopia.com","port":27065,"enabled":true,"region":"au","cc":"au","latitude":-33.865143,"longitude":151.2099,"reserved":0,"last_update":"0001-01-01T00:00:00Z","name_a2s":"Uncletopia | Sydney | 6 | Community","protocol":17,"map":"workshop/koth_trenchfoot_ab1.ugc731436616","folder":"tf","game":"Team Fortress","app_id":440,"player_count":0,"max_players":24,"Bots":0,"server_type":"Dedicated","server_os":"Linux","password":true,"vac":true,"version":"7961495","steam_id":85568392925397960,"keywords":["cp","nocrits","nodmgspread","uncletopia"],"game_id":440,"stv_port":27066,"stv_name":"Uncletopia | Sydney | 6 | Community | STV","players":null},{"server_id":49,"name":"Uncletopia | Warsaw | 1 | One Thousand Uncles","name_short":"waw-1","host":"waw-1.pl.uncletopia.com","port":27015,"enabled":true,"region":"eu","cc":"pl","latitude":52.2297,"longitude":21.017532,"reserved":0,"last_update":"0001-01-01T00:00:00Z","name_a2s":"Uncletopia | Warsaw | 1 | One Thousand Uncles","protocol":17,"map":"cp_mossrock","folder":"tf","game":"Team Fortress","app_id":440,"player_count":26,"max_players":32,"Bots":16,"server_type":"Dedicated","server_os":"Linux","password":true,"vac":true,"version":"7961495","steam_id":85568392925397850,"keywords":["alltalk","bots","cp","danepve","increased_maxplayers","norespawntime","uncletopia"],"game_id":440,"stv_port":0,"stv_name":"","players":[{"user_id":823,"name":"Pengu","steam_id":76561198349910683,"connected_time":350000000000,"state":"active","ping":86},{"user_id":808,"name":"Xi Bingchilling","steam_id":76561198154310301,"connected_time":2330000000000,"state":"active","ping":49},{"user_id":810,"name":"Turb0FistingMinetaF3l4ti0","steam_id":76561199044887226,"connected_time":1530000000000,"state":"active","ping":31},{"user_id":811,"name":"4lex_Teloh","steam_id":76561199033714224,"connected_time":1421000000000,"state":"active","ping":42},{"user_id":812,"name":"dank pank","steam_id":76561198995052713,"connected_time":1404000000000,"state":"active","ping":45},{"user_id":779,"name":"durzymurzyn","steam_id":76561199084680369,"connected_time":3963000000000,"state":"active","ping":40},{"user_id":785,"name":"Valoxi","steam_id":76561197995042938,"connected_time":3352000000000,"state":"active","ping":74},{"user_id":840,"name":"The Rolling Stonks","steam_id":76561199003702732,"connected_time":312000000000,"state":"active","ping":94},{"user_id":724,"name":"[HK]我係香港人","steam_id":76561198165376815,"connected_time":6302000000000,"state":"active","ping":77},{"user_id":777,"name":"Rayco","steam_id":76561198048013129,"connected_time":4225000000000,"state":"active","ping":64}]},{"server_id":50,"name":"Uncletopia | Warsaw | 2 | One Thousand Uncles","name_short":"waw-2","host":"waw-1.pl.uncletopia.com","port":27025,"enabled":true,"region":"eu","cc":"pl","latitude":52.2297,"longitude":21.017532,"reserved":0,"last_update":"0001-01-01T00:00:00Z","name_a2s":"Uncletopia | Warsaw | 2 | One Thousand Uncles","protocol":17,"map":"pl_goldrush","folder":"tf","game":"Team Fortress","app_id":440,"player_count":0,"max_players":32,"Bots":0,"server_type":"Dedicated","server_os":"Linux","password":true,"vac":true,"version":"7961495","steam_id":85568392925397851,"keywords":["alltalk","danepve","increased_maxplayers","norespawntime","payload","uncletopia"],"game_id":440,"stv_port":0,"stv_name":"","players":null},{"server_id":51,"name":"Uncletopia | Warsaw | 3 | All Maps","name_short":"waw-3","host":"waw-1.pl.uncletopia.com","port":27035,"enabled":true,"region":"eu","cc":"pl","latitude":52.2297,"longitude":21.017532,"reserved":0,"last_update":"0001-01-01T00:00:00Z","name_a2s":"Uncletopia | Warsaw | 3 | All Maps","protocol":17,"map":"koth_viaduct","folder":"tf","game":"Team Fortress","app_id":440,"player_count":0,"max_players":24,"Bots":0,"server_type":"Dedicated","server_os":"Linux","password":true,"vac":true,"version":"7961495","steam_id":85568392925397852,"keywords":["cp","nocrits","nodmgspread","uncletopia"],"game_id":440,"stv_port":27036,"stv_name":"Uncletopia | Warsaw | 3 | All Maps | STV","players":null},{"server_id":52,"name":"Uncletopia | Warsaw | 4 | All Maps","name_short":"waw-4","host":"waw-1.pl.uncletopia.com","port":27045,"enabled":true,"region":"eu","cc":"pl","latitude":52.2297,"longitude":21.017532,"reserved":0,"last_update":"0001-01-01T00:00:00Z","name_a2s":"Uncletopia | Warsaw | 4 | All Maps","protocol":17,"map":"cp_sunshine","folder":"tf","game":"Team Fortress","app_id":440,"player_count":0,"max_players":24,"Bots":0,"server_type":"Dedicated","server_os":"Linux","password":true,"vac":true,"version":"7961495","steam_id":85568392925397853,"keywords":["cp","nocrits","nodmgspread","uncletopia"],"game_id":440,"stv_port":27046,"stv_name":"Uncletopia | Warsaw | 4 | All Maps | STV","players":null},{"server_id":53,"name":"Uncletopia | Warsaw | 5 | Stopwatch","name_short":"waw-5","host":"waw-1.pl.uncletopia.com","port":27055,"enabled":true,"region":"eu","cc":"pl","latitude":52.2297,"longitude":21.017532,"reserved":0,"last_update":"0001-01-01T00:00:00Z","name_a2s":"Uncletopia | Warsaw | 5 | Stopwatch","protocol":17,"map":"workshop/koth_bagel_rc6.ugc2514036946","folder":"tf","game":"Team Fortress","app_id":440,"player_count":0,"max_players":24,"Bots":0,"server_type":"Dedicated","server_os":"Linux","password":true,"vac":true,"version":"7961495","steam_id":85568392925397854,"keywords":["cp","nocrits","nodmgspread","uncletopia"],"game_id":440,"stv_port":27056,"stv_name":"Uncletopia | Warsaw | 5 | Stopwatch | STV","players":null},{"server_id":54,"name":"Uncletopia | Warsaw | 6 | Community","name_short":"waw-6","host":"waw-1.pl.uncletopia.com","port":27065,"enabled":true,"region":"eu","cc":"pl","latitude":52.2297,"longitude":21.017532,"reserved":0,"last_update":"0001-01-01T00:00:00Z","name_a2s":"Uncletopia | Warsaw | 6 | Community","protocol":17,"map":"workshop/rd_asteroid_redux_b1.ugc2154902912","folder":"tf","game":"Team Fortress","app_id":440,"player_count":0,"max_players":24,"Bots":0,"server_type":"Dedicated","server_os":"Linux","password":true,"vac":true,"version":"7961495","steam_id":85568392925397856,"keywords":["beta","nocrits","nodmgspread","rd","uncletopia"],"game_id":440,"stv_port":27066,"stv_name":"Uncletopia | Warsaw | 6 | Community | STV","players":null}]}