{"status":true,"message":"","result":[{"server_id":9,"name":"Uncletopia | Atlanta | 1 | All Maps","name_short":"atl-1","host":"atl-1.us.uncletopia.com","port":27015,"enabled":true,"region":"us-east","cc":"us","latitude":33.753746,"longitude":-84.38633,"reserved":0,"last_update":"0001-01-01T00:00:00Z","name_a2s":"Uncletopia | Atlanta | 1 | All Maps","protocol":17,"map":"pl_upward","folder":"tf","game":"Team Fortress","app_id":440,"player_count":0,"max_players":24,"Bots":0,"server_type":"Dedicated","server_os":"Linux","password":true,"vac":true,"version":"7932396","steam_id":85568392924469982,"keywords":["nocrits","nodmgspread","payload","uncletopia"],"game_id":440,"stv_port":27016,"stv_name":"Uncletopia | Atlanta | 1 | All Maps | STV","players":null},{"server_id":104,"name":"Uncletopia | Atlanta | 2 | All Maps","name_short":"atl-2","host":"atl-1.us.uncletopia.com","port":27025,"enabled":true,"region":"us-east","cc":"us","latitude":33.753746,"longitude":-84.38633,"reserved":0,"last_update":"0001-01-01T00:00:00Z","name_a2s":"Uncletopia | Atlanta | 2 | All Maps","protocol":17,"map":"cp_process_final","folder":"tf","game":"Team Fortress","app_id":440,"player_count":0,"max_players":24,"Bots":0,"server_type":"Dedicated","server_os":"Linux","password":true,"vac":true,"version":"7932396","steam_id":85568392924469983,"keywords":["cp","nocrits","nodmgspread","uncletopia"],"game_id":440,"stv_port":27026,"stv_name":"Uncletopia | Atlanta | 2 | All Maps | STV","players":null},{"server_id":400,"name":"Uncletopia | Atlanta | 3 | Community","name_short":"atl-3","host":"atl-1.us.uncletopia.com","port":27035,"enabled":true,"region":"us-east","cc":"us","latitude":33.753746,"longitude":-84.38633,"reserved":0,"last_update":"0001-01-01T00:00:00Z","name_a2s":"Uncletopia | Atlanta | 3 | Community","protocol":17,"map":"pl_borneo","folder":"tf","game":"Team Fortress","app_id":440,"player_count":0,"max_players":24,"Bots":0,"server_type":"Dedicated","server_os":"Linux","password":true,"vac":true,"version":"7932396","steam_id":85568392924515187,"keywords":["nocrits","nodmgspread","payload","uncletopia"],"game_id":440,"stv_port":27036,"stv_name":"Uncletopia | Atlanta | 3 | Community | STV","players":null},{"server_id":401,"name":"Uncletopia | Atlanta | 4 | No Payload","name_short":"atl-4","host":"atl-1.us.uncletopia.com","port":27045,"enabled":true,"region":"us-east","cc":"us","latitude":33.753746,"longitude":-84.38633,"reserved":0,"last_update":"0001-01-01T00:00:00Z","name_a2s":"","protocol":0,"map":"","folder":"","game":"","app_id":0,"player_count":0,"max_players":0,"Bots":0,"server_type":"","server_os":"","password":false,"vac":false,"version":"","steam_id":0,"keywords":null,"game_id":0,"stv_port":0,"stv_name":"","players":null},{"server_id":2,"name":"Uncletopia | Chicago | 1 | All Maps","name_short":"chi-1","host":"chi-1.us.uncletopia.com","port":27015,"enabled":true,"region":"us-central","cc":"us","latitude":41.881832,"longitude":-87.62318,"reserved":0,"last_update":"0001-01-01T00:00:00Z","name_a2s":"Uncletopia | Chicago | 1 | All Maps","protocol":17,"map":"pl_swiftwater_final1","folder":"tf","game":"Team Fortress","app_id":440,"player_count":24,"max_players":24,"Bots":0,"server_type":"Dedicated","server_os":"Linux","password":true,"vac":true,"version":"7932396","steam_id":85568392924469984,"keywords":["nocrits","nodmgspread","payload","uncletopia"],"game_id":440,"stv_port":27016,"stv_name":"Uncletopia | Chicago | 1 | All Maps | STV","players":[{"user_id":258,"name":"Nothing","steam_id":76561198094903045,"connected_time":3746000000000,"state":"active","ping":59},{"user_id":239,"name":"Oddball","steam_id":76561198040440984,"connected_time":4580000000000,"state":"active","ping":75},{"user_id":264,"name":"sometimes","steam_id":76561198999843667,"connected_time":2961000000000,"state":"active","ping":83},{"user_id":288,"name":"·µò‚Åø·∂†·µí ≥·µó·µò‚Åø·µÉ·µó\ufffd\ufffd","steam_id":76561198929646112,"connected_time":585000000000,"state":"active","ping":73},{"user_id":274,"name":"Ground Beef Popsicle","steam_id":76561198045499333,"connected_time":1806000000000,"state":"active","ping":59},{"user_id":283,"name":"wawa enthusiast","steam_id":76561198087645638,"connected_time":893000000000,"state":"active","ping":58},{"user_id":285,"name":"DinoGoof","steam_id":76561198998427283,"connected_time":750000000000,"state":"active","ping":68},{"user_id":281,"name":"Mixomin","steam_id":76561198295061570,"connected_time":1140000000000,"state":"active","ping":47},{"user_id":279,"name":"LeadHickory","steam_id":76561198219756521,"connected_time":1213000000000,"state":"active","ping":85},{"user_id":290,"name":"Lost","steam_id":76561198093713427,"connected_time":229000000000,"state":"active","ping":75},{"user_id":256,"name":"Zelith","steam_id":76561198234980480,"connected_time":3820000000000,"state":"active","ping":45},{"user_id":262,"name":"Eins","steam_id":76561199030343810,"connected_time":2984000000000,"state":"active","ping":62},{"user_id":286,"name":"Zanartan","steam_id":76561198050528902,"connected_time":601000000000,"state":"active","ping":186},{"user_id":263,"name":"Nefy","steam_id":76561198030017316,"connected_time":2971000000000,"state":"active","ping":87},{"user_id":282,"name":"viego","steam_id":76561198273568117,"connected_time":1008000000000,"state":"active","ping":65},{"user_id":251,"name":"jon.cinnamon","steam_id":76561198127316418,"connected_time":3924000000000,"state":"active","ping":69},{"user_id":227,"name":"·ìÄ‚Ä∏·ìÇ","steam_id":76561198046055673,"connected_time":5260000000000,"state":"active","ping":75},{"user_id":254,"name":"Drachma","steam_id":76561198007310514,"connected_time":3846000000000,"state":"active","ping":58},{"user_id":292,"name":"Monochrome | Cashmoney","steam_id":76561198377320040,"connected_time":9000000000,"state":"spawning","ping":88},{"user_id":289,"name":"FUNKY TOWN SLAYER","steam_id":76561198119489292,"connected_time":503000000000,"state":"active","ping":78},{"user_id":291,"name":"Mehman big/balls","steam_id":76561199020244051,"connected_time":90000000000,"state":"active","ping":123},{"user_id":169,"name":"dabagloop...","steam_id":76561198236166288,"connected_time":7958000000000,"state":"active","ping":67},{"user_id":252,"name":"Retrowave","steam_id":76561198061921346,"connected_time":3923000000000,"state":"active","ping":75},{"user_id":277,"name":"Wagemage","steam_id":76561198013625580,"connected_time":1246000000000,"state":"active","ping":63}]},{"server_id":106,"name":"Uncletopia | Chicago | 2 | All Maps","name_short":"chi-2","host":"chi-1.us.uncletopia.com","port":27025,"enabled":true,"region":"us-central","cc":"us","latitude":41.881832,"longitude":-87.62318,"reserved":0,"last_update":"0001-01-01T00:00:00Z","name_a2s":"Uncletopia | Chicago | 2 | All Maps","protocol":17,"map":"pl_borneo","folder":"tf","game":"Team Fortress","app_id":440,"player_count":24,"max_players":24,"Bots":0,"server_type":"Dedicated","server_os":"Linux","password":true,"vac":true,"version":"7932396","steam_id":85568392924469985,"keywords":["nocrits","nodmgspread","payload","uncletopia"],"game_id":440,"stv_port":27026,"stv_name":"Uncletopia | Chicago | 2 | All Maps | STV","players":[{"user_id":130,"name":"Bali","steam_id":76561198038693845,"connected_time":836000000000,"state":"active","ping":87},{"user_id":138,"name":"Elias","steam_id":76561198106431732,"connected_time":203000000000,"state":"active","ping":55},{"user_id":134,"name":"Marvelous","steam_id":76561199083888017,"connected_time":747000000000,"state":"active","ping":121},{"user_id":131,"name":"i  a m w ith  skill  isse","steam_id":76561198270931673,"connected_time":813000000000,"state":"active","ping":57},{"user_id":136,"name":"Huntpk","steam_id":76561198340591674,"connected_time":603000000000,"state":"active","ping":39},{"user_id":111,"name":"A Rhino with Coronavirus","steam_id":76561197999451366,"connected_time":1473000000000,"state":"active","ping":83},{"user_id":132,"name":"floppy muppet","steam_id":76561198003076261,"connected_time":793000000000,"state":"active","ping":84},{"user_id":133,"name":"Scoter1009","steam_id":76561198315464837,"connected_time":782000000000,"state":"active","ping":71},{"user_id":97,"name":"Bulk","steam_id":76561199009814535,"connected_time":2653000000000,"state":"active","ping":60},{"user_id":108,"name":"Loggybears","steam_id":76561198366828434,"connected_time":1790000000000,"state":"active","ping":102},{"user_id":137,"name":"The rat","steam_id":76561198050432341,"connected_time":225000000000,"state":"active","ping":131},{"user_id":70,"name":"blobb","steam_id":76561198950448488,"connected_time":4712000000000,"state":"active","ping":48},{"user_id":107,"name":"IAmAProfesonal","steam_id":76561199171858953,"connected_time":1870000000000,"state":"active","ping":51},{"user_id":135,"name":"capeeKo","steam_id":76561197970346623,"connected_time":683000000000,"state":"active","ping":80},{"user_id":84,"name":"uzi murder drones (real)","steam_id":76561198156799627,"connected_time":3490000000000,"state":"active","ping":65},{"user_id":115,"name":"Skendiesel","steam_id":76561198015497676,"connected_time":1184000000000,"state":"active","ping":50},{"user_id":116,"name":"Nathan","steam_id":76561199132214008,"connected_time":1179000000000,"state":"active","ping":103},{"user_id":79,"name":"czarchasm","steam_id":76561198055712749,"connected_time":3984000000000,"state":"active","ping":77},{"user_id":102,"name":"Heck Engine","steam_id":76561198055759310,"connected_time":2572000000000,"state":"active","ping":82},{"user_id":74,"name":"chiswola","steam_id":76561198046920142,"connected_time":4418000000000,"state":"active","ping":78},{"user_id":65,"name":"i can't aim","steam_id":76561198204995668,"connected_time":4859000000000,"state":"active","ping":83},{"user_id":66,"name":"6t26j","steam_id":76561198278282836,"connected_time":4799000000000,"state":"active","ping":57},{"user_id":85,"name":"wearing my sunday pants","steam_id":76561198834106533,"connected_time":3364000000000,"state":"active","ping":81},{"user_id":117,"name":"soup time","steam_id":76561197961488590,"connected_time":1178000000000,"state":"active","ping":61}]},{"server_id":402,"name":"Uncletopia | Chicago | 3 | All Maps","name_short":"chi-3","host":"chi-1.us.uncletopia.com","port":27035,"enabled":true,"region":"us-central","cc":"us","latitude":41.881832,"longitude":-87.62318,"reserved":0,"last_update":"0001-01-01T00:00:00Z","name_a2s":"Uncletopia | Chicago | 3 | All Maps","protocol":17,"map":"pl_badwater","folder":"tf","game":"Team Fortress","app_id":440,"player_count":24,"max_players":24,"Bots":0,"server_type":"Dedicated","server_os":"Linux","password":true,"vac":true,"version":"7932396","steam_id":85568392924515191,"keywords":["nocrits","nodmgspread","payload","uncletopia"],"game_id":440,"stv_port":27036,"stv_name":"Uncletopia | Chicago | 3 | All Maps | STV","players":[{"user_id":75,"name":"Toripollo","steam_id":76561198251665862,"connected_time":174000000000,"state":"active","ping":97},{"user_id":70,"name":"Admiral Catradora","steam_id":76561198017271944,"connected_time":574000000000,"state":"active","ping":73},{"user_id":60,"name":"The Entire Population of Canada","steam_id":76561198090187112,"connected_time":1388000000000,"state":"active","ping":73},{"user_id":10,"name":"BugsAreMyWorstEnemy","steam_id":76561199440395505,"connected_time":4582000000000,"state":"active","ping":68},{"user_id":23,"name":"Bandit","steam_id":76561198285889962,"connected_time":3161000000000,"state":"active","ping":72},{"user_id":76,"name":":3 beelthazus","steam_id":76561198127783432,"connected_time":71000000000,"state":"active","ping":75},{"user_id":51,"name":"anonion","steam_id":76561198056477584,"connected_time":2220000000000,"state":"active","ping":87},{"user_id":21,"name":"gideon nav my beloved","steam_id":76561198259092181,"connected_time":3344000000000,"state":"active","ping":64},{"user_id":65,"name":"Epifiny","steam_id":76561198027958086,"connected_time":1104000000000,"state":"active","ping":72},{"user_id":62,"name":"Sharky Smooth","steam_id":76561198094759458,"connected_time":1348000000000,"state":"active","ping":58},{"user_id":33,"name":"onions","steam_id":76561198201259645,"connected_time":2835000000000,"state":"active","ping":69},{"user_id":74,"name":"Mug Moment Gaming","steam_id":76561198233098136,"connected_time":192000000000,"state":"active","ping":73},{"user_id":36,"name":"saturn","steam_id":76561198348918232,"connected_time":2775000000000,"state":"active","ping":58},{"user_id":66,"name":"Mr Nep Nep","steam_id":76561198198179821,"connected_time":1047000000000,"state":"active","ping":105},{"user_id":38,"name":"Dewgong (real)","steam_id":76561198045999391,"connected_time":2604000000000,"state":"active","ping":74},{"user_id":69,"name":"captain red","steam_id":76561198191587983,"connected_time":917000000000,"state":"active","ping":87},{"user_id":40,"name":"TwoBit","steam_id":76561198062437559,"connected_time":2515000000000,"state":"active","ping":75},{"user_id":63,"name":"Alecto","steam_id":76561198042476864,"connected_time":1347000000000,"state":"active","ping":45},{"user_id":67,"name":"Ace Chromatica","steam_id":76561198042211131,"connected_time":976000000000,"state":"active","ping":60},{"user_id":71,"name":"Beefalo are friends not food","steam_id":76561198083345384,"connected_time":570000000000,"state":"active","ping":94},{"user_id":57,"name":"JetZ","steam_id":76561199122488957,"connected_time":1755000000000,"state":"active","ping":69},{"user_id":46,"name":"pigfarmer.gov","steam_id":76561199071167548,"connected_time":2471000000000,"state":"active","ping":65},{"user_id":47,"name":"Seico Bass","steam_id":76561198123498500,"connected_time":2469000000000,"state":"active","ping":87},{"user_id":73,"name":"Bellator","steam_id":76561198064103979,"connected_time":360000000000,"state":"active","ping":94}]},{"server_id":403,"name":"Uncletopia | Chicago | 4 | All Maps","name_short":"chi-4","host":"chi-1.us.uncletopia.com","port":27045,"enabled":true,"region":"us-central","cc":"us","latitude":41.881832,"longitude":-87.62318,"reserved":0,"last_update":"0001-01-01T00:00:00Z","name_a2s":"Uncletopia | Chicago | 4 | All Maps","protocol":17,"map":"cp_process_final","folder":"tf","game":"Team Fortress","app_id":440,"player_count":0,"max_players":24,"Bots":0,"server_type":"Dedicated","server_os":"Linux","password":true,"vac":true,"version":"7932396","steam_id":85568392924515193,"keywords":["cp","nocrits","nodmgspread","uncletopia"],"game_id":440,"stv_port":27046,"stv_name":"Uncletopia | Chicago | 4 | All Maps | STV","players":null},{"server_id":36,"name":"Uncletopia | Chicago | 5 | All Maps","name_short":"chi-5","host":"chi-2.us.uncletopia.com","port":27015,"enabled":true,"region":"us-central","cc":"us","latitude":41.881832,"longitude":-87.62318,"reserved":0,"last_update":"0001-01-01T00:00:00Z","name_a2s":"Uncletopia | Chicago | 5 | All Maps","protocol":17,"map":"pl_upward","folder":"tf","game":"Team Fortress","app_id":440,"player_count":11,"max_players":24,"Bots":0,"server_type":"Dedicated","server_os":"Linux","password":true,"vac":true,"version":"7932396","steam_id":85568392924866362,"keywords":["nocrits","nodmgspread","payload","uncletopia"],"game_id":440,"stv_port":27016,"stv_name":"Uncletopia | Chicago | 5 | All Maps | STV","players":[{"user_id":3,"name":"cpg","steam_id":76561198853515541,"connected_time":2299000000000,"state":"active","ping":82},{"user_id":4,"name":"emeraldrhymes","steam_id":76561198842486176,"connected_time":1265000000000,"state":"active","ping":77},{"user_id":5,"name":"Rin \"Hindwing\" Redtail","steam_id":76561199074865638,"connected_time":1039000000000,"state":"active","ping":64},{"user_id":6,"name":"doamgeo468","steam_id":76561199485287045,"connected_time":708000000000,"state":"active","ping":80},{"user_id":9,"name":"Niakit","steam_id":76561198380816970,"connected_time":417000000000,"state":"active","ping":80},{"user_id":8,"name":"Gamering_funy","steam_id":76561199006503777,"connected_time":646000000000,"state":"active","ping":46},{"user_id":13,"name":"melchere","steam_id":76561199260446356,"connected_time":81000000000,"state":"active","ping":151},{"user_id":11,"name":"whats an egg","steam_id":76561198991039398,"connected_time":292000000000,"state":"active","ping":65},{"user_id":12,"name":"imng","steam_id":76561198014988031,"connected_time":290000000000,"state":"active","ping":72},{"user_id":15,"name":"2E.P.Y.C","steam_id":76561198882133530,"connected_time":9000000000,"state":"spawning","ping":69},{"user_id":16,"name":"Dakota Sutcliffe","steam_id":76561198170660959,"connected_time":9000000000,"state":"active","ping":91}]},{"server_id":37,"name":"Uncletopia | Chicago | 6 | All Maps","name_short":"chi-6","host":"chi-2.us.uncletopia.com","port":27025,"enabled":true,"region":"us-central","cc":"us","latitude":41.881832,"longitude":-87.62318,"reserved":0,"last_update":"0001-01-01T00:00:00Z","name_a2s":"Uncletopia | Chicago | 6 | All Maps","protocol":17,"map":"koth_viaduct","folder":"tf","game":"Team Fortress","app_id":440,"player_count":0,"max_players":24,"Bots":0,"server_type":"Dedicated","server_os":"Linux","password":true,"vac":true,"version":"7932396","steam_id":85568392924866363,"keywords":["cp","nocrits","nodmgspread","uncletopia"],"game_id":440,"stv_port":27026,"stv_name":"Uncletopia | Chicago | 6 | All Maps | STV","players":null},{"server_id":38,"name":"Uncletopia | Chicago | 7 | Stopwatch Beta","name_short":"chi-7","host":"chi-2.us.uncletopia.com","port":27035,"enabled":true,"region":"us-central","cc":"us","latitude":41.881832,"longitude":-87.62318,"reserved":0,"last_update":"0001-01-01T00:00:00Z","name_a2s":"Uncletopia | Chicago | 7 | Stopwatch Beta","protocol":17,"map":"pl_borneo","folder":"tf","game":"Team Fortress","app_id":440,"player_count":0,"max_players":24,"Bots":0,"server_type":"Dedicated","server_os":"Linux","password":true,"vac":true,"version":"7932396","steam_id":85568392924866364,"keywords":["nocrits","nodmgspread","payload","uncletopia"],"game_id":440,"stv_port":27036,"stv_name":"Uncletopia | Chicago | 7 | Stopwatch Beta | STV","players":null},{"server_id":39,"name":"Uncletopia | Chicago | 8 | Community","name_short":"chi-8","host":"chi-2.us.uncletopia.com","port":27045,"enabled":true,"region":"us-central","cc":"us","latitude":41.881832,"longitude":-87.62318,"reserved":0,"last_update":"0001-01-01T00:00:00Z","name_a2s":"Uncletopia | Chicago | 8 | Community","protocol":17,"map":"koth_viaduct","folder":"tf","game":"Team Fortress","app_id":440,"player_count":0,"max_players":24,"Bots":0,"server_type":"Dedicated","server_os":"Linux","password":true,"vac":true,"version":"7932396","steam_id":85568392924866365,"keywords":["cp","nocrits","nodmgspread","uncletopia"],"game_id":440,"stv_port":27046,"stv_name":"Uncletopia | Chicago | 8 | Community | STV","players":null},{"server_id":8,"name":"Uncletopia | Dallas | 1 | All Maps","name_short":"dal-1","host":"dal-1.us.uncletopia.com","port":27015,"enabled":true,"region":"us-central","cc":"us","latitude":32.779167,"longitude":-96.80889,"reserved":0,"last_update":"0001-01-01T00:00:00Z","name_a2s":"Uncletopia | Dallas | 1 | All Maps","protocol":17,"map":"cp_mountainlab","folder":"tf","game":"Team Fortress","app_id":440,"player_count":24,"max_players":24,"Bots":0,"server_type":"Dedicated","server_os":"Linux","password":true,"vac":true,"version":"7932396","steam_id":85568392924469986,"keywords":["cp","nocrits","nodmgspread","uncletopia"],"game_id":440,"stv_port":27016,"stv_name":"Uncletopia | Dallas | 1 | All Maps | STV","players":[{"user_id":83,"name":"Cliffigriff","steam_id":76561198121924499,"connected_time":1843000000000,"state":"active","ping":54},{"user_id":113,"name":"Dr_Riddler","steam_id":76561198139493285,"connected_time":17000000000,"state":"spawning","ping":75},{"user_id":69,"name":"Bogey","steam_id":76561198096227944,"connected_time":2674000000000,"state":"active","ping":45},{"user_id":114,"name":"Cold shoulder","steam_id":76561198453824178,"connected_time":15000000000,"state":"active","ping":135},{"user_id":34,"name":"Fletcher","steam_id":76561198317846538,"connected_time":5849000000000,"state":"active","ping":76},{"user_id":101,"name":"mkl","steam_id":76561197986401685,"connected_time":278000000000,"state":"active","ping":57},{"user_id":14,"name":"Plague Doctor Moose","steam_id":76561199027129554,"connected_time":6661000000000,"state":"active","ping":94},{"user_id":102,"name":"jester wired","steam_id":76561199001918194,"connected_time":269000000000,"state":"active","ping":97},{"user_id":115,"name":"SmokeyGalaxy","steam_id":76561198118780516,"connected_time":13000000000,"state":"spawning","ping":89},{"user_id":110,"name":"‚ù§To Lazy‚ù§","steam_id":76561198164211904,"connected_time":91000000000,"state":"active","ping":82},{"user_id":105,"name":"Acolyte Of Pain","steam_id":76561198143094194,"connected_time":197000000000,"state":"active","ping":85},{"user_id":109,"name":"Big Honk","steam_id":76561198268755194,"connected_time":133000000000,"state":"active","ping":75},{"user_id":92,"name":"Deltaco","steam_id":76561198094572694,"connected_time":808000000000,"state":"active","ping":127},{"user_id":58,"name":"PlugFromBehind","steam_id":76561198143283800,"connected_time":3456000000000,"state":"active","ping":58},{"user_id":82,"name":"Gad","steam_id":76561198020792373,"connected_time":1868000000000,"state":"active","ping":60},{"user_id":84,"name":"john","steam_id":76561199277725603,"connected_time":1794000000000,"state":"active","ping":109},{"user_id":97,"name":"Per My Last Email","steam_id":76561197970096950,"connected_time":591000000000,"state":"active","ping":44},{"user_id":94,"name":"Neophyte","steam_id":76561198027183394,"connected_time":715000000000,"state":"active","ping":85},{"user_id":107,"name":"turntechGodhead","steam_id":76561198113793427,"connected_time":178000000000,"state":"active","ping":98},{"user_id":49,"name":"you like buff tf2 men don't you","steam_id":76561198837586838,"connected_time":4544000000000,"state":"active","ping":184},{"user_id":108,"name":"Tr3e Man300","steam_id":76561198967411064,"connected_time":177000000000,"state":"active","ping":87},{"user_id":100,"name":"Sigiferd","steam_id":76561198148788110,"connected_time":281000000000,"state":"active","ping":134},{"user_id":112,"name":"npc energy","steam_id":76561198035342207,"connected_time":37000000000,"state":"active","ping":51},{"user_id":61,"name":"pelt","steam_id":76561197993593754,"connected_time":3022000000000,"state":"active","ping":67}]},{"server_id":108,"name":"Uncletopia | Dallas | 2 | All Maps","name_short":"dal-2","host":"dal-1.us.uncletopia.com","port":27025,"enabled":true,"region":"us-central","cc":"us","latitude":32.779167,"longitude":-96.80889,"reserved":0,"last_update":"0001-01-01T00:00:00Z","name_a2s":"Uncletopia | Dallas | 2 | All Maps","protocol":17,"map":"pl_frontier_final","folder":"tf","game":"Team Fortress","app_id":440,"player_count":2,"max_players":24,"Bots":0,"server_type":"Dedicated","server_os":"Linux","password":true,"vac":true,"version":"7932396","steam_id":85568392924469988,"keywords":["nocrits","nodmgspread","payload","uncletopia"],"game_id":440,"stv_port":27026,"stv_name":"Uncletopia | Dallas | 2 | All Maps | STV","players":[{"user_id":13,"name":"Where is my sandvich?","steam_id":76561198909056458,"connected_time":522000000000,"state":"active","ping":117},{"user_id":15,"name":"Mailman","steam_id":76561198090675970,"connected_time":56000000000,"state":"active","ping":60}]},{"server_id":5,"name":"Uncletopia | Frankfurt | 1 | All Maps","name_short":"frk-1","host":"frk-1.de.uncletopia.com","port":27015,"enabled":true,"region":"eu","cc":"de","latitude":50.110924,"longitude":8.682127,"reserved":0,"last_update":"0001-01-01T00:00:00Z","name_a2s":"Uncletopia | Frankfurt | 1 | All Maps","protocol":17,"map":"koth_highpass","folder":"tf","game":"Team Fortress","app_id":440,"player_count":0,"max_players":24,"Bots":0,"server_type":"Dedicated","server_os":"Linux","password":true,"vac":true,"version":"7932396","steam_id":85568392924469989,"keywords":["cp","nocrits","nodmgspread","uncletopia"],"game_id":440,"stv_port":27016,"stv_name":"Uncletopia | Frankfurt | 1 | All Maps | STV","players":null},{"server_id":110,"name":"Uncletopia | Frankfurt | 2 | All Maps","name_short":"frk-2","host":"frk-1.de.uncletopia.com","port":27025,"enabled":true,"region":"eu","cc":"de","latitude":50.110924,"longitude":8.682127,"reserved":0,"last_update":"0001-01-01T00:00:00Z","name_a2s":"Uncletopia | Frankfurt | 2 | All Maps","protocol":17,"map":"cp_altitude","folder":"tf","game":"Team Fortress","app_id":440,"player_count":0,"max_players":24,"Bots":0,"server_type":"Dedicated","server_os":"Linux","password":true,"vac":true,"version":"7932396","steam_id":85568392924469990,"keywords":["cp","nocrits","nodmgspread","uncletopia"],"game_id":440,"stv_port":27026,"stv_name":"Uncletopia | Frankfurt | 2 | All Maps | STV","players":null},{"server_id":308,"name":"Uncletopia | Frankfurt | 3 | All Maps","name_short":"frk-3","host":"frk-1.de.uncletopia.com","port":27035,"enabled":true,"region":"eu","cc":"de","latitude":50.110924,"longitude":8.682127,"reserved":0,"last_update":"0001-01-01T00:00:00Z","name_a2s":"Uncletopia | Frankfurt | 3 | All Maps","protocol":17,"map":"pl_upward","folder":"tf","game":"Team Fortress","app_id":440,"player_count":24,"max_players":24,"Bots":0,"server_type":"Dedicated","server_os":"Linux","password":true,"vac":true,"version":"7932396","steam_id":85568392924504274,"keywords":["nocrits","nodmgspread","payload","uncletopia"],"game_id":440,"stv_port":27036,"stv_name":"Uncletopia | Frankfurt | 3 | All Maps | STV","players":[{"user_id":411,"name":"failsniper","steam_id":76561197980736364,"connected_time":3159000000000,"state":"active","ping":75},{"user_id":438,"name":"iakozachek","steam_id":76561198421867219,"connected_time":1227000000000,"state":"active","ping":124},{"user_id":453,"name":"Veir≈´ Viseris","steam_id":76561197989857176,"connected_time":314000000000,"state":"active","ping":74},{"user_id":450,"name":"garry","steam_id":76561198019078145,"connected_time":530000000000,"state":"active","ping":74},{"user_id":443,"name":"Tame Bean","steam_id":76561199196774664,"connected_time":822000000000,"state":"active","ping":99},{"user_id":435,"name":"tired","steam_id":76561198046838168,"connected_time":1723000000000,"state":"active","ping":45},{"user_id":433,"name":"alice","steam_id":76561198269200388,"connected_time":1829000000000,"state":"active","ping":74},{"user_id":448,"name":"Combat Wombat","steam_id":76561197994720068,"connected_time":588000000000,"state":"active","ping":77},{"user_id":454,"name":"Porridge Moisturizer","steam_id":76561198336523288,"connected_time":286000000000,"state":"active","ping":120},{"user_id":406,"name":"my mom","steam_id":76561199225201569,"connected_time":3444000000000,"state":"active","ping":145},{"user_id":455,"name":"Mitt","steam_id":76561199011013919,"connected_time":150000000000,"state":"active","ping":66},{"user_id":445,"name":"cursedbygod‚ô°","steam_id":76561198318291047,"connected_time":626000000000,"state":"active","ping":119},{"user_id":426,"name":"luma","steam_id":76561198081649669,"connected_time":2299000000000,"state":"active","ping":60},{"user_id":436,"name":"Rigby","steam_id":76561198021552128,"connected_time":1610000000000,"state":"active","ping":101},{"user_id":390,"name":"SynthBox3","steam_id":76561199094075745,"connected_time":3938000000000,"state":"active","ping":97},{"user_id":437,"name":"Pan Piotr","steam_id":76561198140016126,"connected_time":1239000000000,"state":"active","ping":64},{"user_id":413,"name":"h√ñh","steam_id":76561198418503654,"connected_time":2910000000000,"state":"active","ping":90},{"user_id":449,"name":"Michal jordan","steam_id":76561199106262610,"connected_time":547000000000,"state":"active","ping":68},{"user_id":427,"name":"miiq130","steam_id":76561198188010666,"connected_time":2286000000000,"state":"active","ping":75},{"user_id":419,"name":"BreadAcres","steam_id":76561198098217082,"connected_time":2497000000000,"state":"active","ping":59},{"user_id":408,"name":"[G] Firehawk","steam_id":76561197979006245,"connected_time":3406000000000,"state":"active","ping":72},{"user_id":452,"name":"domek brexit geezerüá¨üáß","steam_id":76561198048447632,"connected_time":503000000000,"state":"active","ping":60},{"user_id":430,"name":"ThatTFguy","steam_id":76561198056794321,"connected_time":2081000000000,"state":"active","ping":70},{"user_id":439,"name":"7-Zip","steam_id":76561198099726966,"connected_time":1227000000000,"state":"active","ping":105}]},{"server_id":309,"name":"Uncletopia | Frankfurt | 4 | All Maps","name_short":"frk-4","host":"frk-1.de.uncletopia.com","port":27045,"enabled":true,"region":"eu","cc":"de","latitude":50.110924,"longitude":8.682127,"reserved":0,"last_update":"0001-01-01T00:00:00Z","name_a2s":"Uncletopia | Frankfurt | 4 | All Maps","protocol":17,"map":"koth_lakeside_final","folder":"tf","game":"Team Fortress","app_id":440,"player_count":0,"max_players":24,"Bots":0,"server_type":"Dedicated","server_os":"Linux","password":true,"vac":true,"version":"7932396","steam_id":85568392924504275,"keywords":["cp","nocrits","nodmgspread","uncletopia"],"game_id":440,"stv_port":27046,"stv_name":"Uncletopia | Frankfurt | 4 | All Maps | STV","players":null},{"server_id":310,"name":"Uncletopia | Frankfurt | 5 | All Maps","name_short":"frk-5","host":"frk-1.de.uncletopia.com","port":27055,"enabled":true,"region":"eu","cc":"de","latitude":50.110924,"longitude":8.682127,"reserved":0,"last_update":"0001-01-01T00:00:00Z","name_a2s":"Uncletopia | Frankfurt | 5 | All Maps","protocol":17,"map":"cp_mountainlab","folder":"tf","game":"Team Fortress","app_id":440,"player_count":24,"max_players":24,"Bots":0,"server_type":"Dedicated","server_os":"Linux","password":true,"vac":true,"version":"7932396","steam_id":85568392924504277,"keywords":["cp","nocrits","nodmgspread","uncletopia"],"game_id":440,"stv_port":27056,"stv_name":"Uncletopia | Frankfurt | 5 | All Maps | STV","players":[{"user_id":370,"name":"Tusk act 4! Spin his balls!","steam_id":76561198817548888,"connected_time":913000000000,"state":"active","ping":58},{"user_id":331,"name":"mixxxa_french","steam_id":76561198085098243,"connected_time":3734000000000,"state":"active","ping":104},{"user_id":381,"name":"Old Beavis","steam_id":76561198065951617,"connected_time":202000000000,"state":"active","ping":60},{"user_id":364,"name":"sex toilet","steam_id":76561198412197820,"connected_time":947000000000,"state":"active","ping":77},{"user_id":382,"name":"gattino is oddly enticing","steam_id":76561199199758759,"connected_time":189000000000,"state":"active","ping":59},{"user_id":363,"name":"√ÉNVS DR√ÉNVS","steam_id":76561198138733015,"connected_time":955000000000,"state":"active","ping":115},{"user_id":337,"name":"Suvis","steam_id":76561198153048602,"connected_time":3679000000000,"state":"active","ping":85},{"user_id":378,"name":"poooop!","steam_id":76561198959931260,"connected_time":306000000000,"state":"active","ping":94},{"user_id":384,"name":"Itai","steam_id":76561198804555329,"connected_time":124000000000,"state":"active","ping":102},{"user_id":371,"name":"Tin","steam_id":76561198022201818,"connected_time":912000000000,"state":"active","ping":55},{"user_id":263,"name":"VK2124 :D","steam_id":76561198111130688,"connected_time":9159000000000,"state":"active","ping":50},{"user_id":368,"name":"player with 0 skill","steam_id":76561198002451113,"connected_time":922000000000,"state":"active","ping":93},{"user_id":375,"name":"Operable2694","steam_id":76561199486377532,"connected_time":475000000000,"state":"active","ping":63},{"user_id":372,"name":"Kotlet schabowy","steam_id":76561198048983509,"connected_time":910000000000,"state":"active","ping":77},{"user_id":358,"name":"Bayoyo","steam_id":76561199069591774,"connected_time":1519000000000,"state":"active","ping":72},{"user_id":383,"name":"Slavko Palii","steam_id":76561198404241941,"connected_time":188000000000,"state":"active","ping":65},{"user_id":344,"name":"Ludslick","steam_id":76561199060121967,"connected_time":2507000000000,"state":"active","ping":69},{"user_id":336,"name":"Mau","steam_id":76561198410945277,"connected_time":3702000000000,"state":"active","ping":108},{"user_id":380,"name":"Smilin' Wanderer","steam_id":76561198067698907,"connected_time":215000000000,"state":"active","ping":75},{"user_id":345,"name":"R0Z3","steam_id":76561199027065608,"connected_time":2494000000000,"state":"active","ping":68},{"user_id":376,"name":"SlowMode","steam_id":76561198039631442,"connected_time":475000000000,"state":"active","ping":85},{"user_id":317,"name":"The Wolf Leader","steam_id":76561198038007462,"connected_time":4809000000000,"state":"active","ping":84},{"user_id":355,"name":"Na'vi Misato (by popular demand","steam_id":76561198130860698,"connected_time":1989000000000,"state":"active","ping":64},{"user_id":249,"name":"ZazyLou_","steam_id":76561198411134617,"connected_time":9679000000000,"state":"active","ping":62}]},{"server_id":311,"name":"Uncletopia | Frankfurt | 6 | All Maps","name_short":"frk-6","host":"frk-1.de.uncletopia.com","port":27065,"enabled":true,"region":"eu","cc":"de","latitude":50.110924,"longitude":8.682127,"reserved":0,"last_update":"0001-01-01T00:00:00Z","name_a2s":"Uncletopia | Frankfurt | 6 | All Maps","protocol":17,"map":"koth_harvest_final","folder":"tf","game":"Team Fortress","app_id":440,"player_count":7,"max_players":24,"Bots":0,"server_type":"Dedicated","server_os":"Linux","password":true,"vac":true,"version":"7932396","steam_id":85568392924504278,"keywords":["cp","nocrits","nodmgspread","uncletopia"],"game_id":440,"stv_port":27066,"stv_name":"Uncletopia | Frankfurt | 6 | All Maps | STV","players":[{"user_id":12,"name":"Ink in veins","steam_id":76561199082262091,"connected_time":372000000000,"state":"active","ping":72},{"user_id":13,"name":"i'm f2p i cannot talk","steam_id":76561199207148697,"connected_time":156000000000,"state":"active","ping":67},{"user_id":14,"name":"copium addict | blw.tf","steam_id":76561199401665282,"connected_time":75000000000,"state":"spawning","ping":95},{"user_id":15,"name":"MrClyde","steam_id":76561198132627420,"connected_time":65000000000,"state":"active","ping":59},{"user_id":16,"name":"Wujek Cacek","steam_id":76561198010267943,"connected_time":57000000000,"state":"active","ping":65},{"user_id":17,"name":"Sulejman______________________\ufffd","steam_id":76561198276847676,"connected_time":24000000000,"state":"active","ping":102},{"user_id":18,"name":"Wafflesky","steam_id":76561198109973821,"connected_time":21000000000,"state":"spawning","ping":61}]},{"server_id":23,"name":"Uncletopia | Frankfurt | 7 | Stopwatch Beta","name_short":"frk-7","host":"frk-1.de.uncletopia.com","port":27075,"enabled":true,"region":"eu","cc":"de","latitude":50.110924,"longitude":8.682127,"reserved":0,"last_update":"0001-01-01T00:00:00Z","name_a2s":"Uncletopia | Frankfurt | 7 | Stopwatch Beta","protocol":17,"map":"pl_snowycoast","folder":"tf","game":"Team Fortress","app_id":440,"player_count":0,"max_players":24,"Bots":0,"server_type":"Dedicated","server_os":"Linux","password":true,"vac":true,"version":"7932396","steam_id":85568392924742827,"keywords":["nocrits","nodmgspread","payload","uncletopia"],"game_id":440,"stv_port":27076,"stv_name":"Uncletopia | Frankfurt | 7 | Stopwatch Beta | STV","players":null},{"server_id":24,"name":"Uncletopia | Frankfurt | 8 | Community","name_short":"frk-8","host":"frk-1.de.uncletopia.com","port":27085,"enabled":true,"region":"eu","cc":"de","latitude":50.110924,"longitude":8.682127,"reserved":0,"last_update":"0001-01-01T00:00:00Z","name_a2s":"Uncletopia | Frankfurt | 8 | Community","protocol":17,"map":"workshop/pl_vigil_rc9.ugc1266210012","folder":"tf","game":"Team Fortress","app_id":440,"player_count":24,"max_players":24,"Bots":0,"server_type":"Dedicated","server_os":"Linux","password":true,"vac":true,"version":"7932396","steam_id":85568392924742828,"keywords":["nocrits","nodmgspread","payload","uncletopia"],"game_id":440,"stv_port":27086,"stv_name":"Uncletopia | Frankfurt | 8 | Community | STV","players":[{"user_id":99,"name":"Gomaz","steam_id":76561198117791545,"connected_time":1845000000000,"state":"active","ping":51},{"user_id":145,"name":"PanPatrik","steam_id":76561198293331527,"connected_time":328000000000,"state":"active","ping":58},{"user_id":88,"name":"james","steam_id":76561198051623751,"connected_time":2615000000000,"state":"active","ping":88},{"user_id":133,"name":"Misfortune of Life","steam_id":76561198188762693,"connected_time":694000000000,"state":"active","ping":68},{"user_id":109,"name":"flappi","steam_id":76561198072892783,"connected_time":1464000000000,"state":"active","ping":54},{"user_id":74,"name":"Kabachok Aeronavt","steam_id":76561198123659806,"connected_time":2920000000000,"state":"active","ping":98},{"user_id":68,"name":"Feesh0","steam_id":76561198113128147,"connected_time":3666000000000,"state":"active","ping":71},{"user_id":129,"name":"Dubstep","steam_id":76561199181848818,"connected_time":972000000000,"state":"active","ping":106},{"user_id":104,"name":"DoctorTopLeL","steam_id":76561198088533595,"connected_time":1702000000000,"state":"active","ping":110},{"user_id":143,"name":"[     ]RandomNub0815","steam_id":76561198055033863,"connected_time":400000000000,"state":"active","ping":62},{"user_id":130,"name":"Operunter","steam_id":76561198059937616,"connected_time":915000000000,"state":"active","ping":70},{"user_id":148,"name":"rwota","steam_id":76561198385769722,"connected_time":177000000000,"state":"active","ping":94},{"user_id":100,"name":"Grander","steam_id":76561198011492179,"connected_time":1808000000000,"state":"active","ping":83},{"user_id":139,"name":"Terminally Offline","steam_id":76561198146194820,"connected_time":611000000000,"state":"active","ping":53},{"user_id":144,"name":"Dmitry Kerman","steam_id":76561198300020540,"connected_time":374000000000,"state":"active","ping":101},{"user_id":96,"name":"why the wig?","steam_id":76561199084109885,"connected_time":2205000000000,"state":"active","ping":158},{"user_id":82,"name":"dotdotdot","steam_id":76561198057628751,"connected_time":2771000000000,"state":"active","ping":63},{"user_id":136,"name":"EZPK","steam_id":76561197987474355,"connected_time":633000000000,"state":"active","ping":67},{"user_id":45,"name":"Murf","steam_id":76561198026167828,"connected_time":5458000000000,"state":"active","ping":70},{"user_id":146,"name":"two","steam_id":76561199067334982,"connected_time":319000000000,"state":"active","ping":92},{"user_id":140,"name":"ofri30","steam_id":76561198809151509,"connected_time":593000000000,"state":"active","ping":114},{"user_id":93,"name":"Ë™∞„Åã„ÅåË¶ã„Å¶„ÅÑ„Çã","steam_id":76561198834913692,"connected_time":2526000000000,"state":"active","ping":66},{"user_id":92,"name":"ldshwt","steam_id":76561198090364357,"connected_time":2549000000000,"state":"active","ping":56},{"user_id":147,"name":"Varsk","steam_id":76561198061398890,"connected_time":261000000000,"state":"active","ping":55}]},{"server_id":202,"name":"Uncletopia | Hong Kong | 1 | All Maps","name_short":"hgk-1","host":"hgk-1.hk.uncletopia.com","port":27015,"enabled":true,"region":"asia","cc":"hk","latitude":22.302711,"longitude":114.177216,"reserved":0,"last_update":"0001-01-01T00:00:00Z","name_a2s":"Uncletopia | Hong Kong | 1 | All Maps","protocol":17,"map":"pl_barnblitz","folder":"tf","game":"Team Fortress","app_id":440,"player_count":12,"max_players":24,"Bots":0,"server_type":"Dedicated","server_os":"Linux","password":true,"vac":true,"version":"7932396","steam_id":85568392924494504,"keywords":["nocrits","nodmgspread","payload","uncletopia"],"game_id":440,"stv_port":27016,"stv_name":"Uncletopia | Hong Kong | 1 | All Maps | STV","players":[{"user_id":418,"name":"meowsh","steam_id":76561198060448954,"connected_time":2002000000000,"state":"active","ping":74},{"user_id":444,"name":"cream","steam_id":76561198394576258,"connected_time":18000000000,"state":"active","ping":70},{"user_id":442,"name":"Carpetspill","steam_id":76561198240023406,"connected_time":309000000000,"state":"active","ping":275},{"user_id":385,"name":"Stupid B","steam_id":76561198131423270,"connected_time":4237000000000,"state":"active","ping":84},{"user_id":439,"name":"monkeyman536","steam_id":76561197997717737,"connected_time":497000000000,"state":"active","ping":121},{"user_id":431,"name":"paper boat","steam_id":76561198046558051,"connected_time":909000000000,"state":"active","ping":89},{"user_id":373,"name":"listen 2 new jpegmafia album","steam_id":76561198069561896,"connected_time":5853000000000,"state":"active","ping":35},{"user_id":422,"name":"Where is my resident evil 4","steam_id":76561198067219529,"connected_time":1772000000000,"state":"active","ping":46},{"user_id":423,"name":"Cement Eater Gaming","steam_id":76561199205915518,"connected_time":1650000000000,"state":"active","ping":100},{"user_id":409,"name":"Ivy","steam_id":76561198400698408,"connected_time":2444000000000,"state":"active","ping":87},{"user_id":372,"name":"no.1 bed war player asia (irl)","steam_id":76561198299150410,"connected_time":5983000000000,"state":"active","ping":70},{"user_id":339,"name":"Ïø†ÌÇ§","steam_id":76561197997220367,"connected_time":8586000000000,"state":"active","ping":54}]},{"server_id":1,"name":"Uncletopia | Los Angeles | 1 | All Maps","name_short":"lax-1","host":"lax-1.us.uncletopia.com","port":27015,"enabled":true,"region":"us-west","cc":"us","latitude":33.94279,"longitude":-118.41004,"reserved":0,"last_update":"0001-01-01T00:00:00Z","name_a2s":"Uncletopia | Los Angeles | 1 | All Maps","protocol":17,"map":"cp_dustbowl","folder":"tf","game":"Team Fortress","app_id":440,"player_count":24,"max_players":24,"Bots":0,"server_type":"Dedicated","server_os":"Linux","password":true,"vac":true,"version":"7932396","steam_id":85568392924469991,"keywords":["cp","nocrits","nodmgspread","uncletopia"],"game_id":440,"stv_port":27016,"stv_name":"Uncletopia | Los Angeles | 1 | All Maps | STV","players":[{"user_id":67,"name":"Crazy Ivan","steam_id":76561197993072059,"connected_time":3224000000000,"state":"active","ping":128},{"user_id":87,"name":"Peyote Peterson","steam_id":76561198071093032,"connected_time":1344000000000,"state":"active","ping":43},{"user_id":27,"name":"Mattacam","steam_id":76561198862289471,"connected_time":5395000000000,"state":"active","ping":122},{"user_id":80,"name":"Rhutebeer","steam_id":76561198018302761,"connected_time":1771000000000,"state":"active","ping":104},{"user_id":90,"name":"Haloman","steam_id":76561198119610371,"connected_time":1003000000000,"state":"active","ping":147},{"user_id":81,"name":"Seacat08","steam_id":76561198428628487,"connected_time":1607000000000,"state":"active","ping":159},{"user_id":26,"name":"Flippityflop","steam_id":76561198086692908,"connected_time":5406000000000,"state":"active","ping":126},{"user_id":65,"name":"Starkiller","steam_id":76561198101643120,"connected_time":3585000000000,"state":"active","ping":75},{"user_id":91,"name":"wizorb","steam_id":76561198002172674,"connected_time":990000000000,"state":"active","ping":78},{"user_id":76,"name":"caRat","steam_id":76561198859267372,"connected_time":2374000000000,"state":"active","ping":101},{"user_id":62,"name":"Stupid Sexy Flanders #Save tf2","steam_id":76561198136311983,"connected_time":4029000000000,"state":"active","ping":129},{"user_id":75,"name":"grape","steam_id":76561197993980328,"connected_time":2378000000000,"state":"active","ping":99},{"user_id":74,"name":"Headmouth","steam_id":76561198019789855,"connected_time":2735000000000,"state":"active","ping":162},{"user_id":66,"name":"Redkiller","steam_id":76561199453655288,"connected_time":3572000000000,"state":"active","ping":128},{"user_id":69,"name":"Dr. Zoidburg","steam_id":76561198174593497,"connected_time":2988000000000,"state":"active","ping":91},{"user_id":86,"name":"Bowser","steam_id":76561198011097956,"connected_time":1444000000000,"state":"active","ping":57},{"user_id":73,"name":"Nolan","steam_id":76561198169648081,"connected_time":2758000000000,"state":"active","ping":98},{"user_id":56,"name":"UrLocalPyroMain","steam_id":76561198075562180,"connected_time":4392000000000,"state":"active","ping":115},{"user_id":84,"name":"bobletoob","steam_id":76561199184464900,"connected_time":1508000000000,"state":"active","ping":60},{"user_id":93,"name":"CamelyKonas","steam_id":76561198097672992,"connected_time":105000000000,"state":"active","ping":116},{"user_id":88,"name":"Engideer","steam_id":76561198145733164,"connected_time":1319000000000,"state":"active","ping":74},{"user_id":52,"name":"Fairchild Republic A-10 Thndrbl","steam_id":76561199038043360,"connected_time":4625000000000,"state":"active","ping":117},{"user_id":92,"name":"Ventastega","steam_id":76561197999366317,"connected_time":274000000000,"state":"active","ping":128},{"user_id":85,"name":"Navysealdemoman","steam_id":76561199048625312,"connected_time":1464000000000,"state":"active","ping":98}]},{"server_id":112,"name":"Uncletopia | Los Angeles | 2 | All Maps","name_short":"lax-2","host":"lax-1.us.uncletopia.com","port":27025,"enabled":true,"region":"us-west","cc":"us","latitude":33.94279,"longitude":-118.41004,"reserved":0,"last_update":"0001-01-01T00:00:00Z","name_a2s":"Uncletopia | Los Angeles | 2 | All Maps","protocol":17,"map":"pl_borneo","folder":"tf","game":"Team Fortress","app_id":440,"player_count":0,"max_players":24,"Bots":0,"server_type":"Dedicated","server_os":"Linux","password":true,"vac":true,"version":"7932396","steam_id":85568392924469992,"keywords":["nocrits","nodmgspread","payload","uncletopia"],"game_id":440,"stv_port":27026,"stv_name":"Uncletopia | Los Angeles | 2 | All Maps | STV","players":null},{"server_id":324,"name":"Uncletopia | Los Angeles | 3 | All Maps","name_short":"lax-3","host":"lax-1.us.uncletopia.com","port":27035,"enabled":true,"region":"us-west","cc":"us","latitude":33.94279,"longitude":-118.41004,"reserved":0,"last_update":"0001-01-01T00:00:00Z","name_a2s":"Uncletopia | Los Angeles | 3 | All Maps","protocol":17,"map":"pl_borneo","folder":"tf","game":"Team Fortress","app_id":440,"player_count":0,"max_players":24,"Bots":0,"server_type":"Dedicated","server_os":"Linux","password":true,"vac":true,"version":"7932396","steam_id":85568392924510198,"keywords":["nocrits","nodmgspread","payload","uncletopia"],"game_id":440,"stv_port":27036,"stv_name":"Uncletopia | Los Angeles | 3 | All Maps | STV","players":null},{"server_id":25,"name":"Uncletopia | Los Angeles | 4 | Stopwatch Beta","name_short":"lax-4","host":"lax-1.us.uncletopia.com","port":27045,"enabled":true,"region":"us-west","cc":"us","latitude":33.94279,"longitude":-118.41004,"reserved":0,"last_update":"0001-01-01T00:00:00Z","name_a2s":"Uncletopia | Los Angeles | 4 | Stopwatch Beta","protocol":17,"map":"cp_altitude","folder":"tf","game":"Team Fortress","app_id":440,"player_count":0,"max_players":24,"Bots":0,"server_type":"Dedicated","server_os":"Linux","password":true,"vac":true,"version":"7932396","steam_id":85568392924510199,"keywords":["cp","nocrits","nodmgspread","uncletopia"],"game_id":440,"stv_port":27046,"stv_name":"Uncletopia | Los Angeles | 4 | Stopwatch Beta | STV","players":null},{"server_id":11,"name":"Uncletopia | London | 1 | All Maps","name_short":"lon-1","host":"lon-1.uk.uncletopia.com","port":27015,"enabled":true,"region":"eu","cc":"gb","latitude":51.509865,"longitude":-0.118092,"reserved":0,"last_update":"0001-01-01T00:00:00Z","name_a2s":"Uncletopia | London | 1 | All Maps","protocol":17,"map":"pl_rumford_event","folder":"tf","game":"Team Fortress","app_id":440,"player_count":23,"max_players":24,"Bots":0,"server_type":"Dedicated","server_os":"Linux","password":true,"vac":true,"version":"7932396","steam_id":85568392924367362,"keywords":["nocrits","nodmgspread","payload","uncletopia"],"game_id":440,"stv_port":27016,"stv_name":"Uncletopia | London | 1 | All Maps | STV","players":[{"user_id":297,"name":"Caerot","steam_id":76561198839000676,"connected_time":1659000000000,"state":"active","ping":74},{"user_id":301,"name":"Bloody","steam_id":76561198005754592,"connected_time":1627000000000,"state":"active","ping":62},{"user_id":309,"name":"Boalition","steam_id":76561198044315302,"connected_time":1114000000000,"state":"active","ping":85},{"user_id":302,"name":"tuna","steam_id":76561198121590248,"connected_time":1622000000000,"state":"active","ping":46},{"user_id":215,"name":"Maks","steam_id":76561198315278876,"connected_time":8505000000000,"state":"active","ping":51},{"user_id":278,"name":"roby","steam_id":76561198044660393,"connected_time":3320000000000,"state":"active","ping":70},{"user_id":276,"name":"the indomitable human spirit","steam_id":76561198718760200,"connected_time":3447000000000,"state":"active","ping":55},{"user_id":277,"name":"dash.","steam_id":76561198084796149,"connected_time":3444000000000,"state":"active","ping":45},{"user_id":319,"name":"‚à´cos¬≤(2x)sin(x)dx","steam_id":76561198079937590,"connected_time":628000000000,"state":"active","ping":62},{"user_id":321,"name":"CalmLoco","steam_id":76561199140621476,"connected_time":387000000000,"state":"active","ping":55},{"user_id":279,"name":"sokige","steam_id":76561198167112371,"connected_time":3307000000000,"state":"active","ping":104},{"user_id":320,"name":"Fiurius","steam_id":76561198151910950,"connected_time":450000000000,"state":"active","ping":85},{"user_id":318,"name":"Mintme","steam_id":76561199033531922,"connected_time":718000000000,"state":"active","ping":45},{"user_id":308,"name":"PASTAMAN!!!","steam_id":76561198995641765,"connected_time":1511000000000,"state":"active","ping":59},{"user_id":306,"name":"Programmer Socks Gaming","steam_id":76561198982674420,"connected_time":1594000000000,"state":"active","ping":42},{"user_id":314,"name":"Kurt Kurtenkurter","steam_id":76561198394221491,"connected_time":769000000000,"state":"active","ping":62},{"user_id":313,"name":"InvaderAlex","steam_id":76561198039232451,"connected_time":869000000000,"state":"active","ping":161},{"user_id":316,"name":"pijacka","steam_id":76561198103899658,"connected_time":755000000000,"state":"active","ping":60},{"user_id":289,"name":"Bassachusetts","steam_id":76561198073769916,"connected_time":2789000000000,"state":"active","ping":48},{"user_id":317,"name":"GGabe","steam_id":76561198117199068,"connected_time":752000000000,"state":"active","ping":71},{"user_id":293,"name":"Tvrdohlavoun","steam_id":76561198124962612,"connected_time":2137000000000,"state":"active","ping":81},{"user_id":294,"name":"AWildTamim","steam_id":76561198048060652,"connected_time":1803000000000,"state":"active","ping":40},{"user_id":284,"name":"Mr. Shadow | Folfie","steam_id":76561198037028507,"connected_time":3203000000000,"state":"active","ping":63}]},{"server_id":114,"name":"Uncletopia | London | 2 | All Maps","name_short":"lon-2","host":"lon-1.uk.uncletopia.com","port":27025,"enabled":true,"region":"eu","cc":"gb","latitude":51.509865,"longitude":-0.118092,"reserved":0,"last_update":"0001-01-01T00:00:00Z","name_a2s":"Uncletopia | London | 2 | All Maps","protocol":17,"map":"pl_upward","folder":"tf","game":"Team Fortress","app_id":440,"player_count":24,"max_players":24,"Bots":0,"server_type":"Dedicated","server_os":"Linux","password":true,"vac":true,"version":"7932396","steam_id":85568392924470941,"keywords":["nocrits","nodmgspread","payload","uncletopia"],"game_id":440,"stv_port":27026,"stv_name":"Uncletopia | London | 2 | All Maps | STV","players":[{"user_id":318,"name":"fregaropa","steam_id":76561198150806166,"connected_time":286000000000,"state":"active","ping":81},{"user_id":273,"name":"Anri Okita's Massive Milkers","steam_id":76561199186352720,"connected_time":3479000000000,"state":"active","ping":68},{"user_id":309,"name":"WHUSSKEY","steam_id":76561198137827441,"connected_time":495000000000,"state":"active","ping":74},{"user_id":297,"name":"Kiryu Kazuma","steam_id":76561198120390292,"connected_time":1378000000000,"state":"active","ping":60},{"user_id":296,"name":"Nickel","steam_id":76561199037745941,"connected_time":1601000000000,"state":"active","ping":144},{"user_id":262,"name":"Dzieciol","steam_id":76561198160237556,"connected_time":4395000000000,"state":"active","ping":74},{"user_id":310,"name":"qwarksss","steam_id":76561199117223246,"connected_time":494000000000,"state":"active","ping":95},{"user_id":308,"name":"HADID_sex_god","steam_id":76561198302623594,"connected_time":622000000000,"state":"active","ping":106},{"user_id":311,"name":"Femboy Lilli","steam_id":76561198090146457,"connected_time":478000000000,"state":"active","ping":38},{"user_id":313,"name":"rummy","steam_id":76561197997573379,"connected_time":397000000000,"state":"active","ping":47},{"user_id":305,"name":"awesomeajb08","steam_id":76561199056316311,"connected_time":1053000000000,"state":"active","ping":136},{"user_id":314,"name":"A3517","steam_id":76561198346434027,"connected_time":387000000000,"state":"active","ping":124},{"user_id":298,"name":"LordTrap.exe","steam_id":76561198318089716,"connected_time":1345000000000,"state":"active","ping":58},{"user_id":321,"name":"Sarahtonin","steam_id":76561197992144115,"connected_time":194000000000,"state":"active","ping":76},{"user_id":289,"name":"TAFI03","steam_id":76561198213082089,"connected_time":2189000000000,"state":"active","ping":69},{"user_id":295,"name":"Dreyfus","steam_id":76561198366687805,"connected_time":1677000000000,"state":"active","ping":62},{"user_id":316,"name":"walking plane","steam_id":76561198146779559,"connected_time":366000000000,"state":"active","ping":76},{"user_id":320,"name":"Syd","steam_id":76561198020515027,"connected_time":202000000000,"state":"active","ping":89},{"user_id":256,"name":"Covetousix","steam_id":76561198293936824,"connected_time":5312000000000,"state":"active","ping":75},{"user_id":322,"name":"UltimateAura","steam_id":76561198338361324,"connected_time":192000000000,"state":"active","ping":44},{"user_id":301,"name":"1couver","steam_id":76561198168553215,"connected_time":1315000000000,"state":"active","ping":107},{"user_id":306,"name":"Auto5k","steam_id":76561198100303675,"connected_time":927000000000,"state":"active","ping":45},{"user_id":304,"name":"KrevTiz","steam_id":76561199043366861,"connected_time":1102000000000,"state":"active","ping":98},{"user_id":271,"name":"justajem101","steam_id":76561199228510573,"connected_time":4139000000000,"state":"active","ping":85}]},{"server_id":320,"name":"Uncletopia | London | 3 | All Maps","name_short":"lon-3","host":"lon-1.uk.uncletopia.com","port":27035,"enabled":true,"region":"eu","cc":"gb","latitude":51.509865,"longitude":-0.118092,"reserved":0,"last_update":"0001-01-01T00:00:00Z","name_a2s":"Uncletopia | London | 3 | All Maps","protocol":17,"map":"cp_altitude","folder":"tf","game":"Team Fortress","app_id":440,"player_count":24,"max_players":24,"Bots":0,"server_type":"Dedicated","server_os":"Linux","password":true,"vac":true,"version":"7932396","steam_id":85568392924510192,"keywords":["cp","nocrits","nodmgspread","uncletopia"],"game_id":440,"stv_port":27036,"stv_name":"Uncletopia | London | 3 | All Maps | STV","players":[{"user_id":186,"name":"TheMasterOfTheZaZa","steam_id":76561197994310420,"connected_time":1742000000000,"state":"active","ping":60},{"user_id":183,"name":"Dapper","steam_id":76561198081694974,"connected_time":2001000000000,"state":"active","ping":43},{"user_id":209,"name":"Hunter64","steam_id":76561199121947938,"connected_time":250000000000,"state":"active","ping":50},{"user_id":189,"name":"Nekoshironi","steam_id":76561198191124837,"connected_time":1721000000000,"state":"active","ping":81},{"user_id":187,"name":"ash","steam_id":76561198004728744,"connected_time":1742000000000,"state":"active","ping":60},{"user_id":205,"name":"Hexagon","steam_id":76561198151205758,"connected_time":616000000000,"state":"active","ping":58},{"user_id":114,"name":"kaT","steam_id":76561198879664338,"connected_time":8606000000000,"state":"active","ping":71},{"user_id":200,"name":"Ze","steam_id":76561198314901652,"connected_time":885000000000,"state":"active","ping":96},{"user_id":199,"name":"wal","steam_id":76561198066043883,"connected_time":908000000000,"state":"active","ping":50},{"user_id":206,"name":"Edusuh","steam_id":76561198877948244,"connected_time":341000000000,"state":"active","ping":74},{"user_id":188,"name":"DragonFruit","steam_id":76561198099526623,"connected_time":1732000000000,"state":"active","ping":85},{"user_id":203,"name":"uwupolice | Kleiner Engel","steam_id":76561198009922500,"connected_time":807000000000,"state":"active","ping":62},{"user_id":174,"name":"GuSkand","steam_id":76561198043775605,"connected_time":3196000000000,"state":"active","ping":88},{"user_id":181,"name":"Ark-e","steam_id":76561198261870909,"connected_time":2363000000000,"state":"active","ping":44},{"user_id":165,"name":"lidl","steam_id":76561198895235231,"connected_time":4043000000000,"state":"active","ping":53},{"user_id":210,"name":"Tunnel Snakes Rule!","steam_id":76561198031573426,"connected_time":222000000000,"state":"active","ping":75},{"user_id":134,"name":"Sign up to give bone marrow!","steam_id":76561198055363275,"connected_time":6459000000000,"state":"active","ping":44},{"user_id":196,"name":"Jimmi Amareno","steam_id":76561198327750625,"connected_time":1163000000000,"state":"active","ping":48},{"user_id":213,"name":"manKe","steam_id":76561198008564860,"connected_time":15000000000,"state":"active","ping":55},{"user_id":211,"name":"Gentlemann of Scotland","steam_id":76561198073941805,"connected_time":163000000000,"state":"active","ping":57},{"user_id":212,"name":"eva.","steam_id":76561198054474684,"connected_time":146000000000,"state":"active","ping":89},{"user_id":75,"name":"Snake-chan","steam_id":76561199044755854,"connected_time":10257000000000,"state":"active","ping":82},{"user_id":178,"name":"NLSAM","steam_id":76561199111154916,"connected_time":2698000000000,"state":"active","ping":70},{"user_id":128,"name":"MattyS","steam_id":76561198125923639,"connected_time":6760000000000,"state":"active","ping":57}]},{"server_id":321,"name":"Uncletopia | London | 4 | All Maps","name_short":"lon-4","host":"lon-1.uk.uncletopia.com","port":27045,"enabled":true,"region":"eu","cc":"gb","latitude":51.509865,"longitude":-0.118092,"reserved":0,"last_update":"0001-01-01T00:00:00Z","name_a2s":"Uncletopia | London | 4 | All Maps","protocol":17,"map":"cp_sunshine","folder":"tf","game":"Team Fortress","app_id":440,"player_count":24,"max_players":24,"Bots":0,"server_type":"Dedicated","server_os":"Linux","password":true,"vac":true,"version":"7932396","steam_id":85568392924510193,"keywords":["cp","nocrits","nodmgspread","uncletopia"],"game_id":440,"stv_port":27046,"stv_name":"Uncletopia | London | 4 | All Maps | STV","players":[{"user_id":221,"name":"snowy","steam_id":76561199480341552,"connected_time":432000000000,"state":"active","ping":75},{"user_id":168,"name":"the village idiot","steam_id":76561199060384919,"connected_time":3400000000000,"state":"active","ping":37},{"user_id":225,"name":"xd","steam_id":76561198218613716,"connected_time":279000000000,"state":"active","ping":93},{"user_id":202,"name":"G/3","steam_id":76561198234844188,"connected_time":1414000000000,"state":"active","ping":53},{"user_id":192,"name":"old dumpster","steam_id":76561198251951544,"connected_time":2176000000000,"state":"active","ping":128},{"user_id":206,"name":"Wanfus","steam_id":76561198132648438,"connected_time":1306000000000,"state":"active","ping":84},{"user_id":159,"name":" ≤·∂†·µç ‚ú´","steam_id":76561199062437546,"connected_time":3622000000000,"state":"active","ping":60},{"user_id":211,"name":"Shovelhalfrusty","steam_id":76561198346447513,"connected_time":1090000000000,"state":"active","ping":62},{"user_id":227,"name":"schmick h_stt 0","steam_id":76561198039537958,"connected_time":84000000000,"state":"active","ping":45},{"user_id":174,"name":"[P-roc] Cmm Bert","steam_id":76561198016658674,"connected_time":3052000000000,"state":"active","ping":69},{"user_id":175,"name":"Kapitan Polska","steam_id":76561197968069413,"connected_time":3050000000000,"state":"active","ping":75},{"user_id":217,"name":"James","steam_id":76561198168882012,"connected_time":781000000000,"state":"active","ping":53},{"user_id":201,"name":"quickfast","steam_id":76561199438900919,"connected_time":1514000000000,"state":"active","ping":43},{"user_id":163,"name":"MeBandae","steam_id":76561198910770432,"connected_time":3585000000000,"state":"active","ping":66},{"user_id":215,"name":"enabled killa fin","steam_id":76561198880744690,"connected_time":841000000000,"state":"active","ping":87},{"user_id":176,"name":"Ross from F.R.I.E.N.D.S.","steam_id":76561198008511665,"connected_time":3018000000000,"state":"active","ping":52},{"user_id":222,"name":"Rook","steam_id":76561197995204779,"connected_time":407000000000,"state":"active","ping":45},{"user_id":197,"name":"G.R.E","steam_id":76561197979806514,"connected_time":2024000000000,"state":"active","ping":79},{"user_id":213,"name":"Eme","steam_id":76561198171619442,"connected_time":909000000000,"state":"active","ping":89},{"user_id":216,"name":"Frits","steam_id":76561197969196340,"connected_time":829000000000,"state":"active","ping":51},{"user_id":219,"name":"Purps","steam_id":76561198053886680,"connected_time":597000000000,"state":"active","ping":45},{"user_id":226,"name":"madijo","steam_id":76561198012617400,"connected_time":251000000000,"state":"active","ping":67},{"user_id":209,"name":"EDP445","steam_id":76561198151783679,"connected_time":1276000000000,"state":"active","ping":136},{"user_id":196,"name":"Big Bunt","steam_id":76561198281689084,"connected_time":2085000000000,"state":"active","ping":160}]},{"server_id":21,"name":"Uncletopia | London | 5 | All Maps","name_short":"lon-5","host":"lon-1.uk.uncletopia.com","port":27055,"enabled":true,"region":"eu","cc":"gb","latitude":51.509865,"longitude":-0.118092,"reserved":0,"last_update":"0001-01-01T00:00:00Z","name_a2s":"Uncletopia | London | 5 | All Maps","protocol":17,"map":"koth_sawmill","folder":"tf","game":"Team Fortress","app_id":440,"player_count":24,"max_players":24,"Bots":0,"server_type":"Dedicated","server_os":"Linux","password":true,"vac":true,"version":"7932396","steam_id":85568392924742829,"keywords":["cp","nocrits","nodmgspread","uncletopia"],"game_id":440,"stv_port":27056,"stv_name":"Uncletopia | London | 5 | All Maps | STV","players":[{"user_id":492,"name":"MR.CRAB","steam_id":76561198329833659,"connected_time":265000000000,"state":"active","ping":80},{"user_id":481,"name":"Le Meilleur","steam_id":76561198054581325,"connected_time":569000000000,"state":"active","ping":147},{"user_id":486,"name":"Minik","steam_id":76561198134198970,"connected_time":510000000000,"state":"active","ping":43},{"user_id":467,"name":"axalotly-gaming","steam_id":76561199131971501,"connected_time":2198000000000,"state":"active","ping":100},{"user_id":454,"name":"Erodel B. MuD","steam_id":76561198397446423,"connected_time":3083000000000,"state":"active","ping":81},{"user_id":488,"name":"Mr Nibbles","steam_id":76561198189426870,"connected_time":365000000000,"state":"active","ping":150},{"user_id":446,"name":"‚ô•ImWithMilk","steam_id":76561198269577569,"connected_time":3298000000000,"state":"active","ping":46},{"user_id":482,"name":"AnalBypass1989","steam_id":76561198052356557,"connected_time":567000000000,"state":"active","ping":73},{"user_id":473,"name":"YARrICk.¬´+¬ª","steam_id":76561197990126485,"connected_time":1260000000000,"state":"active","ping":57},{"user_id":465,"name":"FishNachoz","steam_id":76561198026519426,"connected_time":2447000000000,"state":"active","ping":53},{"user_id":480,"name":"agreeable wood angles","steam_id":76561198013502376,"connected_time":623000000000,"state":"active","ping":52},{"user_id":483,"name":"Noob_with_source","steam_id":76561198870362103,"connected_time":532000000000,"state":"active","ping":58},{"user_id":484,"name":"Maid-35","steam_id":76561198416299245,"connected_time":530000000000,"state":"active","ping":93},{"user_id":464,"name":"h4f\u0026√©","steam_id":76561198136514227,"connected_time":2486000000000,"state":"active","ping":99},{"user_id":485,"name":"Craftedlavaistrue","steam_id":76561198139036454,"connected_time":520000000000,"state":"active","ping":73},{"user_id":476,"name":"UnusedEngine","steam_id":76561199281868902,"connected_time":1154000000000,"state":"active","ping":47},{"user_id":487,"name":"Juan.Gonzales2010","steam_id":76561199371685870,"connected_time":478000000000,"state":"active","ping":135},{"user_id":489,"name":"El Mosquito","steam_id":76561198065347907,"connected_time":365000000000,"state":"active","ping":76},{"user_id":401,"name":"fence_","steam_id":76561198150386379,"connected_time":5891000000000,"state":"active","ping":48},{"user_id":447,"name":"·πöik·∫°","steam_id":76561199085478311,"connected_time":3294000000000,"state":"active","ping":87},{"user_id":490,"name":"aofi the flat tgirl","steam_id":76561199172110503,"connected_time":285000000000,"state":"active","ping":149},{"user_id":457,"name":"Nornia","steam_id":76561198040509712,"connected_time":3010000000000,"state":"active","ping":60},{"user_id":491,"name":"KingCroesus","steam_id":76561198058787128,"connected_time":284000000000,"state":"active","ping":57},{"user_id":448,"name":"sponge","steam_id":76561198388679411,"connected_time":3279000000000,"state":"active","ping":69}]},{"server_id":22,"name":"Uncletopia | London | 6 | All Maps","name_short":"lon-6","host":"lon-1.uk.uncletopia.com","port":27065,"enabled":true,"region":"eu","cc":"gb","latitude":51.509865,"longitude":-0.118092,"reserved":0,"last_update":"0001-01-01T00:00:00Z","name_a2s":"Uncletopia | London | 6 | All Maps","protocol":17,"map":"cp_snakewater_final1","folder":"tf","game":"Team Fortress","app_id":440,"player_count":24,"max_players":24,"Bots":0,"server_type":"Dedicated","server_os":"Linux","password":true,"vac":true,"version":"7932396","steam_id":85568392924742830,"keywords":["cp","nocrits","nodmgspread","uncletopia"],"game_id":440,"stv_port":27066,"stv_name":"Uncletopia | London | 6 | All Maps | STV","players":[{"user_id":158,"name":"PooTiS","steam_id":76561198797781304,"connected_time":300000000000,"state":"active","ping":165},{"user_id":152,"name":"IDFWU","steam_id":76561198086525936,"connected_time":785000000000,"state":"active","ping":141},{"user_id":28,"name":"deaconng","steam_id":76561198801871663,"connected_time":8557000000000,"state":"active","ping":77},{"user_id":60,"name":"TheChefUK","steam_id":76561199014499092,"connected_time":7253000000000,"state":"active","ping":41},{"user_id":105,"name":"APenjuin","steam_id":76561198169007976,"connected_time":2817000000000,"state":"active","ping":64},{"user_id":161,"name":"Batman","steam_id":76561199041636597,"connected_time":179000000000,"state":"active","ping":75},{"user_id":166,"name":"ScaryTree","steam_id":76561199384362833,"connected_time":7000000000,"state":"spawning","ping":44},{"user_id":153,"name":"Mx. Mourning","steam_id":76561199010673891,"connected_time":602000000000,"state":"active","ping":144},{"user_id":30,"name":"Articulus","steam_id":76561198798123979,"connected_time":8478000000000,"state":"active","ping":55},{"user_id":150,"name":"AidenQG","steam_id":76561198864678536,"connected_time":1019000000000,"state":"active","ping":60},{"user_id":149,"name":"your_local_penguin","steam_id":76561199224954346,"connected_time":1071000000000,"state":"active","ping":130},{"user_id":136,"name":"Pinochet","steam_id":76561198194042394,"connected_time":1928000000000,"state":"active","ping":147},{"user_id":145,"name":"Wattoz","steam_id":76561198127779511,"connected_time":1689000000000,"state":"active","ping":63},{"user_id":154,"name":"pfear","steam_id":76561197999207328,"connected_time":571000000000,"state":"active","ping":93},{"user_id":160,"name":"mark","steam_id":76561198309246388,"connected_time":240000000000,"state":"active","ping":58},{"user_id":139,"name":"ev1lboyo","steam_id":76561199199499453,"connected_time":1880000000000,"state":"active","ping":81},{"user_id":162,"name":"Swanky","steam_id":76561198033898548,"connected_time":142000000000,"state":"active","ping":57},{"user_id":157,"name":"Threon","steam_id":76561198826783545,"connected_time":494000000000,"state":"active","ping":90},{"user_id":142,"name":"esheen","steam_id":76561198139376665,"connected_time":1850000000000,"state":"active","ping":61},{"user_id":151,"name":"Will or Mole","steam_id":76561198046415938,"connected_time":888000000000,"state":"active","ping":56},{"user_id":119,"name":"Dasimo","steam_id":76561198089221888,"connected_time":2528000000000,"state":"active","ping":64},{"user_id":163,"name":"Underground - Hard Rock R1700G","steam_id":76561198215986979,"connected_time":116000000000,"state":"active","ping":45},{"user_id":164,"name":"Sculkit","steam_id":76561199162882411,"connected_time":101000000000,"state":"active","ping":83},{"user_id":165,"name":"jakob-hejn","steam_id":76561198134513477,"connected_time":100000000000,"state":"active","ping":69}]},{"server_id":40,"name":"Uncletopia | London | 7 | No Payload","name_short":"lon-7","host":"lon-1.uk.uncletopia.com","port":27075,"enabled":true,"region":"eu","cc":"gb","latitude":51.509865,"longitude":-0.118092,"reserved":0,"last_update":"0001-01-01T00:00:00Z","name_a2s":"Uncletopia | London | 7 | No Payload","protocol":17,"map":"cp_mercenarypark","folder":"tf","game":"Team Fortress","app_id":440,"player_count":0,"max_players":24,"Bots":0,"server_type":"Dedicated","server_os":"Linux","password":true,"vac":true,"version":"7932396","steam_id":85568392924964314,"keywords":["cp","nocrits","nodmgspread","uncletopia"],"game_id":440,"stv_port":27076,"stv_name":"Uncletopia | London | 7 | No Payload | STV","players":null},{"server_id":41,"name":"Uncletopia | London | 8 | Community","name_short":"lon-8","host":"lon-1.uk.uncletopia.com","port":27085,"enabled":true,"region":"eu","cc":"gb","latitude":51.509865,"longitude":-0.118092,"reserved":0,"last_update":"0001-01-01T00:00:00Z","name_a2s":"Uncletopia | London | 8 | Community","protocol":17,"map":"workshop/cp_propaganda_b18.ugc1603743849","folder":"tf","game":"Team Fortress","app_id":440,"player_count":0,"max_players":24,"Bots":0,"server_type":"Dedicated","server_os":"Linux","password":true,"vac":true,"version":"7932396","steam_id":85568392924964315,"keywords":["cp","nocrits","nodmgspread","uncletopia"],"game_id":440,"stv_port":27086,"stv_name":"Uncletopia | London | 8 | Community | STV","players":null},{"server_id":300,"name":"Uncletopia | Montr√©al | 1 | All Maps","name_short":"mtl-1","host":"mtl-1.ca.uncletopia.com","port":27015,"enabled":true,"region":"us-east","cc":"ca","latitude":45.50889,"longitude":-73.56167,"reserved":0,"last_update":"0001-01-01T00:00:00Z","name_a2s":"Uncletopia | Montr√©al | 1 | All Maps","protocol":17,"map":"cp_altitude","folder":"tf","game":"Team Fortress","app_id":440,"player_count":0,"max_players":24,"Bots":0,"server_type":"Dedicated","server_os":"Linux","password":true,"vac":true,"version":"7932396","steam_id":85568392924500087,"keywords":["cp","nocrits","nodmgspread","uncletopia"],"game_id":440,"stv_port":27016,"stv_name":"Uncletopia | Montr√©al | 1 | All Maps | STV","players":null},{"server_id":301,"name":"Uncletopia | Montr√©al | 2 | All Maps","name_short":"mtl-2","host":"mtl-1.ca.uncletopia.com","port":27025,"enabled":true,"region":"us-east","cc":"ca","latitude":45.50889,"longitude":-73.56167,"reserved":0,"last_update":"0001-01-01T00:00:00Z","name_a2s":"Uncletopia | Montr√©al | 2 | All Maps","protocol":17,"map":"koth_lakeside_final","folder":"tf","game":"Team Fortress","app_id":440,"player_count":2,"max_players":24,"Bots":0,"server_type":"Dedicated","server_os":"Linux","password":true,"vac":true,"version":"7932396","steam_id":85568392924500088,"keywords":["cp","nocrits","nodmgspread","uncletopia"],"game_id":440,"stv_port":27026,"stv_name":"Uncletopia | Montr√©al | 2 | All Maps | STV","players":[{"user_id":5,"name":"Banana man","steam_id":76561199364732268,"connected_time":418000000000,"state":"active","ping":173},{"user_id":6,"name":"iaffieddu #savetf2","steam_id":76561199093197624,"connected_time":367000000000,"state":"active","ping":144}]},{"server_id":302,"name":"Uncletopia | Montr√©al | 3 | All Maps","name_short":"mtl-3","host":"mtl-1.ca.uncletopia.com","port":27035,"enabled":true,"region":"us-east","cc":"ca","latitude":45.50889,"longitude":-73.56167,"reserved":0,"last_update":"0001-01-01T00:00:00Z","name_a2s":"Uncletopia | Montr√©al | 3 | All Maps","protocol":17,"map":"cp_process_final","folder":"tf","game":"Team Fortress","app_id":440,"player_count":0,"max_players":24,"Bots":0,"server_type":"Dedicated","server_os":"Linux","password":true,"vac":true,"version":"7932396","steam_id":85568392924500089,"keywords":["cp","nocrits","nodmgspread","uncletopia"],"game_id":440,"stv_port":27036,"stv_name":"Uncletopia | Montr√©al | 3 | All Maps | STV","players":null},{"server_id":303,"name":"Uncletopia | Montr√©al | 4 | No Payload","name_short":"mtl-4","host":"mtl-1.ca.uncletopia.com","port":27045,"enabled":true,"region":"us-east","cc":"ca","latitude":45.50889,"longitude":-73.56167,"reserved":0,"last_update":"0001-01-01T00:00:00Z","name_a2s":"Uncletopia | Montr√©al | 4 | No Payload","protocol":17,"map":"cp_snakewater_final1","folder":"tf","game":"Team Fortress","app_id":440,"player_count":0,"max_players":24,"Bots":0,"server_type":"Dedicated","server_os":"Linux","password":true,"vac":true,"version":"7932396","steam_id":85568392924500090,"keywords":["cp","nocrits","nodmgspread","uncletopia"],"game_id":440,"stv_port":27046,"stv_name":"Uncletopia | Montr√©al | 4 | No Payload | STV","players":null},{"server_id":13,"name":"Uncletopia | New York City | 1 | All Maps","name_short":"nyc-1","host":"nyc-1.us.uncletopia.com","port":27015,"enabled":true,"region":"us-east","cc":"us","latitude":40.73061,"longitude":-73.93524,"reserved":0,"last_update":"0001-01-01T00:00:00Z","name_a2s":"Uncletopia | New York City | 1 | All Maps","protocol":17,"map":"cp_dustbowl","folder":"tf","game":"Team Fortress","app_id":440,"player_count":24,"max_players":24,"Bots":0,"server_type":"Dedicated","server_os":"Linux","password":true,"vac":true,"version":"7932396","steam_id":85568392924469993,"keywords":["cp","nocrits","nodmgspread","uncletopia"],"game_id":440,"stv_port":27016,"stv_name":"Uncletopia | New York City | 1 | All Maps | STV","players":[{"user_id":125,"name":"Broadsword","steam_id":76561198011160411,"connected_time":53000000000,"state":"active","ping":75},{"user_id":108,"name":"BigMan","steam_id":76561198277150955,"connected_time":1309000000000,"state":"active","ping":56},{"user_id":97,"name":"B‚àûp | ‚ù§Fasto‚ù§","steam_id":76561198118298527,"connected_time":2406000000000,"state":"active","ping":147},{"user_id":107,"name":"HeroOfTime1435","steam_id":76561198414622966,"connected_time":1619000000000,"state":"active","ping":65},{"user_id":114,"name":"1998 Volvo S70 T5","steam_id":76561198258615044,"connected_time":879000000000,"state":"active","ping":68},{"user_id":124,"name":"sleepy","steam_id":76561199008634102,"connected_time":385000000000,"state":"active","ping":87},{"user_id":120,"name":"Mi Se√±ora","steam_id":76561198044384143,"connected_time":500000000000,"state":"active","ping":82},{"user_id":121,"name":"pogo","steam_id":76561198148913461,"connected_time":496000000000,"state":"active","ping":41},{"user_id":69,"name":"BongBlaster69","steam_id":76561198316811893,"connected_time":5145000000000,"state":"active","ping":117},{"user_id":81,"name":"littlesack","steam_id":76561197960270526,"connected_time":3907000000000,"state":"active","ping":74},{"user_id":86,"name":"Sunshine","steam_id":76561198885528098,"connected_time":3551000000000,"state":"active","ping":53},{"user_id":104,"name":"B.","steam_id":76561198040445907,"connected_time":1939000000000,"state":"active","ping":77},{"user_id":122,"name":"sirsmit1","steam_id":76561199129778001,"connected_time":414000000000,"state":"active","ping":67},{"user_id":56,"name":"Mecha","steam_id":76561198014927379,"connected_time":6048000000000,"state":"active","ping":68},{"user_id":118,"name":"Feared Gamer","steam_id":76561198350127514,"connected_time":608000000000,"state":"active","ping":45},{"user_id":54,"name":"Rocket.Blade","steam_id":76561198063104145,"connected_time":6185000000000,"state":"active","ping":131},{"user_id":99,"name":"Fish","steam_id":76561199258053772,"connected_time":2128000000000,"state":"active","ping":75},{"user_id":116,"name":"newyoon","steam_id":76561199151148417,"connected_time":730000000000,"state":"active","ping":67},{"user_id":112,"name":"Wire  Bash","steam_id":76561198033268371,"connected_time":1001000000000,"state":"active","ping":135},{"user_id":82,"name":"Owl Pacino","steam_id":76561197979970666,"connected_time":3844000000000,"state":"active","ping":67},{"user_id":126,"name":"Endy","steam_id":76561199031301177,"connected_time":21000000000,"state":"active","ping":153},{"user_id":84,"name":"Winter the Witchie","steam_id":76561198151971178,"connected_time":3712000000000,"state":"active","ping":91},{"user_id":85,"name":"!! NOT A FLYING TOY !!","steam_id":76561198069735882,"connected_time":3585000000000,"state":"active","ping":75},{"user_id":92,"name":"GodOfBeefy","steam_id":76561198796420092,"connected_time":3036000000000,"state":"active","ping":120}]},{"server_id":14,"name":"Uncletopia | New York City | 2 | All Maps","name_short":"nyc-2","host":"nyc-1.us.uncletopia.com","port":27025,"enabled":true,"region":"us-east","cc":"us","latitude":40.73061,"longitude":-73.93524,"reserved":0,"last_update":"0001-01-01T00:00:00Z","name_a2s":"Uncletopia | New York City | 2 | All Maps","protocol":17,"map":"pl_snowycoast","folder":"tf","game":"Team Fortress","app_id":440,"player_count":1,"max_players":24,"Bots":0,"server_type":"Dedicated","server_os":"Linux","password":true,"vac":true,"version":"7932396","steam_id":85568392924469994,"keywords":["nocrits","nodmgspread","payload","uncletopia"],"game_id":440,"stv_port":27026,"stv_name":"Uncletopia | New York City | 2 | All Maps | STV","players":[{"user_id":5,"name":"zzzPoison‚ù§","steam_id":76561198302928116,"connected_time":33000000000,"state":"spawning","ping":73}]},{"server_id":15,"name":"Uncletopia | New York City | 3 | Stopwatch Beta","name_short":"nyc-3","host":"nyc-1.us.uncletopia.com","port":27035,"enabled":true,"region":"us-east","cc":"us","latitude":40.73061,"longitude":-73.93524,"reserved":0,"last_update":"0001-01-01T00:00:00Z","name_a2s":"Uncletopia | New York City | 3 | Stopwatch Beta","protocol":17,"map":"workshop/pl_barnblitz_pro7.ugc582280235","folder":"tf","game":"Team Fortress","app_id":440,"player_count":1,"max_players":24,"Bots":0,"server_type":"Dedicated","server_os":"Linux","password":true,"vac":true,"version":"7932396","steam_id":85568392924742820,"keywords":["nocrits","nodmgspread","payload","uncletopia"],"game_id":440,"stv_port":27036,"stv_name":"Uncletopia | New York City | 3 | Stopwatch Beta | STV","players":[{"user_id":7,"name":"Revettah","steam_id":76561198040442214,"connected_time":8000000000,"state":"spawning","ping":152}]},{"server_id":16,"name":"Uncletopia | New York City | 4 | Community","name_short":"nyc-4","host":"nyc-1.us.uncletopia.com","port":27045,"enabled":true,"region":"us-east","cc":"us","latitude":40.73061,"longitude":-73.93524,"reserved":0,"last_update":"0001-01-01T00:00:00Z","name_a2s":"Uncletopia | New York City | 4 | Community","protocol":17,"map":"pl_barnblitz","folder":"tf","game":"Team Fortress","app_id":440,"player_count":0,"max_players":24,"Bots":0,"server_type":"Dedicated","server_os":"Linux","password":true,"vac":true,"version":"7932396","steam_id":85568392924742821,"keywords":["nocrits","nodmgspread","payload","uncletopia"],"game_id":440,"stv_port":27046,"stv_name":"Uncletopia | New York City | 4 | Community | STV","players":null},{"server_id":142,"name":"Uncletopia | S√£o Paulo | 1 | All Maps","name_short":"sao-1","host":"sao-1.br.uncletopia.com","port":27015,"enabled":true,"region":"sa","cc":"br","latitude":-23.533773,"longitude":-46.62529,"reserved":0,"last_update":"0001-01-01T00:00:00Z","name_a2s":"Uncletopia | S√£o Paulo | 1 | All Maps","protocol":17,"map":"pl_borneo","folder":"tf","game":"Team Fortress","app_id":440,"player_count":0,"max_players":24,"Bots":0,"server_type":"Dedicated","server_os":"Linux","password":true,"vac":true,"version":"7932396","steam_id":85568392924469996,"keywords":["nocrits","nodmgspread","payload","uncletopia"],"game_id":440,"stv_port":27016,"stv_name":"Uncletopia | S√£o Paulo | 1 | All Maps | STV","players":null},{"server_id":143,"name":"Uncletopia | S√£o Paulo | 2 | All Maps","name_short":"sao-2","host":"sao-2.br.uncletopia.com","port":27015,"enabled":true,"region":"sa","cc":"br","latitude":-23.533773,"longitude":-46.62529,"reserved":0,"last_update":"0001-01-01T00:00:00Z","name_a2s":"Uncletopia | S√£o Paulo | 2 | All Maps","protocol":17,"map":"pl_badwater","folder":"tf","game":"Team Fortress","app_id":440,"player_count":0,"max_players":24,"Bots":0,"server_type":"Dedicated","server_os":"Linux","password":true,"vac":true,"version":"7932396","steam_id":85568392924485349,"keywords":["nocrits","nodmgspread","payload","uncletopia"],"game_id":440,"stv_port":27016,"stv_name":"Uncletopia | S√£o Paulo | 2 | All Maps | STV","players":null},{"server_id":7,"name":"Uncletopia | Seattle | 1 | All Maps","name_short":"sea-1","host":"sea-1.us.uncletopia.com","port":27015,"enabled":true,"region":"us-west","cc":"us","latitude":47.608013,"longitude":-122.33517,"reserved":0,"last_update":"0001-01-01T00:00:00Z","name_a2s":"Uncletopia | Seattle | 1 | All Maps","protocol":17,"map":"pl_barnblitz","folder":"tf","game":"Team Fortress","app_id":440,"player_count":2,"max_players":24,"Bots":0,"server_type":"Dedicated","server_os":"Linux","password":true,"vac":true,"version":"7932396","steam_id":85568392924469997,"keywords":["nocrits","nodmgspread","payload","uncletopia"],"game_id":440,"stv_port":27016,"stv_name":"Uncletopia | Seattle | 1 | All Maps | STV","players":[{"user_id":20,"name":"Good Christian boy","steam_id":76561199190492674,"connected_time":293000000000,"state":"active","ping":117},{"user_id":21,"name":"kalikami26","steam_id":76561199002797909,"connected_time":109000000000,"state":"active","ping":248}]},{"server_id":119,"name":"Uncletopia | Seattle | 2 | All Maps","name_short":"sea-2","host":"sea-1.us.uncletopia.com","port":27025,"enabled":true,"region":"us-west","cc":"us","latitude":47.608013,"longitude":-122.33517,"reserved":0,"last_update":"0001-01-01T00:00:00Z","name_a2s":"Uncletopia | Seattle | 2 | All Maps","protocol":17,"map":"cp_dustbowl","folder":"tf","game":"Team Fortress","app_id":440,"player_count":0,"max_players":24,"Bots":0,"server_type":"Dedicated","server_os":"Linux","password":true,"vac":true,"version":"7932396","steam_id":85568392924469998,"keywords":["cp","nocrits","nodmgspread","uncletopia"],"game_id":440,"stv_port":27026,"stv_name":"Uncletopia | Seattle | 2 | All Maps | STV","players":null},{"server_id":406,"name":"Uncletopia | Seattle | 3 | Stopwatch Beta","name_short":"sea-3","host":"sea-1.us.uncletopia.com","port":27035,"enabled":true,"region":"us-west","cc":"us","latitude":47.608013,"longitude":-122.33517,"reserved":0,"last_update":"0001-01-01T00:00:00Z","name_a2s":"Uncletopia | Seattle | 3 | Stopwatch Beta","protocol":17,"map":"cp_mountainlab","folder":"tf","game":"Team Fortress","app_id":440,"player_count":0,"max_players":24,"Bots":0,"server_type":"Dedicated","server_os":"Linux","password":true,"vac":true,"version":"7932396","steam_id":85568392924515217,"keywords":["cp","nocrits","nodmgspread","uncletopia"],"game_id":440,"stv_port":27036,"stv_name":"Uncletopia | Seattle | 3 | Stopwatch Beta | STV","players":null},{"server_id":17,"name":"Uncletopia | San Francisco | 1 | All Maps","name_short":"sfo-1","host":"sfo-1.us.uncletopia.com","port":27015,"enabled":true,"region":"us-west","cc":"us","latitude":37.77397,"longitude":-122.4313,"reserved":0,"last_update":"0001-01-01T00:00:00Z","name_a2s":"Uncletopia | San Francisco | 1 | All Maps","protocol":17,"map":"pl_frontier_final","folder":"tf","game":"Team Fortress","app_id":440,"player_count":0,"max_players":24,"Bots":0,"server_type":"Dedicated","server_os":"Linux","password":true,"vac":true,"version":"7932396","steam_id":85568392924469999,"keywords":["nocrits","nodmgspread","payload","uncletopia"],"game_id":440,"stv_port":27016,"stv_name":"Uncletopia | San Francisco | 1 | All Maps | STV","players":null},{"server_id":18,"name":"Uncletopia | San Francisco | 2 | All Maps","name_short":"sfo-2","host":"sfo-1.us.uncletopia.com","port":27025,"enabled":true,"region":"us-west","cc":"us","latitude":37.77397,"longitude":-122.4313,"reserved":0,"last_update":"0001-01-01T00:00:00Z","name_a2s":"Uncletopia | San Francisco | 2 | All Maps","protocol":17,"map":"cp_snakewater_final1","folder":"tf","game":"Team Fortress","app_id":440,"player_count":0,"max_players":24,"Bots":0,"server_type":"Dedicated","server_os":"Linux","password":true,"vac":true,"version":"7932396","steam_id":85568392924470000,"keywords":["cp","nocrits","nodmgspread","uncletopia"],"game_id":440,"stv_port":27026,"stv_name":"Uncletopia | San Francisco | 2 | All Maps | STV","players":null},{"server_id":19,"name":"Uncletopia | San Francisco | 3 | Stopwatch Beta","name_short":"sfo-3","host":"sfo-1.us.uncletopia.com","port":27035,"enabled":true,"region":"us-west","cc":"us","latitude":37.77397,"longitude":-122.4313,"reserved":0,"last_update":"0001-01-01T00:00:00Z","name_a2s":"Uncletopia | San Francisco | 3 | Stopwatch Beta","protocol":17,"map":"koth_lakeside_final","folder":"tf","game":"Team Fortress","app_id":440,"player_count":0,"max_players":24,"Bots":0,"server_type":"Dedicated","server_os":"Linux","password":true,"vac":true,"version":"7932396","steam_id":85568392924742824,"keywords":["cp","nocrits","nodmgspread","uncletopia"],"game_id":440,"stv_port":27036,"stv_name":"Uncletopia | San Francisco | 3 | Stopwatch Beta | STV","players":null},{"server_id":20,"name":"Uncletopia | San Francisco | 4 | Community","name_short":"sfo-4","host":"sfo-1.us.uncletopia.com","port":27045,"enabled":true,"region":"us-west","cc":"us","latitude":37.77397,"longitude":-122.4313,"reserved":0,"last_update":"0001-01-01T00:00:00Z","name_a2s":"Uncletopia | San Francisco | 4 | Community","protocol":17,"map":"pl_borneo","folder":"tf","game":"Team Fortress","app_id":440,"player_count":0,"max_players":24,"Bots":0,"server_type":"Dedicated","server_os":"Linux","password":true,"vac":true,"version":"7932396","steam_id":85568392924742826,"keywords":["nocrits","nodmgspread","payload","uncletopia"],"game_id":440,"stv_port":27046,"stv_name":"Uncletopia | San Francisco | 4 | Community | STV","players":null},{"server_id":141,"name":"Uncletopia | Sydney | 1 | All Maps","name_short":"syd-1","host":"syd-1.au.uncletopia.com","port":27015,"enabled":true,"region":"au","cc":"au","latitude":-33.865143,"longitude":151.2099,"reserved":0,"last_update":"0001-01-01T00:00:00Z","name_a2s":"Uncletopia | Sydney | 1 | All Maps","protocol":17,"map":"pl_upward","folder":"tf","game":"Team Fortress","app_id":440,"player_count":0,"max_players":24,"Bots":0,"server_type":"Dedicated","server_os":"Linux","password":true,"vac":true,"version":"7932396","steam_id":85568392924470001,"keywords":["nocrits","nodmgspread","payload","uncletopia"],"game_id":440,"stv_port":27016,"stv_name":"Uncletopia | Sydney | 1 | All Maps | STV","players":null},{"server_id":123,"name":"Uncletopia | Sydney | 2 | All Maps","name_short":"syd-2","host":"syd-1.au.uncletopia.com","port":27025,"enabled":true,"region":"au","cc":"au","latitude":-33.865143,"longitude":151.2099,"reserved":0,"last_update":"0001-01-01T00:00:00Z","name_a2s":"Uncletopia | Sydney | 2 | All Maps","protocol":17,"map":"koth_highpass","folder":"tf","game":"Team Fortress","app_id":440,"player_count":0,"max_players":24,"Bots":0,"server_type":"Dedicated","server_os":"Linux","password":true,"vac":true,"version":"7932396","steam_id":85568392924470002,"keywords":["cp","nocrits","nodmgspread","uncletopia"],"game_id":440,"stv_port":27026,"stv_name":"Uncletopia | Sydney | 2 | All Maps | STV","players":null},{"server_id":395,"name":"Uncletopia | Sydney | 3 | All Maps","name_short":"syd-3","host":"syd-1.au.uncletopia.com","port":27035,"enabled":true,"region":"au","cc":"au","latitude":-33.865143,"longitude":151.2099,"reserved":0,"last_update":"0001-01-01T00:00:00Z","name_a2s":"Uncletopia | Sydney | 3 | All Maps","protocol":17,"map":"koth_highpass","folder":"tf","game":"Team Fortress","app_id":440,"player_count":0,"max_players":24,"Bots":0,"server_type":"Dedicated","server_os":"Linux","password":true,"vac":true,"version":"7932396","steam_id":85568392925194467,"keywords":["cp","nocrits","nodmgspread","uncletopia"],"game_id":440,"stv_port":27036,"stv_name":"Uncletopia | Sydney | 3 | All Maps | STV","players":null},{"server_id":396,"name":"Uncletopia | Sydney | 4 | All Maps","name_short":"syd-4","host":"syd-1.au.uncletopia.com","port":27045,"enabled":true,"region":"au","cc":"au","latitude":-33.865143,"longitude":151.2099,"reserved":0,"last_update":"0001-01-01T00:00:00Z","name_a2s":"Uncletopia | Sydney | 4 | All Maps","protocol":17,"map":"cp_mountainlab","folder":"tf","game":"Team Fortress","app_id":440,"player_count":0,"max_players":24,"Bots":0,"server_type":"Dedicated","server_os":"Linux","password":true,"vac":true,"version":"7932396","steam_id":85568392925397958,"keywords":["cp","nocrits","nodmgspread","uncletopia"],"game_id":440,"stv_port":27046,"stv_name":"Uncletopia | Sydney | 4 | All Maps | STV","players":null},{"server_id":58,"name":"Uncletopia | Sydney | 5 | Stopwatch Beta","name_short":"syd-5","host":"syd-1.au.uncletopia.com","port":27055,"enabled":true,"region":"au","cc":"au","latitude":-33.865143,"longitude":151.2099,"reserved":0,"last_update":"0001-01-01T00:00:00Z","name_a2s":"Uncletopia | Sydney | 5 | Stopwatch Beta","protocol":17,"map":"workshop/koth_ashville_final.ugc2130459942","folder":"tf","game":"Team Fortress","app_id":440,"player_count":0,"max_players":24,"Bots":0,"server_type":"Dedicated","server_os":"Linux","password":true,"vac":true,"version":"7932396","steam_id":85568392925397959,"keywords":["cp","nocrits","nodmgspread","uncletopia"],"game_id":440,"stv_port":27056,"stv_name":"Uncletopia | Sydney | 5 | Stopwatch Beta | STV","players":null},{"server_id":59,"name":"Uncletopia | Sydney | 6 | Community","name_short":"syd-6","host":"syd-1.au.uncletopia.com","port":27065,"enabled":true,"region":"au","cc":"au","latitude":-33.865143,"longitude":151.2099,"reserved":0,"last_update":"0001-01-01T00:00:00Z","name_a2s":"Uncletopia | Sydney | 6 | Community","protocol":17,"map":"workshop/koth_product_final.ugc454272353","folder":"tf","game":"Team Fortress","app_id":440,"player_count":0,"max_players":24,"Bots":0,"server_type":"Dedicated","server_os":"Linux","password":true,"vac":true,"version":"7932396","steam_id":85568392925397960,"keywords":["cp","nocrits","nodmgspread","uncletopia"],"game_id":440,"stv_port":27066,"stv_name":"Uncletopia | Sydney | 6 | Community | STV","players":null},{"server_id":49,"name":"Uncletopia | Warsaw | 1 | All Maps","name_short":"waw-1","host":"waw-1.pl.uncletopia.com","port":27015,"enabled":true,"region":"eu","cc":"pl","latitude":52.2297,"longitude":21.017532,"reserved":0,"last_update":"0001-01-01T00:00:00Z","name_a2s":"","protocol":0,"map":"","folder":"","game":"","app_id":0,"player_count":0,"max_players":0,"Bots":0,"server_type":"","server_os":"","password":false,"vac":false,"version":"","steam_id":0,"keywords":null,"game_id":0,"stv_port":0,"stv_name":"","players":null},{"server_id":50,"name":"Uncletopia | Warsaw | 2 | All Maps","name_short":"waw-2","host":"waw-1.pl.uncletopia.com","port":27025,"enabled":true,"region":"eu","cc":"pl","latitude":52.2297,"longitude":21.017532,"reserved":0,"last_update":"0001-01-01T00:00:00Z","name_a2s":"Uncletopia | Warsaw | 2 | All Maps","protocol":17,"map":"koth_lakeside_final","folder":"tf","game":"Team Fortress","app_id":440,"player_count":0,"max_players":24,"Bots":0,"server_type":"Dedicated","server_os":"Linux","password":true,"vac":true,"version":"7932396","steam_id":85568392925397851,"keywords":["cp","nocrits","nodmgspread","uncletopia"],"game_id":440,"stv_port":27026,"stv_name":"Uncletopia | Warsaw | 2 | All Maps | STV","players":null},{"server_id":51,"name":"Uncletopia | Warsaw | 3 | All Maps","name_short":"waw-3","host":"waw-1.pl.uncletopia.com","port":27035,"enabled":true,"region":"eu","cc":"pl","latitude":52.2297,"longitude":21.017532,"reserved":0,"last_update":"0001-01-01T00:00:00Z","name_a2s":"Uncletopia | Warsaw | 3 | All Maps","protocol":17,"map":"koth_lakeside_final","folder":"tf","game":"Team Fortress","app_id":440,"player_count":0,"max_players":24,"Bots":0,"server_type":"Dedicated","server_os":"Linux","password":true,"vac":true,"version":"7932396","steam_id":85568392925397852,"keywords":["cp","nocrits","nodmgspread","uncletopia"],"game_id":440,"stv_port":27036,"stv_name":"Uncletopia | Warsaw | 3 | All Maps | STV","players":null},{"server_id":52,"name":"Uncletopia | Warsaw | 4 | All Maps","name_short":"waw-4","host":"waw-1.pl.uncletopia.com","port":27045,"enabled":true,"region":"eu","cc":"pl","latitude":52.2297,"longitude":21.017532,"reserved":0,"last_update":"0001-01-01T00:00:00Z","name_a2s":"Uncletopia | Warsaw | 4 | All Maps","protocol":17,"map":"pl_badwater","folder":"tf","game":"Team Fortress","app_id":440,"player_count":24,"max_players":24,"Bots":0,"server_type":"Dedicated","server_os":"Linux","password":true,"vac":true,"version":"7932396","steam_id":85568392925397853,"keywords":["nocrits","nodmgspread","payload","uncletopia"],"game_id":440,"stv_port":27046,"stv_name":"Uncletopia | Warsaw | 4 | All Maps | STV","players":[{"user_id":62,"name":"lagzer","steam_id":76561198029295449,"connected_time":496000000000,"state":"active","ping":48},{"user_id":33,"name":"Wafes","steam_id":76561198065625467,"connected_time":2271000000000,"state":"active","ping":93},{"user_id":51,"name":"grand El bozo","steam_id":76561198866358613,"connected_time":1351000000000,"state":"active","ping":169},{"user_id":49,"name":"Rocketman 11890","steam_id":76561198117858919,"connected_time":1524000000000,"state":"active","ping":97},{"user_id":69,"name":"NikIdamous","steam_id":76561198147872963,"connected_time":177000000000,"state":"active","ping":95},{"user_id":65,"name":"Fist","steam_id":76561199141290973,"connected_time":410000000000,"state":"active","ping":112},{"user_id":54,"name":"skith","steam_id":76561198192190569,"connected_time":1284000000000,"state":"active","ping":79},{"user_id":66,"name":"Well, off to hang myself","steam_id":76561198053374944,"connected_time":398000000000,"state":"active","ping":81},{"user_id":52,"name":"Glebnat","steam_id":76561198951398452,"connected_time":1331000000000,"state":"active","ping":73},{"user_id":60,"name":"M√©bh √ìg MacT√≠re","steam_id":76561198346399624,"connected_time":876000000000,"state":"active","ping":56},{"user_id":21,"name":"widzZz","steam_id":76561197972820255,"connected_time":3014000000000,"state":"active","ping":60},{"user_id":61,"name":"shakebell","steam_id":76561197970795094,"connected_time":870000000000,"state":"active","ping":87},{"user_id":53,"name":"Javier dorsaless","steam_id":76561198179324075,"connected_time":1325000000000,"state":"active","ping":91},{"user_id":58,"name":"milosz","steam_id":76561198055181466,"connected_time":1111000000000,"state":"active","ping":46},{"user_id":59,"name":"soda","steam_id":76561198202990635,"connected_time":942000000000,"state":"active","ping":39},{"user_id":27,"name":"Spilla","steam_id":76561198062344040,"connected_time":2813000000000,"state":"active","ping":88},{"user_id":39,"name":"Malorn Aetherius","steam_id":76561198068257989,"connected_time":2050000000000,"state":"active","ping":80},{"user_id":55,"name":"Yuzu","steam_id":76561198121694613,"connected_time":1273000000000,"state":"active","ping":74},{"user_id":56,"name":"oriano","steam_id":76561198099916327,"connected_time":1256000000000,"state":"active","ping":85},{"user_id":57,"name":"dancle une","steam_id":76561197968945306,"connected_time":1165000000000,"state":"active","ping":101},{"user_id":47,"name":"Holo","steam_id":76561198348567663,"connected_time":1922000000000,"state":"active","ping":58},{"user_id":48,"name":"gingus bobing IV","steam_id":76561198197851753,"connected_time":1554000000000,"state":"active","ping":57},{"user_id":45,"name":"barterxd69","steam_id":76561199229390762,"connected_time":1963000000000,"state":"active","ping":178},{"user_id":68,"name":"Chary","steam_id":76561199090461064,"connected_time":321000000000,"state":"active","ping":111}]},{"server_id":53,"name":"Uncletopia | Warsaw | 5 | Stopwatch Beta","name_short":"waw-5","host":"waw-1.pl.uncletopia.com","port":27055,"enabled":true,"region":"eu","cc":"pl","latitude":52.2297,"longitude":21.017532,"reserved":0,"last_update":"0001-01-01T00:00:00Z","name_a2s":"Uncletopia | Warsaw | 5 | Stopwatch Beta","protocol":17,"map":"koth_highpass","folder":"tf","game":"Team Fortress","app_id":440,"player_count":0,"max_players":24,"Bots":0,"server_type":"Dedicated","server_os":"Linux","password":true,"vac":true,"version":"7932396","steam_id":85568392925397854,"keywords":["cp","nocrits","nodmgspread","uncletopia"],"game_id":440,"stv_port":27056,"stv_name":"Uncletopia | Warsaw | 5 | Stopwatch Beta | STV","players":null},{"server_id":54,"name":"Uncletopia | Warsaw | 6 | Community","name_short":"waw-6","host":"waw-1.pl.uncletopia.com","port":27065,"enabled":true,"region":"eu","cc":"pl","latitude":52.2297,"longitude":21.017532,"reserved":0,"last_update":"0001-01-01T00:00:00Z","name_a2s":"Uncletopia | Warsaw | 6 | Community","protocol":17,"map":"pl_upward","folder":"tf","game":"Team Fortress","app_id":440,"player_count":2,"max_players":24,"Bots":0,"server_type":"Dedicated","server_os":"Linux","password":true,"vac":true,"version":"7932396","steam_id":85568392925397856,"keywords":["nocrits","nodmgspread","payload","uncletopia"],"game_id":440,"stv_port":27066,"stv_name":"Uncletopia | Warsaw | 6 | Community | STV","players":[{"user_id":3,"name":"ZazaBoi420","steam_id":76561199070648408,"connected_time":92000000000,"state":"active","ping":56},{"user_id":4,"name":"Antony","steam_id":76561199024875276,"connected_time":70000000000,"state":"active","ping":45}]}]}