{"status":true,"message":"","result":[{"server_id":9,"name":"Uncletopia | Atlanta | 1 | All Maps","name_short":"atl-1","host":"atl-1.us.uncletopia.com","port":27015,"enabled":true,"region":"us-east","cc":"us","latitude":33.753746,"longitude":-84.38633,"reserved":0,"last_update":"0001-01-01T00:00:00Z","name_a2s":"Uncletopia | Atlanta | 1 | All Maps","protocol":17,"map":"pl_upward","folder":"tf","game":"Team Fortress","app_id":440,"player_count":23,"max_players":24,"Bots":0,"server_type":"Dedicated","server_os":"Linux","password":true,"vac":true,"version":"7757534","steam_id":85568392924469982,"keywords":["nocrits","nodmgspread","payload","uncletopia"],"game_id":440,"stv_port":27016,"stv_name":"Uncletopia | Atlanta | 1 | All Maps | STV","players":[{"user_id":709,"name":"Dr. Strangelove","steam_id":76561198014593467,"connected_time":221000000000,"state":"active","ping":33},{"user_id":697,"name":"Sol","steam_id":76561199008085020,"connected_time":1532000000000,"state":"active","ping":46},{"user_id":707,"name":"Large Man","steam_id":76561198880396651,"connected_time":436000000000,"state":"active","ping":70},{"user_id":630,"name":"schizophrenic with a gun","steam_id":76561198016121536,"connected_time":5059000000000,"state":"active","ping":70},{"user_id":706,"name":"Shot","steam_id":76561199028961188,"connected_time":508000000000,"state":"active","ping":74},{"user_id":710,"name":"broob swaggger","steam_id":76561198318168646,"connected_time":200000000000,"state":"active","ping":91},{"user_id":647,"name":"OrangeCrab","steam_id":76561198982248872,"connected_time":4545000000000,"state":"active","ping":61},{"user_id":704,"name":"a team of ants doing their best","steam_id":76561198440145948,"connected_time":905000000000,"state":"active","ping":53},{"user_id":662,"name":"wire-guided","steam_id":76561198055407168,"connected_time":4079000000000,"state":"active","ping":54},{"user_id":700,"name":"harry gooch","steam_id":76561198024817457,"connected_time":1219000000000,"state":"active","ping":62},{"user_id":688,"name":"AlaNo","steam_id":76561198133099582,"connected_time":2013000000000,"state":"active","ping":109},{"user_id":703,"name":"Erikk the Fart Smeller","steam_id":76561198142699958,"connected_time":937000000000,"state":"active","ping":63},{"user_id":705,"name":"lil hog","steam_id":76561199230929836,"connected_time":819000000000,"state":"active","ping":77},{"user_id":717,"name":"THIRDPIERCE","steam_id":76561198405366314,"connected_time":5000000000,"state":"spawning","ping":84},{"user_id":712,"name":"Raztec","steam_id":76561198138690145,"connected_time":98000000000,"state":"active","ping":102},{"user_id":713,"name":"Childhood Obesity","steam_id":76561198061190813,"connected_time":46000000000,"state":"active","ping":130},{"user_id":529,"name":"Lucy","steam_id":76561198032590343,"connected_time":12890000000000,"state":"active","ping":79},{"user_id":635,"name":"fitotutus","steam_id":76561197974993253,"connected_time":4954000000000,"state":"active","ping":86},{"user_id":718,"name":"19 ssnb","steam_id":76561198077902438,"connected_time":4000000000,"state":"spawning","ping":56},{"user_id":715,"name":"breakbeat froggy","steam_id":76561198079405234,"connected_time":37000000000,"state":"active","ping":62},{"user_id":716,"name":"Alarmed Felix","steam_id":76561198167208311,"connected_time":33000000000,"state":"active","ping":159},{"user_id":659,"name":"Tay1Qr","steam_id":76561198082809935,"connected_time":4257000000000,"state":"active","ping":63},{"user_id":690,"name":"Chuck Finley","steam_id":76561198027411284,"connected_time":1960000000000,"state":"active","ping":80}]},{"server_id":400,"name":"Uncletopia | Atlanta | 3 | Community","name_short":"atl-3","host":"atl-1.us.uncletopia.com","port":27035,"enabled":true,"region":"us-east","cc":"us","latitude":33.753746,"longitude":-84.38633,"reserved":0,"last_update":"0001-01-01T00:00:00Z","name_a2s":"Uncletopia | Atlanta | 3 | Community","protocol":17,"map":"workshop/cp_bruhstbowl_b5.ugc2878604990","folder":"tf","game":"Team Fortress","app_id":440,"player_count":7,"max_players":32,"Bots":0,"server_type":"Dedicated","server_os":"Linux","password":true,"vac":true,"version":"7757534","steam_id":85568392924515187,"keywords":["cp","increased_maxplayers","nocrits","nodmgspread","uncletopia"],"game_id":440,"stv_port":27036,"stv_name":"Uncletopia | Atlanta | 3 | Community | STV","players":[{"user_id":29,"name":"Momma_Milky123","steam_id":76561199149697526,"connected_time":892000000000,"state":"active","ping":118},{"user_id":23,"name":"Jäger2316","steam_id":76561197974928362,"connected_time":2394000000000,"state":"active","ping":71},{"user_id":24,"name":"Deadlynx5","steam_id":76561198267021472,"connected_time":2389000000000,"state":"active","ping":62},{"user_id":25,"name":"Zero","steam_id":76561198142112204,"connected_time":1945000000000,"state":"active","ping":85},{"user_id":30,"name":"monkey","steam_id":76561199001982443,"connected_time":783000000000,"state":"active","ping":104},{"user_id":31,"name":"Shy","steam_id":76561198394890836,"connected_time":691000000000,"state":"active","ping":48},{"user_id":32,"name":"Gods Drunkest Driver","steam_id":76561198390108910,"connected_time":179000000000,"state":"active","ping":118}]},{"server_id":401,"name":"Uncletopia | Atlanta | 4 | No Payload","name_short":"atl-4","host":"atl-1.us.uncletopia.com","port":27045,"enabled":true,"region":"us-east","cc":"us","latitude":33.753746,"longitude":-84.38633,"reserved":0,"last_update":"0001-01-01T00:00:00Z","name_a2s":"","protocol":0,"map":"","folder":"","game":"","app_id":0,"player_count":0,"max_players":0,"Bots":0,"server_type":"","server_os":"","password":false,"vac":false,"version":"","steam_id":0,"keywords":null,"game_id":0,"stv_port":0,"stv_name":"","players":null},{"server_id":2,"name":"Uncletopia | Chicago | 1 | All Maps","name_short":"chi-1","host":"chi-1.us.uncletopia.com","port":27015,"enabled":true,"region":"us-central","cc":"us","latitude":41.881832,"longitude":-87.62318,"reserved":0,"last_update":"0001-01-01T00:00:00Z","name_a2s":"Uncletopia | Chicago | 1 | All Maps","protocol":17,"map":"cp_sunshine","folder":"tf","game":"Team Fortress","app_id":440,"player_count":20,"max_players":24,"Bots":0,"server_type":"Dedicated","server_os":"Linux","password":true,"vac":true,"version":"7757534","steam_id":85568392924469984,"keywords":["cp","nocrits","nodmgspread","uncletopia"],"game_id":440,"stv_port":27016,"stv_name":"Uncletopia | Chicago | 1 | All Maps | STV","players":[{"user_id":767,"name":"buzz #TF2Center","steam_id":76561198107899101,"connected_time":3768000000000,"state":"active","ping":67},{"user_id":817,"name":"Atomic Waffles","steam_id":76561197970935570,"connected_time":23000000000,"state":"active","ping":73},{"user_id":791,"name":"Starlie","steam_id":76561198102100102,"connected_time":2218000000000,"state":"active","ping":124},{"user_id":815,"name":"Mitchu The Bidness Man","steam_id":76561198102494381,"connected_time":454000000000,"state":"active","ping":61},{"user_id":812,"name":"Boo! Boo I Say!","steam_id":76561198272427405,"connected_time":788000000000,"state":"active","ping":75},{"user_id":802,"name":"MagicalBoyChan","steam_id":76561198024776873,"connected_time":1659000000000,"state":"active","ping":99},{"user_id":772,"name":"Mani","steam_id":76561198139428711,"connected_time":3522000000000,"state":"active","ping":60},{"user_id":816,"name":"pathways","steam_id":76561198054832333,"connected_time":177000000000,"state":"active","ping":57},{"user_id":773,"name":"Zeta","steam_id":76561198066702587,"connected_time":3501000000000,"state":"active","ping":72},{"user_id":809,"name":"reni","steam_id":76561199192183787,"connected_time":979000000000,"state":"active","ping":114},{"user_id":775,"name":"ccat","steam_id":76561198281773224,"connected_time":3445000000000,"state":"active","ping":89},{"user_id":784,"name":"Octobeann","steam_id":76561199033746522,"connected_time":2837000000000,"state":"active","ping":95},{"user_id":776,"name":"nathaniel b the ocky way","steam_id":76561198321627268,"connected_time":3439000000000,"state":"active","ping":127},{"user_id":810,"name":"JoySlip","steam_id":76561198269476149,"connected_time":973000000000,"state":"active","ping":107},{"user_id":777,"name":"Simply V","steam_id":76561199058243841,"connected_time":3431000000000,"state":"active","ping":190},{"user_id":661,"name":"chloe","steam_id":76561198369849908,"connected_time":10611000000000,"state":"active","ping":74},{"user_id":804,"name":"gaming time","steam_id":76561198036922641,"connected_time":1615000000000,"state":"active","ping":57},{"user_id":764,"name":"The Land Admiral","steam_id":76561198159356609,"connected_time":4647000000000,"state":"active","ping":73},{"user_id":787,"name":"GoldtoothFour","steam_id":76561198055529332,"connected_time":2582000000000,"state":"active","ping":55},{"user_id":814,"name":"Hugo","steam_id":76561198045581609,"connected_time":671000000000,"state":"active","ping":64}]},{"server_id":106,"name":"Uncletopia | Chicago | 2 | All Maps","name_short":"chi-2","host":"chi-1.us.uncletopia.com","port":27025,"enabled":true,"region":"us-central","cc":"us","latitude":41.881832,"longitude":-87.62318,"reserved":0,"last_update":"0001-01-01T00:00:00Z","name_a2s":"Uncletopia | Chicago | 2 | All Maps","protocol":17,"map":"pl_borneo","folder":"tf","game":"Team Fortress","app_id":440,"player_count":0,"max_players":24,"Bots":0,"server_type":"Dedicated","server_os":"Linux","password":true,"vac":true,"version":"7757534","steam_id":85568392924469985,"keywords":["nocrits","nodmgspread","payload","uncletopia"],"game_id":440,"stv_port":27026,"stv_name":"Uncletopia | Chicago | 2 | All Maps | STV","players":null},{"server_id":402,"name":"Uncletopia | Chicago | 3 | All Maps","name_short":"chi-3","host":"chi-1.us.uncletopia.com","port":27035,"enabled":true,"region":"us-central","cc":"us","latitude":41.881832,"longitude":-87.62318,"reserved":0,"last_update":"0001-01-01T00:00:00Z","name_a2s":"Uncletopia | Chicago | 3 | All Maps","protocol":17,"map":"pl_frontier_final","folder":"tf","game":"Team Fortress","app_id":440,"player_count":24,"max_players":24,"Bots":0,"server_type":"Dedicated","server_os":"Linux","password":true,"vac":true,"version":"7757534","steam_id":85568392924515191,"keywords":["nocrits","nodmgspread","payload","uncletopia"],"game_id":440,"stv_port":27036,"stv_name":"Uncletopia | Chicago | 3 | All Maps | STV","players":[{"user_id":721,"name":"ZBaldTop","steam_id":76561199396318132,"connected_time":429000000000,"state":"active","ping":46},{"user_id":702,"name":"rkp!","steam_id":76561199053070819,"connected_time":1440000000000,"state":"active","ping":57},{"user_id":673,"name":"Yoloisnotded","steam_id":76561198995043589,"connected_time":3557000000000,"state":"active","ping":85},{"user_id":683,"name":"Butthole Surfer","steam_id":76561198020526407,"connected_time":2543000000000,"state":"active","ping":72},{"user_id":660,"name":"Nodin","steam_id":76561198135757376,"connected_time":4726000000000,"state":"active","ping":55},{"user_id":652,"name":"Cirno","steam_id":76561198283602302,"connected_time":4926000000000,"state":"active","ping":60},{"user_id":722,"name":"ContinuedBear","steam_id":76561198265176919,"connected_time":355000000000,"state":"active","ping":57},{"user_id":703,"name":"I love casting spells","steam_id":76561198116106967,"connected_time":1413000000000,"state":"active","ping":47},{"user_id":625,"name":"Trox","steam_id":76561198263581464,"connected_time":5706000000000,"state":"active","ping":80},{"user_id":685,"name":"Persona404","steam_id":76561198109635077,"connected_time":2516000000000,"state":"active","ping":83},{"user_id":704,"name":"Horace Wimp","steam_id":76561198087535001,"connected_time":1387000000000,"state":"active","ping":81},{"user_id":717,"name":"Fuzzama","steam_id":76561198253369815,"connected_time":550000000000,"state":"active","ping":57},{"user_id":715,"name":"fartboy","steam_id":76561198021917392,"connected_time":706000000000,"state":"active","ping":78},{"user_id":708,"name":"bjiru","steam_id":76561198058428668,"connected_time":1251000000000,"state":"active","ping":100},{"user_id":689,"name":"Duncan Idaho","steam_id":76561197988963861,"connected_time":2450000000000,"state":"active","ping":72},{"user_id":723,"name":"prestige worldwide (wide)","steam_id":76561198045655893,"connected_time":319000000000,"state":"active","ping":59},{"user_id":720,"name":"Mara Roo","steam_id":76561198279341789,"connected_time":472000000000,"state":"active","ping":103},{"user_id":725,"name":"n.","steam_id":76561198107213976,"connected_time":199000000000,"state":"active","ping":77},{"user_id":692,"name":"Gay Cake","steam_id":76561198004388831,"connected_time":2395000000000,"state":"active","ping":66},{"user_id":714,"name":"AMU","steam_id":76561198092346231,"connected_time":809000000000,"state":"active","ping":67},{"user_id":710,"name":"nolife","steam_id":76561198414300607,"connected_time":1197000000000,"state":"active","ping":117},{"user_id":711,"name":"BigOrca54","steam_id":76561198181360271,"connected_time":1189000000000,"state":"active","ping":65},{"user_id":712,"name":"Marcy2231","steam_id":76561198202323656,"connected_time":1181000000000,"state":"active","ping":75},{"user_id":696,"name":"Lt. Dan's Legs","steam_id":76561198043851584,"connected_time":2341000000000,"state":"active","ping":110}]},{"server_id":403,"name":"Uncletopia | Chicago | 4 | All Maps","name_short":"chi-4","host":"chi-1.us.uncletopia.com","port":27045,"enabled":true,"region":"us-central","cc":"us","latitude":41.881832,"longitude":-87.62318,"reserved":0,"last_update":"0001-01-01T00:00:00Z","name_a2s":"Uncletopia | Chicago | 4 | All Maps","protocol":17,"map":"pl_barnblitz","folder":"tf","game":"Team Fortress","app_id":440,"player_count":24,"max_players":24,"Bots":0,"server_type":"Dedicated","server_os":"Linux","password":true,"vac":true,"version":"7757534","steam_id":85568392924515193,"keywords":["nocrits","nodmgspread","payload","uncletopia"],"game_id":440,"stv_port":27046,"stv_name":"Uncletopia | Chicago | 4 | All Maps | STV","players":[{"user_id":652,"name":"MoonWolf","steam_id":76561198095735033,"connected_time":1446000000000,"state":"active","ping":85},{"user_id":619,"name":"FLaGMuFFiN","steam_id":76561198047690114,"connected_time":3187000000000,"state":"active","ping":47},{"user_id":618,"name":"Habba","steam_id":76561197986096340,"connected_time":3414000000000,"state":"active","ping":67},{"user_id":662,"name":"\u003e_\u003c\u003c\u003c\u003c\u003c\u003c","steam_id":76561198368102618,"connected_time":891000000000,"state":"active","ping":101},{"user_id":660,"name":"Klip","steam_id":76561198316254429,"connected_time":1135000000000,"state":"active","ping":79},{"user_id":666,"name":"K4le","steam_id":76561198747668363,"connected_time":424000000000,"state":"active","ping":105},{"user_id":621,"name":"RipstikBisquik","steam_id":76561198067493602,"connected_time":3103000000000,"state":"active","ping":71},{"user_id":651,"name":"Skitles434","steam_id":76561198151575542,"connected_time":1472000000000,"state":"active","ping":109},{"user_id":665,"name":"KOTH_SHE/HERVEST","steam_id":76561198029274581,"connected_time":568000000000,"state":"active","ping":66},{"user_id":667,"name":"Thirty Thirty","steam_id":76561197987242808,"connected_time":224000000000,"state":"active","ping":91},{"user_id":622,"name":"Burzurck","steam_id":76561198041936826,"connected_time":3096000000000,"state":"active","ping":68},{"user_id":623,"name":"faakinkant","steam_id":76561198115844174,"connected_time":3081000000000,"state":"active","ping":116},{"user_id":624,"name":"last_apoc","steam_id":76561197974910911,"connected_time":3060000000000,"state":"active","ping":58},{"user_id":663,"name":"U________U","steam_id":76561198126358045,"connected_time":875000000000,"state":"active","ping":65},{"user_id":648,"name":"☭","steam_id":76561198138444785,"connected_time":1808000000000,"state":"active","ping":88},{"user_id":668,"name":"Ativillu","steam_id":76561198381841894,"connected_time":79000000000,"state":"active","ping":56},{"user_id":631,"name":"Brendan","steam_id":76561198041079914,"connected_time":2689000000000,"state":"active","ping":72},{"user_id":632,"name":"JimboSlice","steam_id":76561199225336634,"connected_time":2663000000000,"state":"active","ping":62},{"user_id":633,"name":"C papi","steam_id":76561198027779564,"connected_time":2652000000000,"state":"active","ping":56},{"user_id":657,"name":"*****setget","steam_id":76561198118824188,"connected_time":1330000000000,"state":"active","ping":121},{"user_id":649,"name":"powergamer","steam_id":76561198041920607,"connected_time":1488000000000,"state":"active","ping":64},{"user_id":641,"name":"Bliztank | RGL.gg","steam_id":76561198019252798,"connected_time":2456000000000,"state":"active","ping":60},{"user_id":658,"name":"Le Peña","steam_id":76561198864220668,"connected_time":1300000000000,"state":"active","ping":86},{"user_id":644,"name":"Gustavo Fring","steam_id":76561198132807405,"connected_time":2346000000000,"state":"active","ping":91}]},{"server_id":36,"name":"Uncletopia | Chicago | 5 | All Maps","name_short":"chi-5","host":"chi-2.us.uncletopia.com","port":27015,"enabled":true,"region":"us-central","cc":"us","latitude":41.881832,"longitude":-87.62318,"reserved":0,"last_update":"0001-01-01T00:00:00Z","name_a2s":"Uncletopia | Chicago | 5 | All Maps","protocol":17,"map":"pl_badwater","folder":"tf","game":"Team Fortress","app_id":440,"player_count":0,"max_players":24,"Bots":0,"server_type":"Dedicated","server_os":"Linux","password":true,"vac":true,"version":"7757534","steam_id":85568392924866362,"keywords":["nocrits","nodmgspread","payload","uncletopia"],"game_id":440,"stv_port":27016,"stv_name":"Uncletopia | Chicago | 5 | All Maps | STV","players":null},{"server_id":37,"name":"Uncletopia | Chicago | 6 | All Maps","name_short":"chi-6","host":"chi-2.us.uncletopia.com","port":27025,"enabled":true,"region":"us-central","cc":"us","latitude":41.881832,"longitude":-87.62318,"reserved":0,"last_update":"0001-01-01T00:00:00Z","name_a2s":"Uncletopia | Chicago | 6 | All Maps","protocol":17,"map":"cp_mountainlab","folder":"tf","game":"Team Fortress","app_id":440,"player_count":0,"max_players":24,"Bots":0,"server_type":"Dedicated","server_os":"Linux","password":true,"vac":true,"version":"7757534","steam_id":85568392924866363,"keywords":["cp","nocrits","nodmgspread","uncletopia"],"game_id":440,"stv_port":27026,"stv_name":"Uncletopia | Chicago | 6 | All Maps | STV","players":null},{"server_id":38,"name":"Uncletopia | Chicago | 7 | Stopwatch Beta","name_short":"chi-7","host":"chi-2.us.uncletopia.com","port":27035,"enabled":true,"region":"us-central","cc":"us","latitude":41.881832,"longitude":-87.62318,"reserved":0,"last_update":"0001-01-01T00:00:00Z","name_a2s":"Uncletopia | Chicago | 7 | Stopwatch Beta","protocol":17,"map":"pl_upward","folder":"tf","game":"Team Fortress","app_id":440,"player_count":0,"max_players":24,"Bots":0,"server_type":"Dedicated","server_os":"Linux","password":true,"vac":true,"version":"7757534","steam_id":85568392924866364,"keywords":["nocrits","nodmgspread","payload","uncletopia"],"game_id":440,"stv_port":27036,"stv_name":"Uncletopia | Chicago | 7 | Stopwatch Beta | STV","players":null},{"server_id":39,"name":"Uncletopia | Chicago | 8 | Community","name_short":"chi-8","host":"chi-2.us.uncletopia.com","port":27045,"enabled":true,"region":"us-central","cc":"us","latitude":41.881832,"longitude":-87.62318,"reserved":0,"last_update":"0001-01-01T00:00:00Z","name_a2s":"Uncletopia | Chicago | 8 | Community","protocol":17,"map":"workshop/rd_asteroid_redux_b1.ugc2154902912","folder":"tf","game":"Team Fortress","app_id":440,"player_count":0,"max_players":24,"Bots":0,"server_type":"Dedicated","server_os":"Linux","password":true,"vac":true,"version":"7757534","steam_id":85568392924866365,"keywords":["beta","nocrits","nodmgspread","rd","uncletopia"],"game_id":440,"stv_port":27046,"stv_name":"Uncletopia | Chicago | 8 | Community | STV","players":null},{"server_id":8,"name":"Uncletopia | Dallas | 1 | All Maps","name_short":"dal-1","host":"dal-1.us.uncletopia.com","port":27015,"enabled":true,"region":"us-central","cc":"us","latitude":32.779167,"longitude":-96.80889,"reserved":0,"last_update":"0001-01-01T00:00:00Z","name_a2s":"Uncletopia | Dallas | 1 | All Maps","protocol":17,"map":"pl_frontier_final","folder":"tf","game":"Team Fortress","app_id":440,"player_count":24,"max_players":24,"Bots":0,"server_type":"Dedicated","server_os":"Linux","password":true,"vac":true,"version":"7757534","steam_id":85568392924469986,"keywords":["nocrits","nodmgspread","payload","uncletopia"],"game_id":440,"stv_port":27016,"stv_name":"Uncletopia | Dallas | 1 | All Maps | STV","players":[{"user_id":460,"name":"Hexalina","steam_id":76561198163665060,"connected_time":857000000000,"state":"active","ping":151},{"user_id":434,"name":"Squid121","steam_id":76561198038832034,"connected_time":2206000000000,"state":"active","ping":104},{"user_id":471,"name":"Hazardous Material","steam_id":76561198085815757,"connected_time":601000000000,"state":"active","ping":90},{"user_id":481,"name":"trans they gender she/her/they/","steam_id":76561198212470305,"connected_time":375000000000,"state":"active","ping":83},{"user_id":482,"name":"Mush","steam_id":76561198393461065,"connected_time":371000000000,"state":"active","ping":93},{"user_id":470,"name":"Fantastic","steam_id":76561198079088978,"connected_time":609000000000,"state":"active","ping":60},{"user_id":474,"name":"Vulpes","steam_id":76561198038929334,"connected_time":574000000000,"state":"active","ping":74},{"user_id":485,"name":"Yeshie the Dragon Layer","steam_id":76561198080214214,"connected_time":66000000000,"state":"active","ping":68},{"user_id":472,"name":"CrazyBaker","steam_id":76561198042558763,"connected_time":588000000000,"state":"active","ping":104},{"user_id":473,"name":"Alex Narex","steam_id":76561198814364412,"connected_time":585000000000,"state":"active","ping":79},{"user_id":475,"name":"LJ PRODUCTIONS","steam_id":76561198061697475,"connected_time":566000000000,"state":"active","ping":90},{"user_id":451,"name":"Doctor Crack","steam_id":76561198985058711,"connected_time":1098000000000,"state":"active","ping":81},{"user_id":445,"name":"CamoJakIV","steam_id":76561198081877794,"connected_time":1327000000000,"state":"active","ping":49},{"user_id":446,"name":"JZ","steam_id":76561198377029198,"connected_time":1270000000000,"state":"active","ping":68},{"user_id":465,"name":"strange bottle","steam_id":76561198250215874,"connected_time":734000000000,"state":"active","ping":102},{"user_id":476,"name":"The Bombinomicon","steam_id":76561198209881263,"connected_time":558000000000,"state":"active","ping":79},{"user_id":443,"name":"PaveLow","steam_id":76561198062313698,"connected_time":1562000000000,"state":"active","ping":97},{"user_id":387,"name":"Fox","steam_id":76561198063507627,"connected_time":4504000000000,"state":"active","ping":35},{"user_id":441,"name":"zinnk","steam_id":76561198092081825,"connected_time":1763000000000,"state":"active","ping":83},{"user_id":477,"name":"Does sonic shit","steam_id":76561199151398882,"connected_time":549000000000,"state":"active","ping":112},{"user_id":484,"name":"Coolerific","steam_id":76561198055729219,"connected_time":263000000000,"state":"active","ping":94},{"user_id":479,"name":"Sydney","steam_id":76561198797603297,"connected_time":490000000000,"state":"active","ping":49},{"user_id":480,"name":"mritea","steam_id":76561198872799796,"connected_time":490000000000,"state":"active","ping":114},{"user_id":483,"name":"Anderred","steam_id":76561198149983847,"connected_time":348000000000,"state":"active","ping":100}]},{"server_id":108,"name":"Uncletopia | Dallas | 2 | All Maps","name_short":"dal-2","host":"dal-1.us.uncletopia.com","port":27025,"enabled":true,"region":"us-central","cc":"us","latitude":32.779167,"longitude":-96.80889,"reserved":0,"last_update":"0001-01-01T00:00:00Z","name_a2s":"Uncletopia | Dallas | 2 | All Maps","protocol":17,"map":"cp_altitude","folder":"tf","game":"Team Fortress","app_id":440,"player_count":0,"max_players":24,"Bots":0,"server_type":"Dedicated","server_os":"Linux","password":true,"vac":true,"version":"7757534","steam_id":85568392924469988,"keywords":["cp","nocrits","nodmgspread","uncletopia"],"game_id":440,"stv_port":27026,"stv_name":"Uncletopia | Dallas | 2 | All Maps | STV","players":null},{"server_id":5,"name":"Uncletopia | Frankfurt | 1 | All Maps","name_short":"frk-1","host":"frk-1.de.uncletopia.com","port":27015,"enabled":true,"region":"eu","cc":"de","latitude":50.110924,"longitude":8.682127,"reserved":0,"last_update":"0001-01-01T00:00:00Z","name_a2s":"Uncletopia | Frankfurt | 1 | All Maps","protocol":17,"map":"pl_snowycoast","folder":"tf","game":"Team Fortress","app_id":440,"player_count":0,"max_players":24,"Bots":0,"server_type":"Dedicated","server_os":"Linux","password":true,"vac":true,"version":"7757534","steam_id":85568392924469989,"keywords":["nocrits","nodmgspread","payload","uncletopia"],"game_id":440,"stv_port":27016,"stv_name":"Uncletopia | Frankfurt | 1 | All Maps | STV","players":null},{"server_id":110,"name":"Uncletopia | Frankfurt | 2 | All Maps","name_short":"frk-2","host":"frk-1.de.uncletopia.com","port":27025,"enabled":true,"region":"eu","cc":"de","latitude":50.110924,"longitude":8.682127,"reserved":0,"last_update":"0001-01-01T00:00:00Z","name_a2s":"Uncletopia | Frankfurt | 2 | All Maps","protocol":17,"map":"pl_snowycoast","folder":"tf","game":"Team Fortress","app_id":440,"player_count":0,"max_players":24,"Bots":0,"server_type":"Dedicated","server_os":"Linux","password":true,"vac":true,"version":"7757534","steam_id":85568392924469990,"keywords":["nocrits","nodmgspread","payload","uncletopia"],"game_id":440,"stv_port":27026,"stv_name":"Uncletopia | Frankfurt | 2 | All Maps | STV","players":null},{"server_id":308,"name":"Uncletopia | Frankfurt | 3 | All Maps","name_short":"frk-3","host":"frk-1.de.uncletopia.com","port":27035,"enabled":true,"region":"eu","cc":"de","latitude":50.110924,"longitude":8.682127,"reserved":0,"last_update":"0001-01-01T00:00:00Z","name_a2s":"Uncletopia | Frankfurt | 3 | All Maps","protocol":17,"map":"cp_altitude","folder":"tf","game":"Team Fortress","app_id":440,"player_count":0,"max_players":24,"Bots":0,"server_type":"Dedicated","server_os":"Linux","password":true,"vac":true,"version":"7757534","steam_id":85568392924504274,"keywords":["cp","nocrits","nodmgspread","uncletopia"],"game_id":440,"stv_port":27036,"stv_name":"Uncletopia | Frankfurt | 3 | All Maps | STV","players":null},{"server_id":309,"name":"Uncletopia | Frankfurt | 4 | All Maps","name_short":"frk-4","host":"frk-1.de.uncletopia.com","port":27045,"enabled":true,"region":"eu","cc":"de","latitude":50.110924,"longitude":8.682127,"reserved":0,"last_update":"0001-01-01T00:00:00Z","name_a2s":"Uncletopia | Frankfurt | 4 | All Maps","protocol":17,"map":"cp_altitude","folder":"tf","game":"Team Fortress","app_id":440,"player_count":0,"max_players":24,"Bots":0,"server_type":"Dedicated","server_os":"Linux","password":true,"vac":true,"version":"7757534","steam_id":85568392924504275,"keywords":["cp","nocrits","nodmgspread","uncletopia"],"game_id":440,"stv_port":27046,"stv_name":"Uncletopia | Frankfurt | 4 | All Maps | STV","players":null},{"server_id":310,"name":"Uncletopia | Frankfurt | 5 | All Maps","name_short":"frk-5","host":"frk-1.de.uncletopia.com","port":27055,"enabled":true,"region":"eu","cc":"de","latitude":50.110924,"longitude":8.682127,"reserved":0,"last_update":"0001-01-01T00:00:00Z","name_a2s":"Uncletopia | Frankfurt | 5 | All Maps","protocol":17,"map":"cp_snakewater_final1","folder":"tf","game":"Team Fortress","app_id":440,"player_count":0,"max_players":24,"Bots":0,"server_type":"Dedicated","server_os":"Linux","password":true,"vac":true,"version":"7757534","steam_id":85568392924504277,"keywords":["cp","nocrits","nodmgspread","uncletopia"],"game_id":440,"stv_port":27056,"stv_name":"Uncletopia | Frankfurt | 5 | All Maps | STV","players":null},{"server_id":311,"name":"Uncletopia | Frankfurt | 6 | All Maps","name_short":"frk-6","host":"frk-1.de.uncletopia.com","port":27065,"enabled":true,"region":"eu","cc":"de","latitude":50.110924,"longitude":8.682127,"reserved":0,"last_update":"0001-01-01T00:00:00Z","name_a2s":"Uncletopia | Frankfurt | 6 | All Maps","protocol":17,"map":"koth_highpass","folder":"tf","game":"Team Fortress","app_id":440,"player_count":0,"max_players":24,"Bots":0,"server_type":"Dedicated","server_os":"Linux","password":true,"vac":true,"version":"7757534","steam_id":85568392924504278,"keywords":["cp","nocrits","nodmgspread","uncletopia"],"game_id":440,"stv_port":27066,"stv_name":"Uncletopia | Frankfurt | 6 | All Maps | STV","players":null},{"server_id":23,"name":"Uncletopia | Frankfurt | 7 | Stopwatch Beta","name_short":"frk-7","host":"frk-1.de.uncletopia.com","port":27075,"enabled":true,"region":"eu","cc":"de","latitude":50.110924,"longitude":8.682127,"reserved":0,"last_update":"0001-01-01T00:00:00Z","name_a2s":"Uncletopia | Frankfurt | 7 | Stopwatch Beta","protocol":17,"map":"pl_frontier_final","folder":"tf","game":"Team Fortress","app_id":440,"player_count":0,"max_players":24,"Bots":0,"server_type":"Dedicated","server_os":"Linux","password":true,"vac":true,"version":"7757534","steam_id":85568392924742827,"keywords":["nocrits","nodmgspread","payload","uncletopia"],"game_id":440,"stv_port":27076,"stv_name":"Uncletopia | Frankfurt | 7 | Stopwatch Beta | STV","players":null},{"server_id":24,"name":"Uncletopia | Frankfurt | 8 | Community","name_short":"frk-8","host":"frk-1.de.uncletopia.com","port":27085,"enabled":true,"region":"eu","cc":"de","latitude":50.110924,"longitude":8.682127,"reserved":0,"last_update":"0001-01-01T00:00:00Z","name_a2s":"Uncletopia | Frankfurt | 8 | Community","protocol":17,"map":"pl_badwater","folder":"tf","game":"Team Fortress","app_id":440,"player_count":0,"max_players":24,"Bots":0,"server_type":"Dedicated","server_os":"Linux","password":true,"vac":true,"version":"7757534","steam_id":85568392924742828,"keywords":["nocrits","nodmgspread","payload","uncletopia"],"game_id":440,"stv_port":27086,"stv_name":"Uncletopia | Frankfurt | 8 | Community | STV","players":null},{"server_id":202,"name":"Uncletopia | Hong Kong | 1 | All Maps","name_short":"hgk-1","host":"hgk-1.hk.uncletopia.com","port":27015,"enabled":true,"region":"asia","cc":"hk","latitude":22.302711,"longitude":114.177216,"reserved":0,"last_update":"0001-01-01T00:00:00Z","name_a2s":"Uncletopia | Hong Kong | 1 | All Maps","protocol":17,"map":"cp_mountainlab","folder":"tf","game":"Team Fortress","app_id":440,"player_count":0,"max_players":24,"Bots":0,"server_type":"Dedicated","server_os":"Linux","password":true,"vac":true,"version":"7757534","steam_id":85568392924494504,"keywords":["cp","nocrits","nodmgspread","uncletopia"],"game_id":440,"stv_port":27016,"stv_name":"Uncletopia | Hong Kong | 1 | All Maps | STV","players":null},{"server_id":1,"name":"Uncletopia | Los Angeles | 1 | All Maps","name_short":"lax-1","host":"lax-1.us.uncletopia.com","port":27015,"enabled":true,"region":"us-west","cc":"us","latitude":33.94279,"longitude":-118.41004,"reserved":0,"last_update":"0001-01-01T00:00:00Z","name_a2s":"Uncletopia | Los Angeles | 1 | All Maps","protocol":17,"map":"cp_altitude","folder":"tf","game":"Team Fortress","app_id":440,"player_count":8,"max_players":24,"Bots":0,"server_type":"Dedicated","server_os":"Linux","password":true,"vac":true,"version":"7757534","steam_id":85568392924469991,"keywords":["cp","nocrits","nodmgspread","uncletopia"],"game_id":440,"stv_port":27016,"stv_name":"Uncletopia | Los Angeles | 1 | All Maps | STV","players":[{"user_id":521,"name":"snub","steam_id":76561198312106312,"connected_time":2800000000000,"state":"active","ping":87},{"user_id":543,"name":"ballnelius ballfart","steam_id":76561198357137800,"connected_time":1218000000000,"state":"active","ping":88},{"user_id":528,"name":"Uta","steam_id":76561198271964253,"connected_time":2459000000000,"state":"active","ping":98},{"user_id":546,"name":"NiteWind","steam_id":76561198865162219,"connected_time":863000000000,"state":"active","ping":115},{"user_id":497,"name":"Dr. Hashbrown","steam_id":76561198410780370,"connected_time":4155000000000,"state":"active","ping":61},{"user_id":548,"name":"alemode","steam_id":76561198251033974,"connected_time":669000000000,"state":"active","ping":58},{"user_id":541,"name":"Unknown2Me","steam_id":76561199049192464,"connected_time":1361000000000,"state":"active","ping":59},{"user_id":549,"name":"mtn.dewdrinker1999","steam_id":76561198021308963,"connected_time":606000000000,"state":"active","ping":81}]},{"server_id":112,"name":"Uncletopia | Los Angeles | 2 | All Maps","name_short":"lax-2","host":"lax-1.us.uncletopia.com","port":27025,"enabled":true,"region":"us-west","cc":"us","latitude":33.94279,"longitude":-118.41004,"reserved":0,"last_update":"0001-01-01T00:00:00Z","name_a2s":"Uncletopia | Los Angeles | 2 | All Maps","protocol":17,"map":"koth_viaduct","folder":"tf","game":"Team Fortress","app_id":440,"player_count":0,"max_players":24,"Bots":0,"server_type":"Dedicated","server_os":"Linux","password":true,"vac":true,"version":"7757534","steam_id":85568392924469992,"keywords":["cp","nocrits","nodmgspread","uncletopia"],"game_id":440,"stv_port":27026,"stv_name":"Uncletopia | Los Angeles | 2 | All Maps | STV","players":null},{"server_id":324,"name":"Uncletopia | Los Angeles | 3 | All Maps","name_short":"lax-3","host":"lax-1.us.uncletopia.com","port":27035,"enabled":true,"region":"us-west","cc":"us","latitude":33.94279,"longitude":-118.41004,"reserved":0,"last_update":"0001-01-01T00:00:00Z","name_a2s":"Uncletopia | Los Angeles | 3 | All Maps","protocol":17,"map":"pl_badwater","folder":"tf","game":"Team Fortress","app_id":440,"player_count":13,"max_players":24,"Bots":0,"server_type":"Dedicated","server_os":"Linux","password":true,"vac":true,"version":"7757534","steam_id":85568392924510198,"keywords":["nocrits","nodmgspread","payload","uncletopia"],"game_id":440,"stv_port":27036,"stv_name":"Uncletopia | Los Angeles | 3 | All Maps | STV","players":[{"user_id":262,"name":"voidpuppy","steam_id":76561198799922000,"connected_time":372000000000,"state":"active","ping":45},{"user_id":227,"name":"serial humiliator","steam_id":76561198059772722,"connected_time":2999000000000,"state":"active","ping":60},{"user_id":258,"name":"A Glazed Donut","steam_id":76561198297536267,"connected_time":690000000000,"state":"active","ping":53},{"user_id":270,"name":"Zbob","steam_id":76561198150241775,"connected_time":19000000000,"state":"spawning","ping":78},{"user_id":260,"name":"albert jones","steam_id":76561198404271005,"connected_time":515000000000,"state":"active","ping":50},{"user_id":267,"name":"flux","steam_id":76561199213127917,"connected_time":99000000000,"state":"active","ping":70},{"user_id":263,"name":"bengineer","steam_id":76561198171912174,"connected_time":317000000000,"state":"active","ping":70},{"user_id":264,"name":"cory in the house","steam_id":76561198296933059,"connected_time":298000000000,"state":"active","ping":57},{"user_id":265,"name":"Flat Eric","steam_id":76561198114922735,"connected_time":183000000000,"state":"active","ping":103},{"user_id":231,"name":"Ślimak","steam_id":76561198296476784,"connected_time":2951000000000,"state":"active","ping":246},{"user_id":268,"name":"Volkan, Pervert Extraordinaire","steam_id":76561198004569575,"connected_time":57000000000,"state":"active","ping":116},{"user_id":250,"name":"golia","steam_id":76561198000264266,"connected_time":1444000000000,"state":"active","ping":58},{"user_id":261,"name":"level 7 firemancer","steam_id":76561198209571677,"connected_time":385000000000,"state":"active","ping":99}]},{"server_id":25,"name":"Uncletopia | Los Angeles | 4 | Stopwatch Beta","name_short":"lax-4","host":"lax-1.us.uncletopia.com","port":27045,"enabled":true,"region":"us-west","cc":"us","latitude":33.94279,"longitude":-118.41004,"reserved":0,"last_update":"0001-01-01T00:00:00Z","name_a2s":"Uncletopia | Los Angeles | 4 | Stopwatch Beta","protocol":17,"map":"pl_frontier_final","folder":"tf","game":"Team Fortress","app_id":440,"player_count":0,"max_players":24,"Bots":0,"server_type":"Dedicated","server_os":"Linux","password":true,"vac":true,"version":"7757534","steam_id":85568392924510199,"keywords":["nocrits","nodmgspread","payload","uncletopia"],"game_id":440,"stv_port":27046,"stv_name":"Uncletopia | Los Angeles | 4 | Stopwatch Beta | STV","players":null},{"server_id":11,"name":"Uncletopia | London | 1 | All Maps","name_short":"lon-1","host":"lon-1.uk.uncletopia.com","port":27015,"enabled":true,"region":"eu","cc":"gb","latitude":51.509865,"longitude":-0.118092,"reserved":0,"last_update":"0001-01-01T00:00:00Z","name_a2s":"Uncletopia | London | 1 | All Maps","protocol":17,"map":"pl_upward","folder":"tf","game":"Team Fortress","app_id":440,"player_count":7,"max_players":24,"Bots":0,"server_type":"Dedicated","server_os":"Linux","password":true,"vac":true,"version":"7757534","steam_id":85568392924367362,"keywords":["nocrits","nodmgspread","payload","uncletopia"],"game_id":440,"stv_port":27016,"stv_name":"Uncletopia | London | 1 | All Maps | STV","players":[{"user_id":15,"name":"DocTwoEight","steam_id":76561198153488940,"connected_time":52000000000,"state":"spawning","ping":75},{"user_id":4,"name":"Remax5","steam_id":76561198155644993,"connected_time":5344000000000,"state":"active","ping":104},{"user_id":10,"name":"antlionguard","steam_id":76561198072747143,"connected_time":782000000000,"state":"active","ping":102},{"user_id":11,"name":"Slow Mode","steam_id":76561199414716848,"connected_time":712000000000,"state":"active","ping":74},{"user_id":12,"name":"zheep","steam_id":76561199435854673,"connected_time":493000000000,"state":"active","ping":44},{"user_id":13,"name":"MrXtr","steam_id":76561198966247397,"connected_time":448000000000,"state":"active","ping":72},{"user_id":14,"name":"Doctor Marijuana","steam_id":76561198288289879,"connected_time":421000000000,"state":"active","ping":50}]},{"server_id":114,"name":"Uncletopia | London | 2 | All Maps","name_short":"lon-2","host":"lon-1.uk.uncletopia.com","port":27025,"enabled":true,"region":"eu","cc":"gb","latitude":51.509865,"longitude":-0.118092,"reserved":0,"last_update":"0001-01-01T00:00:00Z","name_a2s":"Uncletopia | London | 2 | All Maps","protocol":17,"map":"cp_dustbowl","folder":"tf","game":"Team Fortress","app_id":440,"player_count":0,"max_players":24,"Bots":0,"server_type":"Dedicated","server_os":"Linux","password":true,"vac":true,"version":"7757534","steam_id":85568392924470941,"keywords":["cp","nocrits","nodmgspread","uncletopia"],"game_id":440,"stv_port":27026,"stv_name":"Uncletopia | London | 2 | All Maps | STV","players":null},{"server_id":320,"name":"Uncletopia | London | 3 | All Maps","name_short":"lon-3","host":"lon-1.uk.uncletopia.com","port":27035,"enabled":true,"region":"eu","cc":"gb","latitude":51.509865,"longitude":-0.118092,"reserved":0,"last_update":"0001-01-01T00:00:00Z","name_a2s":"Uncletopia | London | 3 | All Maps","protocol":17,"map":"pl_badwater","folder":"tf","game":"Team Fortress","app_id":440,"player_count":0,"max_players":24,"Bots":0,"server_type":"Dedicated","server_os":"Linux","password":true,"vac":true,"version":"7757534","steam_id":85568392924510192,"keywords":["nocrits","nodmgspread","payload","uncletopia"],"game_id":440,"stv_port":27036,"stv_name":"Uncletopia | London | 3 | All Maps | STV","players":null},{"server_id":321,"name":"Uncletopia | London | 4 | All Maps","name_short":"lon-4","host":"lon-1.uk.uncletopia.com","port":27045,"enabled":true,"region":"eu","cc":"gb","latitude":51.509865,"longitude":-0.118092,"reserved":0,"last_update":"0001-01-01T00:00:00Z","name_a2s":"Uncletopia | London | 4 | All Maps","protocol":17,"map":"koth_viaduct","folder":"tf","game":"Team Fortress","app_id":440,"player_count":0,"max_players":24,"Bots":0,"server_type":"Dedicated","server_os":"Linux","password":true,"vac":true,"version":"7757534","steam_id":85568392924510193,"keywords":["cp","nocrits","nodmgspread","uncletopia"],"game_id":440,"stv_port":27046,"stv_name":"Uncletopia | London | 4 | All Maps | STV","players":null},{"server_id":21,"name":"Uncletopia | London | 5 | All Maps","name_short":"lon-5","host":"lon-1.uk.uncletopia.com","port":27055,"enabled":true,"region":"eu","cc":"gb","latitude":51.509865,"longitude":-0.118092,"reserved":0,"last_update":"0001-01-01T00:00:00Z","name_a2s":"Uncletopia | London | 5 | All Maps","protocol":17,"map":"cp_snakewater_final1","folder":"tf","game":"Team Fortress","app_id":440,"player_count":0,"max_players":24,"Bots":0,"server_type":"Dedicated","server_os":"Linux","password":true,"vac":true,"version":"7757534","steam_id":85568392924742829,"keywords":["cp","nocrits","nodmgspread","uncletopia"],"game_id":440,"stv_port":27056,"stv_name":"Uncletopia | London | 5 | All Maps | STV","players":null},{"server_id":22,"name":"Uncletopia | London | 6 | All Maps","name_short":"lon-6","host":"lon-1.uk.uncletopia.com","port":27065,"enabled":true,"region":"eu","cc":"gb","latitude":51.509865,"longitude":-0.118092,"reserved":0,"last_update":"0001-01-01T00:00:00Z","name_a2s":"Uncletopia | London | 6 | All Maps","protocol":17,"map":"koth_cascade","folder":"tf","game":"Team Fortress","app_id":440,"player_count":0,"max_players":24,"Bots":0,"server_type":"Dedicated","server_os":"Linux","password":true,"vac":true,"version":"7757534","steam_id":85568392924742830,"keywords":["cp","nocrits","nodmgspread","uncletopia"],"game_id":440,"stv_port":27066,"stv_name":"Uncletopia | London | 6 | All Maps | STV","players":null},{"server_id":40,"name":"Uncletopia | London | 7 | No Payload","name_short":"lon-7","host":"lon-1.uk.uncletopia.com","port":27075,"enabled":true,"region":"eu","cc":"gb","latitude":51.509865,"longitude":-0.118092,"reserved":0,"last_update":"0001-01-01T00:00:00Z","name_a2s":"Uncletopia | London | 7 | No Payload","protocol":17,"map":"cp_process_final","folder":"tf","game":"Team Fortress","app_id":440,"player_count":0,"max_players":24,"Bots":0,"server_type":"Dedicated","server_os":"Linux","password":true,"vac":true,"version":"7757534","steam_id":85568392924964314,"keywords":["cp","nocrits","nodmgspread","uncletopia"],"game_id":440,"stv_port":27076,"stv_name":"Uncletopia | London | 7 | No Payload | STV","players":null},{"server_id":41,"name":"Uncletopia | London | 8 | Community","name_short":"lon-8","host":"lon-1.uk.uncletopia.com","port":27085,"enabled":true,"region":"eu","cc":"gb","latitude":51.509865,"longitude":-0.118092,"reserved":0,"last_update":"0001-01-01T00:00:00Z","name_a2s":"Uncletopia | London | 8 | Community","protocol":17,"map":"pl_upward","folder":"tf","game":"Team Fortress","app_id":440,"player_count":0,"max_players":24,"Bots":0,"server_type":"Dedicated","server_os":"Linux","password":true,"vac":true,"version":"7757534","steam_id":85568392924964315,"keywords":["nocrits","nodmgspread","payload","uncletopia"],"game_id":440,"stv_port":27086,"stv_name":"Uncletopia | London | 8 | Community | STV","players":null},{"server_id":300,"name":"Uncletopia | Montréal | 1 | All Maps","name_short":"mtl-1","host":"mtl-1.ca.uncletopia.com","port":27015,"enabled":true,"region":"us-east","cc":"ca","latitude":45.50889,"longitude":-73.56167,"reserved":0,"last_update":"0001-01-01T00:00:00Z","name_a2s":"Uncletopia | Montréal | 1 | All Maps","protocol":17,"map":"pl_badwater","folder":"tf","game":"Team Fortress","app_id":440,"player_count":0,"max_players":24,"Bots":0,"server_type":"Dedicated","server_os":"Linux","password":true,"vac":true,"version":"7757534","steam_id":85568392924500087,"keywords":["nocrits","nodmgspread","payload","uncletopia"],"game_id":440,"stv_port":27016,"stv_name":"Uncletopia | Montréal | 1 | All Maps | STV","players":null},{"server_id":301,"name":"Uncletopia | Montréal | 2 | All Maps","name_short":"mtl-2","host":"mtl-1.ca.uncletopia.com","port":27025,"enabled":true,"region":"us-east","cc":"ca","latitude":45.50889,"longitude":-73.56167,"reserved":0,"last_update":"0001-01-01T00:00:00Z","name_a2s":"Uncletopia | Montréal | 2 | All Maps","protocol":17,"map":"koth_highpass","folder":"tf","game":"Team Fortress","app_id":440,"player_count":0,"max_players":24,"Bots":0,"server_type":"Dedicated","server_os":"Linux","password":true,"vac":true,"version":"7757534","steam_id":85568392924500088,"keywords":["cp","nocrits","nodmgspread","uncletopia"],"game_id":440,"stv_port":27026,"stv_name":"Uncletopia | Montréal | 2 | All Maps | STV","players":null},{"server_id":302,"name":"Uncletopia | Montréal | 3 | All Maps","name_short":"mtl-3","host":"mtl-1.ca.uncletopia.com","port":27035,"enabled":true,"region":"us-east","cc":"ca","latitude":45.50889,"longitude":-73.56167,"reserved":0,"last_update":"0001-01-01T00:00:00Z","name_a2s":"Uncletopia | Montréal | 3 | All Maps","protocol":17,"map":"cp_dustbowl","folder":"tf","game":"Team Fortress","app_id":440,"player_count":0,"max_players":24,"Bots":0,"server_type":"Dedicated","server_os":"Linux","password":true,"vac":true,"version":"7757534","steam_id":85568392924500089,"keywords":["cp","nocrits","nodmgspread","uncletopia"],"game_id":440,"stv_port":27036,"stv_name":"Uncletopia | Montréal | 3 | All Maps | STV","players":null},{"server_id":303,"name":"Uncletopia | Montréal | 4 | No Payload","name_short":"mtl-4","host":"mtl-1.ca.uncletopia.com","port":27045,"enabled":true,"region":"us-east","cc":"ca","latitude":45.50889,"longitude":-73.56167,"reserved":0,"last_update":"0001-01-01T00:00:00Z","name_a2s":"Uncletopia | Montréal | 4 | No Payload","protocol":17,"map":"plr_bananabay","folder":"tf","game":"Team Fortress","app_id":440,"player_count":0,"max_players":24,"Bots":0,"server_type":"Dedicated","server_os":"Linux","password":true,"vac":true,"version":"7757534","steam_id":85568392924500090,"keywords":["nocrits","nodmgspread","payload","uncletopia"],"game_id":440,"stv_port":27046,"stv_name":"Uncletopia | Montréal | 4 | No Payload | STV","players":null},{"server_id":13,"name":"Uncletopia | New York City | 1 | All Maps","name_short":"nyc-1","host":"nyc-1.us.uncletopia.com","port":27015,"enabled":true,"region":"us-east","cc":"us","latitude":40.73061,"longitude":-73.93524,"reserved":0,"last_update":"0001-01-01T00:00:00Z","name_a2s":"Uncletopia | New York City | 1 | All Maps","protocol":17,"map":"koth_lakeside_final","folder":"tf","game":"Team Fortress","app_id":440,"player_count":0,"max_players":24,"Bots":0,"server_type":"Dedicated","server_os":"Linux","password":true,"vac":true,"version":"7757534","steam_id":85568392924469993,"keywords":["cp","nocrits","nodmgspread","uncletopia"],"game_id":440,"stv_port":27016,"stv_name":"Uncletopia | New York City | 1 | All Maps | STV","players":null},{"server_id":14,"name":"Uncletopia | New York City | 2 | All Maps","name_short":"nyc-2","host":"nyc-1.us.uncletopia.com","port":27025,"enabled":true,"region":"us-east","cc":"us","latitude":40.73061,"longitude":-73.93524,"reserved":0,"last_update":"0001-01-01T00:00:00Z","name_a2s":"Uncletopia | New York City | 2 | All Maps","protocol":17,"map":"pl_borneo","folder":"tf","game":"Team Fortress","app_id":440,"player_count":0,"max_players":24,"Bots":0,"server_type":"Dedicated","server_os":"Linux","password":true,"vac":true,"version":"7757534","steam_id":85568392924469994,"keywords":["nocrits","nodmgspread","payload","uncletopia"],"game_id":440,"stv_port":27026,"stv_name":"Uncletopia | New York City | 2 | All Maps | STV","players":null},{"server_id":15,"name":"Uncletopia | New York City | 3 | Stopwatch Beta","name_short":"nyc-3","host":"nyc-1.us.uncletopia.com","port":27035,"enabled":true,"region":"us-east","cc":"us","latitude":40.73061,"longitude":-73.93524,"reserved":0,"last_update":"0001-01-01T00:00:00Z","name_a2s":"Uncletopia | New York City | 3 | Stopwatch Beta","protocol":17,"map":"pl_borneo","folder":"tf","game":"Team Fortress","app_id":440,"player_count":0,"max_players":24,"Bots":0,"server_type":"Dedicated","server_os":"Linux","password":true,"vac":true,"version":"7757534","steam_id":85568392924742820,"keywords":["nocrits","nodmgspread","payload","uncletopia"],"game_id":440,"stv_port":27036,"stv_name":"Uncletopia | New York City | 3 | Stopwatch Beta | STV","players":null},{"server_id":16,"name":"Uncletopia | New York City | 4 | Community","name_short":"nyc-4","host":"nyc-1.us.uncletopia.com","port":27045,"enabled":true,"region":"us-east","cc":"us","latitude":40.73061,"longitude":-73.93524,"reserved":0,"last_update":"0001-01-01T00:00:00Z","name_a2s":"Uncletopia | New York City | 4 | Community","protocol":17,"map":"workshop/koth_ramjam_rc1.ugc459778887","folder":"tf","game":"Team Fortress","app_id":440,"player_count":0,"max_players":24,"Bots":0,"server_type":"Dedicated","server_os":"Linux","password":true,"vac":true,"version":"7757534","steam_id":85568392924742821,"keywords":["cp","nocrits","nodmgspread","uncletopia"],"game_id":440,"stv_port":27046,"stv_name":"Uncletopia | New York City | 4 | Community | STV","players":null},{"server_id":142,"name":"Uncletopia | São Paulo | 1 | All Maps","name_short":"sao-1","host":"sao-1.br.uncletopia.com","port":27015,"enabled":true,"region":"sa","cc":"br","latitude":-23.533773,"longitude":-46.62529,"reserved":0,"last_update":"0001-01-01T00:00:00Z","name_a2s":"Uncletopia | São Paulo | 1 | All Maps","protocol":17,"map":"koth_viaduct","folder":"tf","game":"Team Fortress","app_id":440,"player_count":0,"max_players":24,"Bots":0,"server_type":"Dedicated","server_os":"Linux","password":true,"vac":true,"version":"7757534","steam_id":85568392924469996,"keywords":["cp","nocrits","nodmgspread","uncletopia"],"game_id":440,"stv_port":27016,"stv_name":"Uncletopia | São Paulo | 1 | All Maps | STV","players":null},{"server_id":143,"name":"Uncletopia | São Paulo | 2 | All Maps","name_short":"sao-2","host":"sao-2.br.uncletopia.com","port":27015,"enabled":true,"region":"sa","cc":"br","latitude":-23.533773,"longitude":-46.62529,"reserved":0,"last_update":"0001-01-01T00:00:00Z","name_a2s":"Uncletopia | São Paulo | 2 | All Maps","protocol":17,"map":"koth_highpass","folder":"tf","game":"Team Fortress","app_id":440,"player_count":0,"max_players":24,"Bots":0,"server_type":"Dedicated","server_os":"Linux","password":true,"vac":true,"version":"7757534","steam_id":85568392924485349,"keywords":["cp","nocrits","nodmgspread","uncletopia"],"game_id":440,"stv_port":27016,"stv_name":"Uncletopia | São Paulo | 2 | All Maps | STV","players":null},{"server_id":7,"name":"Uncletopia | Seattle | 1 | All Maps","name_short":"sea-1","host":"sea-1.us.uncletopia.com","port":27015,"enabled":true,"region":"us-west","cc":"us","latitude":47.608013,"longitude":-122.33517,"reserved":0,"last_update":"0001-01-01T00:00:00Z","name_a2s":"Uncletopia | Seattle | 1 | All Maps","protocol":17,"map":"pl_snowycoast","folder":"tf","game":"Team Fortress","app_id":440,"player_count":24,"max_players":24,"Bots":0,"server_type":"Dedicated","server_os":"Linux","password":true,"vac":true,"version":"7757534","steam_id":85568392924469997,"keywords":["nocrits","nodmgspread","payload","uncletopia"],"game_id":440,"stv_port":27016,"stv_name":"Uncletopia | Seattle | 1 | All Maps | STV","players":[{"user_id":714,"name":"IzzyHoP","steam_id":76561197995927883,"connected_time":12588000000000,"state":"active","ping":52},{"user_id":847,"name":"John Calibur","steam_id":76561197999986606,"connected_time":1319000000000,"state":"active","ping":68},{"user_id":849,"name":"rorywashere /ᐠ - ˕ -マ Ⳋ","steam_id":76561198065825165,"connected_time":811000000000,"state":"active","ping":104},{"user_id":806,"name":"shane","steam_id":76561198060491451,"connected_time":6027000000000,"state":"active","ping":94},{"user_id":829,"name":"SomeGuyWhoLikesPotatoes","steam_id":76561198110276797,"connected_time":3191000000000,"state":"active","ping":57},{"user_id":809,"name":"Lompy","steam_id":76561198092237958,"connected_time":5321000000000,"state":"active","ping":52},{"user_id":844,"name":"mega","steam_id":76561198089520959,"connected_time":1806000000000,"state":"active","ping":87},{"user_id":827,"name":"thunderous prophet","steam_id":76561198131166135,"connected_time":3579000000000,"state":"active","ping":38},{"user_id":852,"name":"Bubbamanme","steam_id":76561198119778504,"connected_time":567000000000,"state":"active","ping":58},{"user_id":819,"name":"NEBULA","steam_id":76561198086878595,"connected_time":3634000000000,"state":"active","ping":74},{"user_id":850,"name":"Clagger","steam_id":76561198066701092,"connected_time":797000000000,"state":"active","ping":45},{"user_id":830,"name":"The Caretaker","steam_id":76561198125241411,"connected_time":3148000000000,"state":"active","ping":105},{"user_id":841,"name":"amoeba","steam_id":76561198970261784,"connected_time":2315000000000,"state":"active","ping":49},{"user_id":835,"name":"drink my *** u nasty ****","steam_id":76561199100813140,"connected_time":2673000000000,"state":"active","ping":97},{"user_id":851,"name":"exephur","steam_id":76561198135763234,"connected_time":795000000000,"state":"active","ping":68},{"user_id":807,"name":"jacix3 [gay wolfgirl]{she/it}","steam_id":76561198205004165,"connected_time":5914000000000,"state":"active","ping":67},{"user_id":842,"name":"His \u003c3","steam_id":76561198340685758,"connected_time":2314000000000,"state":"active","ping":67},{"user_id":828,"name":"p9 jorts (trying new hud)","steam_id":76561199041179985,"connected_time":3493000000000,"state":"active","ping":66},{"user_id":810,"name":"der","steam_id":76561198060762287,"connected_time":5132000000000,"state":"active","ping":53},{"user_id":839,"name":"144hz ed","steam_id":76561198080475712,"connected_time":2327000000000,"state":"active","ping":69},{"user_id":813,"name":"Ducks","steam_id":76561198130038345,"connected_time":4999000000000,"state":"active","ping":72},{"user_id":823,"name":"p9 melon","steam_id":76561198169755734,"connected_time":3608000000000,"state":"active","ping":255},{"user_id":846,"name":"Naffers","steam_id":76561198195957335,"connected_time":1442000000000,"state":"active","ping":46},{"user_id":824,"name":"rat gets the cheese","steam_id":76561198031234032,"connected_time":3607000000000,"state":"active","ping":98}]},{"server_id":119,"name":"Uncletopia | Seattle | 2 | All Maps","name_short":"sea-2","host":"sea-1.us.uncletopia.com","port":27025,"enabled":true,"region":"us-west","cc":"us","latitude":47.608013,"longitude":-122.33517,"reserved":0,"last_update":"0001-01-01T00:00:00Z","name_a2s":"Uncletopia | Seattle | 2 | All Maps","protocol":17,"map":"pl_thundermountain","folder":"tf","game":"Team Fortress","app_id":440,"player_count":24,"max_players":24,"Bots":0,"server_type":"Dedicated","server_os":"Linux","password":true,"vac":true,"version":"7757534","steam_id":85568392924469998,"keywords":["nocrits","nodmgspread","payload","uncletopia"],"game_id":440,"stv_port":27026,"stv_name":"Uncletopia | Seattle | 2 | All Maps | STV","players":[{"user_id":811,"name":"disco","steam_id":76561198060756881,"connected_time":1449000000000,"state":"active","ping":137},{"user_id":807,"name":"CLAYDUCK","steam_id":76561197995221829,"connected_time":2610000000000,"state":"active","ping":58},{"user_id":823,"name":"Fajita Master","steam_id":76561198329150962,"connected_time":784000000000,"state":"active","ping":74},{"user_id":790,"name":"flishko","steam_id":76561198326489802,"connected_time":3653000000000,"state":"active","ping":55},{"user_id":801,"name":"Tom","steam_id":76561198070630154,"connected_time":2730000000000,"state":"active","ping":83},{"user_id":817,"name":"antlers","steam_id":76561198072515851,"connected_time":1145000000000,"state":"active","ping":87},{"user_id":826,"name":"doozy","steam_id":76561198033106776,"connected_time":679000000000,"state":"active","ping":80},{"user_id":812,"name":"Antwan","steam_id":76561198246200638,"connected_time":1447000000000,"state":"active","ping":100},{"user_id":780,"name":"Igrium","steam_id":76561198119549811,"connected_time":4038000000000,"state":"active","ping":73},{"user_id":796,"name":"Professional MILF Enjoyer","steam_id":76561198066619792,"connected_time":3084000000000,"state":"active","ping":81},{"user_id":793,"name":"SvicidalBug","steam_id":76561198221390504,"connected_time":3122000000000,"state":"active","ping":71},{"user_id":827,"name":"big car","steam_id":76561198067082350,"connected_time":655000000000,"state":"active","ping":75},{"user_id":828,"name":"Kaluka","steam_id":76561198036861445,"connected_time":651000000000,"state":"active","ping":131},{"user_id":808,"name":"Jorge_dude_2008","steam_id":76561198870649125,"connected_time":2119000000000,"state":"active","ping":80},{"user_id":816,"name":"Arsonist Goose","steam_id":76561198147441830,"connected_time":1255000000000,"state":"active","ping":78},{"user_id":824,"name":"goldhed","steam_id":76561198051751133,"connected_time":769000000000,"state":"active","ping":55},{"user_id":833,"name":"Arrythmia","steam_id":76561198093748123,"connected_time":299000000000,"state":"active","ping":60},{"user_id":829,"name":"Trans Femtress 2","steam_id":76561198272676760,"connected_time":648000000000,"state":"active","ping":69},{"user_id":805,"name":"hardfork","steam_id":76561197960958019,"connected_time":2657000000000,"state":"active","ping":58},{"user_id":779,"name":"Thermo","steam_id":76561198978967412,"connected_time":4050000000000,"state":"active","ping":82},{"user_id":832,"name":"Lunatic Reisen Udongein Inaba","steam_id":76561198141955085,"connected_time":358000000000,"state":"active","ping":58},{"user_id":819,"name":"Nahvee","steam_id":76561198119759695,"connected_time":1102000000000,"state":"active","ping":75},{"user_id":774,"name":"blockland.fan 4","steam_id":76561198173706067,"connected_time":5039000000000,"state":"active","ping":63},{"user_id":775,"name":"Cabbage","steam_id":76561198057999536,"connected_time":5000000000000,"state":"active","ping":31}]},{"server_id":406,"name":"Uncletopia | Seattle | 3 | Stopwatch Beta","name_short":"sea-3","host":"sea-1.us.uncletopia.com","port":27035,"enabled":true,"region":"us-west","cc":"us","latitude":47.608013,"longitude":-122.33517,"reserved":0,"last_update":"0001-01-01T00:00:00Z","name_a2s":"Uncletopia | Seattle | 3 | Stopwatch Beta","protocol":17,"map":"workshop/koth_ramjam_rc1.ugc459778887","folder":"tf","game":"Team Fortress","app_id":440,"player_count":0,"max_players":24,"Bots":0,"server_type":"Dedicated","server_os":"Linux","password":true,"vac":true,"version":"7757534","steam_id":85568392924515217,"keywords":["cp","nocrits","nodmgspread","uncletopia"],"game_id":440,"stv_port":27036,"stv_name":"Uncletopia | Seattle | 3 | Stopwatch Beta | STV","players":null},{"server_id":17,"name":"Uncletopia | San Francisco | 1 | All Maps","name_short":"sfo-1","host":"sfo-1.us.uncletopia.com","port":27015,"enabled":true,"region":"us-west","cc":"us","latitude":37.77397,"longitude":-122.4313,"reserved":0,"last_update":"0001-01-01T00:00:00Z","name_a2s":"Uncletopia | San Francisco | 1 | All Maps","protocol":17,"map":"pl_enclosure_final","folder":"tf","game":"Team Fortress","app_id":440,"player_count":19,"max_players":24,"Bots":0,"server_type":"Dedicated","server_os":"Linux","password":true,"vac":true,"version":"7757534","steam_id":85568392924469999,"keywords":["nocrits","nodmgspread","payload","uncletopia"],"game_id":440,"stv_port":27016,"stv_name":"Uncletopia | San Francisco | 1 | All Maps | STV","players":[{"user_id":356,"name":"Isaac","steam_id":76561198015727013,"connected_time":2247000000000,"state":"active","ping":73},{"user_id":384,"name":"Stargazer A.","steam_id":76561198035479925,"connected_time":479000000000,"state":"active","ping":48},{"user_id":355,"name":"Stev the Prurient Oxymoron","steam_id":76561197999442625,"connected_time":2288000000000,"state":"active","ping":77},{"user_id":358,"name":"EduardoLopez2005","steam_id":76561198188481309,"connected_time":2231000000000,"state":"active","ping":49},{"user_id":347,"name":"en.wikipedia.org/wiki/Nae_Nae","steam_id":76561198418288939,"connected_time":2910000000000,"state":"active","ping":58},{"user_id":386,"name":"axolotl gaming","steam_id":76561198088778979,"connected_time":293000000000,"state":"active","ping":78},{"user_id":379,"name":"yolginmo","steam_id":76561198157985901,"connected_time":844000000000,"state":"active","ping":68},{"user_id":387,"name":"Rusty","steam_id":76561198055585129,"connected_time":170000000000,"state":"active","ping":70},{"user_id":306,"name":"your mom calls me princess too","steam_id":76561198020400899,"connected_time":5968000000000,"state":"active","ping":65},{"user_id":360,"name":"i am weed","steam_id":76561198419896433,"connected_time":1980000000000,"state":"active","ping":60},{"user_id":382,"name":"captain red","steam_id":76561198191587983,"connected_time":493000000000,"state":"active","ping":66},{"user_id":341,"name":"Cam(era)","steam_id":76561198285054047,"connected_time":3471000000000,"state":"active","ping":72},{"user_id":362,"name":"blackwillow73@aol.com","steam_id":76561198035665009,"connected_time":1950000000000,"state":"active","ping":93},{"user_id":301,"name":"Buswolley","steam_id":76561197995205571,"connected_time":6260000000000,"state":"active","ping":49},{"user_id":254,"name":"Poopie Babie","steam_id":76561198047500494,"connected_time":9097000000000,"state":"active","ping":65},{"user_id":368,"name":"biggus dickus","steam_id":76561198330096760,"connected_time":1908000000000,"state":"active","ping":70},{"user_id":365,"name":"ZAZA Enjoyer","steam_id":76561198094426099,"connected_time":1925000000000,"state":"active","ping":65},{"user_id":381,"name":"Pah-Wraith Gul Dukat","steam_id":76561198033918106,"connected_time":556000000000,"state":"active","ping":60},{"user_id":367,"name":"cardboardwarrior1","steam_id":76561199145044693,"connected_time":1913000000000,"state":"active","ping":108}]},{"server_id":18,"name":"Uncletopia | San Francisco | 2 | All Maps","name_short":"sfo-2","host":"sfo-1.us.uncletopia.com","port":27025,"enabled":true,"region":"us-west","cc":"us","latitude":37.77397,"longitude":-122.4313,"reserved":0,"last_update":"0001-01-01T00:00:00Z","name_a2s":"Uncletopia | San Francisco | 2 | All Maps","protocol":17,"map":"cp_mountainlab","folder":"tf","game":"Team Fortress","app_id":440,"player_count":0,"max_players":24,"Bots":0,"server_type":"Dedicated","server_os":"Linux","password":true,"vac":true,"version":"7757534","steam_id":85568392924470000,"keywords":["cp","nocrits","nodmgspread","uncletopia"],"game_id":440,"stv_port":27026,"stv_name":"Uncletopia | San Francisco | 2 | All Maps | STV","players":null},{"server_id":19,"name":"Uncletopia | San Francisco | 3 | Stopwatch Beta","name_short":"sfo-3","host":"sfo-1.us.uncletopia.com","port":27035,"enabled":true,"region":"us-west","cc":"us","latitude":37.77397,"longitude":-122.4313,"reserved":0,"last_update":"0001-01-01T00:00:00Z","name_a2s":"Uncletopia | San Francisco | 3 | Stopwatch Beta","protocol":17,"map":"pl_borneo","folder":"tf","game":"Team Fortress","app_id":440,"player_count":0,"max_players":24,"Bots":0,"server_type":"Dedicated","server_os":"Linux","password":true,"vac":true,"version":"7757534","steam_id":85568392924742824,"keywords":["nocrits","nodmgspread","payload","uncletopia"],"game_id":440,"stv_port":27036,"stv_name":"Uncletopia | San Francisco | 3 | Stopwatch Beta | STV","players":null},{"server_id":20,"name":"Uncletopia | San Francisco | 4 | Community","name_short":"sfo-4","host":"sfo-1.us.uncletopia.com","port":27045,"enabled":true,"region":"us-west","cc":"us","latitude":37.77397,"longitude":-122.4313,"reserved":0,"last_update":"0001-01-01T00:00:00Z","name_a2s":"Uncletopia | San Francisco | 4 | Community","protocol":17,"map":"workshop/cp_fulgur_rc2a.ugc2068252300","folder":"tf","game":"Team Fortress","app_id":440,"player_count":0,"max_players":24,"Bots":0,"server_type":"Dedicated","server_os":"Linux","password":true,"vac":true,"version":"7757534","steam_id":85568392924742826,"keywords":["cp","nocrits","nodmgspread","uncletopia"],"game_id":440,"stv_port":27046,"stv_name":"Uncletopia | San Francisco | 4 | Community | STV","players":null},{"server_id":141,"name":"Uncletopia | Sydney | 1 | All Maps","name_short":"syd-1","host":"syd-1.au.uncletopia.com","port":27015,"enabled":true,"region":"au","cc":"au","latitude":-33.865143,"longitude":151.2099,"reserved":0,"last_update":"0001-01-01T00:00:00Z","name_a2s":"Uncletopia | Sydney | 1 | All Maps","protocol":17,"map":"pl_snowycoast","folder":"tf","game":"Team Fortress","app_id":440,"player_count":24,"max_players":24,"Bots":0,"server_type":"Dedicated","server_os":"Linux","password":true,"vac":true,"version":"7757534","steam_id":85568392924470001,"keywords":["nocrits","nodmgspread","payload","uncletopia"],"game_id":440,"stv_port":27016,"stv_name":"Uncletopia | Sydney | 1 | All Maps | STV","players":[{"user_id":377,"name":"FrontlineNinja","steam_id":76561198046731954,"connected_time":3487000000000,"state":"active","ping":42},{"user_id":413,"name":"Hardcase","steam_id":76561198124442611,"connected_time":283000000000,"state":"active","ping":85},{"user_id":393,"name":"spy","steam_id":76561199184547017,"connected_time":1822000000000,"state":"active","ping":34},{"user_id":404,"name":"nojnosbod11","steam_id":76561199176012151,"connected_time":1110000000000,"state":"active","ping":66},{"user_id":394,"name":"Maestro[FmJ]","steam_id":76561197996842734,"connected_time":1675000000000,"state":"active","ping":65},{"user_id":396,"name":"Pompadouraus","steam_id":76561198327530525,"connected_time":1601000000000,"state":"active","ping":77},{"user_id":409,"name":"Hippity_Hoppity","steam_id":76561198861050395,"connected_time":392000000000,"state":"active","ping":67},{"user_id":370,"name":"old chunk of coal","steam_id":76561197990537324,"connected_time":4000000000000,"state":"active","ping":108},{"user_id":415,"name":"ToadFungus","steam_id":76561199219667039,"connected_time":230000000000,"state":"active","ping":102},{"user_id":407,"name":"JumpinDux","steam_id":76561198173610794,"connected_time":754000000000,"state":"active","ping":58},{"user_id":417,"name":"Cup","steam_id":76561198038485845,"connected_time":140000000000,"state":"active","ping":40},{"user_id":341,"name":"fatal exception error","steam_id":76561198115584374,"connected_time":5784000000000,"state":"active","ping":59},{"user_id":400,"name":"freek","steam_id":76561198406237673,"connected_time":1266000000000,"state":"active","ping":49},{"user_id":364,"name":"DragRiper","steam_id":76561198050917553,"connected_time":4362000000000,"state":"active","ping":57},{"user_id":408,"name":"sheytoon","steam_id":76561198060824434,"connected_time":569000000000,"state":"active","ping":55},{"user_id":372,"name":"Livid","steam_id":76561198060024585,"connected_time":3746000000000,"state":"active","ping":38},{"user_id":385,"name":"oldbie","steam_id":76561198053297711,"connected_time":2939000000000,"state":"active","ping":76},{"user_id":314,"name":"l333am","steam_id":76561198363218204,"connected_time":7499000000000,"state":"active","ping":64},{"user_id":371,"name":"Tantei Rotana","steam_id":76561198041204323,"connected_time":3875000000000,"state":"active","ping":62},{"user_id":356,"name":"saudi ambassador messi","steam_id":76561198031293430,"connected_time":5228000000000,"state":"active","ping":83},{"user_id":414,"name":"garnish master","steam_id":76561197996551827,"connected_time":261000000000,"state":"active","ping":55},{"user_id":418,"name":"Sparky","steam_id":76561198117687688,"connected_time":72000000000,"state":"active","ping":67},{"user_id":412,"name":"Phantom Postman","steam_id":76561198075252643,"connected_time":322000000000,"state":"active","ping":74},{"user_id":389,"name":"SinisterMagnus","steam_id":76561198133867907,"connected_time":2769000000000,"state":"active","ping":64}]},{"server_id":123,"name":"Uncletopia | Sydney | 2 | All Maps","name_short":"syd-2","host":"syd-1.au.uncletopia.com","port":27025,"enabled":true,"region":"au","cc":"au","latitude":-33.865143,"longitude":151.2099,"reserved":0,"last_update":"0001-01-01T00:00:00Z","name_a2s":"Uncletopia | Sydney | 2 | All Maps","protocol":17,"map":"cp_sunshine","folder":"tf","game":"Team Fortress","app_id":440,"player_count":23,"max_players":24,"Bots":0,"server_type":"Dedicated","server_os":"Linux","password":true,"vac":true,"version":"7757534","steam_id":85568392924470002,"keywords":["cp","nocrits","nodmgspread","uncletopia"],"game_id":440,"stv_port":27026,"stv_name":"Uncletopia | Sydney | 2 | All Maps | STV","players":[{"user_id":151,"name":"Violezine The Luckiest Archer","steam_id":76561199000502615,"connected_time":120000000000,"state":"active","ping":137},{"user_id":93,"name":"Jaffy","steam_id":76561198050461756,"connected_time":2965000000000,"state":"active","ping":62},{"user_id":94,"name":"Docile","steam_id":76561198113688515,"connected_time":2952000000000,"state":"active","ping":65},{"user_id":85,"name":"Glockenspe (She/Her)","steam_id":76561199184115241,"connected_time":4232000000000,"state":"active","ping":53},{"user_id":95,"name":"Longfellow","steam_id":76561198026030529,"connected_time":2889000000000,"state":"active","ping":116},{"user_id":143,"name":"Robbie","steam_id":76561198150894900,"connected_time":725000000000,"state":"active","ping":63},{"user_id":149,"name":"Aurelia(She(I'll never be her))","steam_id":76561197972786509,"connected_time":386000000000,"state":"active","ping":75},{"user_id":105,"name":"HE SHAKE HIS CAGE HE CRAZY CRAZ","steam_id":76561198150293480,"connected_time":2628000000000,"state":"active","ping":61},{"user_id":100,"name":"sleepy","steam_id":76561198025225448,"connected_time":2709000000000,"state":"active","ping":76},{"user_id":101,"name":"Easel (any/all)","steam_id":76561198049213583,"connected_time":2706000000000,"state":"active","ping":60},{"user_id":102,"name":"tfw they filibuster the scrimbl","steam_id":76561198132937542,"connected_time":2703000000000,"state":"active","ping":54},{"user_id":107,"name":"Team Fartress Poo","steam_id":76561198139598106,"connected_time":2555000000000,"state":"active","ping":57},{"user_id":153,"name":"SEN","steam_id":76561198044281135,"connected_time":105000000000,"state":"active","ping":53},{"user_id":111,"name":"Del Davis","steam_id":76561198153397177,"connected_time":2382000000000,"state":"active","ping":53},{"user_id":144,"name":"Mousiini","steam_id":76561198037082247,"connected_time":717000000000,"state":"active","ping":60},{"user_id":113,"name":"Turbo_dip","steam_id":76561198446508846,"connected_time":2348000000000,"state":"active","ping":71},{"user_id":145,"name":"Kipster23","steam_id":76561198075807526,"connected_time":697000000000,"state":"active","ping":78},{"user_id":154,"name":"hendog","steam_id":76561198063477445,"connected_time":99000000000,"state":"active","ping":65},{"user_id":150,"name":"♥ Sharpy \u003e v \u003c","steam_id":76561198091613743,"connected_time":143000000000,"state":"active","ping":96},{"user_id":118,"name":"soupy","steam_id":76561198073734936,"connected_time":2242000000000,"state":"active","ping":90},{"user_id":148,"name":"CHOIB","steam_id":76561198387938667,"connected_time":577000000000,"state":"active","ping":45},{"user_id":140,"name":"ericacummins","steam_id":76561198946280912,"connected_time":1258000000000,"state":"active","ping":99},{"user_id":125,"name":"pants money","steam_id":76561198066256359,"connected_time":2120000000000,"state":"active","ping":55}]},{"server_id":395,"name":"Uncletopia | Sydney | 3 | All Maps","name_short":"syd-3","host":"syd-1.au.uncletopia.com","port":27035,"enabled":true,"region":"au","cc":"au","latitude":-33.865143,"longitude":151.2099,"reserved":0,"last_update":"0001-01-01T00:00:00Z","name_a2s":"Uncletopia | Sydney | 3 | All Maps","protocol":17,"map":"koth_viaduct","folder":"tf","game":"Team Fortress","app_id":440,"player_count":0,"max_players":24,"Bots":0,"server_type":"Dedicated","server_os":"Linux","password":true,"vac":true,"version":"7757534","steam_id":85568392925194467,"keywords":["cp","nocrits","nodmgspread","uncletopia"],"game_id":440,"stv_port":27036,"stv_name":"Uncletopia | Sydney | 3 | All Maps | STV","players":null},{"server_id":396,"name":"Uncletopia | Sydney | 4 | All Maps","name_short":"syd-4","host":"syd-1.au.uncletopia.com","port":27045,"enabled":true,"region":"au","cc":"au","latitude":-33.865143,"longitude":151.2099,"reserved":0,"last_update":"0001-01-01T00:00:00Z","name_a2s":"Uncletopia | Sydney | 4 | All Maps","protocol":17,"map":"koth_lakeside_final","folder":"tf","game":"Team Fortress","app_id":440,"player_count":0,"max_players":24,"Bots":0,"server_type":"Dedicated","server_os":"Linux","password":true,"vac":true,"version":"7757534","steam_id":85568392925397958,"keywords":["cp","nocrits","nodmgspread","uncletopia"],"game_id":440,"stv_port":27046,"stv_name":"Uncletopia | Sydney | 4 | All Maps | STV","players":null},{"server_id":58,"name":"Uncletopia | Sydney | 5 | Stopwatch Beta","name_short":"syd-5","host":"syd-1.au.uncletopia.com","port":27055,"enabled":true,"region":"au","cc":"au","latitude":-33.865143,"longitude":151.2099,"reserved":0,"last_update":"0001-01-01T00:00:00Z","name_a2s":"Uncletopia | Sydney | 5 | Stopwatch Beta","protocol":17,"map":"koth_highpass","folder":"tf","game":"Team Fortress","app_id":440,"player_count":0,"max_players":24,"Bots":0,"server_type":"Dedicated","server_os":"Linux","password":true,"vac":true,"version":"7757534","steam_id":85568392925397959,"keywords":["cp","nocrits","nodmgspread","uncletopia"],"game_id":440,"stv_port":27056,"stv_name":"Uncletopia | Sydney | 5 | Stopwatch Beta | STV","players":null},{"server_id":59,"name":"Uncletopia | Sydney | 6 | Community","name_short":"syd-6","host":"syd-1.au.uncletopia.com","port":27065,"enabled":true,"region":"au","cc":"au","latitude":-33.865143,"longitude":151.2099,"reserved":0,"last_update":"0001-01-01T00:00:00Z","name_a2s":"Uncletopia | Sydney | 6 | Community","protocol":17,"map":"workshop/koth_trenchfoot_b1a.ugc731436616","folder":"tf","game":"Team Fortress","app_id":440,"player_count":0,"max_players":24,"Bots":0,"server_type":"Dedicated","server_os":"Linux","password":true,"vac":true,"version":"7757534","steam_id":85568392925397960,"keywords":["cp","nocrits","nodmgspread","uncletopia"],"game_id":440,"stv_port":27066,"stv_name":"Uncletopia | Sydney | 6 | Community | STV","players":null},{"server_id":49,"name":"Uncletopia | Warsaw | 1 | All Maps","name_short":"waw-1","host":"waw-1.pl.uncletopia.com","port":27015,"enabled":true,"region":"eu","cc":"pl","latitude":52.2297,"longitude":21.017532,"reserved":0,"last_update":"0001-01-01T00:00:00Z","name_a2s":"","protocol":0,"map":"","folder":"","game":"","app_id":0,"player_count":0,"max_players":0,"Bots":0,"server_type":"","server_os":"","password":false,"vac":false,"version":"","steam_id":0,"keywords":null,"game_id":0,"stv_port":0,"stv_name":"","players":null},{"server_id":50,"name":"Uncletopia | Warsaw | 2 | All Maps","name_short":"waw-2","host":"waw-1.pl.uncletopia.com","port":27025,"enabled":true,"region":"eu","cc":"pl","latitude":52.2297,"longitude":21.017532,"reserved":0,"last_update":"0001-01-01T00:00:00Z","name_a2s":"Uncletopia | Warsaw | 2 | All Maps","protocol":17,"map":"koth_highpass","folder":"tf","game":"Team Fortress","app_id":440,"player_count":0,"max_players":24,"Bots":0,"server_type":"Dedicated","server_os":"Linux","password":true,"vac":true,"version":"7757534","steam_id":85568392925397851,"keywords":["cp","nocrits","nodmgspread","uncletopia"],"game_id":440,"stv_port":27026,"stv_name":"Uncletopia | Warsaw | 2 | All Maps | STV","players":null},{"server_id":51,"name":"Uncletopia | Warsaw | 3 | All Maps","name_short":"waw-3","host":"waw-1.pl.uncletopia.com","port":27035,"enabled":true,"region":"eu","cc":"pl","latitude":52.2297,"longitude":21.017532,"reserved":0,"last_update":"0001-01-01T00:00:00Z","name_a2s":"Uncletopia | Warsaw | 3 | All Maps","protocol":17,"map":"pl_barnblitz","folder":"tf","game":"Team Fortress","app_id":440,"player_count":0,"max_players":24,"Bots":0,"server_type":"Dedicated","server_os":"Linux","password":true,"vac":true,"version":"7757534","steam_id":85568392925397852,"keywords":["nocrits","nodmgspread","payload","uncletopia"],"game_id":440,"stv_port":27036,"stv_name":"Uncletopia | Warsaw | 3 | All Maps | STV","players":null},{"server_id":52,"name":"Uncletopia | Warsaw | 4 | All Maps","name_short":"waw-4","host":"waw-1.pl.uncletopia.com","port":27045,"enabled":true,"region":"eu","cc":"pl","latitude":52.2297,"longitude":21.017532,"reserved":0,"last_update":"0001-01-01T00:00:00Z","name_a2s":"Uncletopia | Warsaw | 4 | All Maps","protocol":17,"map":"pl_snowycoast","folder":"tf","game":"Team Fortress","app_id":440,"player_count":0,"max_players":24,"Bots":0,"server_type":"Dedicated","server_os":"Linux","password":true,"vac":true,"version":"7757534","steam_id":85568392925397853,"keywords":["nocrits","nodmgspread","payload","uncletopia"],"game_id":440,"stv_port":27046,"stv_name":"Uncletopia | Warsaw | 4 | All Maps | STV","players":null},{"server_id":53,"name":"Uncletopia | Warsaw | 5 | Stopwatch Beta","name_short":"waw-5","host":"waw-1.pl.uncletopia.com","port":27055,"enabled":true,"region":"eu","cc":"pl","latitude":52.2297,"longitude":21.017532,"reserved":0,"last_update":"0001-01-01T00:00:00Z","name_a2s":"Uncletopia | Warsaw | 5 | Stopwatch Beta","protocol":17,"map":"pl_barnblitz","folder":"tf","game":"Team Fortress","app_id":440,"player_count":0,"max_players":24,"Bots":0,"server_type":"Dedicated","server_os":"Linux","password":true,"vac":true,"version":"7757534","steam_id":85568392925397854,"keywords":["nocrits","nodmgspread","payload","uncletopia"],"game_id":440,"stv_port":27056,"stv_name":"Uncletopia | Warsaw | 5 | Stopwatch Beta | STV","players":null},{"server_id":54,"name":"Uncletopia | Warsaw | 6 | Community","name_short":"waw-6","host":"waw-1.pl.uncletopia.com","port":27065,"enabled":true,"region":"eu","cc":"pl","latitude":52.2297,"longitude":21.017532,"reserved":0,"last_update":"0001-01-01T00:00:00Z","name_a2s":"Uncletopia | Warsaw | 6 | Community","protocol":17,"map":"pl_swiftwater_final1","folder":"tf","game":"Team Fortress","app_id":440,"player_count":0,"max_players":24,"Bots":0,"server_type":"Dedicated","server_os":"Linux","password":true,"vac":true,"version":"7757534","steam_id":85568392925397856,"keywords":["nocrits","nodmgspread","payload","uncletopia"],"game_id":440,"stv_port":27066,"stv_name":"Uncletopia | Warsaw | 6 | Community | STV","players":null}]}