{"status":true,"message":"","result":[{"server_id":9,"name":"Uncletopia | Atlanta | 1 | All Maps","name_short":"atl-1","host":"atl-1.us.uncletopia.com","port":27015,"enabled":true,"region":"us-east","cc":"us","latitude":33.753746,"longitude":-84.38633,"reserved":0,"last_update":"0001-01-01T00:00:00Z","name_a2s":"Uncletopia | Atlanta | 1 | All Maps","protocol":17,"map":"pl_swiftwater_final1","folder":"tf","game":"Team Fortress","app_id":440,"player_count":24,"max_players":24,"Bots":0,"server_type":"Dedicated","server_os":"Linux","password":true,"vac":true,"version":"7757534","steam_id":85568392924469982,"keywords":["nocrits","nodmgspread","payload","uncletopia"],"game_id":440,"stv_port":27016,"stv_name":"Uncletopia | Atlanta | 1 | All Maps | STV","players":[{"user_id":361,"name":"miraakz420","steam_id":76561199013850154,"connected_time":329000000000,"state":"active","ping":71},{"user_id":360,"name":"SpaceFox","steam_id":76561198316756477,"connected_time":405000000000,"state":"active","ping":58},{"user_id":266,"name":"Sigma Spy","steam_id":76561198253181773,"connected_time":8158000000000,"state":"active","ping":60},{"user_id":337,"name":"jandajanda","steam_id":76561198235722476,"connected_time":2556000000000,"state":"active","ping":56},{"user_id":244,"name":"fortnite.jimmy.2014","steam_id":76561199177672325,"connected_time":9870000000000,"state":"active","ping":59},{"user_id":274,"name":"lil hog","steam_id":76561199230929836,"connected_time":8004000000000,"state":"active","ping":81},{"user_id":346,"name":"Missing Minus","steam_id":76561198120822928,"connected_time":2022000000000,"state":"active","ping":45},{"user_id":299,"name":"Mage","steam_id":76561198285026879,"connected_time":6077000000000,"state":"active","ping":81},{"user_id":291,"name":"TheGreatDong","steam_id":76561198000634178,"connected_time":6524000000000,"state":"active","ping":139},{"user_id":362,"name":"stink","steam_id":76561198099318923,"connected_time":328000000000,"state":"active","ping":75},{"user_id":262,"name":"sweppy","steam_id":76561198035457667,"connected_time":8566000000000,"state":"active","ping":59},{"user_id":363,"name":"ATLS1 | SparkStorm","steam_id":76561198095817025,"connected_time":320000000000,"state":"active","ping":35},{"user_id":364,"name":"Oddball","steam_id":76561198040440984,"connected_time":297000000000,"state":"active","ping":86},{"user_id":357,"name":"sansa musa","steam_id":76561198163723555,"connected_time":871000000000,"state":"active","ping":75},{"user_id":322,"name":"--_Cook_--","steam_id":76561198080855748,"connected_time":3518000000000,"state":"active","ping":47},{"user_id":365,"name":"kite","steam_id":76561198346516392,"connected_time":293000000000,"state":"active","ping":84},{"user_id":366,"name":"an inebriated newt fancier","steam_id":76561197985428155,"connected_time":292000000000,"state":"active","ping":83},{"user_id":351,"name":"Eins","steam_id":76561199030343810,"connected_time":1645000000000,"state":"active","ping":47},{"user_id":359,"name":"Toaster889","steam_id":76561199020601573,"connected_time":583000000000,"state":"active","ping":77},{"user_id":338,"name":"thomasdee725","steam_id":76561199189526173,"connected_time":2540000000000,"state":"active","ping":90},{"user_id":320,"name":"NEM","steam_id":76561199241131104,"connected_time":3522000000000,"state":"active","ping":74},{"user_id":332,"name":"Pepsi Man","steam_id":76561198353520643,"connected_time":3104000000000,"state":"active","ping":61},{"user_id":327,"name":"Uganda Knuckles lll","steam_id":76561199121276474,"connected_time":3501000000000,"state":"active","ping":84},{"user_id":349,"name":"wiiblob","steam_id":76561198109106242,"connected_time":1805000000000,"state":"active","ping":120}]},{"server_id":400,"name":"Uncletopia | Atlanta | 3 | Community","name_short":"atl-3","host":"atl-1.us.uncletopia.com","port":27035,"enabled":true,"region":"us-east","cc":"us","latitude":33.753746,"longitude":-84.38633,"reserved":0,"last_update":"0001-01-01T00:00:00Z","name_a2s":"Uncletopia | Atlanta | 3 | Community","protocol":17,"map":"workshop/koth_bagel_rc5.ugc2514036946","folder":"tf","game":"Team Fortress","app_id":440,"player_count":0,"max_players":32,"Bots":0,"server_type":"Dedicated","server_os":"Linux","password":true,"vac":true,"version":"7757534","steam_id":85568392924515187,"keywords":["cp","increased_maxplayers","nocrits","nodmgspread","uncletopia"],"game_id":440,"stv_port":27036,"stv_name":"Uncletopia | Atlanta | 3 | Community | STV","players":null},{"server_id":401,"name":"Uncletopia | Atlanta | 4 | No Payload","name_short":"atl-4","host":"atl-1.us.uncletopia.com","port":27045,"enabled":true,"region":"us-east","cc":"us","latitude":33.753746,"longitude":-84.38633,"reserved":0,"last_update":"0001-01-01T00:00:00Z","name_a2s":"","protocol":0,"map":"","folder":"","game":"","app_id":0,"player_count":0,"max_players":0,"Bots":0,"server_type":"","server_os":"","password":false,"vac":false,"version":"","steam_id":0,"keywords":null,"game_id":0,"stv_port":0,"stv_name":"","players":null},{"server_id":2,"name":"Uncletopia | Chicago | 1 | All Maps","name_short":"chi-1","host":"chi-1.us.uncletopia.com","port":27015,"enabled":true,"region":"us-central","cc":"us","latitude":41.881832,"longitude":-87.62318,"reserved":0,"last_update":"0001-01-01T00:00:00Z","name_a2s":"Uncletopia | Chicago | 1 | All Maps","protocol":17,"map":"koth_harvest_final","folder":"tf","game":"Team Fortress","app_id":440,"player_count":24,"max_players":24,"Bots":0,"server_type":"Dedicated","server_os":"Linux","password":true,"vac":true,"version":"7757534","steam_id":85568392924469984,"keywords":["cp","nocrits","nodmgspread","uncletopia"],"game_id":440,"stv_port":27016,"stv_name":"Uncletopia | Chicago | 1 | All Maps | STV","players":[{"user_id":168,"name":"CapnKris22","steam_id":76561198049010994,"connected_time":1647000000000,"state":"active","ping":69},{"user_id":200,"name":"Takllin","steam_id":76561199289103007,"connected_time":64000000000,"state":"active","ping":112},{"user_id":201,"name":"Commodore_Perry","steam_id":76561197986675784,"connected_time":54000000000,"state":"active","ping":75},{"user_id":165,"name":"Mycelion","steam_id":76561198024999530,"connected_time":1716000000000,"state":"active","ping":87},{"user_id":196,"name":"7thhelden","steam_id":76561198297428761,"connected_time":111000000000,"state":"active","ping":62},{"user_id":179,"name":"Nilantive","steam_id":76561198177565082,"connected_time":1119000000000,"state":"active","ping":58},{"user_id":199,"name":"AjProductions","steam_id":76561198217950125,"connected_time":81000000000,"state":"active","ping":115},{"user_id":144,"name":"King Of The Chill","steam_id":76561197971394640,"connected_time":3618000000000,"state":"active","ping":96},{"user_id":180,"name":"THGAwesome","steam_id":76561198162847218,"connected_time":1113000000000,"state":"active","ping":91},{"user_id":181,"name":"twix","steam_id":76561198040912048,"connected_time":1105000000000,"state":"active","ping":50},{"user_id":188,"name":"The 3rd Party","steam_id":76561198149353542,"connected_time":724000000000,"state":"active","ping":84},{"user_id":187,"name":"Lord of The Lockerroom","steam_id":76561198025975003,"connected_time":873000000000,"state":"active","ping":69},{"user_id":177,"name":"Kapreesi","steam_id":76561198163361200,"connected_time":1170000000000,"state":"active","ping":69},{"user_id":192,"name":"dahperson","steam_id":76561198067207467,"connected_time":456000000000,"state":"active","ping":56},{"user_id":170,"name":"butch cowboy monkey","steam_id":76561198097175164,"connected_time":1532000000000,"state":"active","ping":78},{"user_id":195,"name":"NACHO_","steam_id":76561198076618089,"connected_time":153000000000,"state":"active","ping":70},{"user_id":183,"name":"Pawn Cushman","steam_id":76561198221635676,"connected_time":1061000000000,"state":"active","ping":84},{"user_id":197,"name":"The destroyer of foreskin","steam_id":76561198135275966,"connected_time":101000000000,"state":"active","ping":78},{"user_id":133,"name":"A Loaf Of Fetus","steam_id":76561198058016214,"connected_time":3949000000000,"state":"active","ping":106},{"user_id":198,"name":"Sanic_Bum","steam_id":76561198094179822,"connected_time":92000000000,"state":"active","ping":51},{"user_id":202,"name":"Banio Kaioie","steam_id":76561198153295874,"connected_time":44000000000,"state":"active","ping":119},{"user_id":159,"name":"the dishtv1605","steam_id":76561198061284371,"connected_time":1917000000000,"state":"active","ping":42},{"user_id":193,"name":"MosBlunted","steam_id":76561198259380127,"connected_time":456000000000,"state":"active","ping":59}]},{"server_id":106,"name":"Uncletopia | Chicago | 2 | All Maps","name_short":"chi-2","host":"chi-1.us.uncletopia.com","port":27025,"enabled":true,"region":"us-central","cc":"us","latitude":41.881832,"longitude":-87.62318,"reserved":0,"last_update":"0001-01-01T00:00:00Z","name_a2s":"Uncletopia | Chicago | 2 | All Maps","protocol":17,"map":"cp_dustbowl","folder":"tf","game":"Team Fortress","app_id":440,"player_count":24,"max_players":24,"Bots":0,"server_type":"Dedicated","server_os":"Linux","password":true,"vac":true,"version":"7757534","steam_id":85568392924469985,"keywords":["cp","nocrits","nodmgspread","uncletopia"],"game_id":440,"stv_port":27026,"stv_name":"Uncletopia | Chicago | 2 | All Maps | STV","players":[{"user_id":121,"name":"Deku Scrublord","steam_id":76561198036602402,"connected_time":1178000000000,"state":"active","ping":48},{"user_id":113,"name":"Jesus Christ","steam_id":76561199388058358,"connected_time":1444000000000,"state":"active","ping":118},{"user_id":112,"name":"little_sergeant","steam_id":76561199081927823,"connected_time":1485000000000,"state":"active","ping":62},{"user_id":124,"name":"papa stalin","steam_id":76561198353622863,"connected_time":951000000000,"state":"active","ping":87},{"user_id":24,"name":"game enhjoyer","steam_id":76561198079172980,"connected_time":7043000000000,"state":"active","ping":86},{"user_id":126,"name":"Bart Harley Jarvis","steam_id":76561199215811448,"connected_time":821000000000,"state":"active","ping":77},{"user_id":119,"name":"Bubz","steam_id":76561199013499631,"connected_time":1202000000000,"state":"active","ping":89},{"user_id":120,"name":"Venk","steam_id":76561198251131422,"connected_time":1191000000000,"state":"active","ping":70},{"user_id":84,"name":"Sone","steam_id":76561198069601032,"connected_time":3026000000000,"state":"active","ping":79},{"user_id":117,"name":"NUt","steam_id":76561198031007966,"connected_time":1229000000000,"state":"active","ping":69},{"user_id":125,"name":"soup time","steam_id":76561197961488590,"connected_time":947000000000,"state":"active","ping":61},{"user_id":96,"name":"the222attacker","steam_id":76561198969690191,"connected_time":2755000000000,"state":"active","ping":62},{"user_id":127,"name":"Bali","steam_id":76561198038693845,"connected_time":399000000000,"state":"active","ping":89},{"user_id":86,"name":"Owen","steam_id":76561198025446908,"connected_time":3003000000000,"state":"active","ping":61},{"user_id":97,"name":"Obamacare","steam_id":76561198018894553,"connected_time":2747000000000,"state":"active","ping":93},{"user_id":55,"name":"years","steam_id":76561197994098627,"connected_time":5485000000000,"state":"active","ping":122},{"user_id":122,"name":"smelly boy james(he stinkin)","steam_id":76561197997006216,"connected_time":1175000000000,"state":"active","ping":55},{"user_id":123,"name":"Titar Industries","steam_id":76561198143078476,"connected_time":1172000000000,"state":"active","ping":62},{"user_id":111,"name":"Sergeant Joker #savetf2","steam_id":76561198854616604,"connected_time":1576000000000,"state":"active","ping":64},{"user_id":103,"name":"jackhillard83","steam_id":76561199057098390,"connected_time":2577000000000,"state":"active","ping":88},{"user_id":47,"name":"Fresh0c0","steam_id":76561198271933283,"connected_time":5973000000000,"state":"active","ping":59},{"user_id":130,"name":"huh6750","steam_id":76561199094058555,"connected_time":305000000000,"state":"active","ping":54},{"user_id":131,"name":"Frog","steam_id":76561199165825711,"connected_time":281000000000,"state":"active","ping":81},{"user_id":82,"name":"Skeleton Hotel","steam_id":76561198041704727,"connected_time":3492000000000,"state":"active","ping":57}]},{"server_id":402,"name":"Uncletopia | Chicago | 3 | All Maps","name_short":"chi-3","host":"chi-1.us.uncletopia.com","port":27035,"enabled":true,"region":"us-central","cc":"us","latitude":41.881832,"longitude":-87.62318,"reserved":0,"last_update":"0001-01-01T00:00:00Z","name_a2s":"Uncletopia | Chicago | 3 | All Maps","protocol":17,"map":"pl_pier","folder":"tf","game":"Team Fortress","app_id":440,"player_count":17,"max_players":24,"Bots":0,"server_type":"Dedicated","server_os":"Linux","password":true,"vac":true,"version":"7757534","steam_id":85568392924515191,"keywords":["nocrits","nodmgspread","payload","uncletopia"],"game_id":440,"stv_port":27036,"stv_name":"Uncletopia | Chicago | 3 | All Maps | STV","players":[{"user_id":424,"name":"what","steam_id":76561198082336619,"connected_time":2052000000000,"state":"spawning","ping":109},{"user_id":446,"name":"John Darksoul","steam_id":76561198999712284,"connected_time":539000000000,"state":"spawning","ping":258},{"user_id":448,"name":"Captain Dusk","steam_id":76561199093333752,"connected_time":94000000000,"state":"spawning","ping":115},{"user_id":404,"name":"Black_chestnut","steam_id":76561198155524915,"connected_time":2782000000000,"state":"spawning","ping":92},{"user_id":388,"name":"Limasio","steam_id":76561198198176191,"connected_time":4861000000000,"state":"spawning","ping":113},{"user_id":432,"name":"snier","steam_id":76561198148059714,"connected_time":1488000000000,"state":"spawning","ping":124},{"user_id":447,"name":"The Land Admiral","steam_id":76561198159356609,"connected_time":173000000000,"state":"spawning","ping":112},{"user_id":435,"name":"Weit Brede","steam_id":76561198042558835,"connected_time":1455000000000,"state":"spawning","ping":106},{"user_id":421,"name":"alex","steam_id":76561198063835856,"connected_time":2257000000000,"state":"spawning","ping":85},{"user_id":441,"name":"Omnispark3000","steam_id":76561198144633021,"connected_time":1116000000000,"state":"spawning","ping":172},{"user_id":436,"name":"Braed","steam_id":76561198036025840,"connected_time":1446000000000,"state":"spawning","ping":168},{"user_id":408,"name":"Kracken","steam_id":76561198843862421,"connected_time":2737000000000,"state":"spawning","ping":137},{"user_id":437,"name":"CozyToast","steam_id":76561198046685821,"connected_time":1438000000000,"state":"spawning","ping":160},{"user_id":427,"name":"Gongus","steam_id":76561199199194177,"connected_time":1864000000000,"state":"spawning","ping":113},{"user_id":442,"name":"Gabinator32","steam_id":76561198872467183,"connected_time":1074000000000,"state":"spawning","ping":101},{"user_id":445,"name":"Owl Pacino","steam_id":76561197979970666,"connected_time":868000000000,"state":"spawning","ping":106},{"user_id":423,"name":"B)","steam_id":76561198093921290,"connected_time":2169000000000,"state":"spawning","ping":198}]},{"server_id":403,"name":"Uncletopia | Chicago | 4 | All Maps","name_short":"chi-4","host":"chi-1.us.uncletopia.com","port":27045,"enabled":true,"region":"us-central","cc":"us","latitude":41.881832,"longitude":-87.62318,"reserved":0,"last_update":"0001-01-01T00:00:00Z","name_a2s":"Uncletopia | Chicago | 4 | All Maps","protocol":17,"map":"pl_upward","folder":"tf","game":"Team Fortress","app_id":440,"player_count":24,"max_players":24,"Bots":0,"server_type":"Dedicated","server_os":"Linux","password":true,"vac":true,"version":"7757534","steam_id":85568392924515193,"keywords":["nocrits","nodmgspread","payload","uncletopia"],"game_id":440,"stv_port":27046,"stv_name":"Uncletopia | Chicago | 4 | All Maps | STV","players":[{"user_id":516,"name":"new years hooters","steam_id":76561198068022595,"connected_time":323000000000,"state":"active","ping":63},{"user_id":520,"name":"Ozone-flavored Starburst","steam_id":76561199163688421,"connected_time":94000000000,"state":"active","ping":100},{"user_id":440,"name":"Medl3y Batel","steam_id":76561198179888142,"connected_time":6818000000000,"state":"active","ping":53},{"user_id":519,"name":"agent chubo","steam_id":76561199029137789,"connected_time":174000000000,"state":"active","ping":88},{"user_id":518,"name":"Brahan","steam_id":76561198024629210,"connected_time":234000000000,"state":"active","ping":108},{"user_id":471,"name":"transgender is like ferrari","steam_id":76561199023017383,"connected_time":4391000000000,"state":"active","ping":72},{"user_id":496,"name":"Adam (Cursed Confetti Creature)","steam_id":76561198317690197,"connected_time":2134000000000,"state":"active","ping":37},{"user_id":502,"name":"HumFreY","steam_id":76561198076639682,"connected_time":1247000000000,"state":"active","ping":70},{"user_id":483,"name":"The Geese","steam_id":76561198062763756,"connected_time":3788000000000,"state":"active","ping":53},{"user_id":521,"name":"Furry Saul Goodman","steam_id":76561198069580305,"connected_time":33000000000,"state":"spawning","ping":59},{"user_id":501,"name":"Universe Man","steam_id":76561197997710655,"connected_time":1554000000000,"state":"active","ping":90},{"user_id":505,"name":"skaj","steam_id":76561198082278586,"connected_time":999000000000,"state":"active","ping":73},{"user_id":507,"name":"runix","steam_id":76561198822655082,"connected_time":982000000000,"state":"active","ping":48},{"user_id":498,"name":"gaming elliptical","steam_id":76561198013456569,"connected_time":2104000000000,"state":"active","ping":46},{"user_id":508,"name":"CFGU || RAWRWAFL","steam_id":76561198032118386,"connected_time":978000000000,"state":"active","ping":90},{"user_id":299,"name":"Fudgely","steam_id":76561198039425862,"connected_time":14796000000000,"state":"active","ping":75},{"user_id":515,"name":"MillerWhite","steam_id":76561198076060357,"connected_time":940000000000,"state":"active","ping":85},{"user_id":510,"name":"drottle","steam_id":76561198072244644,"connected_time":959000000000,"state":"active","ping":70},{"user_id":511,"name":"Aifx #ForQuirka","steam_id":76561198398268649,"connected_time":958000000000,"state":"active","ping":63},{"user_id":491,"name":"Ghost","steam_id":76561198110914180,"connected_time":2661000000000,"state":"active","ping":176},{"user_id":432,"name":"Xx_HeavyMainInMVM_xX","steam_id":76561198811738907,"connected_time":7682000000000,"state":"active","ping":72},{"user_id":512,"name":"agentish","steam_id":76561198055088122,"connected_time":957000000000,"state":"active","ping":51},{"user_id":513,"name":"chen","steam_id":76561198064872330,"connected_time":953000000000,"state":"active","ping":75},{"user_id":490,"name":"daffodil","steam_id":76561198049480053,"connected_time":2866000000000,"state":"active","ping":60}]},{"server_id":36,"name":"Uncletopia | Chicago | 5 | All Maps","name_short":"chi-5","host":"chi-2.us.uncletopia.com","port":27015,"enabled":true,"region":"us-central","cc":"us","latitude":41.881832,"longitude":-87.62318,"reserved":0,"last_update":"0001-01-01T00:00:00Z","name_a2s":"Uncletopia | Chicago | 5 | All Maps","protocol":17,"map":"koth_viaduct","folder":"tf","game":"Team Fortress","app_id":440,"player_count":24,"max_players":24,"Bots":0,"server_type":"Dedicated","server_os":"Linux","password":true,"vac":true,"version":"7757534","steam_id":85568392924866362,"keywords":["cp","nocrits","nodmgspread","uncletopia"],"game_id":440,"stv_port":27016,"stv_name":"Uncletopia | Chicago | 5 | All Maps | STV","players":[{"user_id":13,"name":"Shaper Loks","steam_id":76561198207958144,"connected_time":2206000000000,"state":"active","ping":104},{"user_id":16,"name":"a","steam_id":76561198030786504,"connected_time":1767000000000,"state":"active","ping":93},{"user_id":45,"name":"Mr_SkyBlue","steam_id":76561198099673877,"connected_time":30000000000,"state":"spawning","ping":60},{"user_id":23,"name":"6EQUJ5","steam_id":76561198994634058,"connected_time":1179000000000,"state":"active","ping":75},{"user_id":24,"name":"Smet19","steam_id":76561198118455606,"connected_time":1143000000000,"state":"active","ping":56},{"user_id":44,"name":"poiuytrewqwqwqwqwqwqwqwqwqwqwqw","steam_id":76561199105253001,"connected_time":366000000000,"state":"active","ping":72},{"user_id":46,"name":"Pork Tenderloin","steam_id":76561198138663842,"connected_time":23000000000,"state":"spawning","ping":125},{"user_id":27,"name":"CRHalby","steam_id":76561198060522701,"connected_time":767000000000,"state":"active","ping":64},{"user_id":28,"name":"Mr.Cheerio","steam_id":76561198449907767,"connected_time":705000000000,"state":"active","ping":77},{"user_id":29,"name":"SlippyPunk","steam_id":76561198048551455,"connected_time":602000000000,"state":"active","ping":83},{"user_id":30,"name":"Xeno","steam_id":76561198120574708,"connected_time":565000000000,"state":"active","ping":68},{"user_id":31,"name":"lost in spaaaaace","steam_id":76561199085974120,"connected_time":525000000000,"state":"active","ping":72},{"user_id":32,"name":"Godfinger","steam_id":76561198426346549,"connected_time":481000000000,"state":"active","ping":60},{"user_id":33,"name":"Trolldier 76","steam_id":76561198036504161,"connected_time":475000000000,"state":"active","ping":120},{"user_id":34,"name":"Arii","steam_id":76561198355935693,"connected_time":475000000000,"state":"active","ping":47},{"user_id":35,"name":"^_^","steam_id":76561198971354161,"connected_time":468000000000,"state":"active","ping":53},{"user_id":36,"name":"Mr. Sandman","steam_id":76561198065870487,"connected_time":462000000000,"state":"active","ping":55},{"user_id":37,"name":"artichioek","steam_id":76561199243281799,"connected_time":450000000000,"state":"active","ping":73},{"user_id":38,"name":"Nightlyy.","steam_id":76561198272069779,"connected_time":447000000000,"state":"active","ping":132},{"user_id":39,"name":"potty trained","steam_id":76561198141557766,"connected_time":446000000000,"state":"active","ping":75},{"user_id":40,"name":"Kbrr","steam_id":76561199029309409,"connected_time":443000000000,"state":"active","ping":148},{"user_id":41,"name":"Bottom Text","steam_id":76561198075447301,"connected_time":440000000000,"state":"active","ping":72},{"user_id":42,"name":"3713biggest:bug:FEAR:IT","steam_id":76561198126386686,"connected_time":439000000000,"state":"active","ping":56},{"user_id":43,"name":"social_hermit_crab","steam_id":76561198891624827,"connected_time":438000000000,"state":"active","ping":61}]},{"server_id":37,"name":"Uncletopia | Chicago | 6 | All Maps","name_short":"chi-6","host":"chi-2.us.uncletopia.com","port":27025,"enabled":true,"region":"us-central","cc":"us","latitude":41.881832,"longitude":-87.62318,"reserved":0,"last_update":"0001-01-01T00:00:00Z","name_a2s":"Uncletopia | Chicago | 6 | All Maps","protocol":17,"map":"pl_upward","folder":"tf","game":"Team Fortress","app_id":440,"player_count":24,"max_players":24,"Bots":0,"server_type":"Dedicated","server_os":"Linux","password":true,"vac":true,"version":"7757534","steam_id":85568392924866363,"keywords":["nocrits","nodmgspread","payload","uncletopia"],"game_id":440,"stv_port":27026,"stv_name":"Uncletopia | Chicago | 6 | All Maps | STV","players":[{"user_id":201,"name":"Dr Spaceman","steam_id":76561197969755657,"connected_time":921000000000,"state":"active","ping":46},{"user_id":187,"name":"Cool Bird Facts","steam_id":76561198105613110,"connected_time":1386000000000,"state":"active","ping":62},{"user_id":179,"name":"[DEEP] Fitts1099","steam_id":76561198044986906,"connected_time":2313000000000,"state":"active","ping":40},{"user_id":188,"name":"Tony Pizza","steam_id":76561198044331477,"connected_time":1385000000000,"state":"active","ping":65},{"user_id":167,"name":"Point then Click","steam_id":76561198076133259,"connected_time":3107000000000,"state":"active","ping":100},{"user_id":184,"name":"DEADHORSE","steam_id":76561198066342171,"connected_time":1754000000000,"state":"active","ping":94},{"user_id":140,"name":"Cool Microwave Facts","steam_id":76561198880716982,"connected_time":4810000000000,"state":"active","ping":67},{"user_id":186,"name":"SaltyFlump","steam_id":76561199379601288,"connected_time":1410000000000,"state":"active","ping":115},{"user_id":185,"name":"[g40] naysayer","steam_id":76561197991204445,"connected_time":1658000000000,"state":"active","ping":104},{"user_id":178,"name":"Corbe","steam_id":76561198353893927,"connected_time":2392000000000,"state":"active","ping":41},{"user_id":142,"name":"fugees and funyuns","steam_id":76561199012771039,"connected_time":4791000000000,"state":"active","ping":95},{"user_id":202,"name":"bojack from the show bojack hor","steam_id":76561198053006712,"connected_time":758000000000,"state":"active","ping":61},{"user_id":183,"name":"Untrusty","steam_id":76561198272351418,"connected_time":1988000000000,"state":"active","ping":65},{"user_id":190,"name":"Top 15 birds","steam_id":76561199209543551,"connected_time":1375000000000,"state":"active","ping":74},{"user_id":181,"name":"Seal","steam_id":76561197970204043,"connected_time":2059000000000,"state":"active","ping":90},{"user_id":191,"name":"Shoko55","steam_id":76561198321460555,"connected_time":1370000000000,"state":"active","ping":84},{"user_id":197,"name":"Superpleo","steam_id":76561198083133146,"connected_time":1112000000000,"state":"active","ping":83},{"user_id":200,"name":"jibby","steam_id":76561198046872382,"connected_time":1034000000000,"state":"active","ping":59},{"user_id":193,"name":"Bird","steam_id":76561198247484514,"connected_time":1353000000000,"state":"active","ping":84},{"user_id":180,"name":"[DEEP] Roz257","steam_id":76561198842844532,"connected_time":2273000000000,"state":"active","ping":63},{"user_id":109,"name":"moe","steam_id":76561198929586245,"connected_time":6477000000000,"state":"active","ping":96},{"user_id":203,"name":"Nerf Demo","steam_id":76561199178575029,"connected_time":554000000000,"state":"active","ping":77},{"user_id":195,"name":"dan","steam_id":76561197984998426,"connected_time":1347000000000,"state":"active","ping":118},{"user_id":134,"name":"gasparmx","steam_id":76561197998611994,"connected_time":5527000000000,"state":"active","ping":105}]},{"server_id":38,"name":"Uncletopia | Chicago | 7 | Stopwatch Beta","name_short":"chi-7","host":"chi-2.us.uncletopia.com","port":27035,"enabled":true,"region":"us-central","cc":"us","latitude":41.881832,"longitude":-87.62318,"reserved":0,"last_update":"0001-01-01T00:00:00Z","name_a2s":"Uncletopia | Chicago | 7 | Stopwatch Beta","protocol":17,"map":"koth_highpass","folder":"tf","game":"Team Fortress","app_id":440,"player_count":2,"max_players":24,"Bots":0,"server_type":"Dedicated","server_os":"Linux","password":true,"vac":true,"version":"7757534","steam_id":85568392924866364,"keywords":["cp","nocrits","nodmgspread","uncletopia"],"game_id":440,"stv_port":27036,"stv_name":"Uncletopia | Chicago | 7 | Stopwatch Beta | STV","players":[{"user_id":10,"name":"Micheal Jackson (He/he)","steam_id":76561198045887994,"connected_time":503000000000,"state":"active","ping":44},{"user_id":11,"name":"Sundae","steam_id":76561199470976060,"connected_time":237000000000,"state":"active","ping":110}]},{"server_id":39,"name":"Uncletopia | Chicago | 8 | Community","name_short":"chi-8","host":"chi-2.us.uncletopia.com","port":27045,"enabled":true,"region":"us-central","cc":"us","latitude":41.881832,"longitude":-87.62318,"reserved":0,"last_update":"0001-01-01T00:00:00Z","name_a2s":"Uncletopia | Chicago | 8 | Community","protocol":17,"map":"workshop/pl_eruption_b9a.ugc2807898013","folder":"tf","game":"Team Fortress","app_id":440,"player_count":0,"max_players":24,"Bots":0,"server_type":"Dedicated","server_os":"Linux","password":true,"vac":true,"version":"7757534","steam_id":85568392924866365,"keywords":["nocrits","nodmgspread","payload","uncletopia"],"game_id":440,"stv_port":27046,"stv_name":"Uncletopia | Chicago | 8 | Community | STV","players":null},{"server_id":8,"name":"Uncletopia | Dallas | 1 | All Maps","name_short":"dal-1","host":"dal-1.us.uncletopia.com","port":27015,"enabled":true,"region":"us-central","cc":"us","latitude":32.779167,"longitude":-96.80889,"reserved":0,"last_update":"0001-01-01T00:00:00Z","name_a2s":"Uncletopia | Dallas | 1 | All Maps","protocol":17,"map":"pl_snowycoast","folder":"tf","game":"Team Fortress","app_id":440,"player_count":24,"max_players":24,"Bots":0,"server_type":"Dedicated","server_os":"Linux","password":true,"vac":true,"version":"7757534","steam_id":85568392924469986,"keywords":["nocrits","nodmgspread","payload","uncletopia"],"game_id":440,"stv_port":27016,"stv_name":"Uncletopia | Dallas | 1 | All Maps | STV","players":[{"user_id":569,"name":"Sup m8","steam_id":76561198081659121,"connected_time":5286000000000,"state":"active","ping":35},{"user_id":632,"name":"Moscow Medic","steam_id":76561198071040516,"connected_time":371000000000,"state":"active","ping":83},{"user_id":619,"name":"Bombat","steam_id":76561198083096946,"connected_time":968000000000,"state":"active","ping":91},{"user_id":622,"name":"Derply","steam_id":76561198871211642,"connected_time":707000000000,"state":"active","ping":69},{"user_id":587,"name":"still bad at video games","steam_id":76561198328675913,"connected_time":3985000000000,"state":"active","ping":82},{"user_id":558,"name":"tj3002rocks","steam_id":76561199017921546,"connected_time":5938000000000,"state":"active","ping":59},{"user_id":620,"name":"breaking the exosphere","steam_id":76561198825658971,"connected_time":851000000000,"state":"active","ping":76},{"user_id":633,"name":"ThatGuyNamedWil","steam_id":76561198400336801,"connected_time":355000000000,"state":"active","ping":105},{"user_id":517,"name":"zBoofa","steam_id":76561198298007990,"connected_time":9026000000000,"state":"active","ping":72},{"user_id":606,"name":"hola","steam_id":76561198873043242,"connected_time":2125000000000,"state":"active","ping":130},{"user_id":617,"name":"biofio","steam_id":76561198019094571,"connected_time":1153000000000,"state":"active","ping":100},{"user_id":497,"name":"TransWomanGaming","steam_id":76561198809645656,"connected_time":9688000000000,"state":"active","ping":72},{"user_id":638,"name":"Cliff Uppercut","steam_id":76561197999439391,"connected_time":310000000000,"state":"active","ping":92},{"user_id":639,"name":"R33se","steam_id":76561198296531992,"connected_time":307000000000,"state":"active","ping":46},{"user_id":637,"name":"Red","steam_id":76561198031865869,"connected_time":327000000000,"state":"active","ping":74},{"user_id":613,"name":"nhbiker","steam_id":76561198081277675,"connected_time":1663000000000,"state":"active","ping":74},{"user_id":538,"name":"Communist Party of Wutville","steam_id":76561198844003641,"connected_time":7642000000000,"state":"active","ping":85},{"user_id":640,"name":"sip","steam_id":76561198000422839,"connected_time":243000000000,"state":"active","ping":76},{"user_id":614,"name":"EmptyB33R","steam_id":76561198993166528,"connected_time":1640000000000,"state":"active","ping":135},{"user_id":641,"name":"chicanery","steam_id":76561198081654907,"connected_time":232000000000,"state":"active","ping":89},{"user_id":631,"name":"ant","steam_id":76561198133738975,"connected_time":428000000000,"state":"active","ping":58},{"user_id":575,"name":"ly","steam_id":76561198062922146,"connected_time":4849000000000,"state":"active","ping":46},{"user_id":623,"name":"Jelpo","steam_id":76561198406920072,"connected_time":706000000000,"state":"active","ping":75},{"user_id":581,"name":"❦ I Have Covid ❦","steam_id":76561198017907737,"connected_time":4436000000000,"state":"active","ping":78}]},{"server_id":108,"name":"Uncletopia | Dallas | 2 | All Maps","name_short":"dal-2","host":"dal-1.us.uncletopia.com","port":27025,"enabled":true,"region":"us-central","cc":"us","latitude":32.779167,"longitude":-96.80889,"reserved":0,"last_update":"0001-01-01T00:00:00Z","name_a2s":"Uncletopia | Dallas | 2 | All Maps","protocol":17,"map":"pl_snowycoast","folder":"tf","game":"Team Fortress","app_id":440,"player_count":24,"max_players":24,"Bots":0,"server_type":"Dedicated","server_os":"Linux","password":true,"vac":true,"version":"7757534","steam_id":85568392924469988,"keywords":["nocrits","nodmgspread","payload","uncletopia"],"game_id":440,"stv_port":27026,"stv_name":"Uncletopia | Dallas | 2 | All Maps | STV","players":[{"user_id":314,"name":"autumnal.messenger","steam_id":76561199345816635,"connected_time":1386000000000,"state":"active","ping":115},{"user_id":316,"name":"Rockcrusher","steam_id":76561199012666353,"connected_time":1194000000000,"state":"active","ping":79},{"user_id":322,"name":"saaz :)","steam_id":76561198298605136,"connected_time":1047000000000,"state":"active","ping":54},{"user_id":333,"name":"Twilz","steam_id":76561198180927529,"connected_time":578000000000,"state":"active","ping":83},{"user_id":328,"name":"Normalux","steam_id":76561198293891426,"connected_time":777000000000,"state":"active","ping":105},{"user_id":319,"name":"Loodler","steam_id":76561198426624664,"connected_time":1162000000000,"state":"active","ping":90},{"user_id":305,"name":"♥ memegamer23123 ♥","steam_id":76561198048478450,"connected_time":2365000000000,"state":"active","ping":73},{"user_id":315,"name":"Starfruit66","steam_id":76561198069917277,"connected_time":1369000000000,"state":"active","ping":75},{"user_id":321,"name":"Rue","steam_id":76561198013135993,"connected_time":1083000000000,"state":"active","ping":74},{"user_id":317,"name":"drdoofus123","steam_id":76561198016826181,"connected_time":1186000000000,"state":"active","ping":75},{"user_id":307,"name":"NitroNick","steam_id":76561198045728022,"connected_time":1969000000000,"state":"active","ping":76},{"user_id":306,"name":"Dr. W0lv","steam_id":76561198129237487,"connected_time":2252000000000,"state":"active","ping":68},{"user_id":340,"name":"Ace","steam_id":76561198155489173,"connected_time":461000000000,"state":"active","ping":43},{"user_id":341,"name":"Noble Sax","steam_id":76561198183283495,"connected_time":335000000000,"state":"active","ping":60},{"user_id":326,"name":"swan","steam_id":76561198012569200,"connected_time":889000000000,"state":"active","ping":93},{"user_id":342,"name":"puppy :3","steam_id":76561198011196264,"connected_time":250000000000,"state":"active","ping":75},{"user_id":336,"name":"BROKENAERODRAG","steam_id":76561198068023034,"connected_time":491000000000,"state":"active","ping":97},{"user_id":337,"name":"puke","steam_id":76561197999279693,"connected_time":487000000000,"state":"active","ping":75},{"user_id":343,"name":"IggyYT","steam_id":76561198317980567,"connected_time":249000000000,"state":"active","ping":85},{"user_id":283,"name":"Onyx","steam_id":76561198275349640,"connected_time":5205000000000,"state":"active","ping":99},{"user_id":324,"name":"Free F 2","steam_id":76561198045309016,"connected_time":1030000000000,"state":"active","ping":53},{"user_id":332,"name":"WhackyOrc","steam_id":76561199470020355,"connected_time":630000000000,"state":"active","ping":83},{"user_id":338,"name":"amazing","steam_id":76561198386233160,"connected_time":485000000000,"state":"active","ping":68},{"user_id":310,"name":"Toxic Medic Main","steam_id":76561198009314845,"connected_time":1606000000000,"state":"active","ping":102}]},{"server_id":5,"name":"Uncletopia | Frankfurt | 1 | All Maps","name_short":"frk-1","host":"frk-1.de.uncletopia.com","port":27015,"enabled":true,"region":"eu","cc":"de","latitude":50.110924,"longitude":8.682127,"reserved":0,"last_update":"0001-01-01T00:00:00Z","name_a2s":"Uncletopia | Frankfurt | 1 | All Maps","protocol":17,"map":"cp_mountainlab","folder":"tf","game":"Team Fortress","app_id":440,"player_count":0,"max_players":24,"Bots":0,"server_type":"Dedicated","server_os":"Linux","password":true,"vac":true,"version":"7757534","steam_id":85568392924469989,"keywords":["cp","nocrits","nodmgspread","uncletopia"],"game_id":440,"stv_port":27016,"stv_name":"Uncletopia | Frankfurt | 1 | All Maps | STV","players":null},{"server_id":110,"name":"Uncletopia | Frankfurt | 2 | All Maps","name_short":"frk-2","host":"frk-1.de.uncletopia.com","port":27025,"enabled":true,"region":"eu","cc":"de","latitude":50.110924,"longitude":8.682127,"reserved":0,"last_update":"0001-01-01T00:00:00Z","name_a2s":"Uncletopia | Frankfurt | 2 | All Maps","protocol":17,"map":"pl_badwater","folder":"tf","game":"Team Fortress","app_id":440,"player_count":24,"max_players":24,"Bots":0,"server_type":"Dedicated","server_os":"Linux","password":true,"vac":true,"version":"7757534","steam_id":85568392924469990,"keywords":["nocrits","nodmgspread","payload","uncletopia"],"game_id":440,"stv_port":27026,"stv_name":"Uncletopia | Frankfurt | 2 | All Maps | STV","players":[{"user_id":427,"name":"Zeppy but legal","steam_id":76561199068188042,"connected_time":656000000000,"state":"active","ping":149},{"user_id":431,"name":"there is no Fred","steam_id":76561198045505082,"connected_time":349000000000,"state":"active","ping":72},{"user_id":415,"name":"Black Sheep","steam_id":76561198042244701,"connected_time":1142000000000,"state":"active","ping":73},{"user_id":416,"name":"rock bottom revisited","steam_id":76561198051852765,"connected_time":1121000000000,"state":"active","ping":62},{"user_id":396,"name":"Samus","steam_id":76561198045943019,"connected_time":2090000000000,"state":"active","ping":49},{"user_id":397,"name":"m4 rah rah rasputin","steam_id":76561198025389851,"connected_time":2031000000000,"state":"active","ping":141},{"user_id":432,"name":"Steen","steam_id":76561198122992510,"connected_time":241000000000,"state":"active","ping":44},{"user_id":403,"name":"Bat in a thousand","steam_id":76561198320506848,"connected_time":1726000000000,"state":"active","ping":56},{"user_id":418,"name":"mumbler","steam_id":76561197970641239,"connected_time":1058000000000,"state":"active","ping":49},{"user_id":419,"name":"ADMIROOOOOO","steam_id":76561198236652792,"connected_time":1028000000000,"state":"active","ping":79},{"user_id":391,"name":"shit is gruesome!","steam_id":76561198080034976,"connected_time":2595000000000,"state":"active","ping":83},{"user_id":349,"name":"Fish","steam_id":76561198182278770,"connected_time":6487000000000,"state":"active","ping":70},{"user_id":411,"name":"Deydu","steam_id":76561198083956176,"connected_time":1385000000000,"state":"active","ping":81},{"user_id":429,"name":"Dragul","steam_id":76561198032885938,"connected_time":524000000000,"state":"active","ping":60},{"user_id":423,"name":"massive brochacho","steam_id":76561198110773463,"connected_time":885000000000,"state":"active","ping":74},{"user_id":433,"name":"miss paulings bitch","steam_id":76561199403298146,"connected_time":159000000000,"state":"active","ping":69},{"user_id":422,"name":"multiflex","steam_id":76561198049639319,"connected_time":898000000000,"state":"active","ping":76},{"user_id":355,"name":"Femboy Gaming","steam_id":76561198174108515,"connected_time":5770000000000,"state":"active","ping":45},{"user_id":424,"name":"Jörmungandr","steam_id":76561198815671010,"connected_time":817000000000,"state":"active","ping":166},{"user_id":426,"name":"khamba","steam_id":76561198054783240,"connected_time":715000000000,"state":"active","ping":120},{"user_id":394,"name":"Graham Crackers","steam_id":76561198089314125,"connected_time":2564000000000,"state":"active","ping":150},{"user_id":395,"name":"TurboTabs","steam_id":76561198009785131,"connected_time":2525000000000,"state":"active","ping":63},{"user_id":434,"name":"dd","steam_id":76561198257836694,"connected_time":57000000000,"state":"active","ping":50},{"user_id":385,"name":"Zero","steam_id":76561199383267408,"connected_time":3492000000000,"state":"active","ping":172}]},{"server_id":308,"name":"Uncletopia | Frankfurt | 3 | All Maps","name_short":"frk-3","host":"frk-1.de.uncletopia.com","port":27035,"enabled":true,"region":"eu","cc":"de","latitude":50.110924,"longitude":8.682127,"reserved":0,"last_update":"0001-01-01T00:00:00Z","name_a2s":"Uncletopia | Frankfurt | 3 | All Maps","protocol":17,"map":"cp_mountainlab","folder":"tf","game":"Team Fortress","app_id":440,"player_count":0,"max_players":24,"Bots":0,"server_type":"Dedicated","server_os":"Linux","password":true,"vac":true,"version":"7757534","steam_id":85568392924504274,"keywords":["cp","nocrits","nodmgspread","uncletopia"],"game_id":440,"stv_port":27036,"stv_name":"Uncletopia | Frankfurt | 3 | All Maps | STV","players":null},{"server_id":309,"name":"Uncletopia | Frankfurt | 4 | All Maps","name_short":"frk-4","host":"frk-1.de.uncletopia.com","port":27045,"enabled":true,"region":"eu","cc":"de","latitude":50.110924,"longitude":8.682127,"reserved":0,"last_update":"0001-01-01T00:00:00Z","name_a2s":"Uncletopia | Frankfurt | 4 | All Maps","protocol":17,"map":"koth_highpass","folder":"tf","game":"Team Fortress","app_id":440,"player_count":0,"max_players":24,"Bots":0,"server_type":"Dedicated","server_os":"Linux","password":true,"vac":true,"version":"7757534","steam_id":85568392924504275,"keywords":["cp","nocrits","nodmgspread","uncletopia"],"game_id":440,"stv_port":27046,"stv_name":"Uncletopia | Frankfurt | 4 | All Maps | STV","players":null},{"server_id":310,"name":"Uncletopia | Frankfurt | 5 | All Maps","name_short":"frk-5","host":"frk-1.de.uncletopia.com","port":27055,"enabled":true,"region":"eu","cc":"de","latitude":50.110924,"longitude":8.682127,"reserved":0,"last_update":"0001-01-01T00:00:00Z","name_a2s":"Uncletopia | Frankfurt | 5 | All Maps","protocol":17,"map":"cp_process_final","folder":"tf","game":"Team Fortress","app_id":440,"player_count":0,"max_players":24,"Bots":0,"server_type":"Dedicated","server_os":"Linux","password":true,"vac":true,"version":"7757534","steam_id":85568392924504277,"keywords":["cp","nocrits","nodmgspread","uncletopia"],"game_id":440,"stv_port":27056,"stv_name":"Uncletopia | Frankfurt | 5 | All Maps | STV","players":null},{"server_id":311,"name":"Uncletopia | Frankfurt | 6 | All Maps","name_short":"frk-6","host":"frk-1.de.uncletopia.com","port":27065,"enabled":true,"region":"eu","cc":"de","latitude":50.110924,"longitude":8.682127,"reserved":0,"last_update":"0001-01-01T00:00:00Z","name_a2s":"Uncletopia | Frankfurt | 6 | All Maps","protocol":17,"map":"koth_viaduct","folder":"tf","game":"Team Fortress","app_id":440,"player_count":0,"max_players":24,"Bots":0,"server_type":"Dedicated","server_os":"Linux","password":true,"vac":true,"version":"7757534","steam_id":85568392924504278,"keywords":["cp","nocrits","nodmgspread","uncletopia"],"game_id":440,"stv_port":27066,"stv_name":"Uncletopia | Frankfurt | 6 | All Maps | STV","players":null},{"server_id":23,"name":"Uncletopia | Frankfurt | 7 | Stopwatch Beta","name_short":"frk-7","host":"frk-1.de.uncletopia.com","port":27075,"enabled":true,"region":"eu","cc":"de","latitude":50.110924,"longitude":8.682127,"reserved":0,"last_update":"0001-01-01T00:00:00Z","name_a2s":"Uncletopia | Frankfurt | 7 | Stopwatch Beta","protocol":17,"map":"workshop/koth_ramjam_rc1.ugc459778887","folder":"tf","game":"Team Fortress","app_id":440,"player_count":0,"max_players":24,"Bots":0,"server_type":"Dedicated","server_os":"Linux","password":true,"vac":true,"version":"7757534","steam_id":85568392924742827,"keywords":["cp","nocrits","nodmgspread","uncletopia"],"game_id":440,"stv_port":27076,"stv_name":"Uncletopia | Frankfurt | 7 | Stopwatch Beta | STV","players":null},{"server_id":24,"name":"Uncletopia | Frankfurt | 8 | Community","name_short":"frk-8","host":"frk-1.de.uncletopia.com","port":27085,"enabled":true,"region":"eu","cc":"de","latitude":50.110924,"longitude":8.682127,"reserved":0,"last_update":"0001-01-01T00:00:00Z","name_a2s":"Uncletopia | Frankfurt | 8 | Community","protocol":17,"map":"workshop/pl_shoreleave_rc1.ugc1238849347","folder":"tf","game":"Team Fortress","app_id":440,"player_count":0,"max_players":24,"Bots":0,"server_type":"Dedicated","server_os":"Linux","password":true,"vac":true,"version":"7757534","steam_id":85568392924742828,"keywords":["nocrits","nodmgspread","payload","uncletopia"],"game_id":440,"stv_port":27086,"stv_name":"Uncletopia | Frankfurt | 8 | Community | STV","players":null},{"server_id":202,"name":"Uncletopia | Hong Kong | 1 | All Maps","name_short":"hgk-1","host":"hgk-1.hk.uncletopia.com","port":27015,"enabled":true,"region":"asia","cc":"hk","latitude":22.302711,"longitude":114.177216,"reserved":0,"last_update":"0001-01-01T00:00:00Z","name_a2s":"Uncletopia | Hong Kong | 1 | All Maps","protocol":17,"map":"cp_dustbowl","folder":"tf","game":"Team Fortress","app_id":440,"player_count":0,"max_players":24,"Bots":0,"server_type":"Dedicated","server_os":"Linux","password":true,"vac":true,"version":"7757534","steam_id":85568392924494504,"keywords":["cp","nocrits","nodmgspread","uncletopia"],"game_id":440,"stv_port":27016,"stv_name":"Uncletopia | Hong Kong | 1 | All Maps | STV","players":null},{"server_id":1,"name":"Uncletopia | Los Angeles | 1 | All Maps","name_short":"lax-1","host":"lax-1.us.uncletopia.com","port":27015,"enabled":true,"region":"us-west","cc":"us","latitude":33.94279,"longitude":-118.41004,"reserved":0,"last_update":"0001-01-01T00:00:00Z","name_a2s":"Uncletopia | Los Angeles | 1 | All Maps","protocol":17,"map":"cp_dustbowl","folder":"tf","game":"Team Fortress","app_id":440,"player_count":20,"max_players":24,"Bots":0,"server_type":"Dedicated","server_os":"Linux","password":true,"vac":true,"version":"7757534","steam_id":85568392924469991,"keywords":["cp","nocrits","nodmgspread","uncletopia"],"game_id":440,"stv_port":27016,"stv_name":"Uncletopia | Los Angeles | 1 | All Maps | STV","players":[{"user_id":302,"name":"bash -lc ./asshat.sh","steam_id":76561198004584315,"connected_time":66000000000,"state":"active","ping":97},{"user_id":280,"name":"OH JIMMY I'M HOME #SaveTf2","steam_id":76561198396658806,"connected_time":1491000000000,"state":"active","ping":46},{"user_id":297,"name":"BasedGod","steam_id":76561198061177973,"connected_time":369000000000,"state":"active","ping":46},{"user_id":300,"name":"Project Dusk","steam_id":76561198193521149,"connected_time":89000000000,"state":"active","ping":89},{"user_id":286,"name":"Reisen","steam_id":76561199174579733,"connected_time":1193000000000,"state":"active","ping":129},{"user_id":250,"name":"Soap Man","steam_id":76561198000490235,"connected_time":2924000000000,"state":"active","ping":97},{"user_id":239,"name":"Xete","steam_id":76561198403414092,"connected_time":3564000000000,"state":"active","ping":132},{"user_id":290,"name":"Strangelove","steam_id":76561198353773611,"connected_time":765000000000,"state":"active","ping":123},{"user_id":207,"name":"Bobby","steam_id":76561198164004939,"connected_time":5915000000000,"state":"active","ping":86},{"user_id":230,"name":"Number One Basil Fan","steam_id":76561198066227208,"connected_time":4039000000000,"state":"active","ping":95},{"user_id":295,"name":"Spirosity","steam_id":76561198013485753,"connected_time":694000000000,"state":"active","ping":112},{"user_id":299,"name":"IMPACT!","steam_id":76561198131458027,"connected_time":229000000000,"state":"active","ping":117},{"user_id":231,"name":"corygaming","steam_id":76561198035669409,"connected_time":3999000000000,"state":"active","ping":95},{"user_id":266,"name":"Whistlepig","steam_id":76561198030622803,"connected_time":2217000000000,"state":"active","ping":106},{"user_id":282,"name":"QueenLizzy","steam_id":76561198996900042,"connected_time":1437000000000,"state":"active","ping":56},{"user_id":291,"name":"Reem0h","steam_id":76561198169848690,"connected_time":763000000000,"state":"active","ping":112},{"user_id":294,"name":"reymundo","steam_id":76561197989412830,"connected_time":708000000000,"state":"active","ping":66},{"user_id":275,"name":"Drive-By-Fish-Guy","steam_id":76561198105513652,"connected_time":1777000000000,"state":"active","ping":55},{"user_id":251,"name":"Nick the melon","steam_id":76561198798907871,"connected_time":2917000000000,"state":"active","ping":55},{"user_id":243,"name":"Creator of Barrels","steam_id":76561198026724675,"connected_time":3376000000000,"state":"active","ping":64}]},{"server_id":112,"name":"Uncletopia | Los Angeles | 2 | All Maps","name_short":"lax-2","host":"lax-1.us.uncletopia.com","port":27025,"enabled":true,"region":"us-west","cc":"us","latitude":33.94279,"longitude":-118.41004,"reserved":0,"last_update":"0001-01-01T00:00:00Z","name_a2s":"Uncletopia | Los Angeles | 2 | All Maps","protocol":17,"map":"koth_cascade","folder":"tf","game":"Team Fortress","app_id":440,"player_count":1,"max_players":24,"Bots":0,"server_type":"Dedicated","server_os":"Linux","password":true,"vac":true,"version":"7757534","steam_id":85568392924469992,"keywords":["cp","nocrits","nodmgspread","uncletopia"],"game_id":440,"stv_port":27026,"stv_name":"Uncletopia | Los Angeles | 2 | All Maps | STV","players":[{"user_id":9,"name":"Who is She?","steam_id":76561198080963759,"connected_time":44000000000,"state":"active","ping":55}]},{"server_id":324,"name":"Uncletopia | Los Angeles | 3 | All Maps","name_short":"lax-3","host":"lax-1.us.uncletopia.com","port":27035,"enabled":true,"region":"us-west","cc":"us","latitude":33.94279,"longitude":-118.41004,"reserved":0,"last_update":"0001-01-01T00:00:00Z","name_a2s":"Uncletopia | Los Angeles | 3 | All Maps","protocol":17,"map":"pl_pier","folder":"tf","game":"Team Fortress","app_id":440,"player_count":0,"max_players":24,"Bots":0,"server_type":"Dedicated","server_os":"Linux","password":true,"vac":true,"version":"7757534","steam_id":85568392924510198,"keywords":["nocrits","nodmgspread","payload","uncletopia"],"game_id":440,"stv_port":27036,"stv_name":"Uncletopia | Los Angeles | 3 | All Maps | STV","players":null},{"server_id":25,"name":"Uncletopia | Los Angeles | 4 | Stopwatch Beta","name_short":"lax-4","host":"lax-1.us.uncletopia.com","port":27045,"enabled":true,"region":"us-west","cc":"us","latitude":33.94279,"longitude":-118.41004,"reserved":0,"last_update":"0001-01-01T00:00:00Z","name_a2s":"Uncletopia | Los Angeles | 4 | Stopwatch Beta","protocol":17,"map":"pl_frontier_final","folder":"tf","game":"Team Fortress","app_id":440,"player_count":0,"max_players":24,"Bots":0,"server_type":"Dedicated","server_os":"Linux","password":true,"vac":true,"version":"7757534","steam_id":85568392924510199,"keywords":["nocrits","nodmgspread","payload","uncletopia"],"game_id":440,"stv_port":27046,"stv_name":"Uncletopia | Los Angeles | 4 | Stopwatch Beta | STV","players":null},{"server_id":11,"name":"Uncletopia | London | 1 | All Maps","name_short":"lon-1","host":"lon-1.uk.uncletopia.com","port":27015,"enabled":true,"region":"eu","cc":"gb","latitude":51.509865,"longitude":-0.118092,"reserved":0,"last_update":"0001-01-01T00:00:00Z","name_a2s":"Uncletopia | London | 1 | All Maps","protocol":17,"map":"pl_swiftwater_final1","folder":"tf","game":"Team Fortress","app_id":440,"player_count":24,"max_players":24,"Bots":0,"server_type":"Dedicated","server_os":"Linux","password":true,"vac":true,"version":"7757534","steam_id":85568392924367362,"keywords":["nocrits","nodmgspread","payload","uncletopia"],"game_id":440,"stv_port":27016,"stv_name":"Uncletopia | London | 1 | All Maps | STV","players":[{"user_id":844,"name":"Ches is into Cro-Cro","steam_id":76561198067204908,"connected_time":4912000000000,"state":"active","ping":54},{"user_id":934,"name":"demiham","steam_id":76561198115357723,"connected_time":1092000000000,"state":"active","ping":64},{"user_id":932,"name":"new sens.","steam_id":76561199065917088,"connected_time":1609000000000,"state":"active","ping":59},{"user_id":837,"name":"KittyKate ❤","steam_id":76561198116340817,"connected_time":4969000000000,"state":"active","ping":61},{"user_id":937,"name":"Pingutaro","steam_id":76561198112803718,"connected_time":567000000000,"state":"active","ping":51},{"user_id":802,"name":"Wedgeridoo","steam_id":76561198082813907,"connected_time":8054000000000,"state":"active","ping":99},{"user_id":829,"name":"hananamanna","steam_id":76561198006570285,"connected_time":5945000000000,"state":"active","ping":116},{"user_id":795,"name":"sora","steam_id":76561198096547662,"connected_time":8647000000000,"state":"active","ping":47},{"user_id":817,"name":"SuperBob103","steam_id":76561199175360012,"connected_time":7160000000000,"state":"active","ping":55},{"user_id":938,"name":"frbuz","steam_id":76561198327135462,"connected_time":523000000000,"state":"active","ping":166},{"user_id":939,"name":"ITS' TIME FOR A CRUSADE #SaveTF","steam_id":76561198222764236,"connected_time":461000000000,"state":"active","ping":132},{"user_id":936,"name":"Phrog","steam_id":76561197994499500,"connected_time":800000000000,"state":"active","ping":50},{"user_id":943,"name":"The_Stick_Bug","steam_id":76561199122935263,"connected_time":408000000000,"state":"active","ping":161},{"user_id":946,"name":"Priceybay","steam_id":76561198055389492,"connected_time":324000000000,"state":"active","ping":44},{"user_id":942,"name":"dogo_lordo","steam_id":76561199103620755,"connected_time":425000000000,"state":"active","ping":156},{"user_id":935,"name":"B4R10N","steam_id":76561198047167954,"connected_time":1000000000000,"state":"active","ping":43},{"user_id":852,"name":"jones","steam_id":76561198044434971,"connected_time":4036000000000,"state":"active","ping":71},{"user_id":945,"name":"let me cook","steam_id":76561198010380786,"connected_time":344000000000,"state":"active","ping":43},{"user_id":947,"name":"Proud Jojo Fan #TF2SP","steam_id":76561198847327216,"connected_time":298000000000,"state":"active","ping":72},{"user_id":842,"name":"BuzzBees ❤","steam_id":76561198101502273,"connected_time":4948000000000,"state":"active","ping":50},{"user_id":847,"name":"Croy","steam_id":76561197972552579,"connected_time":4904000000000,"state":"active","ping":45},{"user_id":928,"name":"schaffi","steam_id":76561198061369274,"connected_time":2113000000000,"state":"active","ping":89},{"user_id":836,"name":"t o n e '","steam_id":76561198055552635,"connected_time":4975000000000,"state":"active","ping":58},{"user_id":921,"name":"teddy","steam_id":76561198007436837,"connected_time":2294000000000,"state":"active","ping":44}]},{"server_id":114,"name":"Uncletopia | London | 2 | All Maps","name_short":"lon-2","host":"lon-1.uk.uncletopia.com","port":27025,"enabled":true,"region":"eu","cc":"gb","latitude":51.509865,"longitude":-0.118092,"reserved":0,"last_update":"0001-01-01T00:00:00Z","name_a2s":"Uncletopia | London | 2 | All Maps","protocol":17,"map":"cp_process_final","folder":"tf","game":"Team Fortress","app_id":440,"player_count":19,"max_players":24,"Bots":0,"server_type":"Dedicated","server_os":"Linux","password":true,"vac":true,"version":"7757534","steam_id":85568392924470941,"keywords":["cp","nocrits","nodmgspread","uncletopia"],"game_id":440,"stv_port":27026,"stv_name":"Uncletopia | London | 2 | All Maps | STV","players":[{"user_id":472,"name":"mr skullingkong","steam_id":76561198423803012,"connected_time":99000000000,"state":"active","ping":48},{"user_id":469,"name":"Morpheus","steam_id":76561198208349835,"connected_time":353000000000,"state":"active","ping":81},{"user_id":431,"name":"Sanctified","steam_id":76561198057092208,"connected_time":3658000000000,"state":"active","ping":73},{"user_id":471,"name":"MechanicalMenace14","steam_id":76561199063956054,"connected_time":158000000000,"state":"active","ping":190},{"user_id":452,"name":"Penis Contortionist","steam_id":76561198073663784,"connected_time":1608000000000,"state":"active","ping":43},{"user_id":453,"name":"beeper","steam_id":76561198130416479,"connected_time":1595000000000,"state":"active","ping":51},{"user_id":400,"name":"o_o","steam_id":76561198076494034,"connected_time":5357000000000,"state":"active","ping":46},{"user_id":401,"name":"Vershal Smershal","steam_id":76561198116223995,"connected_time":5353000000000,"state":"active","ping":58},{"user_id":402,"name":"Kvicha Kvaratskhelia","steam_id":76561198179339326,"connected_time":5347000000000,"state":"active","ping":75},{"user_id":447,"name":"Sabour","steam_id":76561197963965445,"connected_time":2427000000000,"state":"active","ping":70},{"user_id":473,"name":"Pipextiny","steam_id":76561198034055703,"connected_time":70000000000,"state":"active","ping":52},{"user_id":410,"name":"Yangus","steam_id":76561198147796010,"connected_time":5167000000000,"state":"active","ping":45},{"user_id":474,"name":"Dr. Le Quack","steam_id":76561197995711176,"connected_time":34000000000,"state":"active","ping":93},{"user_id":423,"name":"Saser","steam_id":76561198070438914,"connected_time":4068000000000,"state":"active","ping":83},{"user_id":442,"name":"hmscole09","steam_id":76561198811362788,"connected_time":2894000000000,"state":"active","ping":56},{"user_id":467,"name":"Naomi ★","steam_id":76561198060307235,"connected_time":581000000000,"state":"active","ping":61},{"user_id":475,"name":"Laax","steam_id":76561198938409558,"connected_time":32000000000,"state":"active","ping":97},{"user_id":408,"name":"Gen","steam_id":76561198021775885,"connected_time":5237000000000,"state":"active","ping":45},{"user_id":468,"name":"Mr. Clean","steam_id":76561198167422481,"connected_time":574000000000,"state":"active","ping":143}]},{"server_id":320,"name":"Uncletopia | London | 3 | All Maps","name_short":"lon-3","host":"lon-1.uk.uncletopia.com","port":27035,"enabled":true,"region":"eu","cc":"gb","latitude":51.509865,"longitude":-0.118092,"reserved":0,"last_update":"0001-01-01T00:00:00Z","name_a2s":"Uncletopia | London | 3 | All Maps","protocol":17,"map":"pl_upward","folder":"tf","game":"Team Fortress","app_id":440,"player_count":0,"max_players":24,"Bots":0,"server_type":"Dedicated","server_os":"Linux","password":true,"vac":true,"version":"7757534","steam_id":85568392924510192,"keywords":["nocrits","nodmgspread","payload","uncletopia"],"game_id":440,"stv_port":27036,"stv_name":"Uncletopia | London | 3 | All Maps | STV","players":null},{"server_id":321,"name":"Uncletopia | London | 4 | All Maps","name_short":"lon-4","host":"lon-1.uk.uncletopia.com","port":27045,"enabled":true,"region":"eu","cc":"gb","latitude":51.509865,"longitude":-0.118092,"reserved":0,"last_update":"0001-01-01T00:00:00Z","name_a2s":"Uncletopia | London | 4 | All Maps","protocol":17,"map":"koth_highpass","folder":"tf","game":"Team Fortress","app_id":440,"player_count":0,"max_players":24,"Bots":0,"server_type":"Dedicated","server_os":"Linux","password":true,"vac":true,"version":"7757534","steam_id":85568392924510193,"keywords":["cp","nocrits","nodmgspread","uncletopia"],"game_id":440,"stv_port":27046,"stv_name":"Uncletopia | London | 4 | All Maps | STV","players":null},{"server_id":21,"name":"Uncletopia | London | 5 | All Maps","name_short":"lon-5","host":"lon-1.uk.uncletopia.com","port":27055,"enabled":true,"region":"eu","cc":"gb","latitude":51.509865,"longitude":-0.118092,"reserved":0,"last_update":"0001-01-01T00:00:00Z","name_a2s":"Uncletopia | London | 5 | All Maps","protocol":17,"map":"koth_lakeside_final","folder":"tf","game":"Team Fortress","app_id":440,"player_count":4,"max_players":24,"Bots":0,"server_type":"Dedicated","server_os":"Linux","password":true,"vac":true,"version":"7757534","steam_id":85568392924742829,"keywords":["cp","nocrits","nodmgspread","uncletopia"],"game_id":440,"stv_port":27056,"stv_name":"Uncletopia | London | 5 | All Maps | STV","players":[{"user_id":261,"name":"baert","steam_id":76561198156906497,"connected_time":757000000000,"state":"active","ping":58},{"user_id":265,"name":"homor","steam_id":76561198073442109,"connected_time":659000000000,"state":"active","ping":57},{"user_id":263,"name":"boar hammer","steam_id":76561198396168679,"connected_time":727000000000,"state":"active","ping":192},{"user_id":266,"name":"lost","steam_id":76561198068624497,"connected_time":559000000000,"state":"active","ping":153}]},{"server_id":22,"name":"Uncletopia | London | 6 | All Maps","name_short":"lon-6","host":"lon-1.uk.uncletopia.com","port":27065,"enabled":true,"region":"eu","cc":"gb","latitude":51.509865,"longitude":-0.118092,"reserved":0,"last_update":"0001-01-01T00:00:00Z","name_a2s":"Uncletopia | London | 6 | All Maps","protocol":17,"map":"cp_dustbowl","folder":"tf","game":"Team Fortress","app_id":440,"player_count":0,"max_players":24,"Bots":0,"server_type":"Dedicated","server_os":"Linux","password":true,"vac":true,"version":"7757534","steam_id":85568392924742830,"keywords":["cp","nocrits","nodmgspread","uncletopia"],"game_id":440,"stv_port":27066,"stv_name":"Uncletopia | London | 6 | All Maps | STV","players":null},{"server_id":40,"name":"Uncletopia | London | 7 | No Payload","name_short":"lon-7","host":"lon-1.uk.uncletopia.com","port":27075,"enabled":true,"region":"eu","cc":"gb","latitude":51.509865,"longitude":-0.118092,"reserved":0,"last_update":"0001-01-01T00:00:00Z","name_a2s":"Uncletopia | London | 7 | No Payload","protocol":17,"map":"koth_suijin","folder":"tf","game":"Team Fortress","app_id":440,"player_count":0,"max_players":24,"Bots":0,"server_type":"Dedicated","server_os":"Linux","password":true,"vac":true,"version":"7757534","steam_id":85568392924964314,"keywords":["cp","nocrits","nodmgspread","uncletopia"],"game_id":440,"stv_port":27076,"stv_name":"Uncletopia | London | 7 | No Payload | STV","players":null},{"server_id":41,"name":"Uncletopia | London | 8 | Community","name_short":"lon-8","host":"lon-1.uk.uncletopia.com","port":27085,"enabled":true,"region":"eu","cc":"gb","latitude":51.509865,"longitude":-0.118092,"reserved":0,"last_update":"0001-01-01T00:00:00Z","name_a2s":"Uncletopia | London | 8 | Community","protocol":17,"map":"workshop/pl_cactuscanyon_redux_rc4b.ugc2579644293","folder":"tf","game":"Team Fortress","app_id":440,"player_count":0,"max_players":24,"Bots":0,"server_type":"Dedicated","server_os":"Linux","password":true,"vac":true,"version":"7757534","steam_id":85568392924964315,"keywords":["nocrits","nodmgspread","payload","uncletopia"],"game_id":440,"stv_port":27086,"stv_name":"Uncletopia | London | 8 | Community | STV","players":null},{"server_id":300,"name":"Uncletopia | Montréal | 1 | All Maps","name_short":"mtl-1","host":"mtl-1.ca.uncletopia.com","port":27015,"enabled":true,"region":"us-east","cc":"ca","latitude":45.50889,"longitude":-73.56167,"reserved":0,"last_update":"0001-01-01T00:00:00Z","name_a2s":"Uncletopia | Montréal | 1 | All Maps","protocol":17,"map":"pl_swiftwater_final1","folder":"tf","game":"Team Fortress","app_id":440,"player_count":24,"max_players":24,"Bots":0,"server_type":"Dedicated","server_os":"Linux","password":true,"vac":true,"version":"7757534","steam_id":85568392924500087,"keywords":["nocrits","nodmgspread","payload","uncletopia"],"game_id":440,"stv_port":27016,"stv_name":"Uncletopia | Montréal | 1 | All Maps | STV","players":[{"user_id":240,"name":"Sensitive Shooter","steam_id":76561198041439581,"connected_time":44000000000,"state":"active","ping":66},{"user_id":146,"name":"the real babytron","steam_id":76561197989627918,"connected_time":6848000000000,"state":"active","ping":89},{"user_id":211,"name":"Amogus The Sussy Baka ඞ","steam_id":76561198008577961,"connected_time":2615000000000,"state":"active","ping":43},{"user_id":224,"name":"guyinatophat51","steam_id":76561198180230694,"connected_time":1499000000000,"state":"active","ping":67},{"user_id":212,"name":"BluCoffee","steam_id":76561198214995967,"connected_time":2615000000000,"state":"active","ping":32},{"user_id":234,"name":"Bee","steam_id":76561198074681324,"connected_time":480000000000,"state":"active","ping":55},{"user_id":222,"name":"emctwo","steam_id":76561198095082517,"connected_time":1699000000000,"state":"active","ping":60},{"user_id":165,"name":"minecraft","steam_id":76561198023595873,"connected_time":5029000000000,"state":"active","ping":69},{"user_id":220,"name":"Carpicious","steam_id":76561198426619665,"connected_time":2349000000000,"state":"active","ping":124},{"user_id":183,"name":"kezia","steam_id":76561198059815894,"connected_time":3795000000000,"state":"active","ping":41},{"user_id":227,"name":"Shoe™","steam_id":76561199114397881,"connected_time":1353000000000,"state":"active","ping":76},{"user_id":209,"name":"Cheesemelt","steam_id":76561198008221847,"connected_time":2845000000000,"state":"active","ping":42},{"user_id":184,"name":"biff","steam_id":76561198056261066,"connected_time":3789000000000,"state":"active","ping":54},{"user_id":203,"name":"The Drunk Clown","steam_id":76561197986850426,"connected_time":3281000000000,"state":"active","ping":57},{"user_id":185,"name":"Water Cat","steam_id":76561198013454854,"connected_time":3781000000000,"state":"active","ping":70},{"user_id":235,"name":"wii sports","steam_id":76561198035674082,"connected_time":410000000000,"state":"active","ping":67},{"user_id":216,"name":"Athaz","steam_id":76561198296557673,"connected_time":2515000000000,"state":"active","ping":58},{"user_id":217,"name":"Mintygames","steam_id":76561199387223362,"connected_time":2484000000000,"state":"active","ping":97},{"user_id":218,"name":"Sprucelass","steam_id":76561197998391724,"connected_time":2474000000000,"state":"active","ping":45},{"user_id":233,"name":"ham bone","steam_id":76561198351143785,"connected_time":488000000000,"state":"active","ping":42},{"user_id":210,"name":"Bosh","steam_id":76561198040926241,"connected_time":2751000000000,"state":"active","ping":80},{"user_id":236,"name":"SumoSnake","steam_id":76561198880697922,"connected_time":406000000000,"state":"active","ping":49},{"user_id":219,"name":"Nic0","steam_id":76561198305690218,"connected_time":2466000000000,"state":"active","ping":50},{"user_id":239,"name":"tony fantano 2","steam_id":76561197997139225,"connected_time":185000000000,"state":"active","ping":36}]},{"server_id":301,"name":"Uncletopia | Montréal | 2 | All Maps","name_short":"mtl-2","host":"mtl-1.ca.uncletopia.com","port":27025,"enabled":true,"region":"us-east","cc":"ca","latitude":45.50889,"longitude":-73.56167,"reserved":0,"last_update":"0001-01-01T00:00:00Z","name_a2s":"Uncletopia | Montréal | 2 | All Maps","protocol":17,"map":"pl_pier","folder":"tf","game":"Team Fortress","app_id":440,"player_count":0,"max_players":24,"Bots":0,"server_type":"Dedicated","server_os":"Linux","password":true,"vac":true,"version":"7757534","steam_id":85568392924500088,"keywords":["nocrits","nodmgspread","payload","uncletopia"],"game_id":440,"stv_port":27026,"stv_name":"Uncletopia | Montréal | 2 | All Maps | STV","players":null},{"server_id":302,"name":"Uncletopia | Montréal | 3 | All Maps","name_short":"mtl-3","host":"mtl-1.ca.uncletopia.com","port":27035,"enabled":true,"region":"us-east","cc":"ca","latitude":45.50889,"longitude":-73.56167,"reserved":0,"last_update":"0001-01-01T00:00:00Z","name_a2s":"Uncletopia | Montréal | 3 | All Maps","protocol":17,"map":"cp_dustbowl","folder":"tf","game":"Team Fortress","app_id":440,"player_count":0,"max_players":24,"Bots":0,"server_type":"Dedicated","server_os":"Linux","password":true,"vac":true,"version":"7757534","steam_id":85568392924500089,"keywords":["cp","nocrits","nodmgspread","uncletopia"],"game_id":440,"stv_port":27036,"stv_name":"Uncletopia | Montréal | 3 | All Maps | STV","players":null},{"server_id":303,"name":"Uncletopia | Montréal | 4 | No Payload","name_short":"mtl-4","host":"mtl-1.ca.uncletopia.com","port":27045,"enabled":true,"region":"us-east","cc":"ca","latitude":45.50889,"longitude":-73.56167,"reserved":0,"last_update":"0001-01-01T00:00:00Z","name_a2s":"Uncletopia | Montréal | 4 | No Payload","protocol":17,"map":"pl_borneo","folder":"tf","game":"Team Fortress","app_id":440,"player_count":0,"max_players":24,"Bots":0,"server_type":"Dedicated","server_os":"Linux","password":true,"vac":true,"version":"7757534","steam_id":85568392924500090,"keywords":["nocrits","nodmgspread","payload","uncletopia"],"game_id":440,"stv_port":27046,"stv_name":"Uncletopia | Montréal | 4 | No Payload | STV","players":null},{"server_id":13,"name":"Uncletopia | New York City | 1 | All Maps","name_short":"nyc-1","host":"nyc-1.us.uncletopia.com","port":27015,"enabled":true,"region":"us-east","cc":"us","latitude":40.73061,"longitude":-73.93524,"reserved":0,"last_update":"0001-01-01T00:00:00Z","name_a2s":"Uncletopia | New York City | 1 | All Maps","protocol":17,"map":"cp_dustbowl","folder":"tf","game":"Team Fortress","app_id":440,"player_count":24,"max_players":24,"Bots":0,"server_type":"Dedicated","server_os":"Linux","password":true,"vac":true,"version":"7757534","steam_id":85568392924469993,"keywords":["cp","nocrits","nodmgspread","uncletopia"],"game_id":440,"stv_port":27016,"stv_name":"Uncletopia | New York City | 1 | All Maps | STV","players":[{"user_id":435,"name":"Dilbert","steam_id":76561198195613682,"connected_time":2188000000000,"state":"active","ping":77},{"user_id":431,"name":"Baron von Whoopsie","steam_id":76561197996691013,"connected_time":2197000000000,"state":"active","ping":59},{"user_id":459,"name":"Canaan ❤","steam_id":76561198044337051,"connected_time":467000000000,"state":"active","ping":120},{"user_id":455,"name":"RazE","steam_id":76561198074181336,"connected_time":526000000000,"state":"active","ping":50},{"user_id":421,"name":"PinkLemonade","steam_id":76561198799286228,"connected_time":3440000000000,"state":"active","ping":52},{"user_id":449,"name":"123","steam_id":76561198040375911,"connected_time":1085000000000,"state":"active","ping":55},{"user_id":376,"name":"deech","steam_id":76561198066429444,"connected_time":6169000000000,"state":"active","ping":53},{"user_id":452,"name":"muzikelretifhbr","steam_id":76561198445169719,"connected_time":769000000000,"state":"active","ping":118},{"user_id":426,"name":"sam!!! :)","steam_id":76561198217362968,"connected_time":3225000000000,"state":"active","ping":72},{"user_id":405,"name":"Gandalf Gaming","steam_id":76561198368151490,"connected_time":4307000000000,"state":"active","ping":63},{"user_id":436,"name":"flexer_2000","steam_id":76561198084422657,"connected_time":2186000000000,"state":"active","ping":105},{"user_id":456,"name":"ndvr","steam_id":76561199379200102,"connected_time":523000000000,"state":"active","ping":46},{"user_id":458,"name":"Ejaculation Zach","steam_id":76561198203765200,"connected_time":494000000000,"state":"active","ping":74},{"user_id":429,"name":"Ursus Ludius","steam_id":76561198025470722,"connected_time":2511000000000,"state":"active","ping":67},{"user_id":461,"name":"JHLO","steam_id":76561198074359967,"connected_time":292000000000,"state":"active","ping":69},{"user_id":464,"name":"fi_ji","steam_id":76561198126087725,"connected_time":222000000000,"state":"active","ping":60},{"user_id":460,"name":"Booz Lityar","steam_id":76561199056842761,"connected_time":447000000000,"state":"active","ping":114},{"user_id":448,"name":"Broadsword","steam_id":76561198011160411,"connected_time":1560000000000,"state":"active","ping":92},{"user_id":463,"name":"Pingoz","steam_id":76561198858064614,"connected_time":243000000000,"state":"active","ping":86},{"user_id":382,"name":"Elixir","steam_id":76561198166786809,"connected_time":6067000000000,"state":"active","ping":63},{"user_id":451,"name":"R|||L","steam_id":76561198453824178,"connected_time":1029000000000,"state":"active","ping":136},{"user_id":419,"name":"DO NOT call me BART SIMPSON!!","steam_id":76561198069113375,"connected_time":3694000000000,"state":"active","ping":56},{"user_id":427,"name":"Xavibite","steam_id":76561198209380493,"connected_time":2790000000000,"state":"active","ping":45},{"user_id":434,"name":"Kilbert","steam_id":76561198254454239,"connected_time":2192000000000,"state":"active","ping":108}]},{"server_id":14,"name":"Uncletopia | New York City | 2 | All Maps","name_short":"nyc-2","host":"nyc-1.us.uncletopia.com","port":27025,"enabled":true,"region":"us-east","cc":"us","latitude":40.73061,"longitude":-73.93524,"reserved":0,"last_update":"0001-01-01T00:00:00Z","name_a2s":"Uncletopia | New York City | 2 | All Maps","protocol":17,"map":"koth_cascade","folder":"tf","game":"Team Fortress","app_id":440,"player_count":2,"max_players":24,"Bots":0,"server_type":"Dedicated","server_os":"Linux","password":true,"vac":true,"version":"7757534","steam_id":85568392924469994,"keywords":["cp","nocrits","nodmgspread","uncletopia"],"game_id":440,"stv_port":27026,"stv_name":"Uncletopia | New York City | 2 | All Maps | STV","players":[{"user_id":25,"name":"Mythical Lag","steam_id":76561198347031281,"connected_time":3000000000,"state":"spawning","ping":54},{"user_id":26,"name":"Complex_Divine","steam_id":76561198812369488,"connected_time":2000000000,"state":"spawning","ping":72}]},{"server_id":15,"name":"Uncletopia | New York City | 3 | Stopwatch Beta","name_short":"nyc-3","host":"nyc-1.us.uncletopia.com","port":27035,"enabled":true,"region":"us-east","cc":"us","latitude":40.73061,"longitude":-73.93524,"reserved":0,"last_update":"0001-01-01T00:00:00Z","name_a2s":"Uncletopia | New York City | 3 | Stopwatch Beta","protocol":17,"map":"workshop/cp_reckoner_rc6.ugc674719999","folder":"tf","game":"Team Fortress","app_id":440,"player_count":0,"max_players":24,"Bots":0,"server_type":"Dedicated","server_os":"Linux","password":true,"vac":true,"version":"7757534","steam_id":85568392924742820,"keywords":["cp","nocrits","nodmgspread","uncletopia"],"game_id":440,"stv_port":27036,"stv_name":"Uncletopia | New York City | 3 | Stopwatch Beta | STV","players":null},{"server_id":16,"name":"Uncletopia | New York City | 4 | Community","name_short":"nyc-4","host":"nyc-1.us.uncletopia.com","port":27045,"enabled":true,"region":"us-east","cc":"us","latitude":40.73061,"longitude":-73.93524,"reserved":0,"last_update":"0001-01-01T00:00:00Z","name_a2s":"Uncletopia | New York City | 4 | Community","protocol":17,"map":"workshop/cp_fulgur_rc2a.ugc2068252300","folder":"tf","game":"Team Fortress","app_id":440,"player_count":0,"max_players":24,"Bots":0,"server_type":"Dedicated","server_os":"Linux","password":true,"vac":true,"version":"7757534","steam_id":85568392924742821,"keywords":["cp","nocrits","nodmgspread","uncletopia"],"game_id":440,"stv_port":27046,"stv_name":"Uncletopia | New York City | 4 | Community | STV","players":null},{"server_id":142,"name":"Uncletopia | São Paulo | 1 | All Maps","name_short":"sao-1","host":"sao-1.br.uncletopia.com","port":27015,"enabled":true,"region":"sa","cc":"br","latitude":-23.533773,"longitude":-46.62529,"reserved":0,"last_update":"0001-01-01T00:00:00Z","name_a2s":"Uncletopia | São Paulo | 1 | All Maps","protocol":17,"map":"pl_frontier_final","folder":"tf","game":"Team Fortress","app_id":440,"player_count":0,"max_players":24,"Bots":0,"server_type":"Dedicated","server_os":"Linux","password":true,"vac":true,"version":"7757534","steam_id":85568392924469996,"keywords":["nocrits","nodmgspread","payload","uncletopia"],"game_id":440,"stv_port":27016,"stv_name":"Uncletopia | São Paulo | 1 | All Maps | STV","players":null},{"server_id":143,"name":"Uncletopia | São Paulo | 2 | All Maps","name_short":"sao-2","host":"sao-2.br.uncletopia.com","port":27015,"enabled":true,"region":"sa","cc":"br","latitude":-23.533773,"longitude":-46.62529,"reserved":0,"last_update":"0001-01-01T00:00:00Z","name_a2s":"Uncletopia | São Paulo | 2 | All Maps","protocol":17,"map":"pl_swiftwater_final1","folder":"tf","game":"Team Fortress","app_id":440,"player_count":0,"max_players":24,"Bots":0,"server_type":"Dedicated","server_os":"Linux","password":true,"vac":true,"version":"7757534","steam_id":85568392924485349,"keywords":["nocrits","nodmgspread","payload","uncletopia"],"game_id":440,"stv_port":27016,"stv_name":"Uncletopia | São Paulo | 2 | All Maps | STV","players":null},{"server_id":7,"name":"Uncletopia | Seattle | 1 | All Maps","name_short":"sea-1","host":"sea-1.us.uncletopia.com","port":27015,"enabled":true,"region":"us-west","cc":"us","latitude":47.608013,"longitude":-122.33517,"reserved":0,"last_update":"0001-01-01T00:00:00Z","name_a2s":"Uncletopia | Seattle | 1 | All Maps","protocol":17,"map":"pl_swiftwater_final1","folder":"tf","game":"Team Fortress","app_id":440,"player_count":24,"max_players":24,"Bots":0,"server_type":"Dedicated","server_os":"Linux","password":true,"vac":true,"version":"7757534","steam_id":85568392924469997,"keywords":["nocrits","nodmgspread","payload","uncletopia"],"game_id":440,"stv_port":27016,"stv_name":"Uncletopia | Seattle | 1 | All Maps | STV","players":[{"user_id":76,"name":"Themasterman75","steam_id":76561199385573293,"connected_time":4888000000000,"state":"active","ping":73},{"user_id":120,"name":"pizzaroger2003 #savejulia","steam_id":76561198179785873,"connected_time":1680000000000,"state":"active","ping":134},{"user_id":64,"name":"corbenis","steam_id":76561199012442511,"connected_time":5327000000000,"state":"active","ping":89},{"user_id":121,"name":"brobtlcehc","steam_id":76561198043558709,"connected_time":1677000000000,"state":"active","ping":45},{"user_id":62,"name":"Admiral Crumbs","steam_id":76561198108791583,"connected_time":5667000000000,"state":"active","ping":56},{"user_id":127,"name":"Dorte Voloxi","steam_id":76561198118620969,"connected_time":788000000000,"state":"active","ping":60},{"user_id":124,"name":"Cap","steam_id":76561198072870415,"connected_time":1536000000000,"state":"active","ping":102},{"user_id":114,"name":"Sev","steam_id":76561198248814700,"connected_time":1745000000000,"state":"active","ping":45},{"user_id":115,"name":"LerN","steam_id":76561198083463877,"connected_time":1702000000000,"state":"active","ping":106},{"user_id":93,"name":"PossumInASock","steam_id":76561198057138795,"connected_time":3288000000000,"state":"active","ping":92},{"user_id":85,"name":"Dee's Nuts","steam_id":76561198330058347,"connected_time":4410000000000,"state":"active","ping":91},{"user_id":88,"name":"jorjor wells","steam_id":76561199073429082,"connected_time":3706000000000,"state":"active","ping":110},{"user_id":101,"name":"Dentivent","steam_id":76561197971953043,"connected_time":3103000000000,"state":"active","ping":88},{"user_id":123,"name":"The Undone Sage","steam_id":76561198261998561,"connected_time":1618000000000,"state":"active","ping":54},{"user_id":68,"name":"bbbbbunny","steam_id":76561198098836810,"connected_time":5212000000000,"state":"active","ping":73},{"user_id":106,"name":"Thunder","steam_id":76561198795676044,"connected_time":2764000000000,"state":"active","ping":66},{"user_id":118,"name":"Eris","steam_id":76561199471434875,"connected_time":1698000000000,"state":"active","ping":40},{"user_id":128,"name":"1 Great Wooden Dad","steam_id":76561198377126974,"connected_time":375000000000,"state":"active","ping":121},{"user_id":117,"name":"zinnk","steam_id":76561198092081825,"connected_time":1702000000000,"state":"active","ping":59},{"user_id":35,"name":"Robogineer","steam_id":76561198026994739,"connected_time":9071000000000,"state":"active","ping":79},{"user_id":119,"name":"Hassium","steam_id":76561198162541373,"connected_time":1696000000000,"state":"active","ping":57},{"user_id":75,"name":"the whoremonger","steam_id":76561198063970639,"connected_time":4951000000000,"state":"active","ping":120},{"user_id":112,"name":"Sloppy John (Extra Sauce)","steam_id":76561198359703432,"connected_time":2054000000000,"state":"active","ping":76},{"user_id":125,"name":"p9 jorts","steam_id":76561199041179985,"connected_time":1138000000000,"state":"active","ping":69}]},{"server_id":119,"name":"Uncletopia | Seattle | 2 | All Maps","name_short":"sea-2","host":"sea-1.us.uncletopia.com","port":27025,"enabled":true,"region":"us-west","cc":"us","latitude":47.608013,"longitude":-122.33517,"reserved":0,"last_update":"0001-01-01T00:00:00Z","name_a2s":"Uncletopia | Seattle | 2 | All Maps","protocol":17,"map":"cp_gorge","folder":"tf","game":"Team Fortress","app_id":440,"player_count":23,"max_players":24,"Bots":0,"server_type":"Dedicated","server_os":"Linux","password":true,"vac":true,"version":"7757534","steam_id":85568392924469998,"keywords":["cp","nocrits","nodmgspread","uncletopia"],"game_id":440,"stv_port":27026,"stv_name":"Uncletopia | Seattle | 2 | All Maps | STV","players":[{"user_id":391,"name":"P.C. Baby","steam_id":76561198067011379,"connected_time":897000000000,"state":"active","ping":75},{"user_id":394,"name":"giant_dork","steam_id":76561199105606956,"connected_time":542000000000,"state":"active","ping":108},{"user_id":401,"name":"Jorge_dude_2008","steam_id":76561198870649125,"connected_time":18000000000,"state":"active","ping":80},{"user_id":395,"name":"Dietrich","steam_id":76561198028163840,"connected_time":523000000000,"state":"active","ping":80},{"user_id":371,"name":"Ziggie Smalls","steam_id":76561198804592809,"connected_time":1865000000000,"state":"active","ping":46},{"user_id":400,"name":"Hippo","steam_id":76561198309681901,"connected_time":283000000000,"state":"active","ping":82},{"user_id":374,"name":"Daz","steam_id":76561198041431938,"connected_time":1846000000000,"state":"active","ping":119},{"user_id":388,"name":"yoshido","steam_id":76561198846313229,"connected_time":977000000000,"state":"active","ping":100},{"user_id":379,"name":"ROGUE-PLANET","steam_id":76561198116023052,"connected_time":1448000000000,"state":"active","ping":74},{"user_id":386,"name":"K2f","steam_id":76561198049600563,"connected_time":1061000000000,"state":"active","ping":68},{"user_id":383,"name":"Tibetan Pop Star","steam_id":76561198844903984,"connected_time":1170000000000,"state":"active","ping":84},{"user_id":378,"name":"[Bandit]","steam_id":76561197986919852,"connected_time":1689000000000,"state":"active","ping":51},{"user_id":399,"name":"Spankage","steam_id":76561198042094920,"connected_time":311000000000,"state":"active","ping":127},{"user_id":372,"name":"tired monke","steam_id":76561199013246567,"connected_time":1862000000000,"state":"active","ping":123},{"user_id":367,"name":"Amateur Glaswegian","steam_id":76561198030851956,"connected_time":2442000000000,"state":"active","ping":45},{"user_id":396,"name":"50cc Flowercup Andy","steam_id":76561198043115724,"connected_time":518000000000,"state":"active","ping":61},{"user_id":397,"name":"Undercover Steve","steam_id":76561197997650725,"connected_time":492000000000,"state":"active","ping":79},{"user_id":343,"name":"noraneko","steam_id":76561198025418738,"connected_time":3703000000000,"state":"active","ping":35},{"user_id":373,"name":"shiftshock01","steam_id":76561199049488870,"connected_time":1862000000000,"state":"active","ping":60},{"user_id":390,"name":"Juggles","steam_id":76561198102739199,"connected_time":936000000000,"state":"active","ping":135},{"user_id":355,"name":"Psych03","steam_id":76561198061753667,"connected_time":3247000000000,"state":"active","ping":75},{"user_id":358,"name":"Algibruh","steam_id":76561199221599415,"connected_time":3117000000000,"state":"active","ping":57},{"user_id":398,"name":"SwaggyDreams","steam_id":76561199368149915,"connected_time":468000000000,"state":"active","ping":82}]},{"server_id":406,"name":"Uncletopia | Seattle | 3 | Stopwatch Beta","name_short":"sea-3","host":"sea-1.us.uncletopia.com","port":27035,"enabled":true,"region":"us-west","cc":"us","latitude":47.608013,"longitude":-122.33517,"reserved":0,"last_update":"0001-01-01T00:00:00Z","name_a2s":"Uncletopia | Seattle | 3 | Stopwatch Beta","protocol":17,"map":"koth_lakeside_final","folder":"tf","game":"Team Fortress","app_id":440,"player_count":24,"max_players":24,"Bots":0,"server_type":"Dedicated","server_os":"Linux","password":true,"vac":true,"version":"7757534","steam_id":85568392924515217,"keywords":["cp","nocrits","nodmgspread","uncletopia"],"game_id":440,"stv_port":27036,"stv_name":"Uncletopia | Seattle | 3 | Stopwatch Beta | STV","players":[{"user_id":26,"name":"Dosario","steam_id":76561198298095535,"connected_time":6696000000000,"state":"active","ping":57},{"user_id":106,"name":"Dolos","steam_id":76561198834983084,"connected_time":1268000000000,"state":"active","ping":99},{"user_id":110,"name":"Killertrey1852","steam_id":76561199471223682,"connected_time":993000000000,"state":"active","ping":167},{"user_id":102,"name":"d!eing pigs Wh3n?","steam_id":76561198963410515,"connected_time":1482000000000,"state":"active","ping":132},{"user_id":109,"name":"bareky","steam_id":76561198285018752,"connected_time":1114000000000,"state":"active","ping":83},{"user_id":130,"name":"Massive Conquistador","steam_id":76561197961138002,"connected_time":190000000000,"state":"active","ping":127},{"user_id":77,"name":"Villchip","steam_id":76561198198599982,"connected_time":2756000000000,"state":"active","ping":47},{"user_id":75,"name":"longb","steam_id":76561198365336226,"connected_time":2937000000000,"state":"active","ping":119},{"user_id":114,"name":"OrphanObliterator","steam_id":76561199185087795,"connected_time":895000000000,"state":"active","ping":65},{"user_id":98,"name":"miguelrodriguez2013","steam_id":76561198269253587,"connected_time":1919000000000,"state":"active","ping":62},{"user_id":115,"name":"Choc","steam_id":76561198113878570,"connected_time":880000000000,"state":"active","ping":44},{"user_id":104,"name":"Goobins McMichael","steam_id":76561198142772896,"connected_time":1458000000000,"state":"active","ping":68},{"user_id":137,"name":"bullet man","steam_id":76561198080058079,"connected_time":21000000000,"state":"active","ping":60},{"user_id":93,"name":"CookieJuice200","steam_id":76561198120220280,"connected_time":2224000000000,"state":"active","ping":78},{"user_id":132,"name":"pitbull named princess","steam_id":76561198080114979,"connected_time":183000000000,"state":"active","ping":71},{"user_id":42,"name":"goldhed","steam_id":76561198051751133,"connected_time":6103000000000,"state":"active","ping":59},{"user_id":120,"name":"Madcows","steam_id":76561198021695614,"connected_time":813000000000,"state":"active","ping":60},{"user_id":122,"name":"TheOtherBrush","steam_id":76561199048222977,"connected_time":770000000000,"state":"active","ping":90},{"user_id":101,"name":"potato","steam_id":76561198277233056,"connected_time":1685000000000,"state":"active","ping":81},{"user_id":92,"name":"lord foog the 2st","steam_id":76561198827772463,"connected_time":2294000000000,"state":"active","ping":62},{"user_id":108,"name":"Cinnifox","steam_id":76561198068773971,"connected_time":1158000000000,"state":"active","ping":64},{"user_id":126,"name":"shy guy","steam_id":76561198151246059,"connected_time":634000000000,"state":"active","ping":64},{"user_id":133,"name":"dongledog","steam_id":76561198050924003,"connected_time":152000000000,"state":"active","ping":58},{"user_id":135,"name":"Oxferd Crow","steam_id":76561198096916018,"connected_time":106000000000,"state":"active","ping":80}]},{"server_id":17,"name":"Uncletopia | San Francisco | 1 | All Maps","name_short":"sfo-1","host":"sfo-1.us.uncletopia.com","port":27015,"enabled":true,"region":"us-west","cc":"us","latitude":37.77397,"longitude":-122.4313,"reserved":0,"last_update":"0001-01-01T00:00:00Z","name_a2s":"Uncletopia | San Francisco | 1 | All Maps","protocol":17,"map":"pl_borneo","folder":"tf","game":"Team Fortress","app_id":440,"player_count":0,"max_players":24,"Bots":0,"server_type":"Dedicated","server_os":"Linux","password":true,"vac":true,"version":"7757534","steam_id":85568392924469999,"keywords":["nocrits","nodmgspread","payload","uncletopia"],"game_id":440,"stv_port":27016,"stv_name":"Uncletopia | San Francisco | 1 | All Maps | STV","players":null},{"server_id":18,"name":"Uncletopia | San Francisco | 2 | All Maps","name_short":"sfo-2","host":"sfo-1.us.uncletopia.com","port":27025,"enabled":true,"region":"us-west","cc":"us","latitude":37.77397,"longitude":-122.4313,"reserved":0,"last_update":"0001-01-01T00:00:00Z","name_a2s":"Uncletopia | San Francisco | 2 | All Maps","protocol":17,"map":"koth_highpass","folder":"tf","game":"Team Fortress","app_id":440,"player_count":0,"max_players":24,"Bots":0,"server_type":"Dedicated","server_os":"Linux","password":true,"vac":true,"version":"7757534","steam_id":85568392924470000,"keywords":["cp","nocrits","nodmgspread","uncletopia"],"game_id":440,"stv_port":27026,"stv_name":"Uncletopia | San Francisco | 2 | All Maps | STV","players":null},{"server_id":19,"name":"Uncletopia | San Francisco | 3 | Stopwatch Beta","name_short":"sfo-3","host":"sfo-1.us.uncletopia.com","port":27035,"enabled":true,"region":"us-west","cc":"us","latitude":37.77397,"longitude":-122.4313,"reserved":0,"last_update":"0001-01-01T00:00:00Z","name_a2s":"Uncletopia | San Francisco | 3 | Stopwatch Beta","protocol":17,"map":"pl_borneo","folder":"tf","game":"Team Fortress","app_id":440,"player_count":0,"max_players":24,"Bots":0,"server_type":"Dedicated","server_os":"Linux","password":true,"vac":true,"version":"7757534","steam_id":85568392924742824,"keywords":["nocrits","nodmgspread","payload","uncletopia"],"game_id":440,"stv_port":27036,"stv_name":"Uncletopia | San Francisco | 3 | Stopwatch Beta | STV","players":null},{"server_id":20,"name":"Uncletopia | San Francisco | 4 | Community","name_short":"sfo-4","host":"sfo-1.us.uncletopia.com","port":27045,"enabled":true,"region":"us-west","cc":"us","latitude":37.77397,"longitude":-122.4313,"reserved":0,"last_update":"0001-01-01T00:00:00Z","name_a2s":"Uncletopia | San Francisco | 4 | Community","protocol":17,"map":"koth_highpass","folder":"tf","game":"Team Fortress","app_id":440,"player_count":0,"max_players":24,"Bots":0,"server_type":"Dedicated","server_os":"Linux","password":true,"vac":true,"version":"7757534","steam_id":85568392924742826,"keywords":["cp","nocrits","nodmgspread","uncletopia"],"game_id":440,"stv_port":27046,"stv_name":"Uncletopia | San Francisco | 4 | Community | STV","players":null},{"server_id":141,"name":"Uncletopia | Sydney | 1 | All Maps","name_short":"syd-1","host":"syd-1.au.uncletopia.com","port":27015,"enabled":true,"region":"au","cc":"au","latitude":-33.865143,"longitude":151.2099,"reserved":0,"last_update":"0001-01-01T00:00:00Z","name_a2s":"Uncletopia | Sydney | 1 | All Maps","protocol":17,"map":"pl_borneo","folder":"tf","game":"Team Fortress","app_id":440,"player_count":0,"max_players":24,"Bots":0,"server_type":"Dedicated","server_os":"Linux","password":true,"vac":true,"version":"7757534","steam_id":85568392924470001,"keywords":["nocrits","nodmgspread","payload","uncletopia"],"game_id":440,"stv_port":27016,"stv_name":"Uncletopia | Sydney | 1 | All Maps | STV","players":null},{"server_id":123,"name":"Uncletopia | Sydney | 2 | All Maps","name_short":"syd-2","host":"syd-1.au.uncletopia.com","port":27025,"enabled":true,"region":"au","cc":"au","latitude":-33.865143,"longitude":151.2099,"reserved":0,"last_update":"0001-01-01T00:00:00Z","name_a2s":"Uncletopia | Sydney | 2 | All Maps","protocol":17,"map":"koth_highpass","folder":"tf","game":"Team Fortress","app_id":440,"player_count":0,"max_players":24,"Bots":0,"server_type":"Dedicated","server_os":"Linux","password":true,"vac":true,"version":"7757534","steam_id":85568392924470002,"keywords":["cp","nocrits","nodmgspread","uncletopia"],"game_id":440,"stv_port":27026,"stv_name":"Uncletopia | Sydney | 2 | All Maps | STV","players":null},{"server_id":395,"name":"Uncletopia | Sydney | 3 | All Maps","name_short":"syd-3","host":"syd-1.au.uncletopia.com","port":27035,"enabled":true,"region":"au","cc":"au","latitude":-33.865143,"longitude":151.2099,"reserved":0,"last_update":"0001-01-01T00:00:00Z","name_a2s":"Uncletopia | Sydney | 3 | All Maps","protocol":17,"map":"pl_upward","folder":"tf","game":"Team Fortress","app_id":440,"player_count":0,"max_players":24,"Bots":0,"server_type":"Dedicated","server_os":"Linux","password":true,"vac":true,"version":"7757534","steam_id":85568392925194467,"keywords":["nocrits","nodmgspread","payload","uncletopia"],"game_id":440,"stv_port":27036,"stv_name":"Uncletopia | Sydney | 3 | All Maps | STV","players":null},{"server_id":396,"name":"Uncletopia | Sydney | 4 | All Maps","name_short":"syd-4","host":"syd-1.au.uncletopia.com","port":27045,"enabled":true,"region":"au","cc":"au","latitude":-33.865143,"longitude":151.2099,"reserved":0,"last_update":"0001-01-01T00:00:00Z","name_a2s":"Uncletopia | Sydney | 4 | All Maps","protocol":17,"map":"cp_altitude","folder":"tf","game":"Team Fortress","app_id":440,"player_count":0,"max_players":24,"Bots":0,"server_type":"Dedicated","server_os":"Linux","password":true,"vac":true,"version":"7757534","steam_id":85568392925397958,"keywords":["cp","nocrits","nodmgspread","uncletopia"],"game_id":440,"stv_port":27046,"stv_name":"Uncletopia | Sydney | 4 | All Maps | STV","players":null},{"server_id":58,"name":"Uncletopia | Sydney | 5 | Stopwatch Beta","name_short":"syd-5","host":"syd-1.au.uncletopia.com","port":27055,"enabled":true,"region":"au","cc":"au","latitude":-33.865143,"longitude":151.2099,"reserved":0,"last_update":"0001-01-01T00:00:00Z","name_a2s":"Uncletopia | Sydney | 5 | Stopwatch Beta","protocol":17,"map":"koth_highpass","folder":"tf","game":"Team Fortress","app_id":440,"player_count":0,"max_players":24,"Bots":0,"server_type":"Dedicated","server_os":"Linux","password":true,"vac":true,"version":"7757534","steam_id":85568392925397959,"keywords":["cp","nocrits","nodmgspread","uncletopia"],"game_id":440,"stv_port":27056,"stv_name":"Uncletopia | Sydney | 5 | Stopwatch Beta | STV","players":null},{"server_id":59,"name":"Uncletopia | Sydney | 6 | Community","name_short":"syd-6","host":"syd-1.au.uncletopia.com","port":27065,"enabled":true,"region":"au","cc":"au","latitude":-33.865143,"longitude":151.2099,"reserved":0,"last_update":"0001-01-01T00:00:00Z","name_a2s":"Uncletopia | Sydney | 6 | Community","protocol":17,"map":"cp_sunshine","folder":"tf","game":"Team Fortress","app_id":440,"player_count":0,"max_players":24,"Bots":0,"server_type":"Dedicated","server_os":"Linux","password":true,"vac":true,"version":"7757534","steam_id":85568392925397960,"keywords":["cp","nocrits","nodmgspread","uncletopia"],"game_id":440,"stv_port":27066,"stv_name":"Uncletopia | Sydney | 6 | Community | STV","players":null},{"server_id":49,"name":"Uncletopia | Warsaw | 1 | All Maps","name_short":"waw-1","host":"waw-1.pl.uncletopia.com","port":27015,"enabled":true,"region":"eu","cc":"pl","latitude":52.2297,"longitude":21.017532,"reserved":0,"last_update":"0001-01-01T00:00:00Z","name_a2s":"","protocol":0,"map":"","folder":"","game":"","app_id":0,"player_count":0,"max_players":0,"Bots":0,"server_type":"","server_os":"","password":false,"vac":false,"version":"","steam_id":0,"keywords":null,"game_id":0,"stv_port":0,"stv_name":"","players":null},{"server_id":50,"name":"Uncletopia | Warsaw | 2 | All Maps","name_short":"waw-2","host":"waw-1.pl.uncletopia.com","port":27025,"enabled":true,"region":"eu","cc":"pl","latitude":52.2297,"longitude":21.017532,"reserved":0,"last_update":"0001-01-01T00:00:00Z","name_a2s":"Uncletopia | Warsaw | 2 | All Maps","protocol":17,"map":"koth_lakeside_final","folder":"tf","game":"Team Fortress","app_id":440,"player_count":0,"max_players":24,"Bots":0,"server_type":"Dedicated","server_os":"Linux","password":true,"vac":true,"version":"7757534","steam_id":85568392925397851,"keywords":["cp","nocrits","nodmgspread","uncletopia"],"game_id":440,"stv_port":27026,"stv_name":"Uncletopia | Warsaw | 2 | All Maps | STV","players":null},{"server_id":51,"name":"Uncletopia | Warsaw | 3 | All Maps","name_short":"waw-3","host":"waw-1.pl.uncletopia.com","port":27035,"enabled":true,"region":"eu","cc":"pl","latitude":52.2297,"longitude":21.017532,"reserved":0,"last_update":"0001-01-01T00:00:00Z","name_a2s":"Uncletopia | Warsaw | 3 | All Maps","protocol":17,"map":"cp_dustbowl","folder":"tf","game":"Team Fortress","app_id":440,"player_count":0,"max_players":24,"Bots":0,"server_type":"Dedicated","server_os":"Linux","password":true,"vac":true,"version":"7757534","steam_id":85568392925397852,"keywords":["cp","nocrits","nodmgspread","uncletopia"],"game_id":440,"stv_port":27036,"stv_name":"Uncletopia | Warsaw | 3 | All Maps | STV","players":null},{"server_id":52,"name":"Uncletopia | Warsaw | 4 | All Maps","name_short":"waw-4","host":"waw-1.pl.uncletopia.com","port":27045,"enabled":true,"region":"eu","cc":"pl","latitude":52.2297,"longitude":21.017532,"reserved":0,"last_update":"0001-01-01T00:00:00Z","name_a2s":"Uncletopia | Warsaw | 4 | All Maps","protocol":17,"map":"pl_snowycoast","folder":"tf","game":"Team Fortress","app_id":440,"player_count":0,"max_players":24,"Bots":0,"server_type":"Dedicated","server_os":"Linux","password":true,"vac":true,"version":"7757534","steam_id":85568392925397853,"keywords":["nocrits","nodmgspread","payload","uncletopia"],"game_id":440,"stv_port":27046,"stv_name":"Uncletopia | Warsaw | 4 | All Maps | STV","players":null},{"server_id":53,"name":"Uncletopia | Warsaw | 5 | Stopwatch Beta","name_short":"waw-5","host":"waw-1.pl.uncletopia.com","port":27055,"enabled":true,"region":"eu","cc":"pl","latitude":52.2297,"longitude":21.017532,"reserved":0,"last_update":"0001-01-01T00:00:00Z","name_a2s":"Uncletopia | Warsaw | 5 | Stopwatch Beta","protocol":17,"map":"pl_barnblitz","folder":"tf","game":"Team Fortress","app_id":440,"player_count":0,"max_players":24,"Bots":0,"server_type":"Dedicated","server_os":"Linux","password":true,"vac":true,"version":"7757534","steam_id":85568392925397854,"keywords":["nocrits","nodmgspread","payload","uncletopia"],"game_id":440,"stv_port":27056,"stv_name":"Uncletopia | Warsaw | 5 | Stopwatch Beta | STV","players":null},{"server_id":54,"name":"Uncletopia | Warsaw | 6 | Community","name_short":"waw-6","host":"waw-1.pl.uncletopia.com","port":27065,"enabled":true,"region":"eu","cc":"pl","latitude":52.2297,"longitude":21.017532,"reserved":0,"last_update":"0001-01-01T00:00:00Z","name_a2s":"Uncletopia | Warsaw | 6 | Community","protocol":17,"map":"workshop/cp_sulfur_rc2.ugc619869471","folder":"tf","game":"Team Fortress","app_id":440,"player_count":0,"max_players":24,"Bots":0,"server_type":"Dedicated","server_os":"Linux","password":true,"vac":true,"version":"7757534","steam_id":85568392925397856,"keywords":["cp","nocrits","nodmgspread","uncletopia"],"game_id":440,"stv_port":27066,"stv_name":"Uncletopia | Warsaw | 6 | Community | STV","players":null}]}