{"status":true,"message":"","result":[{"server_id":9,"name":"Uncletopia | Atlanta | 1 | All Maps","name_short":"atl-1","host":"atl-1.us.uncletopia.com","port":27015,"enabled":true,"region":"us-east","cc":"us","latitude":33.753746,"longitude":-84.38633,"reserved":0,"last_update":"0001-01-01T00:00:00Z","name_a2s":"Uncletopia | Atlanta | 1 | All Maps","protocol":17,"map":"pl_hoodoo_final","folder":"tf","game":"Team Fortress","app_id":440,"player_count":25,"max_players":24,"Bots":0,"server_type":"Dedicated","server_os":"Linux","password":true,"vac":true,"version":"7757534","steam_id":85568392924469982,"keywords":["nocrits","nodmgspread","payload","uncletopia"],"game_id":440,"stv_port":27016,"stv_name":"Uncletopia | Atlanta | 1 | All Maps | STV","players":[{"user_id":85,"name":"VPratt","steam_id":76561198351195424,"connected_time":4930000000000,"state":"active","ping":115},{"user_id":128,"name":"DJ Spit","steam_id":76561198186637025,"connected_time":1007000000000,"state":"active","ping":84},{"user_id":131,"name":"Dillon Planter","steam_id":76561198118903188,"connected_time":825000000000,"state":"active","ping":88},{"user_id":118,"name":"Thotimus Begonimus","steam_id":76561197970275938,"connected_time":1916000000000,"state":"active","ping":39},{"user_id":124,"name":"BLU1 l Epifiny","steam_id":76561198027958086,"connected_time":1434000000000,"state":"active","ping":84},{"user_id":134,"name":"ted twenty-two ( Triple T )","steam_id":76561198121316868,"connected_time":692000000000,"state":"active","ping":75},{"user_id":113,"name":"CheesySpectre","steam_id":76561198332606276,"connected_time":2902000000000,"state":"active","ping":83},{"user_id":75,"name":"That70sDog","steam_id":76561198119396142,"connected_time":5253000000000,"state":"active","ping":78},{"user_id":33,"name":"sylvia","steam_id":76561198217119457,"connected_time":6973000000000,"state":"active","ping":114},{"user_id":98,"name":"hyuck","steam_id":76561198319990195,"connected_time":3979000000000,"state":"active","ping":78},{"user_id":106,"name":"CATS","steam_id":76561198043405364,"connected_time":3167000000000,"state":"active","ping":73},{"user_id":123,"name":"Daisy ❋","steam_id":76561198042144492,"connected_time":1564000000000,"state":"active","ping":57},{"user_id":132,"name":"krueger","steam_id":76561198268654031,"connected_time":804000000000,"state":"active","ping":72},{"user_id":143,"name":"William Wallace","steam_id":76561199343316814,"connected_time":177000000000,"state":"active","ping":58},{"user_id":96,"name":"Viokik","steam_id":76561198408846602,"connected_time":4001000000000,"state":"active","ping":64},{"user_id":138,"name":"Bozanimal","steam_id":76561198044096897,"connected_time":592000000000,"state":"active","ping":62},{"user_id":83,"name":"LACTAID","steam_id":76561198276585202,"connected_time":4952000000000,"state":"active","ping":104},{"user_id":108,"name":"blu rio\u003c3 | they/them","steam_id":76561198299175965,"connected_time":3063000000000,"state":"active","ping":60},{"user_id":125,"name":"Legit_Jaxer","steam_id":76561198172234053,"connected_time":1300000000000,"state":"active","ping":104},{"user_id":136,"name":"Laft","steam_id":76561198364501558,"connected_time":641000000000,"state":"active","ping":75},{"user_id":141,"name":"Moonorite","steam_id":76561198157057987,"connected_time":286000000000,"state":"active","ping":58},{"user_id":97,"name":"[TF2Apples] Intense Green Apple","steam_id":76561198803561622,"connected_time":3996000000000,"state":"active","ping":88},{"user_id":107,"name":"zulious","steam_id":76561198041620617,"connected_time":3162000000000,"state":"active","ping":64},{"user_id":100,"name":"Cryo_Dave","steam_id":76561198796748347,"connected_time":3936000000000,"state":"active","ping":122},{"user_id":144,"name":"Plato the Battle Philosopher","steam_id":76561198000299187,"connected_time":27000000000,"state":"spawning","ping":102}]},{"server_id":400,"name":"Uncletopia | Atlanta | 3 | Community","name_short":"atl-3","host":"atl-1.us.uncletopia.com","port":27035,"enabled":true,"region":"us-east","cc":"us","latitude":33.753746,"longitude":-84.38633,"reserved":0,"last_update":"0001-01-01T00:00:00Z","name_a2s":"Uncletopia | Atlanta | 3 | Community","protocol":17,"map":"workshop/pl_eruption_b9a.ugc2807898013","folder":"tf","game":"Team Fortress","app_id":440,"player_count":0,"max_players":24,"Bots":0,"server_type":"Dedicated","server_os":"Linux","password":true,"vac":true,"version":"7757534","steam_id":85568392924515187,"keywords":["nocrits","nodmgspread","payload","uncletopia"],"game_id":440,"stv_port":27036,"stv_name":"Uncletopia | Atlanta | 3 | Community | STV","players":null},{"server_id":401,"name":"Uncletopia | Atlanta | 4 | No Payload","name_short":"atl-4","host":"atl-1.us.uncletopia.com","port":27045,"enabled":true,"region":"us-east","cc":"us","latitude":33.753746,"longitude":-84.38633,"reserved":0,"last_update":"0001-01-01T00:00:00Z","name_a2s":"","protocol":0,"map":"","folder":"","game":"","app_id":0,"player_count":0,"max_players":0,"Bots":0,"server_type":"","server_os":"","password":false,"vac":false,"version":"","steam_id":0,"keywords":null,"game_id":0,"stv_port":0,"stv_name":"","players":null},{"server_id":2,"name":"Uncletopia | Chicago | 1 | All Maps","name_short":"chi-1","host":"chi-1.us.uncletopia.com","port":27015,"enabled":true,"region":"us-central","cc":"us","latitude":41.881832,"longitude":-87.62318,"reserved":0,"last_update":"0001-01-01T00:00:00Z","name_a2s":"Uncletopia | Chicago | 1 | All Maps","protocol":17,"map":"cp_sunshine","folder":"tf","game":"Team Fortress","app_id":440,"player_count":24,"max_players":24,"Bots":0,"server_type":"Dedicated","server_os":"Linux","password":true,"vac":true,"version":"7757534","steam_id":85568392924469984,"keywords":["cp","nocrits","nodmgspread","uncletopia"],"game_id":440,"stv_port":27016,"stv_name":"Uncletopia | Chicago | 1 | All Maps | STV","players":[{"user_id":339,"name":"I_made_cummy","steam_id":76561198086107548,"connected_time":848000000000,"state":"active","ping":63},{"user_id":186,"name":"Wingz","steam_id":76561198135885865,"connected_time":12012000000000,"state":"active","ping":45},{"user_id":326,"name":"Recursive Gamer","steam_id":76561198042102952,"connected_time":1623000000000,"state":"active","ping":51},{"user_id":327,"name":"Animal Slices","steam_id":76561198137545511,"connected_time":1597000000000,"state":"active","ping":60},{"user_id":309,"name":"paul blart","steam_id":76561198068558572,"connected_time":4115000000000,"state":"active","ping":75},{"user_id":356,"name":"jerps","steam_id":76561198113109989,"connected_time":180000000000,"state":"active","ping":74},{"user_id":349,"name":"stardust","steam_id":76561198413930183,"connected_time":477000000000,"state":"active","ping":58},{"user_id":312,"name":"flappyflap2","steam_id":76561198285048973,"connected_time":3316000000000,"state":"active","ping":61},{"user_id":354,"name":"catrinaisahuman","steam_id":76561198281355729,"connected_time":250000000000,"state":"active","ping":71},{"user_id":302,"name":"A Rhino with Coronavirus","steam_id":76561197999451366,"connected_time":4626000000000,"state":"active","ping":71},{"user_id":345,"name":"High Ranking Muckity-Muck","steam_id":76561198033047084,"connected_time":748000000000,"state":"active","ping":82},{"user_id":333,"name":"majorbobfunction","steam_id":76561198042464632,"connected_time":1351000000000,"state":"active","ping":47},{"user_id":355,"name":"laxnuss","steam_id":76561198998046285,"connected_time":230000000000,"state":"active","ping":113},{"user_id":350,"name":"Zaeve","steam_id":76561198117633845,"connected_time":395000000000,"state":"active","ping":104},{"user_id":357,"name":"Ceiling Man","steam_id":76561198003959902,"connected_time":176000000000,"state":"active","ping":59},{"user_id":330,"name":"Riske","steam_id":76561198115840568,"connected_time":1557000000000,"state":"active","ping":71},{"user_id":343,"name":"yer_nerd","steam_id":76561199435454093,"connected_time":783000000000,"state":"active","ping":70},{"user_id":347,"name":"Vlone","steam_id":76561199119064542,"connected_time":572000000000,"state":"active","ping":112},{"user_id":351,"name":"CheerUpBeer","steam_id":76561198019587545,"connected_time":386000000000,"state":"active","ping":66},{"user_id":334,"name":"gaylittlemouse","steam_id":76561198819562111,"connected_time":1283000000000,"state":"active","ping":68},{"user_id":346,"name":"Rumpleforeskin","steam_id":76561198044781473,"connected_time":633000000000,"state":"active","ping":76},{"user_id":358,"name":"LazahBeam","steam_id":76561199456232623,"connected_time":166000000000,"state":"active","ping":94},{"user_id":300,"name":"women fish me","steam_id":76561198153245906,"connected_time":4766000000000,"state":"active","ping":58},{"user_id":241,"name":"Ademar","steam_id":76561199391802581,"connected_time":8878000000000,"state":"active","ping":58}]},{"server_id":106,"name":"Uncletopia | Chicago | 2 | All Maps","name_short":"chi-2","host":"chi-1.us.uncletopia.com","port":27025,"enabled":true,"region":"us-central","cc":"us","latitude":41.881832,"longitude":-87.62318,"reserved":0,"last_update":"0001-01-01T00:00:00Z","name_a2s":"Uncletopia | Chicago | 2 | All Maps","protocol":17,"map":"koth_viaduct","folder":"tf","game":"Team Fortress","app_id":440,"player_count":0,"max_players":24,"Bots":0,"server_type":"Dedicated","server_os":"Linux","password":true,"vac":true,"version":"7757534","steam_id":85568392924469985,"keywords":["cp","nocrits","nodmgspread","uncletopia"],"game_id":440,"stv_port":27026,"stv_name":"Uncletopia | Chicago | 2 | All Maps | STV","players":null},{"server_id":402,"name":"Uncletopia | Chicago | 3 | All Maps","name_short":"chi-3","host":"chi-1.us.uncletopia.com","port":27035,"enabled":true,"region":"us-central","cc":"us","latitude":41.881832,"longitude":-87.62318,"reserved":0,"last_update":"0001-01-01T00:00:00Z","name_a2s":"Uncletopia | Chicago | 3 | All Maps","protocol":17,"map":"koth_lakeside_final","folder":"tf","game":"Team Fortress","app_id":440,"player_count":0,"max_players":24,"Bots":0,"server_type":"Dedicated","server_os":"Linux","password":true,"vac":true,"version":"7757534","steam_id":85568392924515191,"keywords":["cp","nocrits","nodmgspread","uncletopia"],"game_id":440,"stv_port":27036,"stv_name":"Uncletopia | Chicago | 3 | All Maps | STV","players":null},{"server_id":403,"name":"Uncletopia | Chicago | 4 | All Maps","name_short":"chi-4","host":"chi-1.us.uncletopia.com","port":27045,"enabled":true,"region":"us-central","cc":"us","latitude":41.881832,"longitude":-87.62318,"reserved":0,"last_update":"0001-01-01T00:00:00Z","name_a2s":"Uncletopia | Chicago | 4 | All Maps","protocol":17,"map":"cp_process_final","folder":"tf","game":"Team Fortress","app_id":440,"player_count":24,"max_players":24,"Bots":0,"server_type":"Dedicated","server_os":"Linux","password":true,"vac":true,"version":"7757534","steam_id":85568392924515193,"keywords":["cp","nocrits","nodmgspread","uncletopia"],"game_id":440,"stv_port":27046,"stv_name":"Uncletopia | Chicago | 4 | All Maps | STV","players":[{"user_id":4,"name":"volta","steam_id":76561199214283884,"connected_time":4172000000000,"state":"active","ping":97},{"user_id":5,"name":"Lightatex","steam_id":76561199068097196,"connected_time":4168000000000,"state":"active","ping":57},{"user_id":48,"name":"Whoa","steam_id":76561197970353496,"connected_time":1634000000000,"state":"active","ping":73},{"user_id":63,"name":"glitch","steam_id":76561197979495589,"connected_time":304000000000,"state":"active","ping":71},{"user_id":59,"name":"Rasputia","steam_id":76561198132051047,"connected_time":528000000000,"state":"active","ping":103},{"user_id":11,"name":"ShadBad","steam_id":76561198248287390,"connected_time":3731000000000,"state":"active","ping":107},{"user_id":54,"name":"-W3E- grim10465","steam_id":76561198045698581,"connected_time":956000000000,"state":"active","ping":46},{"user_id":16,"name":"Rex","steam_id":76561198138365053,"connected_time":3080000000000,"state":"active","ping":122},{"user_id":36,"name":"Tusk","steam_id":76561199066977033,"connected_time":2624000000000,"state":"active","ping":68},{"user_id":64,"name":"jooce","steam_id":76561198129069834,"connected_time":298000000000,"state":"active","ping":51},{"user_id":39,"name":"Furry Saul Goodman","steam_id":76561198069580305,"connected_time":2430000000000,"state":"active","ping":45},{"user_id":20,"name":"Mug Moment Gaming","steam_id":76561198233098136,"connected_time":2972000000000,"state":"active","ping":72},{"user_id":49,"name":"defs98","steam_id":76561198134813102,"connected_time":1633000000000,"state":"active","ping":59},{"user_id":66,"name":"D","steam_id":76561198157104673,"connected_time":202000000000,"state":"active","ping":70},{"user_id":60,"name":"pelican","steam_id":76561199144340440,"connected_time":492000000000,"state":"active","ping":68},{"user_id":24,"name":"Pütii SpenepS","steam_id":76561198029318657,"connected_time":2838000000000,"state":"active","ping":60},{"user_id":53,"name":"rlty","steam_id":76561198009395055,"connected_time":973000000000,"state":"active","ping":62},{"user_id":42,"name":"King Of The Chill","steam_id":76561197971394640,"connected_time":2335000000000,"state":"active","ping":97},{"user_id":50,"name":"Peasuper Plant","steam_id":76561199367860917,"connected_time":1623000000000,"state":"active","ping":142},{"user_id":58,"name":"[LINUX] Purple Pybro","steam_id":76561198093538786,"connected_time":814000000000,"state":"active","ping":67},{"user_id":44,"name":"Derpydude2002 #SaveTf2","steam_id":76561198811719519,"connected_time":2082000000000,"state":"active","ping":68},{"user_id":41,"name":"Mr.Kevin120","steam_id":76561199186919096,"connected_time":2408000000000,"state":"active","ping":74},{"user_id":45,"name":"G6 1920","steam_id":76561198111669774,"connected_time":1973000000000,"state":"active","ping":51},{"user_id":57,"name":"Architect","steam_id":76561198015242016,"connected_time":925000000000,"state":"active","ping":55}]},{"server_id":36,"name":"Uncletopia | Chicago | 5 | All Maps","name_short":"chi-5","host":"chi-2.us.uncletopia.com","port":27015,"enabled":true,"region":"us-central","cc":"us","latitude":41.881832,"longitude":-87.62318,"reserved":0,"last_update":"0001-01-01T00:00:00Z","name_a2s":"Uncletopia | Chicago | 5 | All Maps","protocol":17,"map":"koth_cascade","folder":"tf","game":"Team Fortress","app_id":440,"player_count":0,"max_players":24,"Bots":0,"server_type":"Dedicated","server_os":"Linux","password":true,"vac":true,"version":"7757534","steam_id":85568392924866362,"keywords":["cp","nocrits","nodmgspread","uncletopia"],"game_id":440,"stv_port":27016,"stv_name":"Uncletopia | Chicago | 5 | All Maps | STV","players":null},{"server_id":37,"name":"Uncletopia | Chicago | 6 | All Maps","name_short":"chi-6","host":"chi-2.us.uncletopia.com","port":27025,"enabled":true,"region":"us-central","cc":"us","latitude":41.881832,"longitude":-87.62318,"reserved":0,"last_update":"0001-01-01T00:00:00Z","name_a2s":"Uncletopia | Chicago | 6 | All Maps","protocol":17,"map":"pl_swiftwater_final1","folder":"tf","game":"Team Fortress","app_id":440,"player_count":24,"max_players":24,"Bots":0,"server_type":"Dedicated","server_os":"Linux","password":true,"vac":true,"version":"7757534","steam_id":85568392924866363,"keywords":["nocrits","nodmgspread","payload","uncletopia"],"game_id":440,"stv_port":27026,"stv_name":"Uncletopia | Chicago | 6 | All Maps | STV","players":[{"user_id":310,"name":"AlaNo","steam_id":76561198133099582,"connected_time":2772000000000,"state":"active","ping":103},{"user_id":340,"name":"OrangeShoes","steam_id":76561197971249940,"connected_time":609000000000,"state":"active","ping":76},{"user_id":209,"name":"DistantJragon","steam_id":76561198117563641,"connected_time":6422000000000,"state":"active","ping":50},{"user_id":332,"name":"The Good","steam_id":76561198133253633,"connected_time":1181000000000,"state":"active","ping":89},{"user_id":316,"name":"cotton candy thief","steam_id":76561198058998371,"connected_time":2092000000000,"state":"active","ping":61},{"user_id":263,"name":"Ironaka","steam_id":76561198029993183,"connected_time":3615000000000,"state":"active","ping":88},{"user_id":248,"name":"Live Bait","steam_id":76561198010481328,"connected_time":4655000000000,"state":"active","ping":160},{"user_id":260,"name":"barker bill","steam_id":76561198018451994,"connected_time":4223000000000,"state":"active","ping":93},{"user_id":338,"name":"Ty","steam_id":76561198132068284,"connected_time":764000000000,"state":"active","ping":71},{"user_id":345,"name":"Big Gay Balls","steam_id":76561198159339442,"connected_time":84000000000,"state":"active","ping":72},{"user_id":344,"name":"Swedish Crowbar","steam_id":76561199105488936,"connected_time":225000000000,"state":"active","ping":146},{"user_id":333,"name":"sebjzy","steam_id":76561198009959034,"connected_time":1161000000000,"state":"active","ping":82},{"user_id":243,"name":"Royce","steam_id":76561198034168235,"connected_time":4816000000000,"state":"active","ping":66},{"user_id":336,"name":"PhobixTheThing","steam_id":76561199059009386,"connected_time":898000000000,"state":"active","ping":92},{"user_id":321,"name":"Jhon Xina","steam_id":76561198411174051,"connected_time":1990000000000,"state":"active","ping":98},{"user_id":325,"name":"Lingrahso","steam_id":76561198219193412,"connected_time":1689000000000,"state":"active","ping":112},{"user_id":251,"name":"Kritzburgh","steam_id":76561198149466938,"connected_time":4583000000000,"state":"active","ping":64},{"user_id":330,"name":"Pixeled","steam_id":76561198088917077,"connected_time":1362000000000,"state":"active","ping":93},{"user_id":324,"name":"gretchling","steam_id":76561198046111695,"connected_time":1737000000000,"state":"active","ping":60},{"user_id":323,"name":"Hombre Lobo","steam_id":76561198074810309,"connected_time":1754000000000,"state":"active","ping":108},{"user_id":331,"name":"SpinetinglingToast","steam_id":76561198099470670,"connected_time":1215000000000,"state":"active","ping":70},{"user_id":317,"name":"The_Quiet_One","steam_id":76561198132476501,"connected_time":2091000000000,"state":"active","ping":49},{"user_id":341,"name":"Rornir","steam_id":76561198081829615,"connected_time":473000000000,"state":"active","ping":44},{"user_id":343,"name":"Glory","steam_id":76561198013975080,"connected_time":260000000000,"state":"active","ping":76}]},{"server_id":38,"name":"Uncletopia | Chicago | 7 | Stopwatch Beta","name_short":"chi-7","host":"chi-2.us.uncletopia.com","port":27035,"enabled":true,"region":"us-central","cc":"us","latitude":41.881832,"longitude":-87.62318,"reserved":0,"last_update":"0001-01-01T00:00:00Z","name_a2s":"Uncletopia | Chicago | 7 | Stopwatch Beta","protocol":17,"map":"workshop/koth_product_final.ugc454272353","folder":"tf","game":"Team Fortress","app_id":440,"player_count":0,"max_players":24,"Bots":0,"server_type":"Dedicated","server_os":"Linux","password":true,"vac":true,"version":"7757534","steam_id":85568392924866364,"keywords":["cp","nocrits","nodmgspread","uncletopia"],"game_id":440,"stv_port":27036,"stv_name":"Uncletopia | Chicago | 7 | Stopwatch Beta | STV","players":null},{"server_id":39,"name":"Uncletopia | Chicago | 8 | Community","name_short":"chi-8","host":"chi-2.us.uncletopia.com","port":27045,"enabled":true,"region":"us-central","cc":"us","latitude":41.881832,"longitude":-87.62318,"reserved":0,"last_update":"0001-01-01T00:00:00Z","name_a2s":"Uncletopia | Chicago | 8 | Community","protocol":17,"map":"pl_barnblitz","folder":"tf","game":"Team Fortress","app_id":440,"player_count":0,"max_players":24,"Bots":0,"server_type":"Dedicated","server_os":"Linux","password":true,"vac":true,"version":"7757534","steam_id":85568392924866365,"keywords":["nocrits","nodmgspread","payload","uncletopia"],"game_id":440,"stv_port":27046,"stv_name":"Uncletopia | Chicago | 8 | Community | STV","players":null},{"server_id":8,"name":"Uncletopia | Dallas | 1 | All Maps","name_short":"dal-1","host":"dal-1.us.uncletopia.com","port":27015,"enabled":true,"region":"us-central","cc":"us","latitude":32.779167,"longitude":-96.80889,"reserved":0,"last_update":"0001-01-01T00:00:00Z","name_a2s":"Uncletopia | Dallas | 1 | All Maps","protocol":17,"map":"koth_cascade","folder":"tf","game":"Team Fortress","app_id":440,"player_count":0,"max_players":24,"Bots":0,"server_type":"Dedicated","server_os":"Linux","password":true,"vac":true,"version":"7757534","steam_id":85568392924469986,"keywords":["cp","nocrits","nodmgspread","uncletopia"],"game_id":440,"stv_port":27016,"stv_name":"Uncletopia | Dallas | 1 | All Maps | STV","players":null},{"server_id":108,"name":"Uncletopia | Dallas | 2 | All Maps","name_short":"dal-2","host":"dal-1.us.uncletopia.com","port":27025,"enabled":true,"region":"us-central","cc":"us","latitude":32.779167,"longitude":-96.80889,"reserved":0,"last_update":"0001-01-01T00:00:00Z","name_a2s":"Uncletopia | Dallas | 2 | All Maps","protocol":17,"map":"cp_snakewater_final1","folder":"tf","game":"Team Fortress","app_id":440,"player_count":0,"max_players":24,"Bots":0,"server_type":"Dedicated","server_os":"Linux","password":true,"vac":true,"version":"7757534","steam_id":85568392924469988,"keywords":["cp","nocrits","nodmgspread","uncletopia"],"game_id":440,"stv_port":27026,"stv_name":"Uncletopia | Dallas | 2 | All Maps | STV","players":null},{"server_id":5,"name":"Uncletopia | Frankfurt | 1 | All Maps","name_short":"frk-1","host":"frk-1.de.uncletopia.com","port":27015,"enabled":true,"region":"eu","cc":"de","latitude":50.110924,"longitude":8.682127,"reserved":0,"last_update":"0001-01-01T00:00:00Z","name_a2s":"Uncletopia | Frankfurt | 1 | All Maps","protocol":17,"map":"pl_frontier_final","folder":"tf","game":"Team Fortress","app_id":440,"player_count":24,"max_players":24,"Bots":0,"server_type":"Dedicated","server_os":"Linux","password":true,"vac":true,"version":"7757534","steam_id":85568392924469989,"keywords":["nocrits","nodmgspread","payload","uncletopia"],"game_id":440,"stv_port":27016,"stv_name":"Uncletopia | Frankfurt | 1 | All Maps | STV","players":[{"user_id":265,"name":"EdSuedi","steam_id":76561199387956486,"connected_time":1007000000000,"state":"active","ping":56},{"user_id":232,"name":"taffy☮","steam_id":76561198407578495,"connected_time":2897000000000,"state":"active","ping":117},{"user_id":249,"name":"lobzade","steam_id":76561198195685370,"connected_time":1921000000000,"state":"active","ping":58},{"user_id":210,"name":"Carry Krypl","steam_id":76561198136938121,"connected_time":4138000000000,"state":"active","ping":50},{"user_id":262,"name":"SCRAMMMBLED","steam_id":76561197998307746,"connected_time":1052000000000,"state":"active","ping":62},{"user_id":263,"name":"holykyckling","steam_id":76561198040661615,"connected_time":1038000000000,"state":"active","ping":74},{"user_id":264,"name":"Bumblebee","steam_id":76561198033551105,"connected_time":1012000000000,"state":"active","ping":61},{"user_id":26,"name":"alex.difoux","steam_id":76561198370369778,"connected_time":18278000000000,"state":"active","ping":70},{"user_id":274,"name":"Acanda","steam_id":76561198123246537,"connected_time":211000000000,"state":"active","ping":54},{"user_id":268,"name":"yusef","steam_id":76561198108481078,"connected_time":949000000000,"state":"active","ping":112},{"user_id":250,"name":"flange","steam_id":76561198040182692,"connected_time":1891000000000,"state":"active","ping":52},{"user_id":271,"name":"masatin","steam_id":76561198044967818,"connected_time":623000000000,"state":"active","ping":62},{"user_id":267,"name":"Lemon","steam_id":76561198188535947,"connected_time":1005000000000,"state":"active","ping":79},{"user_id":244,"name":"ChaosMaster","steam_id":76561198360983155,"connected_time":1941000000000,"state":"active","ping":71},{"user_id":254,"name":"LarsInABox","steam_id":76561198028329262,"connected_time":1373000000000,"state":"active","ping":75},{"user_id":273,"name":"JohnnyRakieta","steam_id":76561198855789287,"connected_time":444000000000,"state":"active","ping":65},{"user_id":257,"name":"pink sunset","steam_id":76561198089183373,"connected_time":1288000000000,"state":"active","ping":65},{"user_id":241,"name":"bottom","steam_id":76561198055363505,"connected_time":2035000000000,"state":"active","ping":68},{"user_id":246,"name":"Bones","steam_id":76561198065081225,"connected_time":1938000000000,"state":"active","ping":56},{"user_id":199,"name":"Serton♝","steam_id":76561198011061126,"connected_time":6180000000000,"state":"active","ping":89},{"user_id":229,"name":"VIN WEASEL","steam_id":76561198014387066,"connected_time":3082000000000,"state":"active","ping":45},{"user_id":261,"name":"i always miss","steam_id":76561199379233899,"connected_time":1075000000000,"state":"active","ping":89},{"user_id":238,"name":"Soerlssoelssöen","steam_id":76561197993060585,"connected_time":2429000000000,"state":"active","ping":74},{"user_id":248,"name":"Pabs :D","steam_id":76561198000016962,"connected_time":1926000000000,"state":"active","ping":59}]},{"server_id":110,"name":"Uncletopia | Frankfurt | 2 | All Maps","name_short":"frk-2","host":"frk-1.de.uncletopia.com","port":27025,"enabled":true,"region":"eu","cc":"de","latitude":50.110924,"longitude":8.682127,"reserved":0,"last_update":"0001-01-01T00:00:00Z","name_a2s":"Uncletopia | Frankfurt | 2 | All Maps","protocol":17,"map":"pl_frontier_final","folder":"tf","game":"Team Fortress","app_id":440,"player_count":24,"max_players":24,"Bots":0,"server_type":"Dedicated","server_os":"Linux","password":true,"vac":true,"version":"7757534","steam_id":85568392924469990,"keywords":["nocrits","nodmgspread","payload","uncletopia"],"game_id":440,"stv_port":27026,"stv_name":"Uncletopia | Frankfurt | 2 | All Maps | STV","players":[{"user_id":433,"name":"adijuice","steam_id":76561198187079875,"connected_time":2149000000000,"state":"active","ping":99},{"user_id":425,"name":"Alexei","steam_id":76561197987169026,"connected_time":2482000000000,"state":"active","ping":63},{"user_id":442,"name":"JohkupohkuXD","steam_id":76561198391108762,"connected_time":1584000000000,"state":"active","ping":87},{"user_id":402,"name":"Dedarrict","steam_id":76561198286179783,"connected_time":4283000000000,"state":"active","ping":86},{"user_id":399,"name":"AndLogin","steam_id":76561198108601962,"connected_time":4386000000000,"state":"active","ping":99},{"user_id":450,"name":"FiricelSolos123","steam_id":76561198901014065,"connected_time":1423000000000,"state":"active","ping":89},{"user_id":340,"name":"Dolcelatte","steam_id":76561198038501770,"connected_time":8589000000000,"state":"active","ping":51},{"user_id":438,"name":"Taez","steam_id":76561198261820803,"connected_time":1905000000000,"state":"active","ping":74},{"user_id":403,"name":"Vitamin Weee","steam_id":76561199183937747,"connected_time":4255000000000,"state":"active","ping":85},{"user_id":457,"name":"KajaStorm","steam_id":76561199215842872,"connected_time":941000000000,"state":"active","ping":200},{"user_id":440,"name":"gamma","steam_id":76561198204290247,"connected_time":1877000000000,"state":"active","ping":93},{"user_id":429,"name":"Jay.k","steam_id":76561198079387590,"connected_time":2256000000000,"state":"active","ping":68},{"user_id":412,"name":"Gordon Birdman","steam_id":76561198013382324,"connected_time":3232000000000,"state":"active","ping":67},{"user_id":441,"name":"TJ1212","steam_id":76561199013575313,"connected_time":1797000000000,"state":"active","ping":82},{"user_id":431,"name":"TV","steam_id":76561198177326926,"connected_time":2250000000000,"state":"active","ping":180},{"user_id":460,"name":"Paintbrush","steam_id":76561198119987705,"connected_time":703000000000,"state":"active","ping":66},{"user_id":461,"name":"Vic maher","steam_id":76561198097523768,"connected_time":397000000000,"state":"active","ping":68},{"user_id":410,"name":"nox","steam_id":76561198287360892,"connected_time":3844000000000,"state":"active","ping":67},{"user_id":445,"name":"Jabussy","steam_id":76561198111148719,"connected_time":1514000000000,"state":"active","ping":71},{"user_id":446,"name":"GMsU | Smiley","steam_id":76561198121494414,"connected_time":1507000000000,"state":"active","ping":101},{"user_id":453,"name":"ムGeRmAn |×UA×ム","steam_id":76561199044754898,"connected_time":1099000000000,"state":"active","ping":64},{"user_id":369,"name":"VolcanicArts","steam_id":76561198063453246,"connected_time":5987000000000,"state":"active","ping":68},{"user_id":452,"name":"Insain Bolt!","steam_id":76561198025687726,"connected_time":1419000000000,"state":"active","ping":65},{"user_id":455,"name":"YuraGreek","steam_id":76561198050182252,"connected_time":1005000000000,"state":"active","ping":71}]},{"server_id":308,"name":"Uncletopia | Frankfurt | 3 | All Maps","name_short":"frk-3","host":"frk-1.de.uncletopia.com","port":27035,"enabled":true,"region":"eu","cc":"de","latitude":50.110924,"longitude":8.682127,"reserved":0,"last_update":"0001-01-01T00:00:00Z","name_a2s":"Uncletopia | Frankfurt | 3 | All Maps","protocol":17,"map":"pl_badwater","folder":"tf","game":"Team Fortress","app_id":440,"player_count":23,"max_players":24,"Bots":0,"server_type":"Dedicated","server_os":"Linux","password":true,"vac":true,"version":"7757534","steam_id":85568392924504274,"keywords":["nocrits","nodmgspread","payload","uncletopia"],"game_id":440,"stv_port":27036,"stv_name":"Uncletopia | Frankfurt | 3 | All Maps | STV","players":[{"user_id":190,"name":"Snortman","steam_id":76561199012566222,"connected_time":193000000000,"state":"active","ping":48},{"user_id":182,"name":"☆･ﾟ.*✧･ﾟ*(≧◡≦","steam_id":76561198159297690,"connected_time":632000000000,"state":"active","ping":106},{"user_id":162,"name":"Walle","steam_id":76561197995148937,"connected_time":1028000000000,"state":"active","ping":61},{"user_id":192,"name":"Nuuskis","steam_id":76561198084042012,"connected_time":0,"state":"connecting","ping":0},{"user_id":141,"name":"BlinkedUp","steam_id":76561198249985618,"connected_time":2447000000000,"state":"active","ping":60},{"user_id":156,"name":"\u003eSix in swedish + y","steam_id":76561198372971096,"connected_time":1115000000000,"state":"active","ping":62},{"user_id":174,"name":"hypecunt","steam_id":76561198235763492,"connected_time":781000000000,"state":"active","ping":82},{"user_id":189,"name":"(wm) Das Fleisch","steam_id":76561198001250715,"connected_time":349000000000,"state":"active","ping":44},{"user_id":187,"name":"Tom Foolery","steam_id":76561198358895809,"connected_time":415000000000,"state":"active","ping":64},{"user_id":123,"name":"nyanezt","steam_id":76561198253734265,"connected_time":3527000000000,"state":"active","ping":91},{"user_id":185,"name":"noobdog","steam_id":76561198036486671,"connected_time":455000000000,"state":"active","ping":61},{"user_id":191,"name":"Dr.Sees [F2P]","steam_id":76561199219233587,"connected_time":47000000000,"state":"active","ping":83},{"user_id":110,"name":"lyudmilakh","steam_id":76561198362779878,"connected_time":3975000000000,"state":"active","ping":92},{"user_id":183,"name":"Zepta","steam_id":76561199001659666,"connected_time":588000000000,"state":"active","ping":98},{"user_id":93,"name":"Just Navlis","steam_id":76561198090479609,"connected_time":5075000000000,"state":"active","ping":47},{"user_id":180,"name":"senko","steam_id":76561198002990168,"connected_time":670000000000,"state":"active","ping":56},{"user_id":184,"name":"Bob Sacamano","steam_id":76561198085610701,"connected_time":530000000000,"state":"active","ping":90},{"user_id":168,"name":"kilikia","steam_id":76561198350261670,"connected_time":919000000000,"state":"active","ping":89},{"user_id":169,"name":"jenjams","steam_id":76561198055730829,"connected_time":890000000000,"state":"active","ping":71},{"user_id":177,"name":"dotdotdot","steam_id":76561198057628751,"connected_time":746000000000,"state":"active","ping":60},{"user_id":173,"name":"alexander","steam_id":76561198257069012,"connected_time":801000000000,"state":"active","ping":73},{"user_id":178,"name":"ай кэн спик рушн","steam_id":76561198831177630,"connected_time":743000000000,"state":"active","ping":85},{"user_id":179,"name":"Izzermann","steam_id":76561199100131945,"connected_time":733000000000,"state":"active","ping":47}]},{"server_id":309,"name":"Uncletopia | Frankfurt | 4 | All Maps","name_short":"frk-4","host":"frk-1.de.uncletopia.com","port":27045,"enabled":true,"region":"eu","cc":"de","latitude":50.110924,"longitude":8.682127,"reserved":0,"last_update":"0001-01-01T00:00:00Z","name_a2s":"Uncletopia | Frankfurt | 4 | All Maps","protocol":17,"map":"cp_process_final","folder":"tf","game":"Team Fortress","app_id":440,"player_count":24,"max_players":24,"Bots":0,"server_type":"Dedicated","server_os":"Linux","password":true,"vac":true,"version":"7757534","steam_id":85568392924504275,"keywords":["cp","nocrits","nodmgspread","uncletopia"],"game_id":440,"stv_port":27046,"stv_name":"Uncletopia | Frankfurt | 4 | All Maps | STV","players":[{"user_id":90,"name":"Spugini","steam_id":76561198123631211,"connected_time":41000000000,"state":"active","ping":103},{"user_id":88,"name":"nicco","steam_id":76561198046217866,"connected_time":118000000000,"state":"active","ping":44},{"user_id":67,"name":"Martini","steam_id":76561198086977720,"connected_time":1305000000000,"state":"active","ping":94},{"user_id":79,"name":"chibrax","steam_id":76561198202441870,"connected_time":545000000000,"state":"active","ping":60},{"user_id":80,"name":"kiki","steam_id":76561198838277022,"connected_time":345000000000,"state":"active","ping":69},{"user_id":84,"name":"Mr.Dies a lot","steam_id":76561199061602946,"connected_time":247000000000,"state":"active","ping":91},{"user_id":81,"name":"o_o","steam_id":76561198113045011,"connected_time":326000000000,"state":"active","ping":78},{"user_id":82,"name":"JohaTG","steam_id":76561198804468284,"connected_time":287000000000,"state":"active","ping":62},{"user_id":85,"name":"BarbÀtrou","steam_id":76561199439141531,"connected_time":224000000000,"state":"active","ping":47},{"user_id":26,"name":"fénix","steam_id":76561198083199151,"connected_time":3271000000000,"state":"active","ping":60},{"user_id":87,"name":"Was_Wolf","steam_id":76561199153210310,"connected_time":168000000000,"state":"active","ping":64},{"user_id":89,"name":"Noob_with_source","steam_id":76561198870362103,"connected_time":112000000000,"state":"active","ping":60},{"user_id":48,"name":"Paul Bäumer","steam_id":76561198308302932,"connected_time":2558000000000,"state":"active","ping":108},{"user_id":30,"name":"antlionguard","steam_id":76561198072747143,"connected_time":3053000000000,"state":"active","ping":101},{"user_id":31,"name":"CRAZY VIKING","steam_id":76561198061440669,"connected_time":3046000000000,"state":"active","ping":60},{"user_id":60,"name":"Osmo","steam_id":76561199286764992,"connected_time":2220000000000,"state":"active","ping":68},{"user_id":33,"name":"burger","steam_id":76561198071674964,"connected_time":3028000000000,"state":"active","ping":65},{"user_id":72,"name":"kag","steam_id":76561198059813166,"connected_time":842000000000,"state":"active","ping":60},{"user_id":92,"name":"bantz","steam_id":76561198871158838,"connected_time":27000000000,"state":"active","ping":63},{"user_id":36,"name":"skittish maiden","steam_id":76561198096856475,"connected_time":2996000000000,"state":"active","ping":45},{"user_id":64,"name":"Yessirskiii","steam_id":76561198179324075,"connected_time":1587000000000,"state":"active","ping":74},{"user_id":69,"name":"Segra blw.tf","steam_id":76561198441974031,"connected_time":976000000000,"state":"active","ping":80},{"user_id":44,"name":"WICKED BARSIK","steam_id":76561198120927230,"connected_time":2766000000000,"state":"active","ping":107},{"user_id":68,"name":"Barbo #savetf2","steam_id":76561198328590565,"connected_time":1089000000000,"state":"active","ping":78}]},{"server_id":310,"name":"Uncletopia | Frankfurt | 5 | All Maps","name_short":"frk-5","host":"frk-1.de.uncletopia.com","port":27055,"enabled":true,"region":"eu","cc":"de","latitude":50.110924,"longitude":8.682127,"reserved":0,"last_update":"0001-01-01T00:00:00Z","name_a2s":"Uncletopia | Frankfurt | 5 | All Maps","protocol":17,"map":"koth_viaduct","folder":"tf","game":"Team Fortress","app_id":440,"player_count":22,"max_players":24,"Bots":0,"server_type":"Dedicated","server_os":"Linux","password":true,"vac":true,"version":"7757534","steam_id":85568392924504277,"keywords":["cp","nocrits","nodmgspread","uncletopia"],"game_id":440,"stv_port":27056,"stv_name":"Uncletopia | Frankfurt | 5 | All Maps | STV","players":[{"user_id":16,"name":"Toast","steam_id":76561198073226265,"connected_time":1837000000000,"state":"active","ping":86},{"user_id":47,"name":"lupe","steam_id":76561198079813788,"connected_time":777000000000,"state":"active","ping":53},{"user_id":46,"name":"wheelie bin","steam_id":76561198040040328,"connected_time":851000000000,"state":"active","ping":60},{"user_id":32,"name":"KingVoker","steam_id":76561198039602539,"connected_time":1388000000000,"state":"active","ping":64},{"user_id":50,"name":"Prax","steam_id":76561198095875649,"connected_time":631000000000,"state":"active","ping":62},{"user_id":19,"name":"MOnster How should i feel?","steam_id":76561198531978435,"connected_time":1699000000000,"state":"active","ping":75},{"user_id":62,"name":"NiTzell","steam_id":76561198070983297,"connected_time":118000000000,"state":"active","ping":78},{"user_id":56,"name":"Phiphler","steam_id":76561197994055715,"connected_time":584000000000,"state":"active","ping":68},{"user_id":59,"name":"MaypulSoyrup","steam_id":76561199213966821,"connected_time":427000000000,"state":"active","ping":88},{"user_id":58,"name":"Dr.Doof","steam_id":76561198357725388,"connected_time":524000000000,"state":"active","ping":58},{"user_id":63,"name":"RazorsEdge","steam_id":76561198006549279,"connected_time":70000000000,"state":"active","ping":47},{"user_id":60,"name":"Michael","steam_id":76561198003146906,"connected_time":278000000000,"state":"active","ping":60},{"user_id":27,"name":"Ruth(-less bitch)","steam_id":76561198150006573,"connected_time":1582000000000,"state":"active","ping":70},{"user_id":64,"name":"JaydenForgotHisInfo","steam_id":76561199184684206,"connected_time":24000000000,"state":"active","ping":167},{"user_id":65,"name":"LilacLisa","steam_id":76561198072460596,"connected_time":17000000000,"state":"spawning","ping":76},{"user_id":34,"name":"Deckard","steam_id":76561198004704647,"connected_time":1369000000000,"state":"active","ping":76},{"user_id":44,"name":"テイルス","steam_id":76561198022403271,"connected_time":1114000000000,"state":"active","ping":44},{"user_id":36,"name":"ant753","steam_id":76561198103458889,"connected_time":1258000000000,"state":"active","ping":61},{"user_id":37,"name":"✪ m_br3","steam_id":76561198044981990,"connected_time":1257000000000,"state":"active","ping":76},{"user_id":49,"name":"Grumtsior","steam_id":76561198043563111,"connected_time":678000000000,"state":"active","ping":73},{"user_id":41,"name":"Aigan","steam_id":76561198130354707,"connected_time":1241000000000,"state":"active","ping":73},{"user_id":42,"name":"Flxsh","steam_id":76561198433383130,"connected_time":1203000000000,"state":"active","ping":117}]},{"server_id":311,"name":"Uncletopia | Frankfurt | 6 | All Maps","name_short":"frk-6","host":"frk-1.de.uncletopia.com","port":27065,"enabled":true,"region":"eu","cc":"de","latitude":50.110924,"longitude":8.682127,"reserved":0,"last_update":"0001-01-01T00:00:00Z","name_a2s":"Uncletopia | Frankfurt | 6 | All Maps","protocol":17,"map":"koth_viaduct","folder":"tf","game":"Team Fortress","app_id":440,"player_count":15,"max_players":24,"Bots":0,"server_type":"Dedicated","server_os":"Linux","password":true,"vac":true,"version":"7757534","steam_id":85568392924504278,"keywords":["cp","nocrits","nodmgspread","uncletopia"],"game_id":440,"stv_port":27066,"stv_name":"Uncletopia | Frankfurt | 6 | All Maps | STV","players":[{"user_id":29,"name":"B0B","steam_id":76561199222523175,"connected_time":1739000000000,"state":"active","ping":59},{"user_id":30,"name":"fried","steam_id":76561198307522022,"connected_time":1588000000000,"state":"active","ping":51},{"user_id":33,"name":"HudsyTheNormal","steam_id":76561198970643003,"connected_time":1021000000000,"state":"active","ping":200},{"user_id":35,"name":"Mari_Kross ❤","steam_id":76561198130863086,"connected_time":680000000000,"state":"active","ping":85},{"user_id":36,"name":"Foxpegamer","steam_id":76561199086914342,"connected_time":639000000000,"state":"active","ping":65},{"user_id":37,"name":"KatTheCookiCat","steam_id":76561199054643392,"connected_time":634000000000,"state":"active","ping":51},{"user_id":38,"name":"Explodingrayman","steam_id":76561198185783005,"connected_time":615000000000,"state":"active","ping":192},{"user_id":39,"name":"Hegyi tahó F2P","steam_id":76561199219150356,"connected_time":415000000000,"state":"active","ping":87},{"user_id":40,"name":"WHUSSKEY","steam_id":76561198137827441,"connected_time":397000000000,"state":"active","ping":70},{"user_id":41,"name":"GMsU | Rebikas","steam_id":76561198077053764,"connected_time":354000000000,"state":"active","ping":45},{"user_id":42,"name":"GMsU | DaLuigi","steam_id":76561198054486188,"connected_time":315000000000,"state":"active","ping":45},{"user_id":43,"name":"Dave The Sloth","steam_id":76561199135831355,"connected_time":199000000000,"state":"active","ping":68},{"user_id":44,"name":"big hoops","steam_id":76561198004703799,"connected_time":193000000000,"state":"active","ping":47},{"user_id":45,"name":"thebananabomb00","steam_id":76561198296409283,"connected_time":170000000000,"state":"active","ping":78},{"user_id":46,"name":"fox_evo","steam_id":76561198280210205,"connected_time":161000000000,"state":"active","ping":92}]},{"server_id":23,"name":"Uncletopia | Frankfurt | 7 | Stopwatch Beta","name_short":"frk-7","host":"frk-1.de.uncletopia.com","port":27075,"enabled":true,"region":"eu","cc":"de","latitude":50.110924,"longitude":8.682127,"reserved":0,"last_update":"0001-01-01T00:00:00Z","name_a2s":"Uncletopia | Frankfurt | 7 | Stopwatch Beta","protocol":17,"map":"pl_frontier_final","folder":"tf","game":"Team Fortress","app_id":440,"player_count":0,"max_players":24,"Bots":0,"server_type":"Dedicated","server_os":"Linux","password":true,"vac":true,"version":"7757534","steam_id":85568392924742827,"keywords":["nocrits","nodmgspread","payload","uncletopia"],"game_id":440,"stv_port":27076,"stv_name":"Uncletopia | Frankfurt | 7 | Stopwatch Beta | STV","players":null},{"server_id":24,"name":"Uncletopia | Frankfurt | 8 | Community","name_short":"frk-8","host":"frk-1.de.uncletopia.com","port":27085,"enabled":true,"region":"eu","cc":"de","latitude":50.110924,"longitude":8.682127,"reserved":0,"last_update":"0001-01-01T00:00:00Z","name_a2s":"Uncletopia | Frankfurt | 8 | Community","protocol":17,"map":"workshop/cp_propaganda_b18.ugc1603743849","folder":"tf","game":"Team Fortress","app_id":440,"player_count":0,"max_players":24,"Bots":0,"server_type":"Dedicated","server_os":"Linux","password":true,"vac":true,"version":"7757534","steam_id":85568392924742828,"keywords":["cp","nocrits","nodmgspread","uncletopia"],"game_id":440,"stv_port":27086,"stv_name":"Uncletopia | Frankfurt | 8 | Community | STV","players":null},{"server_id":202,"name":"Uncletopia | Hong Kong | 1 | All Maps","name_short":"hgk-1","host":"hgk-1.hk.uncletopia.com","port":27015,"enabled":true,"region":"asia","cc":"hk","latitude":22.302711,"longitude":114.177216,"reserved":0,"last_update":"0001-01-01T00:00:00Z","name_a2s":"Uncletopia | Hong Kong | 1 | All Maps","protocol":17,"map":"koth_viaduct","folder":"tf","game":"Team Fortress","app_id":440,"player_count":0,"max_players":24,"Bots":0,"server_type":"Dedicated","server_os":"Linux","password":true,"vac":true,"version":"7757534","steam_id":85568392924494504,"keywords":["cp","nocrits","nodmgspread","uncletopia"],"game_id":440,"stv_port":27016,"stv_name":"Uncletopia | Hong Kong | 1 | All Maps | STV","players":null},{"server_id":1,"name":"Uncletopia | Los Angeles | 1 | All Maps","name_short":"lax-1","host":"lax-1.us.uncletopia.com","port":27015,"enabled":true,"region":"us-west","cc":"us","latitude":33.94279,"longitude":-118.41004,"reserved":0,"last_update":"0001-01-01T00:00:00Z","name_a2s":"Uncletopia | Los Angeles | 1 | All Maps","protocol":17,"map":"pl_borneo","folder":"tf","game":"Team Fortress","app_id":440,"player_count":0,"max_players":24,"Bots":0,"server_type":"Dedicated","server_os":"Linux","password":true,"vac":true,"version":"7757534","steam_id":85568392924469991,"keywords":["nocrits","nodmgspread","payload","uncletopia"],"game_id":440,"stv_port":27016,"stv_name":"Uncletopia | Los Angeles | 1 | All Maps | STV","players":null},{"server_id":112,"name":"Uncletopia | Los Angeles | 2 | All Maps","name_short":"lax-2","host":"lax-1.us.uncletopia.com","port":27025,"enabled":true,"region":"us-west","cc":"us","latitude":33.94279,"longitude":-118.41004,"reserved":0,"last_update":"0001-01-01T00:00:00Z","name_a2s":"Uncletopia | Los Angeles | 2 | All Maps","protocol":17,"map":"koth_cascade","folder":"tf","game":"Team Fortress","app_id":440,"player_count":0,"max_players":24,"Bots":0,"server_type":"Dedicated","server_os":"Linux","password":true,"vac":true,"version":"7757534","steam_id":85568392924469992,"keywords":["cp","nocrits","nodmgspread","uncletopia"],"game_id":440,"stv_port":27026,"stv_name":"Uncletopia | Los Angeles | 2 | All Maps | STV","players":null},{"server_id":324,"name":"Uncletopia | Los Angeles | 3 | All Maps","name_short":"lax-3","host":"lax-1.us.uncletopia.com","port":27035,"enabled":true,"region":"us-west","cc":"us","latitude":33.94279,"longitude":-118.41004,"reserved":0,"last_update":"0001-01-01T00:00:00Z","name_a2s":"Uncletopia | Los Angeles | 3 | All Maps","protocol":17,"map":"pl_pier","folder":"tf","game":"Team Fortress","app_id":440,"player_count":0,"max_players":24,"Bots":0,"server_type":"Dedicated","server_os":"Linux","password":true,"vac":true,"version":"7757534","steam_id":85568392924510198,"keywords":["nocrits","nodmgspread","payload","uncletopia"],"game_id":440,"stv_port":27036,"stv_name":"Uncletopia | Los Angeles | 3 | All Maps | STV","players":null},{"server_id":25,"name":"Uncletopia | Los Angeles | 4 | Stopwatch Beta","name_short":"lax-4","host":"lax-1.us.uncletopia.com","port":27045,"enabled":true,"region":"us-west","cc":"us","latitude":33.94279,"longitude":-118.41004,"reserved":0,"last_update":"0001-01-01T00:00:00Z","name_a2s":"Uncletopia | Los Angeles | 4 | Stopwatch Beta","protocol":17,"map":"pl_frontier_final","folder":"tf","game":"Team Fortress","app_id":440,"player_count":0,"max_players":24,"Bots":0,"server_type":"Dedicated","server_os":"Linux","password":true,"vac":true,"version":"7757534","steam_id":85568392924510199,"keywords":["nocrits","nodmgspread","payload","uncletopia"],"game_id":440,"stv_port":27046,"stv_name":"Uncletopia | Los Angeles | 4 | Stopwatch Beta | STV","players":null},{"server_id":11,"name":"Uncletopia | London | 1 | All Maps","name_short":"lon-1","host":"lon-1.uk.uncletopia.com","port":27015,"enabled":true,"region":"eu","cc":"gb","latitude":51.509865,"longitude":-0.118092,"reserved":0,"last_update":"0001-01-01T00:00:00Z","name_a2s":"Uncletopia | London | 1 | All Maps","protocol":17,"map":"koth_viaduct","folder":"tf","game":"Team Fortress","app_id":440,"player_count":25,"max_players":24,"Bots":0,"server_type":"Dedicated","server_os":"Linux","password":true,"vac":true,"version":"7757534","steam_id":85568392924367362,"keywords":["cp","nocrits","nodmgspread","uncletopia"],"game_id":440,"stv_port":27016,"stv_name":"Uncletopia | London | 1 | All Maps | STV","players":[{"user_id":528,"name":"Sebtacular","steam_id":76561198334284616,"connected_time":2029000000000,"state":"active","ping":63},{"user_id":558,"name":"Boil em mash em","steam_id":76561198026508026,"connected_time":557000000000,"state":"active","ping":68},{"user_id":566,"name":"Kotlet schabowy","steam_id":76561198048983509,"connected_time":71000000000,"state":"connecting","ping":0},{"user_id":559,"name":"hello kitty gaming","steam_id":76561197972008326,"connected_time":497000000000,"state":"active","ping":70},{"user_id":525,"name":"kreeekz","steam_id":76561198014431602,"connected_time":2319000000000,"state":"active","ping":72},{"user_id":557,"name":"Mikeal Normal","steam_id":76561198241759034,"connected_time":642000000000,"state":"active","ping":90},{"user_id":506,"name":"Numroth","steam_id":76561198001100167,"connected_time":3490000000000,"state":"active","ping":85},{"user_id":535,"name":"Bone","steam_id":76561198073117364,"connected_time":1619000000000,"state":"active","ping":127},{"user_id":561,"name":"Mathieu.","steam_id":76561198039268163,"connected_time":334000000000,"state":"active","ping":69},{"user_id":533,"name":"Lovelessvaccuum","steam_id":76561198079555422,"connected_time":1676000000000,"state":"active","ping":37},{"user_id":534,"name":"Dominus.","steam_id":76561199065917088,"connected_time":1621000000000,"state":"active","ping":60},{"user_id":552,"name":"nudjura","steam_id":76561198281986139,"connected_time":760000000000,"state":"active","ping":42},{"user_id":560,"name":"IndigoJones","steam_id":76561198050284262,"connected_time":396000000000,"state":"active","ping":47},{"user_id":565,"name":"upisfree","steam_id":76561198064037857,"connected_time":104000000000,"state":"active","ping":131},{"user_id":512,"name":"walking plane","steam_id":76561198146779559,"connected_time":3210000000000,"state":"active","ping":103},{"user_id":513,"name":"Penis Contortionist","steam_id":76561198073663784,"connected_time":3191000000000,"state":"active","ping":39},{"user_id":562,"name":"Matt","steam_id":76561198102997776,"connected_time":299000000000,"state":"active","ping":153},{"user_id":546,"name":"pablo","steam_id":76561198089285014,"connected_time":1179000000000,"state":"active","ping":66},{"user_id":539,"name":"Zhongding Construction Group Lt","steam_id":76561198065915748,"connected_time":1586000000000,"state":"active","ping":54},{"user_id":515,"name":"Joseph Stalin","steam_id":76561198033199746,"connected_time":3028000000000,"state":"active","ping":45},{"user_id":564,"name":"Joona","steam_id":76561199170438782,"connected_time":179000000000,"state":"active","ping":109},{"user_id":547,"name":"Linux Gayming","steam_id":76561199208765424,"connected_time":1169000000000,"state":"active","ping":166},{"user_id":527,"name":"B0rеаl","steam_id":76561198268369013,"connected_time":2054000000000,"state":"active","ping":87},{"user_id":567,"name":"24/7 lofi hip hop beats","steam_id":76561198130597374,"connected_time":54000000000,"state":"active","ping":67},{"user_id":549,"name":"Wc Biere","steam_id":76561198200886539,"connected_time":1098000000000,"state":"active","ping":125}]},{"server_id":114,"name":"Uncletopia | London | 2 | All Maps","name_short":"lon-2","host":"lon-1.uk.uncletopia.com","port":27025,"enabled":true,"region":"eu","cc":"gb","latitude":51.509865,"longitude":-0.118092,"reserved":0,"last_update":"0001-01-01T00:00:00Z","name_a2s":"Uncletopia | London | 2 | All Maps","protocol":17,"map":"pl_upward","folder":"tf","game":"Team Fortress","app_id":440,"player_count":24,"max_players":24,"Bots":0,"server_type":"Dedicated","server_os":"Linux","password":true,"vac":true,"version":"7757534","steam_id":85568392924470941,"keywords":["nocrits","nodmgspread","payload","uncletopia"],"game_id":440,"stv_port":27026,"stv_name":"Uncletopia | London | 2 | All Maps | STV","players":[{"user_id":327,"name":"butts","steam_id":76561198060105180,"connected_time":365000000000,"state":"active","ping":60},{"user_id":275,"name":"medicinal man","steam_id":76561198202668788,"connected_time":3834000000000,"state":"active","ping":60},{"user_id":305,"name":"foo","steam_id":76561198042000263,"connected_time":2466000000000,"state":"active","ping":76},{"user_id":310,"name":"Wattseyy","steam_id":76561198248567360,"connected_time":1406000000000,"state":"active","ping":42},{"user_id":322,"name":"suck at gaem","steam_id":76561199204543772,"connected_time":1042000000000,"state":"active","ping":45},{"user_id":225,"name":"Harpenden, Harpenden, Harpenden","steam_id":76561198118138546,"connected_time":6633000000000,"state":"active","ping":41},{"user_id":328,"name":"Craig Crusade","steam_id":76561199225918086,"connected_time":284000000000,"state":"active","ping":55},{"user_id":285,"name":"EastmoreRandoms.","steam_id":76561198048921203,"connected_time":3446000000000,"state":"active","ping":82},{"user_id":184,"name":"Sgreff","steam_id":76561198036304365,"connected_time":10215000000000,"state":"active","ping":45},{"user_id":317,"name":"hud_saytext_time 0","steam_id":76561198010327228,"connected_time":1363000000000,"state":"active","ping":67},{"user_id":325,"name":"dafydd","steam_id":76561198052200325,"connected_time":865000000000,"state":"active","ping":89},{"user_id":311,"name":"Prox","steam_id":76561198351490981,"connected_time":1404000000000,"state":"active","ping":30},{"user_id":320,"name":"Fancy","steam_id":76561198350658462,"connected_time":1311000000000,"state":"active","ping":83},{"user_id":329,"name":"LemonLeCitron","steam_id":76561198215545267,"connected_time":251000000000,"state":"active","ping":68},{"user_id":312,"name":"RLCrazyCat3","steam_id":76561197983757878,"connected_time":1395000000000,"state":"active","ping":59},{"user_id":206,"name":"pansexual","steam_id":76561198047778351,"connected_time":8890000000000,"state":"active","ping":45},{"user_id":319,"name":"Femboy Lilli","steam_id":76561198090146457,"connected_time":1339000000000,"state":"active","ping":42},{"user_id":326,"name":"caps.","steam_id":76561198116528817,"connected_time":597000000000,"state":"active","ping":57},{"user_id":313,"name":"Dominixk","steam_id":76561198995512625,"connected_time":1393000000000,"state":"active","ping":76},{"user_id":321,"name":"Kahvi","steam_id":76561198723244199,"connected_time":1058000000000,"state":"active","ping":75},{"user_id":304,"name":"radek","steam_id":76561197998883721,"connected_time":2514000000000,"state":"active","ping":71},{"user_id":330,"name":"Slomlol","steam_id":76561198208747007,"connected_time":239000000000,"state":"active","ping":62},{"user_id":331,"name":"ynwn","steam_id":76561198088624259,"connected_time":231000000000,"state":"active","ping":60},{"user_id":323,"name":"Dr. Uberschwein","steam_id":76561198111367431,"connected_time":981000000000,"state":"active","ping":74}]},{"server_id":320,"name":"Uncletopia | London | 3 | All Maps","name_short":"lon-3","host":"lon-1.uk.uncletopia.com","port":27035,"enabled":true,"region":"eu","cc":"gb","latitude":51.509865,"longitude":-0.118092,"reserved":0,"last_update":"0001-01-01T00:00:00Z","name_a2s":"Uncletopia | London | 3 | All Maps","protocol":17,"map":"pl_barnblitz","folder":"tf","game":"Team Fortress","app_id":440,"player_count":24,"max_players":24,"Bots":0,"server_type":"Dedicated","server_os":"Linux","password":true,"vac":true,"version":"7757534","steam_id":85568392924510192,"keywords":["nocrits","nodmgspread","payload","uncletopia"],"game_id":440,"stv_port":27036,"stv_name":"Uncletopia | London | 3 | All Maps | STV","players":[{"user_id":494,"name":"Ar|es","steam_id":76561198819160313,"connected_time":2486000000000,"state":"active","ping":92},{"user_id":541,"name":"MEDiUM","steam_id":76561198112328561,"connected_time":251000000000,"state":"active","ping":84},{"user_id":509,"name":"Egtu","steam_id":76561198013757235,"connected_time":2301000000000,"state":"active","ping":68},{"user_id":522,"name":"FLYING DWARF","steam_id":76561199048614286,"connected_time":1459000000000,"state":"active","ping":129},{"user_id":537,"name":"dropkickas","steam_id":76561198105121641,"connected_time":952000000000,"state":"active","ping":84},{"user_id":462,"name":"SaltCan","steam_id":76561198059353990,"connected_time":3968000000000,"state":"active","ping":89},{"user_id":512,"name":"ivanmixo","steam_id":76561198160213989,"connected_time":2246000000000,"state":"active","ping":72},{"user_id":523,"name":"Biały","steam_id":76561197996016988,"connected_time":1440000000000,"state":"active","ping":78},{"user_id":482,"name":"NeonNewt","steam_id":76561198066699212,"connected_time":2927000000000,"state":"active","ping":56},{"user_id":504,"name":"Arcweld","steam_id":76561198816060720,"connected_time":2328000000000,"state":"active","ping":66},{"user_id":533,"name":"Bounter","steam_id":76561198072614188,"connected_time":1002000000000,"state":"active","ping":78},{"user_id":536,"name":"pepper","steam_id":76561198059782462,"connected_time":976000000000,"state":"active","ping":63},{"user_id":525,"name":"Bat in a thousand","steam_id":76561198320506848,"connected_time":1410000000000,"state":"active","ping":35},{"user_id":505,"name":"Don Quixote","steam_id":76561197999454313,"connected_time":2326000000000,"state":"active","ping":80},{"user_id":463,"name":"OutOfDucks","steam_id":76561198166376227,"connected_time":3937000000000,"state":"active","ping":54},{"user_id":535,"name":"alex","steam_id":76561197995857448,"connected_time":997000000000,"state":"active","ping":52},{"user_id":531,"name":"luma","steam_id":76561198081649669,"connected_time":1044000000000,"state":"active","ping":76},{"user_id":490,"name":"GlitchyTrashCan","steam_id":76561198309789756,"connected_time":2605000000000,"state":"active","ping":71},{"user_id":540,"name":"donal rump","steam_id":76561198136239861,"connected_time":604000000000,"state":"active","ping":51},{"user_id":469,"name":"LOBZIK","steam_id":76561198114830120,"connected_time":3511000000000,"state":"active","ping":81},{"user_id":527,"name":"bount","steam_id":76561198118412910,"connected_time":1400000000000,"state":"active","ping":58},{"user_id":508,"name":"Scrample","steam_id":76561198040422830,"connected_time":2315000000000,"state":"active","ping":45},{"user_id":435,"name":"surny","steam_id":76561198044355417,"connected_time":5858000000000,"state":"active","ping":66},{"user_id":539,"name":"JamesPepega","steam_id":76561198019156154,"connected_time":809000000000,"state":"active","ping":76}]},{"server_id":321,"name":"Uncletopia | London | 4 | All Maps","name_short":"lon-4","host":"lon-1.uk.uncletopia.com","port":27045,"enabled":true,"region":"eu","cc":"gb","latitude":51.509865,"longitude":-0.118092,"reserved":0,"last_update":"0001-01-01T00:00:00Z","name_a2s":"Uncletopia | London | 4 | All Maps","protocol":17,"map":"koth_viaduct","folder":"tf","game":"Team Fortress","app_id":440,"player_count":5,"max_players":24,"Bots":0,"server_type":"Dedicated","server_os":"Linux","password":true,"vac":true,"version":"7757534","steam_id":85568392924510193,"keywords":["cp","nocrits","nodmgspread","uncletopia"],"game_id":440,"stv_port":27046,"stv_name":"Uncletopia | London | 4 | All Maps | STV","players":[{"user_id":7,"name":"Majonez hellman's","steam_id":76561199099815054,"connected_time":907000000000,"state":"active","ping":90},{"user_id":8,"name":"Majonez_Dekoracyjny","steam_id":76561199118495669,"connected_time":888000000000,"state":"active","ping":86},{"user_id":9,"name":"dajrap_Masakrator Virtus.pro","steam_id":76561199045231812,"connected_time":774000000000,"state":"active","ping":83},{"user_id":10,"name":"Youth Lagoon","steam_id":76561198065009070,"connected_time":722000000000,"state":"active","ping":88},{"user_id":14,"name":"Vexlotl","steam_id":76561199217678397,"connected_time":230000000000,"state":"active","ping":100}]},{"server_id":21,"name":"Uncletopia | London | 5 | All Maps","name_short":"lon-5","host":"lon-1.uk.uncletopia.com","port":27055,"enabled":true,"region":"eu","cc":"gb","latitude":51.509865,"longitude":-0.118092,"reserved":0,"last_update":"0001-01-01T00:00:00Z","name_a2s":"Uncletopia | London | 5 | All Maps","protocol":17,"map":"pl_badwater","folder":"tf","game":"Team Fortress","app_id":440,"player_count":24,"max_players":24,"Bots":0,"server_type":"Dedicated","server_os":"Linux","password":true,"vac":true,"version":"7757534","steam_id":85568392924742829,"keywords":["nocrits","nodmgspread","payload","uncletopia"],"game_id":440,"stv_port":27056,"stv_name":"Uncletopia | London | 5 | All Maps | STV","players":[{"user_id":200,"name":"The one who doesn't knock","steam_id":76561198283636523,"connected_time":373000000000,"state":"active","ping":71},{"user_id":206,"name":"Reast","steam_id":76561198022796927,"connected_time":287000000000,"state":"active","ping":89},{"user_id":153,"name":"Tenshi","steam_id":76561199471696026,"connected_time":1552000000000,"state":"active","ping":128},{"user_id":203,"name":"domingamin","steam_id":76561198846466054,"connected_time":354000000000,"state":"active","ping":104},{"user_id":151,"name":"After8","steam_id":76561198090750865,"connected_time":1568000000000,"state":"active","ping":75},{"user_id":101,"name":"nvmHastee","steam_id":76561199371458295,"connected_time":4663000000000,"state":"active","ping":84},{"user_id":122,"name":"this is a cat","steam_id":76561199407659065,"connected_time":2230000000000,"state":"active","ping":133},{"user_id":202,"name":"styxi","steam_id":76561199117720299,"connected_time":356000000000,"state":"active","ping":72},{"user_id":124,"name":"Derpy Engineer HD","steam_id":76561198103184085,"connected_time":2172000000000,"state":"active","ping":75},{"user_id":125,"name":"FlameTheGame","steam_id":76561198841108519,"connected_time":2168000000000,"state":"active","ping":91},{"user_id":102,"name":"not drunk","steam_id":76561199184873889,"connected_time":4346000000000,"state":"active","ping":69},{"user_id":141,"name":"triangle","steam_id":76561198046838168,"connected_time":1801000000000,"state":"active","ping":60},{"user_id":209,"name":"X-tis","steam_id":76561198043837480,"connected_time":186000000000,"state":"active","ping":72},{"user_id":143,"name":"toe bias","steam_id":76561199084996146,"connected_time":1786000000000,"state":"active","ping":71},{"user_id":201,"name":"Swift","steam_id":76561197998799889,"connected_time":368000000000,"state":"active","ping":46},{"user_id":163,"name":"rathotel","steam_id":76561198208126512,"connected_time":1263000000000,"state":"active","ping":126},{"user_id":204,"name":"Frizzy","steam_id":76561198080854337,"connected_time":345000000000,"state":"active","ping":54},{"user_id":157,"name":"Shovelhalfrusty","steam_id":76561198346447513,"connected_time":1510000000000,"state":"active","ping":63},{"user_id":136,"name":"Chill Spirit","steam_id":76561198845001725,"connected_time":1912000000000,"state":"active","ping":60},{"user_id":137,"name":"The Ghost of Rizz-mas Past","steam_id":76561198119547399,"connected_time":1895000000000,"state":"active","ping":69},{"user_id":144,"name":"qwerez","steam_id":76561198364447229,"connected_time":1761000000000,"state":"active","ping":89},{"user_id":145,"name":"Falcon","steam_id":76561199087192566,"connected_time":1735000000000,"state":"active","ping":101},{"user_id":156,"name":"Techno_Dibilus","steam_id":76561199069577704,"connected_time":1525000000000,"state":"active","ping":104},{"user_id":149,"name":"bykamouse23","steam_id":76561198817842937,"connected_time":1652000000000,"state":"active","ping":110}]},{"server_id":22,"name":"Uncletopia | London | 6 | All Maps","name_short":"lon-6","host":"lon-1.uk.uncletopia.com","port":27065,"enabled":true,"region":"eu","cc":"gb","latitude":51.509865,"longitude":-0.118092,"reserved":0,"last_update":"0001-01-01T00:00:00Z","name_a2s":"Uncletopia | London | 6 | All Maps","protocol":17,"map":"koth_badlands","folder":"tf","game":"Team Fortress","app_id":440,"player_count":0,"max_players":24,"Bots":0,"server_type":"Dedicated","server_os":"Linux","password":true,"vac":true,"version":"7757534","steam_id":85568392924742830,"keywords":["cp","nocrits","nodmgspread","uncletopia"],"game_id":440,"stv_port":27066,"stv_name":"Uncletopia | London | 6 | All Maps | STV","players":null},{"server_id":40,"name":"Uncletopia | London | 7 | No Payload","name_short":"lon-7","host":"lon-1.uk.uncletopia.com","port":27075,"enabled":true,"region":"eu","cc":"gb","latitude":51.509865,"longitude":-0.118092,"reserved":0,"last_update":"0001-01-01T00:00:00Z","name_a2s":"Uncletopia | London | 7 | No Payload","protocol":17,"map":"koth_viaduct","folder":"tf","game":"Team Fortress","app_id":440,"player_count":0,"max_players":24,"Bots":0,"server_type":"Dedicated","server_os":"Linux","password":true,"vac":true,"version":"7757534","steam_id":85568392924964314,"keywords":["cp","nocrits","nodmgspread","uncletopia"],"game_id":440,"stv_port":27076,"stv_name":"Uncletopia | London | 7 | No Payload | STV","players":null},{"server_id":41,"name":"Uncletopia | London | 8 | Community","name_short":"lon-8","host":"lon-1.uk.uncletopia.com","port":27085,"enabled":true,"region":"eu","cc":"gb","latitude":51.509865,"longitude":-0.118092,"reserved":0,"last_update":"0001-01-01T00:00:00Z","name_a2s":"Uncletopia | London | 8 | Community","protocol":17,"map":"workshop/cp_indulge.ugc528106646","folder":"tf","game":"Team Fortress","app_id":440,"player_count":24,"max_players":24,"Bots":0,"server_type":"Dedicated","server_os":"Linux","password":true,"vac":true,"version":"7757534","steam_id":85568392924964315,"keywords":["cp","nocrits","nodmgspread","uncletopia"],"game_id":440,"stv_port":27086,"stv_name":"Uncletopia | London | 8 | Community | STV","players":[{"user_id":52,"name":"Chris","steam_id":76561198018626828,"connected_time":3984000000000,"state":"active","ping":49},{"user_id":41,"name":"Tryrn","steam_id":76561198075487436,"connected_time":4642000000000,"state":"active","ping":82},{"user_id":53,"name":"htraB","steam_id":76561198043122677,"connected_time":3876000000000,"state":"active","ping":61},{"user_id":82,"name":"katzdani","steam_id":76561198843351132,"connected_time":437000000000,"state":"active","ping":73},{"user_id":79,"name":"Fofenho","steam_id":76561198436817109,"connected_time":632000000000,"state":"active","ping":57},{"user_id":73,"name":"Goroungo","steam_id":76561198962808454,"connected_time":1222000000000,"state":"active","ping":50},{"user_id":62,"name":"Guy with squares as username","steam_id":76561198269524918,"connected_time":2239000000000,"state":"active","ping":59},{"user_id":25,"name":"Mr. Mundy","steam_id":76561198132008918,"connected_time":5136000000000,"state":"active","ping":84},{"user_id":65,"name":"Festive Erma","steam_id":76561198038718342,"connected_time":1964000000000,"state":"active","ping":70},{"user_id":50,"name":"mumbler","steam_id":76561197970641239,"connected_time":4306000000000,"state":"active","ping":57},{"user_id":26,"name":"Nick","steam_id":76561198036109469,"connected_time":5080000000000,"state":"active","ping":85},{"user_id":70,"name":"minn","steam_id":76561198099101232,"connected_time":1314000000000,"state":"active","ping":57},{"user_id":30,"name":"bigwish | bmod.tf","steam_id":76561197997859723,"connected_time":4935000000000,"state":"active","ping":88},{"user_id":56,"name":"The Stig","steam_id":76561198103908668,"connected_time":3317000000000,"state":"active","ping":82},{"user_id":61,"name":"PizzaPete123","steam_id":76561198089478290,"connected_time":2286000000000,"state":"active","ping":41},{"user_id":55,"name":"Welder","steam_id":76561198355300561,"connected_time":3347000000000,"state":"active","ping":71},{"user_id":78,"name":"Fat Pigeon","steam_id":76561198817940142,"connected_time":747000000000,"state":"active","ping":45},{"user_id":64,"name":"Wuffington","steam_id":76561198033762881,"connected_time":2196000000000,"state":"active","ping":46},{"user_id":84,"name":"Virgil","steam_id":76561198248786778,"connected_time":88000000000,"state":"active","ping":108},{"user_id":71,"name":"wicked","steam_id":76561198164376035,"connected_time":1296000000000,"state":"active","ping":79},{"user_id":77,"name":"Shlongulator","steam_id":76561198149779201,"connected_time":769000000000,"state":"active","ping":58},{"user_id":80,"name":"KFC Enjoyer","steam_id":76561198840259819,"connected_time":629000000000,"state":"active","ping":59},{"user_id":83,"name":"UnusualBrit","steam_id":76561198255679838,"connected_time":436000000000,"state":"active","ping":59},{"user_id":46,"name":"gagalak","steam_id":76561198089979108,"connected_time":4498000000000,"state":"active","ping":135}]},{"server_id":300,"name":"Uncletopia | Montréal | 1 | All Maps","name_short":"mtl-1","host":"mtl-1.ca.uncletopia.com","port":27015,"enabled":true,"region":"us-east","cc":"ca","latitude":45.50889,"longitude":-73.56167,"reserved":0,"last_update":"0001-01-01T00:00:00Z","name_a2s":"Uncletopia | Montréal | 1 | All Maps","protocol":17,"map":"pl_snowycoast","folder":"tf","game":"Team Fortress","app_id":440,"player_count":0,"max_players":24,"Bots":0,"server_type":"Dedicated","server_os":"Linux","password":true,"vac":true,"version":"7757534","steam_id":85568392924500087,"keywords":["nocrits","nodmgspread","payload","uncletopia"],"game_id":440,"stv_port":27016,"stv_name":"Uncletopia | Montréal | 1 | All Maps | STV","players":null},{"server_id":301,"name":"Uncletopia | Montréal | 2 | All Maps","name_short":"mtl-2","host":"mtl-1.ca.uncletopia.com","port":27025,"enabled":true,"region":"us-east","cc":"ca","latitude":45.50889,"longitude":-73.56167,"reserved":0,"last_update":"0001-01-01T00:00:00Z","name_a2s":"Uncletopia | Montréal | 2 | All Maps","protocol":17,"map":"pl_snowycoast","folder":"tf","game":"Team Fortress","app_id":440,"player_count":0,"max_players":24,"Bots":0,"server_type":"Dedicated","server_os":"Linux","password":true,"vac":true,"version":"7757534","steam_id":85568392924500088,"keywords":["nocrits","nodmgspread","payload","uncletopia"],"game_id":440,"stv_port":27026,"stv_name":"Uncletopia | Montréal | 2 | All Maps | STV","players":null},{"server_id":302,"name":"Uncletopia | Montréal | 3 | All Maps","name_short":"mtl-3","host":"mtl-1.ca.uncletopia.com","port":27035,"enabled":true,"region":"us-east","cc":"ca","latitude":45.50889,"longitude":-73.56167,"reserved":0,"last_update":"0001-01-01T00:00:00Z","name_a2s":"Uncletopia | Montréal | 3 | All Maps","protocol":17,"map":"koth_highpass","folder":"tf","game":"Team Fortress","app_id":440,"player_count":0,"max_players":24,"Bots":0,"server_type":"Dedicated","server_os":"Linux","password":true,"vac":true,"version":"7757534","steam_id":85568392924500089,"keywords":["cp","nocrits","nodmgspread","uncletopia"],"game_id":440,"stv_port":27036,"stv_name":"Uncletopia | Montréal | 3 | All Maps | STV","players":null},{"server_id":303,"name":"Uncletopia | Montréal | 4 | No Payload","name_short":"mtl-4","host":"mtl-1.ca.uncletopia.com","port":27045,"enabled":true,"region":"us-east","cc":"ca","latitude":45.50889,"longitude":-73.56167,"reserved":0,"last_update":"0001-01-01T00:00:00Z","name_a2s":"Uncletopia | Montréal | 4 | No Payload","protocol":17,"map":"pl_borneo","folder":"tf","game":"Team Fortress","app_id":440,"player_count":0,"max_players":24,"Bots":0,"server_type":"Dedicated","server_os":"Linux","password":true,"vac":true,"version":"7757534","steam_id":85568392924500090,"keywords":["nocrits","nodmgspread","payload","uncletopia"],"game_id":440,"stv_port":27046,"stv_name":"Uncletopia | Montréal | 4 | No Payload | STV","players":null},{"server_id":13,"name":"Uncletopia | New York City | 1 | All Maps","name_short":"nyc-1","host":"nyc-1.us.uncletopia.com","port":27015,"enabled":true,"region":"us-east","cc":"us","latitude":40.73061,"longitude":-73.93524,"reserved":0,"last_update":"0001-01-01T00:00:00Z","name_a2s":"Uncletopia | New York City | 1 | All Maps","protocol":17,"map":"pl_badwater","folder":"tf","game":"Team Fortress","app_id":440,"player_count":24,"max_players":24,"Bots":0,"server_type":"Dedicated","server_os":"Linux","password":true,"vac":true,"version":"7757534","steam_id":85568392924469993,"keywords":["nocrits","nodmgspread","payload","uncletopia"],"game_id":440,"stv_port":27016,"stv_name":"Uncletopia | New York City | 1 | All Maps | STV","players":[{"user_id":185,"name":"TLG, Certified Gamer Mom","steam_id":76561198076669951,"connected_time":299000000000,"state":"active","ping":62},{"user_id":193,"name":"Hoot","steam_id":76561198129302416,"connected_time":84000000000,"state":"active","ping":58},{"user_id":151,"name":"walker","steam_id":76561198031669769,"connected_time":2631000000000,"state":"active","ping":75},{"user_id":180,"name":"alldogsgotoheaven2fan","steam_id":76561199085931379,"connected_time":893000000000,"state":"active","ping":67},{"user_id":189,"name":"Где море?","steam_id":76561197979625544,"connected_time":284000000000,"state":"active","ping":150},{"user_id":176,"name":"stonk scout","steam_id":76561199072907445,"connected_time":1106000000000,"state":"active","ping":120},{"user_id":192,"name":"smocc","steam_id":76561197993726746,"connected_time":257000000000,"state":"active","ping":49},{"user_id":163,"name":"Chaotic Rushu","steam_id":76561198170054407,"connected_time":1911000000000,"state":"active","ping":72},{"user_id":186,"name":"2manyman","steam_id":76561198067156972,"connected_time":297000000000,"state":"active","ping":69},{"user_id":129,"name":"Old Sluggy","steam_id":76561198206517160,"connected_time":4681000000000,"state":"active","ping":76},{"user_id":170,"name":"yaldabaoth","steam_id":76561198084606869,"connected_time":1785000000000,"state":"active","ping":58},{"user_id":166,"name":"Blargian Snagglebeast","steam_id":76561198115831507,"connected_time":1841000000000,"state":"active","ping":69},{"user_id":171,"name":"Coffee with a Stranger","steam_id":76561198307422313,"connected_time":1764000000000,"state":"active","ping":59},{"user_id":177,"name":"Violet42","steam_id":76561198072927887,"connected_time":1100000000000,"state":"active","ping":45},{"user_id":187,"name":"Bot Aldi","steam_id":76561199102536192,"connected_time":296000000000,"state":"active","ping":167},{"user_id":167,"name":"citrus","steam_id":76561198294606679,"connected_time":1825000000000,"state":"active","ping":60},{"user_id":184,"name":"slats_","steam_id":76561198042849756,"connected_time":333000000000,"state":"active","ping":47},{"user_id":174,"name":"None of that $9.99 bullshit","steam_id":76561198116169903,"connected_time":1142000000000,"state":"active","ping":69},{"user_id":147,"name":"Devoid","steam_id":76561198254039012,"connected_time":2818000000000,"state":"active","ping":46},{"user_id":89,"name":"RXKNephew","steam_id":76561199349244576,"connected_time":7405000000000,"state":"active","ping":93},{"user_id":168,"name":"John16Mark","steam_id":76561198119445407,"connected_time":1819000000000,"state":"active","ping":100},{"user_id":190,"name":"Bag","steam_id":76561198012395490,"connected_time":282000000000,"state":"active","ping":71},{"user_id":191,"name":"Madison Square Garden Star","steam_id":76561198174779475,"connected_time":275000000000,"state":"active","ping":54},{"user_id":182,"name":"CobyNoHoes","steam_id":76561198122236594,"connected_time":623000000000,"state":"active","ping":76}]},{"server_id":14,"name":"Uncletopia | New York City | 2 | All Maps","name_short":"nyc-2","host":"nyc-1.us.uncletopia.com","port":27025,"enabled":true,"region":"us-east","cc":"us","latitude":40.73061,"longitude":-73.93524,"reserved":0,"last_update":"0001-01-01T00:00:00Z","name_a2s":"Uncletopia | New York City | 2 | All Maps","protocol":17,"map":"pl_badwater","folder":"tf","game":"Team Fortress","app_id":440,"player_count":0,"max_players":24,"Bots":0,"server_type":"Dedicated","server_os":"Linux","password":true,"vac":true,"version":"7757534","steam_id":85568392924469994,"keywords":["nocrits","nodmgspread","payload","uncletopia"],"game_id":440,"stv_port":27026,"stv_name":"Uncletopia | New York City | 2 | All Maps | STV","players":null},{"server_id":15,"name":"Uncletopia | New York City | 3 | Stopwatch Beta","name_short":"nyc-3","host":"nyc-1.us.uncletopia.com","port":27035,"enabled":true,"region":"us-east","cc":"us","latitude":40.73061,"longitude":-73.93524,"reserved":0,"last_update":"0001-01-01T00:00:00Z","name_a2s":"Uncletopia | New York City | 3 | Stopwatch Beta","protocol":17,"map":"workshop/cp_process_f11.ugc2302948105","folder":"tf","game":"Team Fortress","app_id":440,"player_count":0,"max_players":24,"Bots":0,"server_type":"Dedicated","server_os":"Linux","password":true,"vac":true,"version":"7757534","steam_id":85568392924742820,"keywords":["cp","nocrits","nodmgspread","uncletopia"],"game_id":440,"stv_port":27036,"stv_name":"Uncletopia | New York City | 3 | Stopwatch Beta | STV","players":null},{"server_id":16,"name":"Uncletopia | New York City | 4 | Community","name_short":"nyc-4","host":"nyc-1.us.uncletopia.com","port":27045,"enabled":true,"region":"us-east","cc":"us","latitude":40.73061,"longitude":-73.93524,"reserved":0,"last_update":"0001-01-01T00:00:00Z","name_a2s":"Uncletopia | New York City | 4 | Community","protocol":17,"map":"workshop/cp_croissant_final.ugc458840209","folder":"tf","game":"Team Fortress","app_id":440,"player_count":0,"max_players":24,"Bots":0,"server_type":"Dedicated","server_os":"Linux","password":true,"vac":true,"version":"7757534","steam_id":85568392924742821,"keywords":["cp","nocrits","nodmgspread","uncletopia"],"game_id":440,"stv_port":27046,"stv_name":"Uncletopia | New York City | 4 | Community | STV","players":null},{"server_id":142,"name":"Uncletopia | São Paulo | 1 | All Maps","name_short":"sao-1","host":"sao-1.br.uncletopia.com","port":27015,"enabled":true,"region":"sa","cc":"br","latitude":-23.533773,"longitude":-46.62529,"reserved":0,"last_update":"0001-01-01T00:00:00Z","name_a2s":"Uncletopia | São Paulo | 1 | All Maps","protocol":17,"map":"koth_highpass","folder":"tf","game":"Team Fortress","app_id":440,"player_count":0,"max_players":24,"Bots":0,"server_type":"Dedicated","server_os":"Linux","password":true,"vac":true,"version":"7757534","steam_id":85568392924469996,"keywords":["cp","nocrits","nodmgspread","uncletopia"],"game_id":440,"stv_port":27016,"stv_name":"Uncletopia | São Paulo | 1 | All Maps | STV","players":null},{"server_id":143,"name":"Uncletopia | São Paulo | 2 | All Maps","name_short":"sao-2","host":"sao-2.br.uncletopia.com","port":27015,"enabled":true,"region":"sa","cc":"br","latitude":-23.533773,"longitude":-46.62529,"reserved":0,"last_update":"0001-01-01T00:00:00Z","name_a2s":"Uncletopia | São Paulo | 2 | All Maps","protocol":17,"map":"koth_lakeside_final","folder":"tf","game":"Team Fortress","app_id":440,"player_count":12,"max_players":24,"Bots":0,"server_type":"Dedicated","server_os":"Linux","password":true,"vac":true,"version":"7757534","steam_id":85568392924485349,"keywords":["cp","nocrits","nodmgspread","uncletopia"],"game_id":440,"stv_port":27016,"stv_name":"Uncletopia | São Paulo | 2 | All Maps | STV","players":[{"user_id":76,"name":"frtrebbi","steam_id":76561197995157158,"connected_time":626000000000,"state":"active","ping":63},{"user_id":80,"name":"Gordon_Freeman","steam_id":76561199356599536,"connected_time":219000000000,"state":"active","ping":151},{"user_id":75,"name":"Sistema Nervoso Central","steam_id":76561198997384723,"connected_time":685000000000,"state":"active","ping":44},{"user_id":56,"name":"lumoxd","steam_id":76561199389788313,"connected_time":2212000000000,"state":"active","ping":49},{"user_id":79,"name":"alglumber","steam_id":76561199429426012,"connected_time":322000000000,"state":"active","ping":59},{"user_id":65,"name":"JMSB1000","steam_id":76561199056198955,"connected_time":1527000000000,"state":"active","ping":117},{"user_id":60,"name":"December Gaming","steam_id":76561198308517365,"connected_time":1864000000000,"state":"active","ping":137},{"user_id":45,"name":"AY|ErvilhaGamer_BR","steam_id":76561198379443561,"connected_time":3724000000000,"state":"active","ping":37},{"user_id":73,"name":"go lose fast","steam_id":76561198347518013,"connected_time":1055000000000,"state":"active","ping":62},{"user_id":66,"name":"grimga","steam_id":76561198367052513,"connected_time":1456000000000,"state":"active","ping":55},{"user_id":81,"name":"red_","steam_id":76561198172912625,"connected_time":17000000000,"state":"spawning","ping":68},{"user_id":74,"name":"Mumia216","steam_id":76561199467438225,"connected_time":1049000000000,"state":"active","ping":133}]},{"server_id":7,"name":"Uncletopia | Seattle | 1 | All Maps","name_short":"sea-1","host":"sea-1.us.uncletopia.com","port":27015,"enabled":true,"region":"us-west","cc":"us","latitude":47.608013,"longitude":-122.33517,"reserved":0,"last_update":"0001-01-01T00:00:00Z","name_a2s":"Uncletopia | Seattle | 1 | All Maps","protocol":17,"map":"cp_dustbowl","folder":"tf","game":"Team Fortress","app_id":440,"player_count":24,"max_players":24,"Bots":0,"server_type":"Dedicated","server_os":"Linux","password":true,"vac":true,"version":"7757534","steam_id":85568392924469997,"keywords":["cp","nocrits","nodmgspread","uncletopia"],"game_id":440,"stv_port":27016,"stv_name":"Uncletopia | Seattle | 1 | All Maps | STV","players":[{"user_id":222,"name":"Furrio","steam_id":76561198174104607,"connected_time":3175000000000,"state":"active","ping":94},{"user_id":228,"name":"anal fiend","steam_id":76561198026844952,"connected_time":2222000000000,"state":"active","ping":54},{"user_id":164,"name":"gaming is for girls","steam_id":76561198240344950,"connected_time":8594000000000,"state":"active","ping":88},{"user_id":215,"name":"Hayden Christensen","steam_id":76561198089313805,"connected_time":3721000000000,"state":"active","ping":86},{"user_id":216,"name":"Kopenich","steam_id":76561198066205245,"connected_time":3716000000000,"state":"active","ping":86},{"user_id":245,"name":"fwoov","steam_id":76561198129166260,"connected_time":1087000000000,"state":"active","ping":75},{"user_id":238,"name":"Dezzithediscoduck","steam_id":76561198037043489,"connected_time":1915000000000,"state":"active","ping":69},{"user_id":223,"name":"brothax","steam_id":76561197996713526,"connected_time":2971000000000,"state":"active","ping":117},{"user_id":244,"name":"Sloppy John (Extra Sauce)","steam_id":76561198359703432,"connected_time":1149000000000,"state":"active","ping":78},{"user_id":234,"name":"AmiableNebula","steam_id":76561198094306627,"connected_time":2130000000000,"state":"active","ping":77},{"user_id":248,"name":"Bocchi the Rock","steam_id":76561198025668771,"connected_time":758000000000,"state":"active","ping":115},{"user_id":247,"name":"Stranger Danger","steam_id":76561198115242460,"connected_time":834000000000,"state":"active","ping":45},{"user_id":205,"name":"LILIUM","steam_id":76561198086591493,"connected_time":4741000000000,"state":"active","ping":89},{"user_id":232,"name":"Confirmed Bachelor","steam_id":76561198441041496,"connected_time":2140000000000,"state":"active","ping":61},{"user_id":250,"name":"Mignyanne :3","steam_id":76561198048754056,"connected_time":81000000000,"state":"active","ping":61},{"user_id":225,"name":"❤Gothie❤","steam_id":76561198166814648,"connected_time":2528000000000,"state":"active","ping":72},{"user_id":242,"name":"IzzyHoP","steam_id":76561197995927883,"connected_time":1473000000000,"state":"active","ping":57},{"user_id":171,"name":"THE NUT","steam_id":76561198067813626,"connected_time":8344000000000,"state":"active","ping":50},{"user_id":249,"name":"Delicate Steve","steam_id":76561198063582381,"connected_time":233000000000,"state":"active","ping":68},{"user_id":235,"name":"Shmebulock","steam_id":76561198046941925,"connected_time":2100000000000,"state":"active","ping":112},{"user_id":181,"name":"\\m/ Cyfun (she/it)","steam_id":76561197960882221,"connected_time":7532000000000,"state":"active","ping":91},{"user_id":212,"name":"oo","steam_id":76561198119626492,"connected_time":4068000000000,"state":"active","ping":83},{"user_id":233,"name":"Terrazzle","steam_id":76561197999850393,"connected_time":2137000000000,"state":"active","ping":105},{"user_id":243,"name":"awak","steam_id":76561198092135570,"connected_time":1473000000000,"state":"active","ping":105}]},{"server_id":119,"name":"Uncletopia | Seattle | 2 | All Maps","name_short":"sea-2","host":"sea-1.us.uncletopia.com","port":27025,"enabled":true,"region":"us-west","cc":"us","latitude":47.608013,"longitude":-122.33517,"reserved":0,"last_update":"0001-01-01T00:00:00Z","name_a2s":"Uncletopia | Seattle | 2 | All Maps","protocol":17,"map":"koth_cascade","folder":"tf","game":"Team Fortress","app_id":440,"player_count":0,"max_players":24,"Bots":0,"server_type":"Dedicated","server_os":"Linux","password":true,"vac":true,"version":"7757534","steam_id":85568392924469998,"keywords":["cp","nocrits","nodmgspread","uncletopia"],"game_id":440,"stv_port":27026,"stv_name":"Uncletopia | Seattle | 2 | All Maps | STV","players":null},{"server_id":406,"name":"Uncletopia | Seattle | 3 | Stopwatch Beta","name_short":"sea-3","host":"sea-1.us.uncletopia.com","port":27035,"enabled":true,"region":"us-west","cc":"us","latitude":47.608013,"longitude":-122.33517,"reserved":0,"last_update":"0001-01-01T00:00:00Z","name_a2s":"Uncletopia | Seattle | 3 | Stopwatch Beta","protocol":17,"map":"pl_barnblitz","folder":"tf","game":"Team Fortress","app_id":440,"player_count":0,"max_players":24,"Bots":0,"server_type":"Dedicated","server_os":"Linux","password":true,"vac":true,"version":"7757534","steam_id":85568392924515217,"keywords":["nocrits","nodmgspread","payload","uncletopia"],"game_id":440,"stv_port":27036,"stv_name":"Uncletopia | Seattle | 3 | Stopwatch Beta | STV","players":null},{"server_id":17,"name":"Uncletopia | San Francisco | 1 | All Maps","name_short":"sfo-1","host":"sfo-1.us.uncletopia.com","port":27015,"enabled":true,"region":"us-west","cc":"us","latitude":37.77397,"longitude":-122.4313,"reserved":0,"last_update":"0001-01-01T00:00:00Z","name_a2s":"Uncletopia | San Francisco | 1 | All Maps","protocol":17,"map":"koth_highpass","folder":"tf","game":"Team Fortress","app_id":440,"player_count":11,"max_players":24,"Bots":0,"server_type":"Dedicated","server_os":"Linux","password":true,"vac":true,"version":"7757534","steam_id":85568392924469999,"keywords":["cp","nocrits","nodmgspread","uncletopia"],"game_id":440,"stv_port":27016,"stv_name":"Uncletopia | San Francisco | 1 | All Maps | STV","players":[{"user_id":19,"name":"snubcube","steam_id":76561198135880806,"connected_time":219000000000,"state":"active","ping":120},{"user_id":20,"name":"WaterWorks","steam_id":76561198801899310,"connected_time":138000000000,"state":"active","ping":113},{"user_id":11,"name":"Hero Smasher","steam_id":76561198150681669,"connected_time":1684000000000,"state":"active","ping":44},{"user_id":13,"name":"Némiscau","steam_id":76561198257979613,"connected_time":689000000000,"state":"active","ping":64},{"user_id":14,"name":"Agent Q","steam_id":76561198830829003,"connected_time":675000000000,"state":"active","ping":77},{"user_id":15,"name":"Pudsla","steam_id":76561198258974036,"connected_time":307000000000,"state":"active","ping":60},{"user_id":16,"name":"Prank 'em John!","steam_id":76561198137705918,"connected_time":302000000000,"state":"active","ping":119},{"user_id":18,"name":"corbenis","steam_id":76561199012442511,"connected_time":235000000000,"state":"active","ping":62},{"user_id":22,"name":"FROYO FRAG GOD -AA- (fear me)","steam_id":76561198097588802,"connected_time":131000000000,"state":"active","ping":90},{"user_id":23,"name":"pumba","steam_id":76561198207881077,"connected_time":80000000000,"state":"active","ping":79},{"user_id":24,"name":"Silexos","steam_id":76561198267639877,"connected_time":21000000000,"state":"active","ping":47}]},{"server_id":18,"name":"Uncletopia | San Francisco | 2 | All Maps","name_short":"sfo-2","host":"sfo-1.us.uncletopia.com","port":27025,"enabled":true,"region":"us-west","cc":"us","latitude":37.77397,"longitude":-122.4313,"reserved":0,"last_update":"0001-01-01T00:00:00Z","name_a2s":"Uncletopia | San Francisco | 2 | All Maps","protocol":17,"map":"pl_pier","folder":"tf","game":"Team Fortress","app_id":440,"player_count":0,"max_players":24,"Bots":0,"server_type":"Dedicated","server_os":"Linux","password":true,"vac":true,"version":"7757534","steam_id":85568392924470000,"keywords":["nocrits","nodmgspread","payload","uncletopia"],"game_id":440,"stv_port":27026,"stv_name":"Uncletopia | San Francisco | 2 | All Maps | STV","players":null},{"server_id":19,"name":"Uncletopia | San Francisco | 3 | Stopwatch Beta","name_short":"sfo-3","host":"sfo-1.us.uncletopia.com","port":27035,"enabled":true,"region":"us-west","cc":"us","latitude":37.77397,"longitude":-122.4313,"reserved":0,"last_update":"0001-01-01T00:00:00Z","name_a2s":"Uncletopia | San Francisco | 3 | Stopwatch Beta","protocol":17,"map":"pl_borneo","folder":"tf","game":"Team Fortress","app_id":440,"player_count":0,"max_players":24,"Bots":0,"server_type":"Dedicated","server_os":"Linux","password":true,"vac":true,"version":"7757534","steam_id":85568392924742824,"keywords":["nocrits","nodmgspread","payload","uncletopia"],"game_id":440,"stv_port":27036,"stv_name":"Uncletopia | San Francisco | 3 | Stopwatch Beta | STV","players":null},{"server_id":20,"name":"Uncletopia | San Francisco | 4 | Community","name_short":"sfo-4","host":"sfo-1.us.uncletopia.com","port":27045,"enabled":true,"region":"us-west","cc":"us","latitude":37.77397,"longitude":-122.4313,"reserved":0,"last_update":"0001-01-01T00:00:00Z","name_a2s":"Uncletopia | San Francisco | 4 | Community","protocol":17,"map":"koth_highpass","folder":"tf","game":"Team Fortress","app_id":440,"player_count":0,"max_players":24,"Bots":0,"server_type":"Dedicated","server_os":"Linux","password":true,"vac":true,"version":"7757534","steam_id":85568392924742826,"keywords":["cp","nocrits","nodmgspread","uncletopia"],"game_id":440,"stv_port":27046,"stv_name":"Uncletopia | San Francisco | 4 | Community | STV","players":null},{"server_id":141,"name":"Uncletopia | Sydney | 1 | All Maps","name_short":"syd-1","host":"syd-1.au.uncletopia.com","port":27015,"enabled":true,"region":"au","cc":"au","latitude":-33.865143,"longitude":151.2099,"reserved":0,"last_update":"0001-01-01T00:00:00Z","name_a2s":"Uncletopia | Sydney | 1 | All Maps","protocol":17,"map":"pl_snowycoast","folder":"tf","game":"Team Fortress","app_id":440,"player_count":0,"max_players":24,"Bots":0,"server_type":"Dedicated","server_os":"Linux","password":true,"vac":true,"version":"7757534","steam_id":85568392924470001,"keywords":["nocrits","nodmgspread","payload","uncletopia"],"game_id":440,"stv_port":27016,"stv_name":"Uncletopia | Sydney | 1 | All Maps | STV","players":null},{"server_id":123,"name":"Uncletopia | Sydney | 2 | All Maps","name_short":"syd-2","host":"syd-1.au.uncletopia.com","port":27025,"enabled":true,"region":"au","cc":"au","latitude":-33.865143,"longitude":151.2099,"reserved":0,"last_update":"0001-01-01T00:00:00Z","name_a2s":"Uncletopia | Sydney | 2 | All Maps","protocol":17,"map":"koth_highpass","folder":"tf","game":"Team Fortress","app_id":440,"player_count":0,"max_players":24,"Bots":0,"server_type":"Dedicated","server_os":"Linux","password":true,"vac":true,"version":"7757534","steam_id":85568392924470002,"keywords":["cp","nocrits","nodmgspread","uncletopia"],"game_id":440,"stv_port":27026,"stv_name":"Uncletopia | Sydney | 2 | All Maps | STV","players":null},{"server_id":395,"name":"Uncletopia | Sydney | 3 | All Maps","name_short":"syd-3","host":"syd-1.au.uncletopia.com","port":27035,"enabled":true,"region":"au","cc":"au","latitude":-33.865143,"longitude":151.2099,"reserved":0,"last_update":"0001-01-01T00:00:00Z","name_a2s":"Uncletopia | Sydney | 3 | All Maps","protocol":17,"map":"pl_badwater","folder":"tf","game":"Team Fortress","app_id":440,"player_count":0,"max_players":24,"Bots":0,"server_type":"Dedicated","server_os":"Linux","password":true,"vac":true,"version":"7757534","steam_id":85568392925194467,"keywords":["nocrits","nodmgspread","payload","uncletopia"],"game_id":440,"stv_port":27036,"stv_name":"Uncletopia | Sydney | 3 | All Maps | STV","players":null},{"server_id":396,"name":"Uncletopia | Sydney | 4 | All Maps","name_short":"syd-4","host":"syd-1.au.uncletopia.com","port":27045,"enabled":true,"region":"au","cc":"au","latitude":-33.865143,"longitude":151.2099,"reserved":0,"last_update":"0001-01-01T00:00:00Z","name_a2s":"Uncletopia | Sydney | 4 | All Maps","protocol":17,"map":"koth_lakeside_final","folder":"tf","game":"Team Fortress","app_id":440,"player_count":0,"max_players":24,"Bots":0,"server_type":"Dedicated","server_os":"Linux","password":true,"vac":true,"version":"7757534","steam_id":85568392925397958,"keywords":["cp","nocrits","nodmgspread","uncletopia"],"game_id":440,"stv_port":27046,"stv_name":"Uncletopia | Sydney | 4 | All Maps | STV","players":null},{"server_id":58,"name":"Uncletopia | Sydney | 5 | Stopwatch Beta","name_short":"syd-5","host":"syd-1.au.uncletopia.com","port":27055,"enabled":true,"region":"au","cc":"au","latitude":-33.865143,"longitude":151.2099,"reserved":0,"last_update":"0001-01-01T00:00:00Z","name_a2s":"Uncletopia | Sydney | 5 | Stopwatch Beta","protocol":17,"map":"koth_highpass","folder":"tf","game":"Team Fortress","app_id":440,"player_count":0,"max_players":24,"Bots":0,"server_type":"Dedicated","server_os":"Linux","password":true,"vac":true,"version":"7757534","steam_id":85568392925397959,"keywords":["cp","nocrits","nodmgspread","uncletopia"],"game_id":440,"stv_port":27056,"stv_name":"Uncletopia | Sydney | 5 | Stopwatch Beta | STV","players":null},{"server_id":59,"name":"Uncletopia | Sydney | 6 | Community","name_short":"syd-6","host":"syd-1.au.uncletopia.com","port":27065,"enabled":true,"region":"au","cc":"au","latitude":-33.865143,"longitude":151.2099,"reserved":0,"last_update":"0001-01-01T00:00:00Z","name_a2s":"Uncletopia | Sydney | 6 | Community","protocol":17,"map":"workshop/pl_emerge_rc2.ugc888027758","folder":"tf","game":"Team Fortress","app_id":440,"player_count":0,"max_players":24,"Bots":0,"server_type":"Dedicated","server_os":"Linux","password":true,"vac":true,"version":"7757534","steam_id":85568392925397960,"keywords":["nocrits","nodmgspread","payload","uncletopia"],"game_id":440,"stv_port":27066,"stv_name":"Uncletopia | Sydney | 6 | Community | STV","players":null},{"server_id":49,"name":"Uncletopia | Warsaw | 1 | All Maps","name_short":"waw-1","host":"waw-1.pl.uncletopia.com","port":27015,"enabled":true,"region":"eu","cc":"pl","latitude":52.2297,"longitude":21.017532,"reserved":0,"last_update":"0001-01-01T00:00:00Z","name_a2s":"","protocol":0,"map":"","folder":"","game":"","app_id":0,"player_count":0,"max_players":0,"Bots":0,"server_type":"","server_os":"","password":false,"vac":false,"version":"","steam_id":0,"keywords":null,"game_id":0,"stv_port":0,"stv_name":"","players":null},{"server_id":50,"name":"Uncletopia | Warsaw | 2 | All Maps","name_short":"waw-2","host":"waw-1.pl.uncletopia.com","port":27025,"enabled":true,"region":"eu","cc":"pl","latitude":52.2297,"longitude":21.017532,"reserved":0,"last_update":"0001-01-01T00:00:00Z","name_a2s":"Uncletopia | Warsaw | 2 | All Maps","protocol":17,"map":"koth_lakeside_final","folder":"tf","game":"Team Fortress","app_id":440,"player_count":3,"max_players":24,"Bots":0,"server_type":"Dedicated","server_os":"Linux","password":true,"vac":true,"version":"7757534","steam_id":85568392925397851,"keywords":["cp","nocrits","nodmgspread","uncletopia"],"game_id":440,"stv_port":27026,"stv_name":"Uncletopia | Warsaw | 2 | All Maps | STV","players":[{"user_id":4,"name":"Beansman","steam_id":76561199181417898,"connected_time":1330000000000,"state":"active","ping":85},{"user_id":5,"name":"_Oskar_","steam_id":76561199021840818,"connected_time":1313000000000,"state":"active","ping":87},{"user_id":7,"name":"ashsbhop","steam_id":76561199155075476,"connected_time":13000000000,"state":"spawning","ping":70}]},{"server_id":51,"name":"Uncletopia | Warsaw | 3 | All Maps","name_short":"waw-3","host":"waw-1.pl.uncletopia.com","port":27035,"enabled":true,"region":"eu","cc":"pl","latitude":52.2297,"longitude":21.017532,"reserved":0,"last_update":"0001-01-01T00:00:00Z","name_a2s":"Uncletopia | Warsaw | 3 | All Maps","protocol":17,"map":"pl_swiftwater_final1","folder":"tf","game":"Team Fortress","app_id":440,"player_count":0,"max_players":24,"Bots":0,"server_type":"Dedicated","server_os":"Linux","password":true,"vac":true,"version":"7757534","steam_id":85568392925397852,"keywords":["nocrits","nodmgspread","payload","uncletopia"],"game_id":440,"stv_port":27036,"stv_name":"Uncletopia | Warsaw | 3 | All Maps | STV","players":null},{"server_id":52,"name":"Uncletopia | Warsaw | 4 | All Maps","name_short":"waw-4","host":"waw-1.pl.uncletopia.com","port":27045,"enabled":true,"region":"eu","cc":"pl","latitude":52.2297,"longitude":21.017532,"reserved":0,"last_update":"0001-01-01T00:00:00Z","name_a2s":"Uncletopia | Warsaw | 4 | All Maps","protocol":17,"map":"cp_dustbowl","folder":"tf","game":"Team Fortress","app_id":440,"player_count":2,"max_players":24,"Bots":0,"server_type":"Dedicated","server_os":"Linux","password":true,"vac":true,"version":"7757534","steam_id":85568392925397853,"keywords":["cp","nocrits","nodmgspread","uncletopia"],"game_id":440,"stv_port":27046,"stv_name":"Uncletopia | Warsaw | 4 | All Maps | STV","players":[{"user_id":8,"name":"Roasted Potatoes","steam_id":76561199244819489,"connected_time":392000000000,"state":"active","ping":117},{"user_id":9,"name":"The man under the road","steam_id":76561199276035454,"connected_time":379000000000,"state":"active","ping":93}]},{"server_id":53,"name":"Uncletopia | Warsaw | 5 | Stopwatch Beta","name_short":"waw-5","host":"waw-1.pl.uncletopia.com","port":27055,"enabled":true,"region":"eu","cc":"pl","latitude":52.2297,"longitude":21.017532,"reserved":0,"last_update":"0001-01-01T00:00:00Z","name_a2s":"Uncletopia | Warsaw | 5 | Stopwatch Beta","protocol":17,"map":"pl_barnblitz","folder":"tf","game":"Team Fortress","app_id":440,"player_count":0,"max_players":24,"Bots":0,"server_type":"Dedicated","server_os":"Linux","password":true,"vac":true,"version":"7757534","steam_id":85568392925397854,"keywords":["nocrits","nodmgspread","payload","uncletopia"],"game_id":440,"stv_port":27056,"stv_name":"Uncletopia | Warsaw | 5 | Stopwatch Beta | STV","players":null},{"server_id":54,"name":"Uncletopia | Warsaw | 6 | Community","name_short":"waw-6","host":"waw-1.pl.uncletopia.com","port":27065,"enabled":true,"region":"eu","cc":"pl","latitude":52.2297,"longitude":21.017532,"reserved":0,"last_update":"0001-01-01T00:00:00Z","name_a2s":"Uncletopia | Warsaw | 6 | Community","protocol":17,"map":"workshop/pl_barnblitz_pro7.ugc582280235","folder":"tf","game":"Team Fortress","app_id":440,"player_count":0,"max_players":24,"Bots":0,"server_type":"Dedicated","server_os":"Linux","password":true,"vac":true,"version":"7757534","steam_id":85568392925397856,"keywords":["nocrits","nodmgspread","payload","uncletopia"],"game_id":440,"stv_port":27066,"stv_name":"Uncletopia | Warsaw | 6 | Community | STV","players":null}]}