{"status":true,"message":"","result":[{"server_id":9,"name":"Uncletopia | Atlanta | 1 | All Maps","name_short":"atl-1","host":"atl-1.us.uncletopia.com","port":27015,"enabled":true,"region":"us-east","cc":"us","latitude":33.753746,"longitude":-84.38633,"reserved":0,"last_update":"0001-01-01T00:00:00Z","name_a2s":"Uncletopia | Atlanta | 1 | All Maps","protocol":17,"map":"pl_snowycoast","folder":"tf","game":"Team Fortress","app_id":440,"player_count":0,"max_players":24,"Bots":0,"server_type":"Dedicated","server_os":"Linux","password":true,"vac":true,"version":"7961495","steam_id":85568392924469982,"keywords":["nocrits","nodmgspread","payload","uncletopia"],"game_id":440,"stv_port":27016,"stv_name":"Uncletopia | Atlanta | 1 | All Maps | STV","players":null},{"server_id":104,"name":"Uncletopia | Atlanta | 2 | All Maps","name_short":"atl-2","host":"atl-1.us.uncletopia.com","port":27025,"enabled":true,"region":"us-east","cc":"us","latitude":33.753746,"longitude":-84.38633,"reserved":0,"last_update":"0001-01-01T00:00:00Z","name_a2s":"Uncletopia | Atlanta | 2 | All Maps","protocol":17,"map":"koth_cascade","folder":"tf","game":"Team Fortress","app_id":440,"player_count":0,"max_players":24,"Bots":0,"server_type":"Dedicated","server_os":"Linux","password":true,"vac":true,"version":"7961495","steam_id":85568392924469983,"keywords":["cp","nocrits","nodmgspread","uncletopia"],"game_id":440,"stv_port":27026,"stv_name":"Uncletopia | Atlanta | 2 | All Maps | STV","players":null},{"server_id":400,"name":"Uncletopia | Atlanta | 3 | Stopwatch","name_short":"atl-3","host":"atl-1.us.uncletopia.com","port":27035,"enabled":true,"region":"us-east","cc":"us","latitude":33.753746,"longitude":-84.38633,"reserved":0,"last_update":"0001-01-01T00:00:00Z","name_a2s":"Uncletopia | Atlanta | 3 | Stopwatch","protocol":17,"map":"pl_upward","folder":"tf","game":"Team Fortress","app_id":440,"player_count":0,"max_players":24,"Bots":0,"server_type":"Dedicated","server_os":"Linux","password":true,"vac":true,"version":"7961495","steam_id":85568392924515187,"keywords":["nocrits","nodmgspread","payload","uncletopia"],"game_id":440,"stv_port":27036,"stv_name":"Uncletopia | Atlanta | 3 | Stopwatch | STV","players":null},{"server_id":401,"name":"Uncletopia | Atlanta | 4 | Community","name_short":"atl-4","host":"atl-1.us.uncletopia.com","port":27045,"enabled":true,"region":"us-east","cc":"us","latitude":33.753746,"longitude":-84.38633,"reserved":0,"last_update":"0001-01-01T00:00:00Z","name_a2s":"Uncletopia | Atlanta | 4 | Community","protocol":17,"map":"koth_ashville_final","folder":"tf","game":"Team Fortress","app_id":440,"player_count":0,"max_players":24,"Bots":0,"server_type":"Dedicated","server_os":"Linux","password":true,"vac":true,"version":"7961495","steam_id":85568392924515188,"keywords":["cp","nocrits","nodmgspread","uncletopia"],"game_id":440,"stv_port":27046,"stv_name":"Uncletopia | Atlanta | 4 | Community | STV","players":null},{"server_id":2,"name":"Uncletopia | Chicago | 1 | All Maps","name_short":"chi-1","host":"chi-1.us.uncletopia.com","port":27015,"enabled":true,"region":"us-central","cc":"us","latitude":41.881832,"longitude":-87.62318,"reserved":0,"last_update":"0001-01-01T00:00:00Z","name_a2s":"Uncletopia | Chicago | 1 | All Maps","protocol":17,"map":"pl_borneo","folder":"tf","game":"Team Fortress","app_id":440,"player_count":24,"max_players":24,"Bots":0,"server_type":"Dedicated","server_os":"Linux","password":true,"vac":true,"version":"7961495","steam_id":85568392924469984,"keywords":["nocrits","nodmgspread","payload","uncletopia"],"game_id":440,"stv_port":27016,"stv_name":"Uncletopia | Chicago | 1 | All Maps | STV","players":[{"user_id":231,"name":"fractaldunes","steam_id":76561198118102935,"connected_time":466000000000,"state":"active","ping":69},{"user_id":221,"name":"DeSynthed","steam_id":76561198098768007,"connected_time":648000000000,"state":"active","ping":75},{"user_id":232,"name":"Sir Penis Play-Wither","steam_id":76561198079490563,"connected_time":328000000000,"state":"active","ping":92},{"user_id":205,"name":"Prsm","steam_id":76561198053344995,"connected_time":2903000000000,"state":"active","ping":57},{"user_id":242,"name":"agless","steam_id":76561198045248344,"connected_time":68000000000,"state":"active","ping":50},{"user_id":230,"name":"aiden","steam_id":76561198449527009,"connected_time":553000000000,"state":"active","ping":90},{"user_id":173,"name":"Brawns","steam_id":76561198045190199,"connected_time":5398000000000,"state":"active","ping":79},{"user_id":233,"name":"Sozeash","steam_id":76561198207795512,"connected_time":307000000000,"state":"active","ping":85},{"user_id":222,"name":"lu","steam_id":76561198080731872,"connected_time":635000000000,"state":"active","ping":75},{"user_id":226,"name":"Captain Demytri","steam_id":76561198097998607,"connected_time":611000000000,"state":"active","ping":47},{"user_id":223,"name":"Zelumie","steam_id":76561198147335801,"connected_time":633000000000,"state":"active","ping":43},{"user_id":234,"name":"creeeeeee","steam_id":76561198392539722,"connected_time":306000000000,"state":"active","ping":78},{"user_id":171,"name":"Heathcliff","steam_id":76561198044288534,"connected_time":5515000000000,"state":"active","ping":103},{"user_id":187,"name":"RedBaron","steam_id":76561198972426107,"connected_time":4130000000000,"state":"active","ping":60},{"user_id":212,"name":"dobby","steam_id":76561198012274834,"connected_time":1972000000000,"state":"active","ping":88},{"user_id":175,"name":"KingCrawful","steam_id":76561198104291657,"connected_time":4834000000000,"state":"active","ping":52},{"user_id":237,"name":"Captaindux","steam_id":76561198045390541,"connected_time":232000000000,"state":"active","ping":60},{"user_id":238,"name":"Rowdy Riot","steam_id":76561198037734418,"connected_time":227000000000,"state":"active","ping":77},{"user_id":239,"name":"dr.sex","steam_id":76561198218497904,"connected_time":226000000000,"state":"active","ping":84},{"user_id":218,"name":"Blithen","steam_id":76561197989955619,"connected_time":1533000000000,"state":"active","ping":118},{"user_id":229,"name":"Tickleshits","steam_id":76561198159197241,"connected_time":565000000000,"state":"active","ping":142},{"user_id":240,"name":"imng","steam_id":76561198014988031,"connected_time":218000000000,"state":"active","ping":83},{"user_id":184,"name":"Your Local Queer Librarian","steam_id":76561198013077080,"connected_time":4278000000000,"state":"active","ping":59},{"user_id":243,"name":"catgirl queef :3","steam_id":76561199015827567,"connected_time":68000000000,"state":"active","ping":81}]},{"server_id":106,"name":"Uncletopia | Chicago | 2 | All Maps","name_short":"chi-2","host":"chi-1.us.uncletopia.com","port":27025,"enabled":true,"region":"us-central","cc":"us","latitude":41.881832,"longitude":-87.62318,"reserved":0,"last_update":"0001-01-01T00:00:00Z","name_a2s":"Uncletopia | Chicago | 2 | All Maps","protocol":17,"map":"pl_barnblitz","folder":"tf","game":"Team Fortress","app_id":440,"player_count":24,"max_players":24,"Bots":0,"server_type":"Dedicated","server_os":"Linux","password":true,"vac":true,"version":"7961495","steam_id":85568392924469985,"keywords":["nocrits","nodmgspread","payload","uncletopia"],"game_id":440,"stv_port":27026,"stv_name":"Uncletopia | Chicago | 2 | All Maps | STV","players":[{"user_id":93,"name":"taigaxx","steam_id":76561198202669250,"connected_time":201000000000,"state":"active","ping":72},{"user_id":58,"name":"Broadway Rose","steam_id":76561198046083342,"connected_time":3445000000000,"state":"active","ping":57},{"user_id":90,"name":"ISlamHooker","steam_id":76561198050136796,"connected_time":643000000000,"state":"active","ping":78},{"user_id":63,"name":"Crustacean Daddy","steam_id":76561198993807061,"connected_time":2947000000000,"state":"active","ping":94},{"user_id":87,"name":"ai","steam_id":76561198155720118,"connected_time":986000000000,"state":"active","ping":45},{"user_id":100,"name":"Mog","steam_id":76561198025575870,"connected_time":166000000000,"state":"active","ping":56},{"user_id":91,"name":"Bronotos","steam_id":76561198035935672,"connected_time":632000000000,"state":"active","ping":46},{"user_id":95,"name":"meh","steam_id":76561198066114874,"connected_time":189000000000,"state":"active","ping":105},{"user_id":54,"name":"berserker_tf2","steam_id":76561198303464488,"connected_time":3985000000000,"state":"active","ping":64},{"user_id":77,"name":"superx","steam_id":76561198044976613,"connected_time":2246000000000,"state":"active","ping":72},{"user_id":29,"name":"retinz","steam_id":76561198135563495,"connected_time":4959000000000,"state":"active","ping":73},{"user_id":97,"name":"Dutchie","steam_id":76561198040969743,"connected_time":180000000000,"state":"active","ping":87},{"user_id":92,"name":"charles","steam_id":76561198135249177,"connected_time":587000000000,"state":"active","ping":84},{"user_id":32,"name":"gundself","steam_id":76561198799241927,"connected_time":4813000000000,"state":"active","ping":139},{"user_id":71,"name":"alfredodan","steam_id":76561198025011044,"connected_time":2374000000000,"state":"active","ping":80},{"user_id":35,"name":"Rustyorion","steam_id":76561198439186347,"connected_time":4704000000000,"state":"active","ping":106},{"user_id":78,"name":"Father","steam_id":76561198055542054,"connected_time":1602000000000,"state":"active","ping":87},{"user_id":94,"name":"Mazdamundi!","steam_id":76561198044691081,"connected_time":199000000000,"state":"active","ping":68},{"user_id":73,"name":"Blade Racer","steam_id":76561198155896703,"connected_time":2350000000000,"state":"active","ping":72},{"user_id":98,"name":"Gaiduk","steam_id":76561198112323877,"connected_time":178000000000,"state":"active","ping":82},{"user_id":99,"name":"King","steam_id":76561198039763676,"connected_time":176000000000,"state":"active","ping":70},{"user_id":76,"name":"Soapbar","steam_id":76561198081714169,"connected_time":2282000000000,"state":"active","ping":77},{"user_id":74,"name":"custodian","steam_id":76561198058793778,"connected_time":2337000000000,"state":"active","ping":72},{"user_id":82,"name":"Mr. Tickle","steam_id":76561198126684647,"connected_time":1119000000000,"state":"active","ping":61}]},{"server_id":402,"name":"Uncletopia | Chicago | 3 | All Maps","name_short":"chi-3","host":"chi-1.us.uncletopia.com","port":27035,"enabled":true,"region":"us-central","cc":"us","latitude":41.881832,"longitude":-87.62318,"reserved":0,"last_update":"0001-01-01T00:00:00Z","name_a2s":"Uncletopia | Chicago | 3 | All Maps","protocol":17,"map":"pl_frontier_final","folder":"tf","game":"Team Fortress","app_id":440,"player_count":0,"max_players":24,"Bots":0,"server_type":"Dedicated","server_os":"Linux","password":true,"vac":true,"version":"7961495","steam_id":85568392924515191,"keywords":["nocrits","nodmgspread","payload","uncletopia"],"game_id":440,"stv_port":27036,"stv_name":"Uncletopia | Chicago | 3 | All Maps | STV","players":null},{"server_id":403,"name":"Uncletopia | Chicago | 4 | All Maps","name_short":"chi-4","host":"chi-1.us.uncletopia.com","port":27045,"enabled":true,"region":"us-central","cc":"us","latitude":41.881832,"longitude":-87.62318,"reserved":0,"last_update":"0001-01-01T00:00:00Z","name_a2s":"Uncletopia | Chicago | 4 | All Maps","protocol":17,"map":"koth_cascade","folder":"tf","game":"Team Fortress","app_id":440,"player_count":0,"max_players":24,"Bots":0,"server_type":"Dedicated","server_os":"Linux","password":true,"vac":true,"version":"7961495","steam_id":85568392924515193,"keywords":["cp","nocrits","nodmgspread","uncletopia"],"game_id":440,"stv_port":27046,"stv_name":"Uncletopia | Chicago | 4 | All Maps | STV","players":null},{"server_id":36,"name":"Uncletopia | Chicago | 5 | All Maps","name_short":"chi-5","host":"chi-2.us.uncletopia.com","port":27015,"enabled":true,"region":"us-central","cc":"us","latitude":41.881832,"longitude":-87.62318,"reserved":0,"last_update":"0001-01-01T00:00:00Z","name_a2s":"Uncletopia | Chicago | 5 | All Maps","protocol":17,"map":"koth_viaduct","folder":"tf","game":"Team Fortress","app_id":440,"player_count":0,"max_players":24,"Bots":0,"server_type":"Dedicated","server_os":"Linux","password":true,"vac":true,"version":"7961495","steam_id":85568392924866362,"keywords":["cp","nocrits","nodmgspread","uncletopia"],"game_id":440,"stv_port":27016,"stv_name":"Uncletopia | Chicago | 5 | All Maps | STV","players":null},{"server_id":37,"name":"Uncletopia | Chicago | 6 | All Maps","name_short":"chi-6","host":"chi-2.us.uncletopia.com","port":27025,"enabled":true,"region":"us-central","cc":"us","latitude":41.881832,"longitude":-87.62318,"reserved":0,"last_update":"0001-01-01T00:00:00Z","name_a2s":"Uncletopia | Chicago | 6 | All Maps","protocol":17,"map":"pl_goldrush","folder":"tf","game":"Team Fortress","app_id":440,"player_count":21,"max_players":24,"Bots":0,"server_type":"Dedicated","server_os":"Linux","password":true,"vac":true,"version":"7961495","steam_id":85568392924866363,"keywords":["nocrits","nodmgspread","payload","uncletopia"],"game_id":440,"stv_port":27026,"stv_name":"Uncletopia | Chicago | 6 | All Maps | STV","players":[{"user_id":127,"name":"Binary","steam_id":76561198080764770,"connected_time":2396000000000,"state":"active","ping":75},{"user_id":148,"name":"Fiendish Frog","steam_id":76561198029478821,"connected_time":401000000000,"state":"active","ping":68},{"user_id":130,"name":"Thequirka","steam_id":76561198968058652,"connected_time":2050000000000,"state":"active","ping":96},{"user_id":142,"name":"Swedish Crowbar","steam_id":76561199105488936,"connected_time":629000000000,"state":"active","ping":145},{"user_id":129,"name":"Toasterduds","steam_id":76561198163477584,"connected_time":2135000000000,"state":"active","ping":101},{"user_id":146,"name":"BigNugs","steam_id":76561198056402610,"connected_time":481000000000,"state":"active","ping":64},{"user_id":151,"name":"Kirby.exe","steam_id":76561198242714582,"connected_time":115000000000,"state":"active","ping":64},{"user_id":147,"name":"[㏈] Bumpercars","steam_id":76561198061591743,"connected_time":447000000000,"state":"active","ping":64},{"user_id":145,"name":"MR SKELTAL","steam_id":76561198031089598,"connected_time":594000000000,"state":"active","ping":74},{"user_id":152,"name":"neet","steam_id":76561197968115168,"connected_time":95000000000,"state":"active","ping":46},{"user_id":153,"name":"BOUZENZEL","steam_id":76561198095000722,"connected_time":61000000000,"state":"active","ping":60},{"user_id":110,"name":"Drachma","steam_id":76561198007310514,"connected_time":3830000000000,"state":"active","ping":61},{"user_id":154,"name":"soapy","steam_id":76561198353456379,"connected_time":38000000000,"state":"active","ping":68},{"user_id":134,"name":"Rornir","steam_id":76561198081829615,"connected_time":1548000000000,"state":"active","ping":37},{"user_id":135,"name":"AzuriteFoxx","steam_id":76561198998093240,"connected_time":1540000000000,"state":"active","ping":81},{"user_id":155,"name":"Smashing93","steam_id":76561199058453316,"connected_time":34000000000,"state":"active","ping":57},{"user_id":156,"name":"mentally ill women love me #","steam_id":76561198170063974,"connected_time":15000000000,"state":"active","ping":87},{"user_id":149,"name":"jxh300","steam_id":76561199196579894,"connected_time":349000000000,"state":"active","ping":72},{"user_id":139,"name":"CatLike Pigeon","steam_id":76561198171716030,"connected_time":1419000000000,"state":"active","ping":121},{"user_id":140,"name":"The Wave","steam_id":76561198268225109,"connected_time":1417000000000,"state":"active","ping":89},{"user_id":143,"name":"Albino Jellyfish","steam_id":76561198208561097,"connected_time":628000000000,"state":"active","ping":68}]},{"server_id":38,"name":"Uncletopia | Chicago | 7 | Stopwatch","name_short":"chi-7","host":"chi-2.us.uncletopia.com","port":27035,"enabled":true,"region":"us-central","cc":"us","latitude":41.881832,"longitude":-87.62318,"reserved":0,"last_update":"0001-01-01T00:00:00Z","name_a2s":"Uncletopia | Chicago | 7 | Stopwatch","protocol":17,"map":"pl_badwater","folder":"tf","game":"Team Fortress","app_id":440,"player_count":0,"max_players":24,"Bots":0,"server_type":"Dedicated","server_os":"Linux","password":true,"vac":true,"version":"7961495","steam_id":85568392924866364,"keywords":["nocrits","nodmgspread","payload","uncletopia"],"game_id":440,"stv_port":27036,"stv_name":"Uncletopia | Chicago | 7 | Stopwatch | STV","players":null},{"server_id":39,"name":"Uncletopia | Chicago | 8 | Community","name_short":"chi-8","host":"chi-2.us.uncletopia.com","port":27045,"enabled":true,"region":"us-central","cc":"us","latitude":41.881832,"longitude":-87.62318,"reserved":0,"last_update":"0001-01-01T00:00:00Z","name_a2s":"Uncletopia | Chicago | 8 | Community","protocol":17,"map":"pl_pier","folder":"tf","game":"Team Fortress","app_id":440,"player_count":0,"max_players":24,"Bots":0,"server_type":"Dedicated","server_os":"Linux","password":true,"vac":true,"version":"7961495","steam_id":85568392924866365,"keywords":["nocrits","nodmgspread","payload","uncletopia"],"game_id":440,"stv_port":27046,"stv_name":"Uncletopia | Chicago | 8 | Community | STV","players":null},{"server_id":8,"name":"Uncletopia | Dallas | 1 | All Maps","name_short":"dal-1","host":"dal-1.us.uncletopia.com","port":27015,"enabled":true,"region":"us-central","cc":"us","latitude":32.779167,"longitude":-96.80889,"reserved":0,"last_update":"0001-01-01T00:00:00Z","name_a2s":"Uncletopia | Dallas | 1 | All Maps","protocol":17,"map":"ctf_2fort","folder":"tf","game":"Team Fortress","app_id":440,"player_count":17,"max_players":24,"Bots":0,"server_type":"Dedicated","server_os":"Linux","password":true,"vac":true,"version":"7961495","steam_id":85568392924469986,"keywords":["ctf","nocrits","nodmgspread","uncletopia"],"game_id":440,"stv_port":27016,"stv_name":"Uncletopia | Dallas | 1 | All Maps | STV","players":[{"user_id":7,"name":"lucky","steam_id":76561198323426623,"connected_time":2134000000000,"state":"active","ping":99},{"user_id":8,"name":"gooch_masta","steam_id":76561198151578423,"connected_time":1853000000000,"state":"active","ping":64},{"user_id":35,"name":"schmuck","steam_id":76561198143789773,"connected_time":3000000000,"state":"spawning","ping":52},{"user_id":10,"name":"Niko","steam_id":76561198185806553,"connected_time":1606000000000,"state":"active","ping":52},{"user_id":11,"name":"Lord Theodore XIII","steam_id":76561198085842797,"connected_time":1240000000000,"state":"active","ping":50},{"user_id":19,"name":"Zeke ඞ","steam_id":76561199202039197,"connected_time":848000000000,"state":"active","ping":101},{"user_id":13,"name":"Barmy","steam_id":76561198111626352,"connected_time":1146000000000,"state":"active","ping":92},{"user_id":34,"name":"Ketsu","steam_id":76561198208215161,"connected_time":154000000000,"state":"active","ping":57},{"user_id":20,"name":"Gul'dan","steam_id":76561198240466940,"connected_time":845000000000,"state":"active","ping":183},{"user_id":21,"name":"Rex","steam_id":76561198138365053,"connected_time":635000000000,"state":"active","ping":126},{"user_id":23,"name":"EAG","steam_id":76561199087837632,"connected_time":524000000000,"state":"active","ping":60},{"user_id":29,"name":"Greasy Guavas","steam_id":76561198089650428,"connected_time":408000000000,"state":"active","ping":88},{"user_id":25,"name":"BarrowBaron","steam_id":76561198013633236,"connected_time":515000000000,"state":"active","ping":76},{"user_id":26,"name":"Wade","steam_id":76561199092175631,"connected_time":457000000000,"state":"active","ping":66},{"user_id":27,"name":"SCRAPTRAP1001","steam_id":76561199417627762,"connected_time":454000000000,"state":"active","ping":56},{"user_id":31,"name":"Pango","steam_id":76561198069811545,"connected_time":315000000000,"state":"active","ping":49},{"user_id":32,"name":"Dr.CandyCane","steam_id":76561199238207915,"connected_time":263000000000,"state":"active","ping":200}]},{"server_id":108,"name":"Uncletopia | Dallas | 2 | All Maps","name_short":"dal-2","host":"dal-1.us.uncletopia.com","port":27025,"enabled":true,"region":"us-central","cc":"us","latitude":32.779167,"longitude":-96.80889,"reserved":0,"last_update":"0001-01-01T00:00:00Z","name_a2s":"Uncletopia | Dallas | 2 | All Maps","protocol":17,"map":"pl_snowycoast","folder":"tf","game":"Team Fortress","app_id":440,"player_count":0,"max_players":24,"Bots":0,"server_type":"Dedicated","server_os":"Linux","password":true,"vac":true,"version":"7961495","steam_id":85568392924469988,"keywords":["nocrits","nodmgspread","payload","uncletopia"],"game_id":440,"stv_port":27026,"stv_name":"Uncletopia | Dallas | 2 | All Maps | STV","players":null},{"server_id":404,"name":"Uncletopia | Dallas | 3 | All Maps","name_short":"dal-3","host":"dal-1.us.uncletopia.com","port":27035,"enabled":true,"region":"us-central","cc":"us","latitude":32.779167,"longitude":-96.80889,"reserved":0,"last_update":"0001-01-01T00:00:00Z","name_a2s":"Uncletopia | Dallas | 3 | All Maps","protocol":17,"map":"pl_borneo","folder":"tf","game":"Team Fortress","app_id":440,"player_count":0,"max_players":24,"Bots":0,"server_type":"Dedicated","server_os":"Linux","password":true,"vac":true,"version":"7961495","steam_id":85568392924515219,"keywords":["nocrits","nodmgspread","payload","uncletopia"],"game_id":440,"stv_port":27036,"stv_name":"Uncletopia | Dallas | 3 | All Maps | STV","players":null},{"server_id":405,"name":"Uncletopia | Dallas | 4 | Community","name_short":"dal-4","host":"dal-1.us.uncletopia.com","port":27045,"enabled":true,"region":"us-central","cc":"us","latitude":32.779167,"longitude":-96.80889,"reserved":0,"last_update":"0001-01-01T00:00:00Z","name_a2s":"Uncletopia | Dallas | 4 | Community","protocol":17,"map":"workshop/cp_villa_b19.ugc2113052569","folder":"tf","game":"Team Fortress","app_id":440,"player_count":0,"max_players":24,"Bots":0,"server_type":"Dedicated","server_os":"Linux","password":true,"vac":true,"version":"7961495","steam_id":85568392924515220,"keywords":["cp","nocrits","nodmgspread","uncletopia"],"game_id":440,"stv_port":27046,"stv_name":"Uncletopia | Dallas | 4 | Community | STV","players":null},{"server_id":5,"name":"Uncletopia | Frankfurt | 1 | All Maps","name_short":"frk-1","host":"frk-1.de.uncletopia.com","port":27015,"enabled":true,"region":"eu","cc":"de","latitude":50.110924,"longitude":8.682127,"reserved":0,"last_update":"0001-01-01T00:00:00Z","name_a2s":"Uncletopia | Frankfurt | 1 | All Maps","protocol":17,"map":"pl_swiftwater_final1","folder":"tf","game":"Team Fortress","app_id":440,"player_count":24,"max_players":24,"Bots":0,"server_type":"Dedicated","server_os":"Linux","password":true,"vac":true,"version":"7961495","steam_id":85568392924469989,"keywords":["nocrits","nodmgspread","payload","uncletopia"],"game_id":440,"stv_port":27016,"stv_name":"Uncletopia | Frankfurt | 1 | All Maps | STV","players":[{"user_id":331,"name":"abobus","steam_id":76561198202441870,"connected_time":1425000000000,"state":"active","ping":60},{"user_id":312,"name":"S.","steam_id":76561197999859807,"connected_time":2484000000000,"state":"active","ping":74},{"user_id":346,"name":"Rask","steam_id":76561198052934944,"connected_time":551000000000,"state":"active","ping":88},{"user_id":313,"name":"naezith","steam_id":76561198013519231,"connected_time":2468000000000,"state":"active","ping":65},{"user_id":292,"name":"peeka","steam_id":76561198221122068,"connected_time":3814000000000,"state":"active","ping":63},{"user_id":330,"name":"Relic","steam_id":76561199499093258,"connected_time":1518000000000,"state":"active","ping":43},{"user_id":334,"name":"Dangerous Andrew","steam_id":76561198067218981,"connected_time":1391000000000,"state":"active","ping":67},{"user_id":309,"name":"Zulik92","steam_id":76561198152442373,"connected_time":2617000000000,"state":"active","ping":64},{"user_id":336,"name":"AlstonSindri","steam_id":76561198042322509,"connected_time":1347000000000,"state":"active","ping":61},{"user_id":344,"name":"LivEssense","steam_id":76561198052476979,"connected_time":587000000000,"state":"active","ping":78},{"user_id":315,"name":"Banana khan (F2P)","steam_id":76561198992414056,"connected_time":2439000000000,"state":"active","ping":184},{"user_id":332,"name":"emir","steam_id":76561198113089831,"connected_time":1425000000000,"state":"active","ping":96},{"user_id":287,"name":"Lazor","steam_id":76561198310376869,"connected_time":4398000000000,"state":"active","ping":116},{"user_id":320,"name":"Pats","steam_id":76561198418538887,"connected_time":2227000000000,"state":"active","ping":91},{"user_id":335,"name":"socaramel","steam_id":76561197984480336,"connected_time":1371000000000,"state":"active","ping":80},{"user_id":317,"name":"WIZARD","steam_id":76561198199570742,"connected_time":2412000000000,"state":"active","ping":99},{"user_id":341,"name":"Elsuedi","steam_id":76561198074722832,"connected_time":974000000000,"state":"active","ping":52},{"user_id":295,"name":"Optimist 50","steam_id":76561198039631442,"connected_time":3727000000000,"state":"active","ping":81},{"user_id":340,"name":"Happy Cat","steam_id":76561198405359788,"connected_time":999000000000,"state":"active","ping":100},{"user_id":318,"name":"FWDTRKR","steam_id":76561198060369427,"connected_time":2386000000000,"state":"active","ping":141},{"user_id":324,"name":"☭TheDevilsEye☭","steam_id":76561198017379398,"connected_time":2031000000000,"state":"active","ping":77},{"user_id":342,"name":"überminze","steam_id":76561198228818228,"connected_time":721000000000,"state":"active","ping":91},{"user_id":303,"name":"JepCabestany","steam_id":76561198123812578,"connected_time":2991000000000,"state":"active","ping":90},{"user_id":345,"name":"matej","steam_id":76561198242482338,"connected_time":587000000000,"state":"active","ping":73}]},{"server_id":110,"name":"Uncletopia | Frankfurt | 2 | All Maps","name_short":"frk-2","host":"frk-1.de.uncletopia.com","port":27025,"enabled":true,"region":"eu","cc":"de","latitude":50.110924,"longitude":8.682127,"reserved":0,"last_update":"0001-01-01T00:00:00Z","name_a2s":"Uncletopia | Frankfurt | 2 | All Maps","protocol":17,"map":"pl_enclosure_final","folder":"tf","game":"Team Fortress","app_id":440,"player_count":24,"max_players":24,"Bots":0,"server_type":"Dedicated","server_os":"Linux","password":true,"vac":true,"version":"7961495","steam_id":85568392924469990,"keywords":["nocrits","nodmgspread","payload","uncletopia"],"game_id":440,"stv_port":27026,"stv_name":"Uncletopia | Frankfurt | 2 | All Maps | STV","players":[{"user_id":78,"name":"Dot","steam_id":76561198047299145,"connected_time":4576000000000,"state":"active","ping":82},{"user_id":154,"name":"Jonas","steam_id":76561198168975319,"connected_time":178000000000,"state":"active","ping":47},{"user_id":140,"name":"SpineJuice","steam_id":76561199084272069,"connected_time":1540000000000,"state":"active","ping":67},{"user_id":152,"name":"skippy","steam_id":76561198171958773,"connected_time":235000000000,"state":"active","ping":63},{"user_id":85,"name":"Happy Broccol","steam_id":76561198180667795,"connected_time":4262000000000,"state":"active","ping":72},{"user_id":136,"name":"Marxeline","steam_id":76561198315098896,"connected_time":1634000000000,"state":"active","ping":39},{"user_id":113,"name":"Solid","steam_id":76561198357049292,"connected_time":2506000000000,"state":"active","ping":83},{"user_id":124,"name":"SalCrabber deluxe","steam_id":76561198275942961,"connected_time":2202000000000,"state":"active","ping":50},{"user_id":155,"name":"swueuws","steam_id":76561198020716743,"connected_time":145000000000,"state":"active","ping":49},{"user_id":156,"name":"Damin","steam_id":76561198288156612,"connected_time":144000000000,"state":"active","ping":49},{"user_id":149,"name":"EEEEEH","steam_id":76561198126717413,"connected_time":902000000000,"state":"active","ping":75},{"user_id":108,"name":"spy among us","steam_id":76561198392537090,"connected_time":3315000000000,"state":"active","ping":50},{"user_id":146,"name":"Heavy TF2 in irl?!","steam_id":76561198082502910,"connected_time":1397000000000,"state":"active","ping":53},{"user_id":147,"name":"Hikari Katsuo","steam_id":76561198072978952,"connected_time":977000000000,"state":"active","ping":89},{"user_id":143,"name":"isak","steam_id":76561198049516430,"connected_time":1464000000000,"state":"active","ping":67},{"user_id":89,"name":"Flint Atheno","steam_id":76561198000565196,"connected_time":4184000000000,"state":"active","ping":58},{"user_id":144,"name":"doctor zero pussy","steam_id":76561198027862548,"connected_time":1443000000000,"state":"active","ping":84},{"user_id":158,"name":"mingsh'allah","steam_id":76561198254011269,"connected_time":28000000000,"state":"active","ping":92},{"user_id":117,"name":"Nie mam zamiaru się smucić","steam_id":76561198018934894,"connected_time":2364000000000,"state":"active","ping":85},{"user_id":150,"name":"Bart","steam_id":76561198276910428,"connected_time":892000000000,"state":"active","ping":84},{"user_id":157,"name":"x_o","steam_id":76561198170334258,"connected_time":103000000000,"state":"active","ping":76},{"user_id":151,"name":"Quantum","steam_id":76561198401018345,"connected_time":829000000000,"state":"active","ping":90},{"user_id":145,"name":"grimbus","steam_id":76561198140431949,"connected_time":1439000000000,"state":"active","ping":70},{"user_id":101,"name":"Dirocks","steam_id":76561198138494815,"connected_time":3642000000000,"state":"active","ping":75}]},{"server_id":308,"name":"Uncletopia | Frankfurt | 3 | All Maps","name_short":"frk-3","host":"frk-1.de.uncletopia.com","port":27035,"enabled":true,"region":"eu","cc":"de","latitude":50.110924,"longitude":8.682127,"reserved":0,"last_update":"0001-01-01T00:00:00Z","name_a2s":"Uncletopia | Frankfurt | 3 | All Maps","protocol":17,"map":"koth_cascade","folder":"tf","game":"Team Fortress","app_id":440,"player_count":0,"max_players":24,"Bots":0,"server_type":"Dedicated","server_os":"Linux","password":true,"vac":true,"version":"7961495","steam_id":85568392924504274,"keywords":["cp","nocrits","nodmgspread","uncletopia"],"game_id":440,"stv_port":27036,"stv_name":"Uncletopia | Frankfurt | 3 | All Maps | STV","players":null},{"server_id":309,"name":"Uncletopia | Frankfurt | 4 | All Maps","name_short":"frk-4","host":"frk-1.de.uncletopia.com","port":27045,"enabled":true,"region":"eu","cc":"de","latitude":50.110924,"longitude":8.682127,"reserved":0,"last_update":"0001-01-01T00:00:00Z","name_a2s":"Uncletopia | Frankfurt | 4 | All Maps","protocol":17,"map":"koth_cascade","folder":"tf","game":"Team Fortress","app_id":440,"player_count":0,"max_players":24,"Bots":0,"server_type":"Dedicated","server_os":"Linux","password":true,"vac":true,"version":"7961495","steam_id":85568392924504275,"keywords":["cp","nocrits","nodmgspread","uncletopia"],"game_id":440,"stv_port":27046,"stv_name":"Uncletopia | Frankfurt | 4 | All Maps | STV","players":null},{"server_id":310,"name":"Uncletopia | Frankfurt | 5 | All Maps","name_short":"frk-5","host":"frk-1.de.uncletopia.com","port":27055,"enabled":true,"region":"eu","cc":"de","latitude":50.110924,"longitude":8.682127,"reserved":0,"last_update":"0001-01-01T00:00:00Z","name_a2s":"Uncletopia | Frankfurt | 5 | All Maps","protocol":17,"map":"pl_borneo","folder":"tf","game":"Team Fortress","app_id":440,"player_count":24,"max_players":24,"Bots":0,"server_type":"Dedicated","server_os":"Linux","password":true,"vac":true,"version":"7961495","steam_id":85568392924504277,"keywords":["nocrits","nodmgspread","payload","uncletopia"],"game_id":440,"stv_port":27056,"stv_name":"Uncletopia | Frankfurt | 5 | All Maps | STV","players":[{"user_id":174,"name":"Lynx","steam_id":76561199274008207,"connected_time":164000000000,"state":"active","ping":72},{"user_id":139,"name":"Fatmagic Mukbang ASMR","steam_id":76561198063492110,"connected_time":1700000000000,"state":"active","ping":86},{"user_id":153,"name":"Chopperson_","steam_id":76561198873728497,"connected_time":833000000000,"state":"active","ping":109},{"user_id":172,"name":"beno","steam_id":76561198152146711,"connected_time":246000000000,"state":"active","ping":63},{"user_id":143,"name":"Ripulihobitti69[FIN]","steam_id":76561198102003678,"connected_time":1428000000000,"state":"active","ping":83},{"user_id":125,"name":"MackPack","steam_id":76561198104243355,"connected_time":3085000000000,"state":"active","ping":57},{"user_id":161,"name":"TheKees301","steam_id":76561198827506371,"connected_time":574000000000,"state":"active","ping":71},{"user_id":163,"name":"DreamVerse","steam_id":76561198182153475,"connected_time":519000000000,"state":"active","ping":65},{"user_id":170,"name":"Scandinavian sleeping and livin","steam_id":76561198241982958,"connected_time":304000000000,"state":"active","ping":96},{"user_id":124,"name":"cl","steam_id":76561199436640904,"connected_time":3125000000000,"state":"active","ping":74},{"user_id":164,"name":"Lödde","steam_id":76561198274165770,"connected_time":423000000000,"state":"active","ping":68},{"user_id":162,"name":"Cock Man","steam_id":76561198283638723,"connected_time":542000000000,"state":"active","ping":68},{"user_id":113,"name":"RiX","steam_id":76561197969053733,"connected_time":4266000000000,"state":"active","ping":69},{"user_id":166,"name":"Anti4life","steam_id":76561198836208242,"connected_time":395000000000,"state":"active","ping":81},{"user_id":126,"name":"SpiGo","steam_id":76561198051069962,"connected_time":3085000000000,"state":"active","ping":66},{"user_id":168,"name":"Alexandrovich","steam_id":76561199386822589,"connected_time":373000000000,"state":"active","ping":65},{"user_id":144,"name":"TheMerchant","steam_id":76561198133664392,"connected_time":1128000000000,"state":"active","ping":54},{"user_id":78,"name":"Ketich","steam_id":76561198021772703,"connected_time":6695000000000,"state":"active","ping":73},{"user_id":128,"name":"s a i","steam_id":76561197970379754,"connected_time":3059000000000,"state":"active","ping":51},{"user_id":157,"name":"akakez","steam_id":76561198095432821,"connected_time":777000000000,"state":"active","ping":112},{"user_id":152,"name":"daan0590","steam_id":76561198835887234,"connected_time":849000000000,"state":"active","ping":45},{"user_id":171,"name":"qbertyqube#SaveTF2","steam_id":76561199249049284,"connected_time":298000000000,"state":"active","ping":90},{"user_id":131,"name":"fénix","steam_id":76561198083199151,"connected_time":2626000000000,"state":"active","ping":65},{"user_id":141,"name":"Mark31","steam_id":76561198154280177,"connected_time":1506000000000,"state":"active","ping":86}]},{"server_id":311,"name":"Uncletopia | Frankfurt | 6 | All Maps","name_short":"frk-6","host":"frk-1.de.uncletopia.com","port":27065,"enabled":true,"region":"eu","cc":"de","latitude":50.110924,"longitude":8.682127,"reserved":0,"last_update":"0001-01-01T00:00:00Z","name_a2s":"Uncletopia | Frankfurt | 6 | All Maps","protocol":17,"map":"koth_cascade","folder":"tf","game":"Team Fortress","app_id":440,"player_count":14,"max_players":24,"Bots":0,"server_type":"Dedicated","server_os":"Linux","password":true,"vac":true,"version":"7961495","steam_id":85568392924504278,"keywords":["cp","nocrits","nodmgspread","uncletopia"],"game_id":440,"stv_port":27066,"stv_name":"Uncletopia | Frankfurt | 6 | All Maps | STV","players":[{"user_id":33,"name":"minespweper","steam_id":76561199096919345,"connected_time":84000000000,"state":"active","ping":97},{"user_id":14,"name":"Stu","steam_id":76561198131449281,"connected_time":1036000000000,"state":"active","ping":47},{"user_id":15,"name":"Skunqu_","steam_id":76561198075654523,"connected_time":898000000000,"state":"active","ping":96},{"user_id":17,"name":"Tengen","steam_id":76561199356990346,"connected_time":778000000000,"state":"active","ping":98},{"user_id":31,"name":"Taconice","steam_id":76561198057812100,"connected_time":173000000000,"state":"active","ping":76},{"user_id":19,"name":"Lordware","steam_id":76561198022011299,"connected_time":684000000000,"state":"active","ping":103},{"user_id":21,"name":"Katom_lims","steam_id":76561199092421600,"connected_time":542000000000,"state":"active","ping":86},{"user_id":32,"name":"Dr. Le Quack","steam_id":76561197995711176,"connected_time":157000000000,"state":"active","ping":71},{"user_id":23,"name":"Sex Man TF2","steam_id":76561198798657045,"connected_time":465000000000,"state":"active","ping":62},{"user_id":29,"name":"Rocket²","steam_id":76561198305856721,"connected_time":253000000000,"state":"active","ping":85},{"user_id":27,"name":"Шапка #TF2Center","steam_id":76561198368792603,"connected_time":331000000000,"state":"active","ping":59},{"user_id":28,"name":"Sranoc","steam_id":76561198186795363,"connected_time":309000000000,"state":"active","ping":82},{"user_id":34,"name":"kyzzbotrue","steam_id":76561199213289839,"connected_time":45000000000,"state":"active","ping":116},{"user_id":35,"name":"Qdarks","steam_id":76561198013391340,"connected_time":33000000000,"state":"active","ping":130}]},{"server_id":23,"name":"Uncletopia | Frankfurt | 7 | Stopwatch","name_short":"frk-7","host":"frk-1.de.uncletopia.com","port":27075,"enabled":true,"region":"eu","cc":"de","latitude":50.110924,"longitude":8.682127,"reserved":0,"last_update":"0001-01-01T00:00:00Z","name_a2s":"Uncletopia | Frankfurt | 7 | Stopwatch","protocol":17,"map":"workshop/pl_summercoast_rc8e.ugc1761528829","folder":"tf","game":"Team Fortress","app_id":440,"player_count":0,"max_players":24,"Bots":0,"server_type":"Dedicated","server_os":"Linux","password":true,"vac":true,"version":"7961495","steam_id":85568392924742827,"keywords":["nocrits","nodmgspread","payload","uncletopia"],"game_id":440,"stv_port":27076,"stv_name":"Uncletopia | Frankfurt | 7 | Stopwatch | STV","players":null},{"server_id":24,"name":"Uncletopia | Frankfurt | 8 | Community","name_short":"frk-8","host":"frk-1.de.uncletopia.com","port":27085,"enabled":true,"region":"eu","cc":"de","latitude":50.110924,"longitude":8.682127,"reserved":0,"last_update":"0001-01-01T00:00:00Z","name_a2s":"Uncletopia | Frankfurt | 8 | Community","protocol":17,"map":"workshop/koth_kemptown_rc1.ugc767410655","folder":"tf","game":"Team Fortress","app_id":440,"player_count":0,"max_players":24,"Bots":0,"server_type":"Dedicated","server_os":"Linux","password":true,"vac":true,"version":"7961495","steam_id":85568392924742828,"keywords":["cp","nocrits","nodmgspread","uncletopia"],"game_id":440,"stv_port":27086,"stv_name":"Uncletopia | Frankfurt | 8 | Community | STV","players":null},{"server_id":202,"name":"Uncletopia | Hong Kong | 1 | All Maps","name_short":"hgk-1","host":"hgk-1.hk.uncletopia.com","port":27015,"enabled":true,"region":"asia","cc":"hk","latitude":22.302711,"longitude":114.177216,"reserved":0,"last_update":"0001-01-01T00:00:00Z","name_a2s":"Uncletopia | Hong Kong | 1 | All Maps","protocol":17,"map":"pl_upward","folder":"tf","game":"Team Fortress","app_id":440,"player_count":0,"max_players":24,"Bots":0,"server_type":"Dedicated","server_os":"Linux","password":true,"vac":true,"version":"7961495","steam_id":85568392924494504,"keywords":["nocrits","nodmgspread","payload","uncletopia"],"game_id":440,"stv_port":27016,"stv_name":"Uncletopia | Hong Kong | 1 | All Maps | STV","players":null},{"server_id":1,"name":"Uncletopia | Los Angeles | 1 | All Maps","name_short":"lax-1","host":"lax-1.us.uncletopia.com","port":27015,"enabled":true,"region":"us-west","cc":"us","latitude":33.94279,"longitude":-118.41004,"reserved":0,"last_update":"0001-01-01T00:00:00Z","name_a2s":"Uncletopia | Los Angeles | 1 | All Maps","protocol":17,"map":"pl_snowycoast","folder":"tf","game":"Team Fortress","app_id":440,"player_count":0,"max_players":24,"Bots":0,"server_type":"Dedicated","server_os":"Linux","password":true,"vac":true,"version":"7961495","steam_id":85568392924469991,"keywords":["nocrits","nodmgspread","payload","uncletopia"],"game_id":440,"stv_port":27016,"stv_name":"Uncletopia | Los Angeles | 1 | All Maps | STV","players":null},{"server_id":112,"name":"Uncletopia | Los Angeles | 2 | All Maps","name_short":"lax-2","host":"lax-1.us.uncletopia.com","port":27025,"enabled":true,"region":"us-west","cc":"us","latitude":33.94279,"longitude":-118.41004,"reserved":0,"last_update":"0001-01-01T00:00:00Z","name_a2s":"Uncletopia | Los Angeles | 2 | All Maps","protocol":17,"map":"cp_mountainlab","folder":"tf","game":"Team Fortress","app_id":440,"player_count":0,"max_players":24,"Bots":0,"server_type":"Dedicated","server_os":"Linux","password":true,"vac":true,"version":"7961495","steam_id":85568392924469992,"keywords":["cp","nocrits","nodmgspread","uncletopia"],"game_id":440,"stv_port":27026,"stv_name":"Uncletopia | Los Angeles | 2 | All Maps | STV","players":null},{"server_id":324,"name":"Uncletopia | Los Angeles | 3 | All Maps","name_short":"lax-3","host":"lax-1.us.uncletopia.com","port":27035,"enabled":true,"region":"us-west","cc":"us","latitude":33.94279,"longitude":-118.41004,"reserved":0,"last_update":"0001-01-01T00:00:00Z","name_a2s":"Uncletopia | Los Angeles | 3 | All Maps","protocol":17,"map":"pl_frontier_final","folder":"tf","game":"Team Fortress","app_id":440,"player_count":0,"max_players":24,"Bots":0,"server_type":"Dedicated","server_os":"Linux","password":true,"vac":true,"version":"7961495","steam_id":85568392924510198,"keywords":["nocrits","nodmgspread","payload","uncletopia"],"game_id":440,"stv_port":27036,"stv_name":"Uncletopia | Los Angeles | 3 | All Maps | STV","players":null},{"server_id":25,"name":"Uncletopia | Los Angeles | 4 | Stopwatch","name_short":"lax-4","host":"lax-1.us.uncletopia.com","port":27045,"enabled":true,"region":"us-west","cc":"us","latitude":33.94279,"longitude":-118.41004,"reserved":0,"last_update":"0001-01-01T00:00:00Z","name_a2s":"Uncletopia | Los Angeles | 4 | Stopwatch","protocol":17,"map":"cp_snakewater_final1","folder":"tf","game":"Team Fortress","app_id":440,"player_count":0,"max_players":24,"Bots":0,"server_type":"Dedicated","server_os":"Linux","password":true,"vac":true,"version":"7961495","steam_id":85568392924510199,"keywords":["cp","nocrits","nodmgspread","uncletopia"],"game_id":440,"stv_port":27046,"stv_name":"Uncletopia | Los Angeles | 4 | Stopwatch | STV","players":null},{"server_id":11,"name":"Uncletopia | London | 1 | All Maps","name_short":"lon-1","host":"lon-1.uk.uncletopia.com","port":27015,"enabled":true,"region":"eu","cc":"gb","latitude":51.509865,"longitude":-0.118092,"reserved":0,"last_update":"0001-01-01T00:00:00Z","name_a2s":"Uncletopia | London | 1 | All Maps","protocol":17,"map":"pl_swiftwater_final1","folder":"tf","game":"Team Fortress","app_id":440,"player_count":23,"max_players":24,"Bots":0,"server_type":"Dedicated","server_os":"Linux","password":true,"vac":true,"version":"7961495","steam_id":85568392924367362,"keywords":["nocrits","nodmgspread","payload","uncletopia"],"game_id":440,"stv_port":27016,"stv_name":"Uncletopia | London | 1 | All Maps | STV","players":[{"user_id":427,"name":"sosor","steam_id":76561199121520983,"connected_time":184000000000,"state":"active","ping":38},{"user_id":428,"name":"angler","steam_id":76561198160202087,"connected_time":161000000000,"state":"active","ping":61},{"user_id":429,"name":"Steven Toast","steam_id":76561198109943492,"connected_time":122000000000,"state":"active","ping":48},{"user_id":340,"name":"Morno","steam_id":76561198028519110,"connected_time":7167000000000,"state":"active","ping":47},{"user_id":423,"name":"Kahvi","steam_id":76561198723244199,"connected_time":468000000000,"state":"active","ping":76},{"user_id":394,"name":"cock buzzler","steam_id":76561198015876799,"connected_time":2173000000000,"state":"active","ping":72},{"user_id":430,"name":"tekszi","steam_id":76561198107220903,"connected_time":105000000000,"state":"active","ping":60},{"user_id":424,"name":"tony","steam_id":76561199382978934,"connected_time":362000000000,"state":"active","ping":80},{"user_id":396,"name":"icymelon","steam_id":76561198072239175,"connected_time":2159000000000,"state":"active","ping":51},{"user_id":426,"name":"Jude!","steam_id":76561197983597798,"connected_time":200000000000,"state":"active","ping":44},{"user_id":417,"name":"Klorophyte","steam_id":76561198885112655,"connected_time":835000000000,"state":"active","ping":99},{"user_id":390,"name":"shooer!","steam_id":76561198110531281,"connected_time":2682000000000,"state":"active","ping":70},{"user_id":341,"name":"Nisio","steam_id":76561198079373727,"connected_time":7162000000000,"state":"active","ping":54},{"user_id":397,"name":"✪ Danny","steam_id":76561198104483241,"connected_time":2147000000000,"state":"active","ping":56},{"user_id":364,"name":"Riman-Shwartz Abuzer","steam_id":76561198054279487,"connected_time":5583000000000,"state":"active","ping":145},{"user_id":421,"name":"Bobo","steam_id":76561198052308399,"connected_time":630000000000,"state":"active","ping":70},{"user_id":431,"name":"Clem Fandango","steam_id":76561198267906494,"connected_time":100000000000,"state":"active","ping":70},{"user_id":402,"name":"Penis Contortionist","steam_id":76561198073663784,"connected_time":1989000000000,"state":"active","ping":42},{"user_id":407,"name":"most sane mentalist","steam_id":76561198310095220,"connected_time":1669000000000,"state":"active","ping":34},{"user_id":416,"name":"Kumihari","steam_id":76561198380374523,"connected_time":959000000000,"state":"active","ping":58},{"user_id":419,"name":"TheEventGuy","steam_id":76561197972797744,"connected_time":704000000000,"state":"active","ping":75},{"user_id":433,"name":"ultrakill plug enjoyer","steam_id":76561198095560087,"connected_time":79000000000,"state":"active","ping":85},{"user_id":435,"name":"Purple Soup :D","steam_id":76561198985100366,"connected_time":53000000000,"state":"active","ping":189}]},{"server_id":114,"name":"Uncletopia | London | 2 | All Maps","name_short":"lon-2","host":"lon-1.uk.uncletopia.com","port":27025,"enabled":true,"region":"eu","cc":"gb","latitude":51.509865,"longitude":-0.118092,"reserved":0,"last_update":"0001-01-01T00:00:00Z","name_a2s":"Uncletopia | London | 2 | All Maps","protocol":17,"map":"pl_snowycoast","folder":"tf","game":"Team Fortress","app_id":440,"player_count":21,"max_players":24,"Bots":0,"server_type":"Dedicated","server_os":"Linux","password":true,"vac":true,"version":"7961495","steam_id":85568392924470941,"keywords":["nocrits","nodmgspread","payload","uncletopia"],"game_id":440,"stv_port":27026,"stv_name":"Uncletopia | London | 2 | All Maps | STV","players":[{"user_id":564,"name":"sv_MrGibbs","steam_id":76561198114071972,"connected_time":1776000000000,"state":"active","ping":45},{"user_id":393,"name":"SuntanPikachu","steam_id":76561198121242476,"connected_time":14039000000000,"state":"active","ping":56},{"user_id":585,"name":"Kruzma","steam_id":76561198998875641,"connected_time":532000000000,"state":"active","ping":90},{"user_id":589,"name":"bum","steam_id":76561198067678158,"connected_time":173000000000,"state":"active","ping":34},{"user_id":573,"name":"slow learner","steam_id":76561198036730191,"connected_time":1375000000000,"state":"active","ping":30},{"user_id":560,"name":"Crayon","steam_id":76561198004572519,"connected_time":2015000000000,"state":"active","ping":39},{"user_id":582,"name":"Penguinmark","steam_id":76561199057089501,"connected_time":573000000000,"state":"active","ping":119},{"user_id":551,"name":"john fortress","steam_id":76561198013237629,"connected_time":2941000000000,"state":"active","ping":100},{"user_id":536,"name":"Mike","steam_id":76561198228455736,"connected_time":4247000000000,"state":"active","ping":50},{"user_id":464,"name":"i hack smart refrigerators","steam_id":76561199265289808,"connected_time":8397000000000,"state":"active","ping":117},{"user_id":517,"name":"55555","steam_id":76561199060683386,"connected_time":5176000000000,"state":"active","ping":64},{"user_id":581,"name":"Zanryiel","steam_id":76561198120723872,"connected_time":602000000000,"state":"active","ping":78},{"user_id":587,"name":"meta1","steam_id":76561198087824752,"connected_time":483000000000,"state":"active","ping":44},{"user_id":583,"name":"Kernel Panic","steam_id":76561198215811047,"connected_time":571000000000,"state":"active","ping":39},{"user_id":571,"name":"sokige","steam_id":76561198167112371,"connected_time":1516000000000,"state":"active","ping":98},{"user_id":527,"name":"r0la","steam_id":76561198128315340,"connected_time":4814000000000,"state":"active","ping":84},{"user_id":588,"name":"Man O' Steel","steam_id":76561198108612758,"connected_time":304000000000,"state":"active","ping":60},{"user_id":584,"name":"SnowShot","steam_id":76561198004766638,"connected_time":558000000000,"state":"active","ping":77},{"user_id":567,"name":"Temp0_ ♥","steam_id":76561198162068639,"connected_time":1751000000000,"state":"active","ping":60},{"user_id":526,"name":"DXD Tech","steam_id":76561198358379587,"connected_time":4951000000000,"state":"active","ping":86},{"user_id":568,"name":"tired","steam_id":76561198046838168,"connected_time":1733000000000,"state":"active","ping":60}]},{"server_id":320,"name":"Uncletopia | London | 3 | All Maps","name_short":"lon-3","host":"lon-1.uk.uncletopia.com","port":27035,"enabled":true,"region":"eu","cc":"gb","latitude":51.509865,"longitude":-0.118092,"reserved":0,"last_update":"0001-01-01T00:00:00Z","name_a2s":"Uncletopia | London | 3 | All Maps","protocol":17,"map":"cp_process_final","folder":"tf","game":"Team Fortress","app_id":440,"player_count":23,"max_players":24,"Bots":0,"server_type":"Dedicated","server_os":"Linux","password":true,"vac":true,"version":"7961495","steam_id":85568392924510192,"keywords":["cp","nocrits","nodmgspread","uncletopia"],"game_id":440,"stv_port":27036,"stv_name":"Uncletopia | London | 3 | All Maps | STV","players":[{"user_id":305,"name":"Hildreth","steam_id":76561197995254867,"connected_time":1736000000000,"state":"active","ping":50},{"user_id":284,"name":"WEEN | :0","steam_id":76561198073607799,"connected_time":3059000000000,"state":"active","ping":70},{"user_id":306,"name":"Kumori","steam_id":76561198016333163,"connected_time":1725000000000,"state":"active","ping":122},{"user_id":307,"name":"NESS","steam_id":76561197995225318,"connected_time":1693000000000,"state":"active","ping":47},{"user_id":308,"name":"pippopipipio","steam_id":76561198148059714,"connected_time":1667000000000,"state":"active","ping":117},{"user_id":320,"name":"Falco","steam_id":76561199061187430,"connected_time":1273000000000,"state":"active","ping":58},{"user_id":333,"name":"Implywood (they/them)","steam_id":76561198096762648,"connected_time":337000000000,"state":"active","ping":59},{"user_id":332,"name":"yuno appreciator","steam_id":76561198083286511,"connected_time":381000000000,"state":"active","ping":44},{"user_id":311,"name":"Major","steam_id":76561198086483282,"connected_time":1653000000000,"state":"active","ping":48},{"user_id":301,"name":"cisgender clown","steam_id":76561199469909295,"connected_time":2399000000000,"state":"active","ping":75},{"user_id":321,"name":"Durin sein Vater","steam_id":76561198021246713,"connected_time":1239000000000,"state":"active","ping":48},{"user_id":335,"name":"guts2115/rip take","steam_id":76561198202741199,"connected_time":245000000000,"state":"active","ping":64},{"user_id":319,"name":"N00BCSF","steam_id":76561198035530934,"connected_time":1408000000000,"state":"active","ping":75},{"user_id":315,"name":"Fat Pigeon","steam_id":76561198817940142,"connected_time":1610000000000,"state":"active","ping":56},{"user_id":323,"name":"Rodia","steam_id":76561197968293161,"connected_time":1111000000000,"state":"active","ping":74},{"user_id":316,"name":"very_cool_gamer","steam_id":76561199376433147,"connected_time":1606000000000,"state":"active","ping":54},{"user_id":325,"name":"King Goomba","steam_id":76561198146467813,"connected_time":793000000000,"state":"active","ping":68},{"user_id":328,"name":"gg player","steam_id":76561198341062380,"connected_time":693000000000,"state":"active","ping":120},{"user_id":299,"name":"Balrog","steam_id":76561199050986314,"connected_time":2599000000000,"state":"active","ping":66},{"user_id":326,"name":"TheMightyOppressor","steam_id":76561198047461974,"connected_time":726000000000,"state":"active","ping":45},{"user_id":302,"name":"Princess Peach","steam_id":76561198260272240,"connected_time":2367000000000,"state":"active","ping":51},{"user_id":318,"name":"Faxter","steam_id":76561198011771605,"connected_time":1545000000000,"state":"active","ping":66},{"user_id":330,"name":"MudFlap","steam_id":76561198257541676,"connected_time":641000000000,"state":"active","ping":98}]},{"server_id":321,"name":"Uncletopia | London | 4 | All Maps","name_short":"lon-4","host":"lon-1.uk.uncletopia.com","port":27045,"enabled":true,"region":"eu","cc":"gb","latitude":51.509865,"longitude":-0.118092,"reserved":0,"last_update":"0001-01-01T00:00:00Z","name_a2s":"Uncletopia | London | 4 | All Maps","protocol":17,"map":"pl_hoodoo_final","folder":"tf","game":"Team Fortress","app_id":440,"player_count":24,"max_players":24,"Bots":0,"server_type":"Dedicated","server_os":"Linux","password":true,"vac":true,"version":"7961495","steam_id":85568392924510193,"keywords":["nocrits","nodmgspread","payload","uncletopia"],"game_id":440,"stv_port":27046,"stv_name":"Uncletopia | London | 4 | All Maps | STV","players":[{"user_id":284,"name":"alpha","steam_id":76561198250491640,"connected_time":895000000000,"state":"active","ping":42},{"user_id":297,"name":"✡Cpruin✡","steam_id":76561198184924239,"connected_time":55000000000,"state":"active","ping":70},{"user_id":276,"name":"ShawnDawn2","steam_id":76561198165013522,"connected_time":1531000000000,"state":"active","ping":34},{"user_id":270,"name":"Aunty Fungal Creme","steam_id":76561198046591088,"connected_time":1635000000000,"state":"active","ping":69},{"user_id":291,"name":"ₔkacper2010sₔ","steam_id":76561199074731477,"connected_time":466000000000,"state":"active","ping":105},{"user_id":261,"name":"Rockpig","steam_id":76561198066421407,"connected_time":1936000000000,"state":"active","ping":53},{"user_id":298,"name":"BepisR47","steam_id":76561198084515716,"connected_time":51000000000,"state":"active","ping":33},{"user_id":242,"name":"Snokie Boi","steam_id":76561198081126247,"connected_time":3155000000000,"state":"active","ping":51},{"user_id":293,"name":"Pan Piotr","steam_id":76561198140016126,"connected_time":289000000000,"state":"active","ping":80},{"user_id":278,"name":"iuh","steam_id":76561199213901239,"connected_time":1448000000000,"state":"active","ping":55},{"user_id":263,"name":"dfcv rftgvb ghtb","steam_id":76561198397764042,"connected_time":1887000000000,"state":"active","ping":102},{"user_id":279,"name":"Skuld","steam_id":76561198064734905,"connected_time":1140000000000,"state":"active","ping":93},{"user_id":264,"name":"Scooterboy","steam_id":76561198071705499,"connected_time":1874000000000,"state":"active","ping":46},{"user_id":275,"name":"Conan","steam_id":76561198158321202,"connected_time":1565000000000,"state":"active","ping":54},{"user_id":294,"name":"UltimateAura","steam_id":76561198338361324,"connected_time":249000000000,"state":"active","ping":44},{"user_id":267,"name":"Spongelica Slobblecoque","steam_id":76561198009072273,"connected_time":1747000000000,"state":"active","ping":61},{"user_id":296,"name":"Kraken","steam_id":76561198203568537,"connected_time":173000000000,"state":"active","ping":86},{"user_id":268,"name":"Malbrus","steam_id":76561198054454837,"connected_time":1684000000000,"state":"active","ping":117},{"user_id":283,"name":"cipherrephic","steam_id":76561198453630258,"connected_time":932000000000,"state":"active","ping":66},{"user_id":295,"name":"Lackryx","steam_id":76561198313256505,"connected_time":191000000000,"state":"active","ping":70},{"user_id":248,"name":"kinimon","steam_id":76561198178453270,"connected_time":3068000000000,"state":"active","ping":42},{"user_id":269,"name":"Silly-Brained Sh3ba","steam_id":76561198047412394,"connected_time":1675000000000,"state":"active","ping":149},{"user_id":255,"name":"Proofmean","steam_id":76561198878552103,"connected_time":2823000000000,"state":"active","ping":49},{"user_id":280,"name":"jù xiē","steam_id":76561198096189399,"connected_time":1107000000000,"state":"active","ping":71}]},{"server_id":21,"name":"Uncletopia | London | 5 | All Maps","name_short":"lon-5","host":"lon-1.uk.uncletopia.com","port":27055,"enabled":true,"region":"eu","cc":"gb","latitude":51.509865,"longitude":-0.118092,"reserved":0,"last_update":"0001-01-01T00:00:00Z","name_a2s":"Uncletopia | London | 5 | All Maps","protocol":17,"map":"pl_borneo","folder":"tf","game":"Team Fortress","app_id":440,"player_count":24,"max_players":24,"Bots":0,"server_type":"Dedicated","server_os":"Linux","password":true,"vac":true,"version":"7961495","steam_id":85568392924742829,"keywords":["nocrits","nodmgspread","payload","uncletopia"],"game_id":440,"stv_port":27056,"stv_name":"Uncletopia | London | 5 | All Maps | STV","players":[{"user_id":132,"name":"Spoon ½","steam_id":76561198032696548,"connected_time":3368000000000,"state":"active","ping":78},{"user_id":171,"name":"Weeeeeeev","steam_id":76561198051802036,"connected_time":1234000000000,"state":"active","ping":41},{"user_id":177,"name":"Amandus","steam_id":76561198036281079,"connected_time":655000000000,"state":"active","ping":62},{"user_id":157,"name":"Sparrose","steam_id":76561199050235461,"connected_time":1834000000000,"state":"active","ping":80},{"user_id":158,"name":"Zanyevu","steam_id":76561199090655331,"connected_time":1802000000000,"state":"active","ping":98},{"user_id":179,"name":"fazer","steam_id":76561199121283698,"connected_time":635000000000,"state":"active","ping":59},{"user_id":150,"name":"Andrea","steam_id":76561199487380678,"connected_time":2538000000000,"state":"active","ping":113},{"user_id":160,"name":"0xDEADBEEF","steam_id":76561199075416111,"connected_time":1643000000000,"state":"active","ping":88},{"user_id":170,"name":"Maltor","steam_id":76561198023529855,"connected_time":1271000000000,"state":"active","ping":81},{"user_id":180,"name":"Cream","steam_id":76561198204266952,"connected_time":626000000000,"state":"active","ping":95},{"user_id":176,"name":"mq","steam_id":76561198091888948,"connected_time":665000000000,"state":"active","ping":47},{"user_id":181,"name":"Tattletails","steam_id":76561198055690341,"connected_time":608000000000,"state":"active","ping":62},{"user_id":178,"name":"Oriuke","steam_id":76561197992166123,"connected_time":653000000000,"state":"active","ping":54},{"user_id":144,"name":"jona3838","steam_id":76561199097658195,"connected_time":2868000000000,"state":"active","ping":118},{"user_id":151,"name":"beamed rattatah","steam_id":76561198153184682,"connected_time":2531000000000,"state":"active","ping":143},{"user_id":126,"name":"Ryan Gosling (Literally me)","steam_id":76561198438150893,"connected_time":3569000000000,"state":"active","ping":112},{"user_id":162,"name":"Proud Jojo Fan #TF2SP","steam_id":76561198847327216,"connected_time":1640000000000,"state":"active","ping":74},{"user_id":169,"name":"Slimy","steam_id":76561199486144618,"connected_time":1389000000000,"state":"active","ping":94},{"user_id":182,"name":"Frozone","steam_id":76561198323311393,"connected_time":607000000000,"state":"active","ping":70},{"user_id":164,"name":":)","steam_id":76561198039964082,"connected_time":1617000000000,"state":"active","ping":61},{"user_id":183,"name":"aaron","steam_id":76561198388750592,"connected_time":148000000000,"state":"active","ping":162},{"user_id":148,"name":"w+m1","steam_id":76561198010428082,"connected_time":2643000000000,"state":"active","ping":75},{"user_id":174,"name":"bluecheesemints","steam_id":76561199490357988,"connected_time":981000000000,"state":"active","ping":56},{"user_id":184,"name":"woople","steam_id":76561198076625889,"connected_time":143000000000,"state":"active","ping":85}]},{"server_id":22,"name":"Uncletopia | London | 6 | All Maps","name_short":"lon-6","host":"lon-1.uk.uncletopia.com","port":27065,"enabled":true,"region":"eu","cc":"gb","latitude":51.509865,"longitude":-0.118092,"reserved":0,"last_update":"0001-01-01T00:00:00Z","name_a2s":"Uncletopia | London | 6 | All Maps","protocol":17,"map":"pl_upward","folder":"tf","game":"Team Fortress","app_id":440,"player_count":24,"max_players":24,"Bots":0,"server_type":"Dedicated","server_os":"Linux","password":true,"vac":true,"version":"7961495","steam_id":85568392924742830,"keywords":["nocrits","nodmgspread","payload","uncletopia"],"game_id":440,"stv_port":27066,"stv_name":"Uncletopia | London | 6 | All Maps | STV","players":[{"user_id":45,"name":"Doecheldorf","steam_id":76561198291628630,"connected_time":3759000000000,"state":"active","ping":58},{"user_id":85,"name":"lion king 5 the reckoning","steam_id":76561198041040598,"connected_time":976000000000,"state":"active","ping":89},{"user_id":61,"name":"thussu","steam_id":76561198890409949,"connected_time":2751000000000,"state":"active","ping":106},{"user_id":35,"name":"Several geollos screaming","steam_id":76561198291326102,"connected_time":4569000000000,"state":"active","ping":51},{"user_id":80,"name":"TreatFly","steam_id":76561198069707362,"connected_time":1387000000000,"state":"active","ping":55},{"user_id":69,"name":"lillunya ♡","steam_id":76561198330418866,"connected_time":2061000000000,"state":"active","ping":73},{"user_id":81,"name":"confusion","steam_id":76561199199499453,"connected_time":1050000000000,"state":"active","ping":86},{"user_id":21,"name":"CAL","steam_id":76561199217717138,"connected_time":4810000000000,"state":"active","ping":65},{"user_id":97,"name":"Matis","steam_id":76561198150822063,"connected_time":237000000000,"state":"active","ping":77},{"user_id":92,"name":"thia","steam_id":76561198186366599,"connected_time":553000000000,"state":"active","ping":88},{"user_id":88,"name":"waffle toaster","steam_id":76561198799089628,"connected_time":956000000000,"state":"active","ping":45},{"user_id":79,"name":"Jean-Marie D'hermoz","steam_id":76561198243205796,"connected_time":1641000000000,"state":"active","ping":63},{"user_id":82,"name":"Haschgott 2.0","steam_id":76561198049820307,"connected_time":1037000000000,"state":"active","ping":69},{"user_id":94,"name":"Alekk","steam_id":76561198093533143,"connected_time":427000000000,"state":"active","ping":71},{"user_id":73,"name":"Gohan","steam_id":76561198064498302,"connected_time":1977000000000,"state":"active","ping":69},{"user_id":98,"name":"fiddlesticks","steam_id":76561198155229347,"connected_time":158000000000,"state":"active","ping":33},{"user_id":31,"name":"Dagoth Ur","steam_id":76561198220232352,"connected_time":4660000000000,"state":"active","ping":46},{"user_id":50,"name":"Eric Catman","steam_id":76561198802117294,"connected_time":3585000000000,"state":"active","ping":69},{"user_id":93,"name":"FPFP","steam_id":76561198026073059,"connected_time":450000000000,"state":"active","ping":89},{"user_id":75,"name":"torn","steam_id":76561198223003236,"connected_time":1923000000000,"state":"active","ping":38},{"user_id":63,"name":"Ziltoid","steam_id":76561198020753675,"connected_time":2336000000000,"state":"active","ping":82},{"user_id":95,"name":"awesome rat","steam_id":76561198252656316,"connected_time":402000000000,"state":"active","ping":71},{"user_id":96,"name":"M1rkus","steam_id":76561198171215447,"connected_time":402000000000,"state":"active","ping":79},{"user_id":78,"name":"Locke","steam_id":76561198339408300,"connected_time":1897000000000,"state":"active","ping":62}]},{"server_id":40,"name":"Uncletopia | London | 7 | Stopwatch","name_short":"lon-7","host":"lon-1.uk.uncletopia.com","port":27075,"enabled":true,"region":"eu","cc":"gb","latitude":51.509865,"longitude":-0.118092,"reserved":0,"last_update":"0001-01-01T00:00:00Z","name_a2s":"Uncletopia | London | 7 | Stopwatch","protocol":17,"map":"pl_upward","folder":"tf","game":"Team Fortress","app_id":440,"player_count":0,"max_players":24,"Bots":0,"server_type":"Dedicated","server_os":"Linux","password":true,"vac":true,"version":"7961495","steam_id":85568392924964314,"keywords":["nocrits","nodmgspread","payload","uncletopia"],"game_id":440,"stv_port":27076,"stv_name":"Uncletopia | London | 7 | Stopwatch | STV","players":null},{"server_id":41,"name":"Uncletopia | London | 8 | Community","name_short":"lon-8","host":"lon-1.uk.uncletopia.com","port":27085,"enabled":true,"region":"eu","cc":"gb","latitude":51.509865,"longitude":-0.118092,"reserved":0,"last_update":"0001-01-01T00:00:00Z","name_a2s":"Uncletopia | London | 8 | Community","protocol":17,"map":"workshop/koth_trenchfoot_b1a.ugc731436616","folder":"tf","game":"Team Fortress","app_id":440,"player_count":0,"max_players":24,"Bots":0,"server_type":"Dedicated","server_os":"Linux","password":true,"vac":true,"version":"7961495","steam_id":85568392924964315,"keywords":["cp","nocrits","nodmgspread","uncletopia"],"game_id":440,"stv_port":27086,"stv_name":"Uncletopia | London | 8 | Community | STV","players":null},{"server_id":300,"name":"Uncletopia | Montréal | 1 | One Thousand Uncles","name_short":"mtl-1","host":"mtl-1.ca.uncletopia.com","port":27015,"enabled":true,"region":"us-east","cc":"ca","latitude":45.50889,"longitude":-73.56167,"reserved":0,"last_update":"0001-01-01T00:00:00Z","name_a2s":"","protocol":0,"map":"","folder":"","game":"","app_id":0,"player_count":0,"max_players":0,"Bots":0,"server_type":"","server_os":"","password":false,"vac":false,"version":"","steam_id":0,"keywords":null,"game_id":0,"stv_port":0,"stv_name":"","players":null},{"server_id":301,"name":"Uncletopia | Montréal | 2 | One Thousand Uncles","name_short":"mtl-2","host":"mtl-1.ca.uncletopia.com","port":27025,"enabled":true,"region":"us-east","cc":"ca","latitude":45.50889,"longitude":-73.56167,"reserved":0,"last_update":"0001-01-01T00:00:00Z","name_a2s":"","protocol":0,"map":"","folder":"","game":"","app_id":0,"player_count":2,"max_players":0,"Bots":0,"server_type":"","server_os":"","password":false,"vac":false,"version":"","steam_id":0,"keywords":null,"game_id":0,"stv_port":0,"stv_name":"","players":[{"user_id":2,"name":"MintyGhoul666","steam_id":76561198232417796,"connected_time":3799000000000,"state":"active","ping":69},{"user_id":19,"name":"cheios demiose","steam_id":76561199050528128,"connected_time":3088000000000,"state":"active","ping":89}]},{"server_id":302,"name":"Uncletopia | Montréal | 3 | One Thousand Uncles","name_short":"mtl-3","host":"mtl-1.ca.uncletopia.com","port":27035,"enabled":true,"region":"us-east","cc":"ca","latitude":45.50889,"longitude":-73.56167,"reserved":0,"last_update":"0001-01-01T00:00:00Z","name_a2s":"","protocol":0,"map":"","folder":"","game":"","app_id":0,"player_count":0,"max_players":0,"Bots":0,"server_type":"","server_os":"","password":false,"vac":false,"version":"","steam_id":0,"keywords":null,"game_id":0,"stv_port":0,"stv_name":"","players":null},{"server_id":13,"name":"Uncletopia | New York City | 1 | All Maps","name_short":"nyc-1","host":"nyc-1.us.uncletopia.com","port":27015,"enabled":true,"region":"us-east","cc":"us","latitude":40.73061,"longitude":-73.93524,"reserved":0,"last_update":"0001-01-01T00:00:00Z","name_a2s":"Uncletopia | New York City | 1 | All Maps","protocol":17,"map":"koth_viaduct","folder":"tf","game":"Team Fortress","app_id":440,"player_count":0,"max_players":24,"Bots":0,"server_type":"Dedicated","server_os":"Linux","password":true,"vac":true,"version":"7961495","steam_id":85568392924469993,"keywords":["cp","nocrits","nodmgspread","uncletopia"],"game_id":440,"stv_port":27016,"stv_name":"Uncletopia | New York City | 1 | All Maps | STV","players":null},{"server_id":14,"name":"Uncletopia | New York City | 2 | All Maps","name_short":"nyc-2","host":"nyc-1.us.uncletopia.com","port":27025,"enabled":true,"region":"us-east","cc":"us","latitude":40.73061,"longitude":-73.93524,"reserved":0,"last_update":"0001-01-01T00:00:00Z","name_a2s":"Uncletopia | New York City | 2 | All Maps","protocol":17,"map":"koth_lakeside_final","folder":"tf","game":"Team Fortress","app_id":440,"player_count":0,"max_players":24,"Bots":0,"server_type":"Dedicated","server_os":"Linux","password":true,"vac":true,"version":"7961495","steam_id":85568392924469994,"keywords":["cp","nocrits","nodmgspread","uncletopia"],"game_id":440,"stv_port":27026,"stv_name":"Uncletopia | New York City | 2 | All Maps | STV","players":null},{"server_id":15,"name":"Uncletopia | New York City | 3 | Stopwatch","name_short":"nyc-3","host":"nyc-1.us.uncletopia.com","port":27035,"enabled":true,"region":"us-east","cc":"us","latitude":40.73061,"longitude":-73.93524,"reserved":0,"last_update":"0001-01-01T00:00:00Z","name_a2s":"Uncletopia | New York City | 3 | Stopwatch","protocol":17,"map":"pl_snowycoast","folder":"tf","game":"Team Fortress","app_id":440,"player_count":0,"max_players":24,"Bots":0,"server_type":"Dedicated","server_os":"Linux","password":true,"vac":true,"version":"7961495","steam_id":85568392924742820,"keywords":["nocrits","nodmgspread","payload","uncletopia"],"game_id":440,"stv_port":27036,"stv_name":"Uncletopia | New York City | 3 | Stopwatch | STV","players":null},{"server_id":16,"name":"Uncletopia | New York City | 4 | Community","name_short":"nyc-4","host":"nyc-1.us.uncletopia.com","port":27045,"enabled":true,"region":"us-east","cc":"us","latitude":40.73061,"longitude":-73.93524,"reserved":0,"last_update":"0001-01-01T00:00:00Z","name_a2s":"Uncletopia | New York City | 4 | Community","protocol":17,"map":"cp_altitude","folder":"tf","game":"Team Fortress","app_id":440,"player_count":0,"max_players":24,"Bots":0,"server_type":"Dedicated","server_os":"Linux","password":true,"vac":true,"version":"7961495","steam_id":85568392924742821,"keywords":["cp","nocrits","nodmgspread","uncletopia"],"game_id":440,"stv_port":27046,"stv_name":"Uncletopia | New York City | 4 | Community | STV","players":null},{"server_id":142,"name":"Uncletopia | São Paulo | 1 | All Maps","name_short":"sao-1","host":"sao-1.br.uncletopia.com","port":27015,"enabled":true,"region":"sa","cc":"br","latitude":-23.533773,"longitude":-46.62529,"reserved":0,"last_update":"0001-01-01T00:00:00Z","name_a2s":"Uncletopia | São Paulo | 1 | All Maps","protocol":17,"map":"cp_mountainlab","folder":"tf","game":"Team Fortress","app_id":440,"player_count":0,"max_players":24,"Bots":0,"server_type":"Dedicated","server_os":"Linux","password":true,"vac":true,"version":"7961495","steam_id":85568392924469996,"keywords":["cp","nocrits","nodmgspread","uncletopia"],"game_id":440,"stv_port":27016,"stv_name":"Uncletopia | São Paulo | 1 | All Maps | STV","players":null},{"server_id":143,"name":"Uncletopia | São Paulo | 2 | Community","name_short":"sao-2","host":"sao-2.br.uncletopia.com","port":27015,"enabled":true,"region":"sa","cc":"br","latitude":-23.533773,"longitude":-46.62529,"reserved":0,"last_update":"0001-01-01T00:00:00Z","name_a2s":"Uncletopia | São Paulo | 2 | Community","protocol":17,"map":"pl_badwater","folder":"tf","game":"Team Fortress","app_id":440,"player_count":0,"max_players":24,"Bots":0,"server_type":"Dedicated","server_os":"Linux","password":true,"vac":true,"version":"7961495","steam_id":85568392924485349,"keywords":["nocrits","nodmgspread","payload","uncletopia"],"game_id":440,"stv_port":27016,"stv_name":"Uncletopia | São Paulo | 2 | Community | STV","players":null},{"server_id":7,"name":"Uncletopia | Seattle | 1 | All Maps","name_short":"sea-1","host":"sea-1.us.uncletopia.com","port":27015,"enabled":true,"region":"us-west","cc":"us","latitude":47.608013,"longitude":-122.33517,"reserved":0,"last_update":"0001-01-01T00:00:00Z","name_a2s":"Uncletopia | Seattle | 1 | All Maps","protocol":17,"map":"koth_suijin","folder":"tf","game":"Team Fortress","app_id":440,"player_count":24,"max_players":24,"Bots":0,"server_type":"Dedicated","server_os":"Linux","password":true,"vac":true,"version":"7961495","steam_id":85568392924469997,"keywords":["cp","nocrits","nodmgspread","uncletopia"],"game_id":440,"stv_port":27016,"stv_name":"Uncletopia | Seattle | 1 | All Maps | STV","players":[{"user_id":87,"name":"coffee bagel","steam_id":76561198141198352,"connected_time":1024000000000,"state":"active","ping":95},{"user_id":93,"name":"SeeNik","steam_id":76561198149499817,"connected_time":589000000000,"state":"active","ping":129},{"user_id":8,"name":"DragonJimmy","steam_id":76561198272966565,"connected_time":8122000000000,"state":"active","ping":87},{"user_id":71,"name":"Grasshopper506","steam_id":76561198111633418,"connected_time":1901000000000,"state":"active","ping":84},{"user_id":100,"name":"stealthzelf","steam_id":76561198132493391,"connected_time":202000000000,"state":"active","ping":112},{"user_id":96,"name":"Lori","steam_id":76561199153064449,"connected_time":402000000000,"state":"active","ping":101},{"user_id":80,"name":"Buswolley","steam_id":76561197995205571,"connected_time":1683000000000,"state":"active","ping":56},{"user_id":84,"name":"Costco Pizza","steam_id":76561198104062789,"connected_time":1200000000000,"state":"active","ping":86},{"user_id":102,"name":"Type Three Dabeetus","steam_id":76561198062710038,"connected_time":26000000000,"state":"active","ping":62},{"user_id":82,"name":"KnxHayrow","steam_id":76561198124307682,"connected_time":1310000000000,"state":"active","ping":79},{"user_id":99,"name":"SD","steam_id":76561198217410988,"connected_time":313000000000,"state":"active","ping":67},{"user_id":83,"name":"Blue Sea","steam_id":76561198156077339,"connected_time":1257000000000,"state":"active","ping":107},{"user_id":88,"name":"Calico Jolteon","steam_id":76561198283758322,"connected_time":872000000000,"state":"active","ping":83},{"user_id":101,"name":"Avid Red Howler","steam_id":76561198216455027,"connected_time":177000000000,"state":"active","ping":106},{"user_id":92,"name":"Game Of Life","steam_id":76561198262361438,"connected_time":641000000000,"state":"active","ping":97},{"user_id":23,"name":"oo","steam_id":76561198119626492,"connected_time":6096000000000,"state":"active","ping":76},{"user_id":85,"name":"Doctor Bear ʕ •ᴥ•ʔ","steam_id":76561197968103161,"connected_time":1133000000000,"state":"active","ping":117},{"user_id":76,"name":"ATL1 | rbjunk","steam_id":76561198123458199,"connected_time":1808000000000,"state":"active","ping":112},{"user_id":51,"name":"Blitzy","steam_id":76561198149472890,"connected_time":4030000000000,"state":"active","ping":70},{"user_id":89,"name":"KlassicLoL","steam_id":76561198081815303,"connected_time":855000000000,"state":"active","ping":71},{"user_id":77,"name":"Iron Fox (Update-sized)","steam_id":76561198326520372,"connected_time":1808000000000,"state":"active","ping":109},{"user_id":78,"name":"TheMagicMrWaffle","steam_id":76561198104357256,"connected_time":1776000000000,"state":"active","ping":64},{"user_id":79,"name":"Autogyro","steam_id":76561198047943679,"connected_time":1760000000000,"state":"active","ping":63},{"user_id":56,"name":"ratie","steam_id":76561198059399661,"connected_time":3611000000000,"state":"active","ping":87}]},{"server_id":119,"name":"Uncletopia | Seattle | 2 | All Maps","name_short":"sea-2","host":"sea-1.us.uncletopia.com","port":27025,"enabled":true,"region":"us-west","cc":"us","latitude":47.608013,"longitude":-122.33517,"reserved":0,"last_update":"0001-01-01T00:00:00Z","name_a2s":"Uncletopia | Seattle | 2 | All Maps","protocol":17,"map":"koth_cascade","folder":"tf","game":"Team Fortress","app_id":440,"player_count":0,"max_players":24,"Bots":0,"server_type":"Dedicated","server_os":"Linux","password":true,"vac":true,"version":"7961495","steam_id":85568392924469998,"keywords":["cp","nocrits","nodmgspread","uncletopia"],"game_id":440,"stv_port":27026,"stv_name":"Uncletopia | Seattle | 2 | All Maps | STV","players":null},{"server_id":406,"name":"Uncletopia | Seattle | 3 | Stopwatch","name_short":"sea-3","host":"sea-1.us.uncletopia.com","port":27035,"enabled":true,"region":"us-west","cc":"us","latitude":47.608013,"longitude":-122.33517,"reserved":0,"last_update":"0001-01-01T00:00:00Z","name_a2s":"Uncletopia | Seattle | 3 | Stopwatch","protocol":17,"map":"pl_pier","folder":"tf","game":"Team Fortress","app_id":440,"player_count":0,"max_players":24,"Bots":0,"server_type":"Dedicated","server_os":"Linux","password":true,"vac":true,"version":"7961495","steam_id":85568392924515217,"keywords":["nocrits","nodmgspread","payload","uncletopia"],"game_id":440,"stv_port":27036,"stv_name":"Uncletopia | Seattle | 3 | Stopwatch | STV","players":null},{"server_id":17,"name":"Uncletopia | San Francisco | 1 | All Maps","name_short":"sfo-1","host":"sfo-1.us.uncletopia.com","port":27015,"enabled":true,"region":"us-west","cc":"us","latitude":37.77397,"longitude":-122.4313,"reserved":0,"last_update":"0001-01-01T00:00:00Z","name_a2s":"Uncletopia | San Francisco | 1 | All Maps","protocol":17,"map":"koth_cascade","folder":"tf","game":"Team Fortress","app_id":440,"player_count":0,"max_players":24,"Bots":0,"server_type":"Dedicated","server_os":"Linux","password":true,"vac":true,"version":"7961495","steam_id":85568392924469999,"keywords":["cp","nocrits","nodmgspread","uncletopia"],"game_id":440,"stv_port":27016,"stv_name":"Uncletopia | San Francisco | 1 | All Maps | STV","players":null},{"server_id":18,"name":"Uncletopia | San Francisco | 2 | All Maps","name_short":"sfo-2","host":"sfo-1.us.uncletopia.com","port":27025,"enabled":true,"region":"us-west","cc":"us","latitude":37.77397,"longitude":-122.4313,"reserved":0,"last_update":"0001-01-01T00:00:00Z","name_a2s":"Uncletopia | San Francisco | 2 | All Maps","protocol":17,"map":"pl_frontier_final","folder":"tf","game":"Team Fortress","app_id":440,"player_count":0,"max_players":24,"Bots":0,"server_type":"Dedicated","server_os":"Linux","password":true,"vac":true,"version":"7961495","steam_id":85568392924470000,"keywords":["nocrits","nodmgspread","payload","uncletopia"],"game_id":440,"stv_port":27026,"stv_name":"Uncletopia | San Francisco | 2 | All Maps | STV","players":null},{"server_id":19,"name":"Uncletopia | San Francisco | 3 | Stopwatch","name_short":"sfo-3","host":"sfo-1.us.uncletopia.com","port":27035,"enabled":true,"region":"us-west","cc":"us","latitude":37.77397,"longitude":-122.4313,"reserved":0,"last_update":"0001-01-01T00:00:00Z","name_a2s":"Uncletopia | San Francisco | 3 | Stopwatch","protocol":17,"map":"pl_pier","folder":"tf","game":"Team Fortress","app_id":440,"player_count":0,"max_players":24,"Bots":0,"server_type":"Dedicated","server_os":"Linux","password":true,"vac":true,"version":"7961495","steam_id":85568392924742824,"keywords":["nocrits","nodmgspread","payload","uncletopia"],"game_id":440,"stv_port":27036,"stv_name":"Uncletopia | San Francisco | 3 | Stopwatch | STV","players":null},{"server_id":20,"name":"Uncletopia | San Francisco | 4 | Community","name_short":"sfo-4","host":"sfo-1.us.uncletopia.com","port":27045,"enabled":true,"region":"us-west","cc":"us","latitude":37.77397,"longitude":-122.4313,"reserved":0,"last_update":"0001-01-01T00:00:00Z","name_a2s":"Uncletopia | San Francisco | 4 | Community","protocol":17,"map":"pl_pier","folder":"tf","game":"Team Fortress","app_id":440,"player_count":0,"max_players":24,"Bots":0,"server_type":"Dedicated","server_os":"Linux","password":true,"vac":true,"version":"7961495","steam_id":85568392924742826,"keywords":["nocrits","nodmgspread","payload","uncletopia"],"game_id":440,"stv_port":27046,"stv_name":"Uncletopia | San Francisco | 4 | Community | STV","players":null},{"server_id":141,"name":"Uncletopia | Sydney | 1 | All Maps","name_short":"syd-1","host":"syd-1.au.uncletopia.com","port":27015,"enabled":true,"region":"au","cc":"au","latitude":-33.865143,"longitude":151.2099,"reserved":0,"last_update":"0001-01-01T00:00:00Z","name_a2s":"Uncletopia | Sydney | 1 | All Maps","protocol":17,"map":"koth_highpass","folder":"tf","game":"Team Fortress","app_id":440,"player_count":0,"max_players":24,"Bots":0,"server_type":"Dedicated","server_os":"Linux","password":true,"vac":true,"version":"7961495","steam_id":85568392924470001,"keywords":["cp","nocrits","nodmgspread","uncletopia"],"game_id":440,"stv_port":27016,"stv_name":"Uncletopia | Sydney | 1 | All Maps | STV","players":null},{"server_id":123,"name":"Uncletopia | Sydney | 2 | All Maps","name_short":"syd-2","host":"syd-1.au.uncletopia.com","port":27025,"enabled":true,"region":"au","cc":"au","latitude":-33.865143,"longitude":151.2099,"reserved":0,"last_update":"0001-01-01T00:00:00Z","name_a2s":"Uncletopia | Sydney | 2 | All Maps","protocol":17,"map":"koth_cascade","folder":"tf","game":"Team Fortress","app_id":440,"player_count":0,"max_players":24,"Bots":0,"server_type":"Dedicated","server_os":"Linux","password":true,"vac":true,"version":"7961495","steam_id":85568392924470002,"keywords":["cp","nocrits","nodmgspread","uncletopia"],"game_id":440,"stv_port":27026,"stv_name":"Uncletopia | Sydney | 2 | All Maps | STV","players":null},{"server_id":395,"name":"Uncletopia | Sydney | 3 | All Maps","name_short":"syd-3","host":"syd-1.au.uncletopia.com","port":27035,"enabled":true,"region":"au","cc":"au","latitude":-33.865143,"longitude":151.2099,"reserved":0,"last_update":"0001-01-01T00:00:00Z","name_a2s":"Uncletopia | Sydney | 3 | All Maps","protocol":17,"map":"koth_lakeside_final","folder":"tf","game":"Team Fortress","app_id":440,"player_count":0,"max_players":24,"Bots":0,"server_type":"Dedicated","server_os":"Linux","password":true,"vac":true,"version":"7961495","steam_id":85568392925194467,"keywords":["cp","nocrits","nodmgspread","uncletopia"],"game_id":440,"stv_port":27036,"stv_name":"Uncletopia | Sydney | 3 | All Maps | STV","players":null},{"server_id":396,"name":"Uncletopia | Sydney | 4 | All Maps","name_short":"syd-4","host":"syd-1.au.uncletopia.com","port":27045,"enabled":true,"region":"au","cc":"au","latitude":-33.865143,"longitude":151.2099,"reserved":0,"last_update":"0001-01-01T00:00:00Z","name_a2s":"Uncletopia | Sydney | 4 | All Maps","protocol":17,"map":"pl_badwater","folder":"tf","game":"Team Fortress","app_id":440,"player_count":0,"max_players":24,"Bots":0,"server_type":"Dedicated","server_os":"Linux","password":true,"vac":true,"version":"7961495","steam_id":85568392925397958,"keywords":["nocrits","nodmgspread","payload","uncletopia"],"game_id":440,"stv_port":27046,"stv_name":"Uncletopia | Sydney | 4 | All Maps | STV","players":null},{"server_id":58,"name":"Uncletopia | Sydney | 5 | Stopwatch","name_short":"syd-5","host":"syd-1.au.uncletopia.com","port":27055,"enabled":true,"region":"au","cc":"au","latitude":-33.865143,"longitude":151.2099,"reserved":0,"last_update":"0001-01-01T00:00:00Z","name_a2s":"Uncletopia | Sydney | 5 | Stopwatch","protocol":17,"map":"koth_highpass","folder":"tf","game":"Team Fortress","app_id":440,"player_count":0,"max_players":24,"Bots":0,"server_type":"Dedicated","server_os":"Linux","password":true,"vac":true,"version":"7961495","steam_id":85568392925397959,"keywords":["cp","nocrits","nodmgspread","uncletopia"],"game_id":440,"stv_port":27056,"stv_name":"Uncletopia | Sydney | 5 | Stopwatch | STV","players":null},{"server_id":59,"name":"Uncletopia | Sydney | 6 | Community","name_short":"syd-6","host":"syd-1.au.uncletopia.com","port":27065,"enabled":true,"region":"au","cc":"au","latitude":-33.865143,"longitude":151.2099,"reserved":0,"last_update":"0001-01-01T00:00:00Z","name_a2s":"Uncletopia | Sydney | 6 | Community","protocol":17,"map":"workshop/cp_propaganda_b18.ugc1603743849","folder":"tf","game":"Team Fortress","app_id":440,"player_count":0,"max_players":24,"Bots":0,"server_type":"Dedicated","server_os":"Linux","password":true,"vac":true,"version":"7961495","steam_id":85568392925397960,"keywords":["cp","nocrits","nodmgspread","uncletopia"],"game_id":440,"stv_port":27066,"stv_name":"Uncletopia | Sydney | 6 | Community | STV","players":null},{"server_id":49,"name":"Uncletopia | Warsaw | 1 | One Thousand Uncles","name_short":"waw-1","host":"waw-1.pl.uncletopia.com","port":27015,"enabled":true,"region":"eu","cc":"pl","latitude":52.2297,"longitude":21.017532,"reserved":0,"last_update":"0001-01-01T00:00:00Z","name_a2s":"Uncletopia | Warsaw | 1 | One Thousand Uncles","protocol":17,"map":"cp_mercenarypark","folder":"tf","game":"Team Fortress","app_id":440,"player_count":20,"max_players":32,"Bots":16,"server_type":"Dedicated","server_os":"Linux","password":true,"vac":true,"version":"7961495","steam_id":85568392925397850,"keywords":["alltalk","bots","cp","danepve","increased_maxplayers","nocrits","norespawntime","uncletopia"],"game_id":440,"stv_port":0,"stv_name":"","players":[{"user_id":165,"name":"Mr.Cupcake","steam_id":76561198152711174,"connected_time":2236000000000,"state":"active","ping":36},{"user_id":183,"name":"amaterasu-_-","steam_id":76561198878687605,"connected_time":1224000000000,"state":"active","ping":106},{"user_id":185,"name":"ChrisLuckycharm","steam_id":76561199490969322,"connected_time":754000000000,"state":"active","ping":89},{"user_id":186,"name":"badi1220","steam_id":76561198060438270,"connected_time":751000000000,"state":"active","ping":78}]},{"server_id":50,"name":"Uncletopia | Warsaw | 2 | One Thousand Uncles","name_short":"waw-2","host":"waw-1.pl.uncletopia.com","port":27025,"enabled":true,"region":"eu","cc":"pl","latitude":52.2297,"longitude":21.017532,"reserved":0,"last_update":"0001-01-01T00:00:00Z","name_a2s":"Uncletopia | Warsaw | 2 | One Thousand Uncles","protocol":17,"map":"pl_chilly","folder":"tf","game":"Team Fortress","app_id":440,"player_count":29,"max_players":32,"Bots":16,"server_type":"Dedicated","server_os":"Linux","password":true,"vac":true,"version":"7961495","steam_id":85568392925397851,"keywords":["alltalk","bots","danepve","increased_maxplayers","nocrits","norespawntime","payload","uncletopia"],"game_id":440,"stv_port":0,"stv_name":"","players":[{"user_id":176,"name":"𐌊𐌂𐌐𐌅","steam_id":76561198207129661,"connected_time":2991000000000,"state":"active","ping":63},{"user_id":81,"name":"KipxSateee","steam_id":76561198149158137,"connected_time":8834000000000,"state":"active","ping":67},{"user_id":177,"name":"Mane","steam_id":76561198351821610,"connected_time":2195000000000,"state":"active","ping":72},{"user_id":193,"name":"BurningJoke","steam_id":76561199014358707,"connected_time":516000000000,"state":"active","ping":64},{"user_id":195,"name":"Dyziaczek_","steam_id":76561199310381901,"connected_time":449000000000,"state":"active","ping":35},{"user_id":180,"name":"murderwow","steam_id":76561198024566944,"connected_time":1860000000000,"state":"active","ping":117},{"user_id":181,"name":"Rodak","steam_id":76561199135986344,"connected_time":1527000000000,"state":"active","ping":48},{"user_id":182,"name":"tanyathsus","steam_id":76561198089522447,"connected_time":1296000000000,"state":"active","ping":87},{"user_id":185,"name":"rysieko","steam_id":76561199385228217,"connected_time":1086000000000,"state":"active","ping":39},{"user_id":199,"name":"Samuel L. Jackson","steam_id":76561198130427881,"connected_time":45000000000,"state":"active","ping":180},{"user_id":197,"name":"XD","steam_id":76561199080187035,"connected_time":182000000000,"state":"active","ping":51},{"user_id":188,"name":"Donkey kong","steam_id":76561199401399810,"connected_time":1026000000000,"state":"active","ping":90},{"user_id":198,"name":"@TF2CutContent on Twitter","steam_id":76561198016621705,"connected_time":133000000000,"state":"active","ping":160}]},{"server_id":51,"name":"Uncletopia | Warsaw | 3 | All Maps","name_short":"waw-3","host":"waw-1.pl.uncletopia.com","port":27035,"enabled":true,"region":"eu","cc":"pl","latitude":52.2297,"longitude":21.017532,"reserved":0,"last_update":"0001-01-01T00:00:00Z","name_a2s":"Uncletopia | Warsaw | 3 | All Maps","protocol":17,"map":"koth_lakeside_final","folder":"tf","game":"Team Fortress","app_id":440,"player_count":0,"max_players":24,"Bots":0,"server_type":"Dedicated","server_os":"Linux","password":true,"vac":true,"version":"7961495","steam_id":85568392925397852,"keywords":["cp","nocrits","nodmgspread","uncletopia"],"game_id":440,"stv_port":27036,"stv_name":"Uncletopia | Warsaw | 3 | All Maps | STV","players":null},{"server_id":52,"name":"Uncletopia | Warsaw | 4 | All Maps","name_short":"waw-4","host":"waw-1.pl.uncletopia.com","port":27045,"enabled":true,"region":"eu","cc":"pl","latitude":52.2297,"longitude":21.017532,"reserved":0,"last_update":"0001-01-01T00:00:00Z","name_a2s":"Uncletopia | Warsaw | 4 | All Maps","protocol":17,"map":"pl_badwater","folder":"tf","game":"Team Fortress","app_id":440,"player_count":21,"max_players":24,"Bots":0,"server_type":"Dedicated","server_os":"Linux","password":true,"vac":true,"version":"7961495","steam_id":85568392925397853,"keywords":["nocrits","nodmgspread","payload","uncletopia"],"game_id":440,"stv_port":27046,"stv_name":"Uncletopia | Warsaw | 4 | All Maps | STV","players":[{"user_id":95,"name":"TacoDragon","steam_id":76561198215345581,"connected_time":1309000000000,"state":"active","ping":80},{"user_id":90,"name":"walter white mvm","steam_id":76561198169798649,"connected_time":1433000000000,"state":"active","ping":99},{"user_id":108,"name":"mindas","steam_id":76561198056839438,"connected_time":421000000000,"state":"active","ping":44},{"user_id":92,"name":"BELADIT","steam_id":76561198011911501,"connected_time":1388000000000,"state":"active","ping":88},{"user_id":93,"name":"THE SPIRIT","steam_id":76561198170744597,"connected_time":1356000000000,"state":"active","ping":69},{"user_id":112,"name":"Marabosha","steam_id":76561198137599173,"connected_time":32000000000,"state":"active","ping":127},{"user_id":77,"name":"D'JoeLaDeprime","steam_id":76561198375894043,"connected_time":2702000000000,"state":"active","ping":106},{"user_id":43,"name":"gaz","steam_id":76561198843714742,"connected_time":4891000000000,"state":"active","ping":62},{"user_id":110,"name":"Gruset","steam_id":76561198327512432,"connected_time":294000000000,"state":"active","ping":93},{"user_id":113,"name":"darkwater","steam_id":76561197986978738,"connected_time":22000000000,"state":"active","ping":62},{"user_id":109,"name":"Accident","steam_id":76561198037232641,"connected_time":351000000000,"state":"active","ping":84},{"user_id":78,"name":"Duktigafred","steam_id":76561199211222396,"connected_time":2674000000000,"state":"active","ping":61},{"user_id":72,"name":"hazzett","steam_id":76561198171041063,"connected_time":2874000000000,"state":"active","ping":73},{"user_id":65,"name":"Jared Katooie","steam_id":76561197983785617,"connected_time":3400000000000,"state":"active","ping":77},{"user_id":87,"name":"please do not the cat","steam_id":76561198089003514,"connected_time":1790000000000,"state":"active","ping":61},{"user_id":100,"name":"Sentry Gun","steam_id":76561198280966364,"connected_time":1199000000000,"state":"active","ping":47},{"user_id":101,"name":"Stary Ciul","steam_id":76561198199944301,"connected_time":1139000000000,"state":"active","ping":46},{"user_id":63,"name":"xfinitycablebox","steam_id":76561198317433700,"connected_time":3538000000000,"state":"active","ping":175},{"user_id":33,"name":"Mateumt","steam_id":76561198101669791,"connected_time":5492000000000,"state":"active","ping":33},{"user_id":75,"name":"Bulyto","steam_id":76561198043205202,"connected_time":2785000000000,"state":"active","ping":48},{"user_id":103,"name":"Random","steam_id":76561198847427336,"connected_time":943000000000,"state":"active","ping":57}]},{"server_id":53,"name":"Uncletopia | Warsaw | 5 | Stopwatch","name_short":"waw-5","host":"waw-1.pl.uncletopia.com","port":27055,"enabled":true,"region":"eu","cc":"pl","latitude":52.2297,"longitude":21.017532,"reserved":0,"last_update":"0001-01-01T00:00:00Z","name_a2s":"Uncletopia | Warsaw | 5 | Stopwatch","protocol":17,"map":"workshop/pl_vigil_rc10.ugc1266210012","folder":"tf","game":"Team Fortress","app_id":440,"player_count":0,"max_players":24,"Bots":0,"server_type":"Dedicated","server_os":"Linux","password":true,"vac":true,"version":"7961495","steam_id":85568392925397854,"keywords":["nocrits","nodmgspread","payload","uncletopia"],"game_id":440,"stv_port":27056,"stv_name":"Uncletopia | Warsaw | 5 | Stopwatch | STV","players":null},{"server_id":54,"name":"Uncletopia | Warsaw | 6 | Community","name_short":"waw-6","host":"waw-1.pl.uncletopia.com","port":27065,"enabled":true,"region":"eu","cc":"pl","latitude":52.2297,"longitude":21.017532,"reserved":0,"last_update":"0001-01-01T00:00:00Z","name_a2s":"Uncletopia | Warsaw | 6 | Community","protocol":17,"map":"workshop/pl_badwater_pro_v12.ugc2142942074","folder":"tf","game":"Team Fortress","app_id":440,"player_count":0,"max_players":24,"Bots":0,"server_type":"Dedicated","server_os":"Linux","password":true,"vac":true,"version":"7961495","steam_id":85568392925397856,"keywords":["nocrits","nodmgspread","payload","uncletopia"],"game_id":440,"stv_port":27066,"stv_name":"Uncletopia | Warsaw | 6 | Community | STV","players":null}]}