{"status":true,"message":"","result":[{"server_id":9,"name":"Uncletopia | Atlanta | 1 | All Maps","name_short":"atl-1","host":"atl-1.us.uncletopia.com","port":27015,"enabled":true,"region":"us-east","cc":"us","latitude":33.753746,"longitude":-84.38633,"reserved":0,"last_update":"0001-01-01T00:00:00Z","name_a2s":"Uncletopia | Atlanta | 1 | All Maps","protocol":17,"map":"cp_dustbowl","folder":"tf","game":"Team Fortress","app_id":440,"player_count":24,"max_players":24,"Bots":0,"server_type":"Dedicated","server_os":"Linux","password":true,"vac":true,"version":"7961495","steam_id":85568392924469982,"keywords":["cp","nocrits","nodmgspread","uncletopia"],"game_id":440,"stv_port":27016,"stv_name":"Uncletopia | Atlanta | 1 | All Maps | STV","players":[{"user_id":446,"name":"Jey","steam_id":76561198110957641,"connected_time":2014000000000,"state":"active","ping":83},{"user_id":452,"name":"Dr. Han","steam_id":76561198811130843,"connected_time":1370000000000,"state":"active","ping":85},{"user_id":432,"name":"mangokip","steam_id":76561198156471516,"connected_time":3294000000000,"state":"active","ping":47},{"user_id":429,"name":"dereck","steam_id":76561198283886556,"connected_time":3511000000000,"state":"active","ping":188},{"user_id":465,"name":"Sinta","steam_id":76561198098398841,"connected_time":354000000000,"state":"active","ping":60},{"user_id":336,"name":"silly goose","steam_id":76561198196572230,"connected_time":8366000000000,"state":"active","ping":63},{"user_id":461,"name":"Big Cat","steam_id":76561198115695203,"connected_time":629000000000,"state":"active","ping":54},{"user_id":447,"name":"MinimanC","steam_id":76561198071475084,"connected_time":1898000000000,"state":"active","ping":65},{"user_id":462,"name":"Ping","steam_id":76561199206514106,"connected_time":624000000000,"state":"active","ping":75},{"user_id":254,"name":"Oxygen User","steam_id":76561199111975528,"connected_time":13727000000000,"state":"active","ping":51},{"user_id":421,"name":"Death Glows","steam_id":76561198356384115,"connected_time":3979000000000,"state":"active","ping":59},{"user_id":453,"name":"ATL1 | to4st","steam_id":76561198981009008,"connected_time":1034000000000,"state":"active","ping":61},{"user_id":448,"name":"TheBrocklobster","steam_id":76561198039682984,"connected_time":1725000000000,"state":"active","ping":96},{"user_id":467,"name":"PK","steam_id":76561198368722500,"connected_time":151000000000,"state":"active","ping":61},{"user_id":431,"name":"Wrench","steam_id":76561198055879094,"connected_time":3304000000000,"state":"active","ping":45},{"user_id":451,"name":"chexo4","steam_id":76561198150532531,"connected_time":1381000000000,"state":"active","ping":52},{"user_id":351,"name":"1drowsyboi","steam_id":76561198152626025,"connected_time":7058000000000,"state":"active","ping":76},{"user_id":458,"name":"Onyx","steam_id":76561198275349640,"connected_time":667000000000,"state":"active","ping":79},{"user_id":241,"name":"Ashes!","steam_id":76561197998475441,"connected_time":14149000000000,"state":"active","ping":56},{"user_id":449,"name":"Erchius (she/her)","steam_id":76561198256892300,"connected_time":1539000000000,"state":"active","ping":49},{"user_id":415,"name":"PikaWarrior1222","steam_id":76561199502616838,"connected_time":4146000000000,"state":"active","ping":62},{"user_id":464,"name":"lil hog","steam_id":76561199230929836,"connected_time":493000000000,"state":"active","ping":93},{"user_id":427,"name":"Jared","steam_id":76561198027210228,"connected_time":3777000000000,"state":"active","ping":81},{"user_id":444,"name":"Dr.Inkmix(femboy)","steam_id":76561198854070384,"connected_time":2294000000000,"state":"active","ping":109}]},{"server_id":104,"name":"Uncletopia | Atlanta | 2 | All Maps","name_short":"atl-2","host":"atl-1.us.uncletopia.com","port":27025,"enabled":true,"region":"us-east","cc":"us","latitude":33.753746,"longitude":-84.38633,"reserved":0,"last_update":"0001-01-01T00:00:00Z","name_a2s":"Uncletopia | Atlanta | 2 | All Maps","protocol":17,"map":"koth_cascade","folder":"tf","game":"Team Fortress","app_id":440,"player_count":23,"max_players":24,"Bots":0,"server_type":"Dedicated","server_os":"Linux","password":true,"vac":true,"version":"7961495","steam_id":85568392924469983,"keywords":["cp","nocrits","nodmgspread","uncletopia"],"game_id":440,"stv_port":27026,"stv_name":"Uncletopia | Atlanta | 2 | All Maps | STV","players":[{"user_id":363,"name":"SnipSip","steam_id":76561198073407246,"connected_time":614000000000,"state":"active","ping":59},{"user_id":305,"name":"JobsDone2","steam_id":76561198159158870,"connected_time":4521000000000,"state":"active","ping":69},{"user_id":357,"name":"Wumbologist","steam_id":76561198188729514,"connected_time":783000000000,"state":"active","ping":53},{"user_id":334,"name":"Sceptimus","steam_id":76561198179580927,"connected_time":1995000000000,"state":"active","ping":113},{"user_id":80,"name":"tack","steam_id":76561198408477421,"connected_time":15550000000000,"state":"active","ping":68},{"user_id":365,"name":"Just washed","steam_id":76561199030160932,"connected_time":531000000000,"state":"active","ping":77},{"user_id":355,"name":"Lane","steam_id":76561197965828506,"connected_time":902000000000,"state":"active","ping":56},{"user_id":332,"name":"LOVEDRAGON","steam_id":76561198089908485,"connected_time":2008000000000,"state":"active","ping":61},{"user_id":356,"name":"Cornstarch","steam_id":76561198285897936,"connected_time":891000000000,"state":"active","ping":102},{"user_id":306,"name":"Temper","steam_id":76561199042184132,"connected_time":4520000000000,"state":"active","ping":63},{"user_id":333,"name":"junebug","steam_id":76561198126662775,"connected_time":2000000000000,"state":"active","ping":64},{"user_id":368,"name":"Rin \"Hindwing\" Redtail","steam_id":76561199074865638,"connected_time":320000000000,"state":"active","ping":59},{"user_id":335,"name":"Cole McGlocklin","steam_id":76561198342498152,"connected_time":1973000000000,"state":"active","ping":82},{"user_id":352,"name":"Kiss Master","steam_id":76561198289572271,"connected_time":1374000000000,"state":"active","ping":44},{"user_id":88,"name":"Lee?","steam_id":76561199060892634,"connected_time":14754000000000,"state":"active","ping":87},{"user_id":360,"name":"SirNomegusta","steam_id":76561198108929789,"connected_time":754000000000,"state":"active","ping":70},{"user_id":300,"name":"ifuruna","steam_id":76561199506882366,"connected_time":4819000000000,"state":"active","ping":135},{"user_id":369,"name":"Nathaninja","steam_id":76561199397388379,"connected_time":256000000000,"state":"active","ping":55},{"user_id":329,"name":"Notsocreative","steam_id":76561198236372202,"connected_time":2305000000000,"state":"active","ping":71},{"user_id":337,"name":"Wolfen_Daven","steam_id":76561198183415823,"connected_time":1944000000000,"state":"active","ping":88},{"user_id":367,"name":"Psychosis","steam_id":76561198078659070,"connected_time":350000000000,"state":"active","ping":67},{"user_id":364,"name":"PerfectSal","steam_id":76561198816749449,"connected_time":600000000000,"state":"active","ping":59},{"user_id":371,"name":"Big Ol Critties","steam_id":76561198054269834,"connected_time":150000000000,"state":"active","ping":74}]},{"server_id":400,"name":"Uncletopia | Atlanta | 3 | Stopwatch","name_short":"atl-3","host":"atl-1.us.uncletopia.com","port":27035,"enabled":true,"region":"us-east","cc":"us","latitude":33.753746,"longitude":-84.38633,"reserved":0,"last_update":"0001-01-01T00:00:00Z","name_a2s":"Uncletopia | Atlanta | 3 | Stopwatch","protocol":17,"map":"workshop/koth_product_final.ugc454272353","folder":"tf","game":"Team Fortress","app_id":440,"player_count":0,"max_players":24,"Bots":0,"server_type":"Dedicated","server_os":"Linux","password":true,"vac":true,"version":"7961495","steam_id":85568392924515187,"keywords":["cp","nocrits","nodmgspread","uncletopia"],"game_id":440,"stv_port":27036,"stv_name":"Uncletopia | Atlanta | 3 | Stopwatch | STV","players":null},{"server_id":401,"name":"Uncletopia | Atlanta | 4 | Community","name_short":"atl-4","host":"atl-1.us.uncletopia.com","port":27045,"enabled":true,"region":"us-east","cc":"us","latitude":33.753746,"longitude":-84.38633,"reserved":0,"last_update":"0001-01-01T00:00:00Z","name_a2s":"Uncletopia | Atlanta | 4 | Community","protocol":17,"map":"workshop/cp_hazyfort_rc6.ugc1365963729","folder":"tf","game":"Team Fortress","app_id":440,"player_count":0,"max_players":24,"Bots":0,"server_type":"Dedicated","server_os":"Linux","password":true,"vac":true,"version":"7961495","steam_id":85568392924515188,"keywords":["cp","nocrits","nodmgspread","uncletopia"],"game_id":440,"stv_port":27046,"stv_name":"Uncletopia | Atlanta | 4 | Community | STV","players":null},{"server_id":2,"name":"Uncletopia | Chicago | 1 | All Maps","name_short":"chi-1","host":"chi-1.us.uncletopia.com","port":27015,"enabled":true,"region":"us-central","cc":"us","latitude":41.881832,"longitude":-87.62318,"reserved":0,"last_update":"0001-01-01T00:00:00Z","name_a2s":"Uncletopia | Chicago | 1 | All Maps","protocol":17,"map":"cp_steel","folder":"tf","game":"Team Fortress","app_id":440,"player_count":24,"max_players":24,"Bots":0,"server_type":"Dedicated","server_os":"Linux","password":true,"vac":true,"version":"7961495","steam_id":85568392924469984,"keywords":["cp","nocrits","nodmgspread","uncletopia"],"game_id":440,"stv_port":27016,"stv_name":"Uncletopia | Chicago | 1 | All Maps | STV","players":[{"user_id":414,"name":"Raz","steam_id":76561198002426150,"connected_time":586000000000,"state":"active","ping":62},{"user_id":324,"name":"Clean Lines","steam_id":76561197960691518,"connected_time":8373000000000,"state":"active","ping":57},{"user_id":415,"name":"{FITH}™ Halcyon","steam_id":76561198049132808,"connected_time":580000000000,"state":"active","ping":84},{"user_id":416,"name":"3ggsalad3","steam_id":76561199386969191,"connected_time":574000000000,"state":"active","ping":47},{"user_id":420,"name":"Dr Nefario","steam_id":76561198254646194,"connected_time":379000000000,"state":"active","ping":62},{"user_id":288,"name":"Chadmander","steam_id":76561197974136337,"connected_time":13537000000000,"state":"active","ping":45},{"user_id":418,"name":"incredirocks","steam_id":76561198061079993,"connected_time":488000000000,"state":"active","ping":46},{"user_id":430,"name":"flimsy steve","steam_id":76561198421249296,"connected_time":66000000000,"state":"active","ping":90},{"user_id":419,"name":"Pelham Bay Rat","steam_id":76561198096692107,"connected_time":484000000000,"state":"active","ping":61},{"user_id":423,"name":"KingEgamer_03","steam_id":76561199283258364,"connected_time":291000000000,"state":"active","ping":55},{"user_id":412,"name":"og biden pack cart","steam_id":76561198253731826,"connected_time":692000000000,"state":"active","ping":63},{"user_id":398,"name":"gamerboykeith","steam_id":76561198375390532,"connected_time":1370000000000,"state":"active","ping":65},{"user_id":403,"name":"onion","steam_id":76561198242311084,"connected_time":869000000000,"state":"active","ping":63},{"user_id":374,"name":"Ghtf","steam_id":76561198237521982,"connected_time":4084000000000,"state":"active","ping":121},{"user_id":382,"name":".JIFF","steam_id":76561198045181760,"connected_time":3016000000000,"state":"active","ping":76},{"user_id":424,"name":"Heartgold","steam_id":76561199062592062,"connected_time":287000000000,"state":"active","ping":81},{"user_id":397,"name":"gregor","steam_id":76561198057076267,"connected_time":1445000000000,"state":"active","ping":69},{"user_id":395,"name":"Laventhey","steam_id":76561198977523626,"connected_time":1484000000000,"state":"active","ping":70},{"user_id":425,"name":"Botan VEVO","steam_id":76561198282424652,"connected_time":263000000000,"state":"active","ping":66},{"user_id":427,"name":"Jon_595","steam_id":76561198846843547,"connected_time":239000000000,"state":"active","ping":59},{"user_id":386,"name":"Provocator","steam_id":76561197961830410,"connected_time":2368000000000,"state":"active","ping":60},{"user_id":393,"name":"[UHS] K24A4 2.4","steam_id":76561199072970627,"connected_time":2080000000000,"state":"active","ping":48},{"user_id":366,"name":"Giorno Giovanna","steam_id":76561198044106874,"connected_time":4617000000000,"state":"active","ping":111}]},{"server_id":106,"name":"Uncletopia | Chicago | 2 | All Maps","name_short":"chi-2","host":"chi-1.us.uncletopia.com","port":27025,"enabled":true,"region":"us-central","cc":"us","latitude":41.881832,"longitude":-87.62318,"reserved":0,"last_update":"0001-01-01T00:00:00Z","name_a2s":"Uncletopia | Chicago | 2 | All Maps","protocol":17,"map":"pl_pier","folder":"tf","game":"Team Fortress","app_id":440,"player_count":24,"max_players":24,"Bots":0,"server_type":"Dedicated","server_os":"Linux","password":true,"vac":true,"version":"7961495","steam_id":85568392924469985,"keywords":["nocrits","nodmgspread","payload","uncletopia"],"game_id":440,"stv_port":27026,"stv_name":"Uncletopia | Chicago | 2 | All Maps | STV","players":[{"user_id":321,"name":"BumpofNight","steam_id":76561198011581312,"connected_time":4500000000000,"state":"active","ping":74},{"user_id":330,"name":"chicken on quack","steam_id":76561199235538552,"connected_time":2692000000000,"state":"active","ping":96},{"user_id":364,"name":"Komi","steam_id":76561198022397186,"connected_time":749000000000,"state":"active","ping":43},{"user_id":178,"name":"Swash","steam_id":76561197969421355,"connected_time":12359000000000,"state":"active","ping":55},{"user_id":242,"name":"Logical Lime","steam_id":76561198292540230,"connected_time":8688000000000,"state":"active","ping":72},{"user_id":319,"name":"ndvr (femboy (REAL))","steam_id":76561199379200102,"connected_time":4550000000000,"state":"active","ping":55},{"user_id":363,"name":"beats (16:38)","steam_id":76561199245717718,"connected_time":767000000000,"state":"active","ping":54},{"user_id":316,"name":"Femboy Medic Main","steam_id":76561198268225109,"connected_time":5008000000000,"state":"active","ping":76},{"user_id":340,"name":"Tomboy Seeker","steam_id":76561198825412838,"connected_time":1983000000000,"state":"active","ping":79},{"user_id":359,"name":"subdromeda","steam_id":76561198884351860,"connected_time":1164000000000,"state":"active","ping":73},{"user_id":317,"name":"TheoLynwood","steam_id":76561198079596878,"connected_time":4631000000000,"state":"active","ping":62},{"user_id":134,"name":"MedRed™ #IATAH","steam_id":76561198002962970,"connected_time":15384000000000,"state":"active","ping":92},{"user_id":331,"name":"The Foreskin Knight","steam_id":76561197995525419,"connected_time":2677000000000,"state":"active","ping":45},{"user_id":367,"name":"Brandino!","steam_id":76561198000446932,"connected_time":726000000000,"state":"active","ping":70},{"user_id":373,"name":"Rornir","steam_id":76561198081829615,"connected_time":335000000000,"state":"active","ping":40},{"user_id":205,"name":"hej","steam_id":76561197996366940,"connected_time":10623000000000,"state":"active","ping":66},{"user_id":343,"name":"Master Of Whales","steam_id":76561198349104889,"connected_time":1943000000000,"state":"active","ping":121},{"user_id":372,"name":"lynt","steam_id":76561198988333976,"connected_time":342000000000,"state":"active","ping":69},{"user_id":345,"name":"TheHumanTaco119","steam_id":76561198996107520,"connected_time":1939000000000,"state":"active","ping":105},{"user_id":370,"name":"HecticMedic22","steam_id":76561198211153548,"connected_time":375000000000,"state":"active","ping":57},{"user_id":374,"name":"itsPanzerPanda","steam_id":76561199441946346,"connected_time":90000000000,"state":"active","ping":45},{"user_id":369,"name":"john dunce fifteen","steam_id":76561198165299077,"connected_time":690000000000,"state":"active","ping":72},{"user_id":300,"name":"Kerpal45","steam_id":76561198153340350,"connected_time":6230000000000,"state":"active","ping":81},{"user_id":351,"name":"Donkus","steam_id":76561198076654704,"connected_time":1765000000000,"state":"active","ping":80}]},{"server_id":402,"name":"Uncletopia | Chicago | 3 | All Maps","name_short":"chi-3","host":"chi-1.us.uncletopia.com","port":27035,"enabled":true,"region":"us-central","cc":"us","latitude":41.881832,"longitude":-87.62318,"reserved":0,"last_update":"0001-01-01T00:00:00Z","name_a2s":"Uncletopia | Chicago | 3 | All Maps","protocol":17,"map":"pl_frontier_final","folder":"tf","game":"Team Fortress","app_id":440,"player_count":24,"max_players":24,"Bots":0,"server_type":"Dedicated","server_os":"Linux","password":true,"vac":true,"version":"7961495","steam_id":85568392924515191,"keywords":["nocrits","nodmgspread","payload","uncletopia"],"game_id":440,"stv_port":27036,"stv_name":"Uncletopia | Chicago | 3 | All Maps | STV","players":[{"user_id":337,"name":"Kookies","steam_id":76561198085117729,"connected_time":1073000000000,"state":"active","ping":76},{"user_id":338,"name":"Prsm","steam_id":76561198053344995,"connected_time":1061000000000,"state":"active","ping":60},{"user_id":349,"name":"Bookmark","steam_id":76561198210918443,"connected_time":149000000000,"state":"active","ping":101},{"user_id":276,"name":"HOMIE","steam_id":76561198057325155,"connected_time":4364000000000,"state":"active","ping":46},{"user_id":317,"name":"the dishtv1605","steam_id":76561198061284371,"connected_time":2265000000000,"state":"active","ping":62},{"user_id":339,"name":"HeidiBTW","steam_id":76561198889596543,"connected_time":1050000000000,"state":"active","ping":60},{"user_id":343,"name":"SlowGamer95","steam_id":76561197988920284,"connected_time":836000000000,"state":"active","ping":53},{"user_id":319,"name":"silver","steam_id":76561198081906712,"connected_time":2227000000000,"state":"active","ping":70},{"user_id":261,"name":"ChaosBlast","steam_id":76561198071557391,"connected_time":5418000000000,"state":"active","ping":94},{"user_id":309,"name":"DethSQRL","steam_id":76561199149628610,"connected_time":2599000000000,"state":"active","ping":86},{"user_id":175,"name":"Brotein","steam_id":76561198053743602,"connected_time":11792000000000,"state":"active","ping":55},{"user_id":296,"name":"Maxpowi","steam_id":76561198095558036,"connected_time":3488000000000,"state":"active","ping":45},{"user_id":279,"name":"Blaze","steam_id":76561198043797702,"connected_time":4320000000000,"state":"active","ping":51},{"user_id":344,"name":"oppenheimer style","steam_id":76561198026664629,"connected_time":795000000000,"state":"active","ping":60},{"user_id":327,"name":"Ozald","steam_id":76561199092019322,"connected_time":1822000000000,"state":"active","ping":75},{"user_id":340,"name":"Someguu","steam_id":76561199029835350,"connected_time":1037000000000,"state":"active","ping":87},{"user_id":328,"name":"Skudge Sister","steam_id":76561198041766766,"connected_time":1808000000000,"state":"active","ping":65},{"user_id":342,"name":"Dwarf","steam_id":76561198333801915,"connected_time":863000000000,"state":"active","ping":64},{"user_id":335,"name":"esoobac","steam_id":76561198010370396,"connected_time":1447000000000,"state":"active","ping":103},{"user_id":331,"name":"Vacuostester58","steam_id":76561198283244105,"connected_time":1702000000000,"state":"active","ping":76},{"user_id":271,"name":"MANSLAUGHTER","steam_id":76561198079215612,"connected_time":4402000000000,"state":"active","ping":39},{"user_id":323,"name":"Soda","steam_id":76561198219209367,"connected_time":1946000000000,"state":"active","ping":72},{"user_id":330,"name":"Cad","steam_id":76561198312145232,"connected_time":1804000000000,"state":"active","ping":89},{"user_id":321,"name":"vinny6","steam_id":76561198386735728,"connected_time":2013000000000,"state":"active","ping":69}]},{"server_id":403,"name":"Uncletopia | Chicago | 4 | All Maps","name_short":"chi-4","host":"chi-1.us.uncletopia.com","port":27045,"enabled":true,"region":"us-central","cc":"us","latitude":41.881832,"longitude":-87.62318,"reserved":0,"last_update":"0001-01-01T00:00:00Z","name_a2s":"Uncletopia | Chicago | 4 | All Maps","protocol":17,"map":"pl_barnblitz","folder":"tf","game":"Team Fortress","app_id":440,"player_count":23,"max_players":24,"Bots":0,"server_type":"Dedicated","server_os":"Linux","password":true,"vac":true,"version":"7961495","steam_id":85568392924515193,"keywords":["nocrits","nodmgspread","payload","uncletopia"],"game_id":440,"stv_port":27046,"stv_name":"Uncletopia | Chicago | 4 | All Maps | STV","players":[{"user_id":189,"name":"matthewcass444","steam_id":76561199304179685,"connected_time":2431000000000,"state":"active","ping":91},{"user_id":161,"name":"ölümün tatlısıyım","steam_id":76561198213385439,"connected_time":3652000000000,"state":"active","ping":111},{"user_id":176,"name":"Ourseem","steam_id":76561199406432468,"connected_time":3364000000000,"state":"active","ping":65},{"user_id":168,"name":"Outer","steam_id":76561199121781498,"connected_time":3594000000000,"state":"active","ping":75},{"user_id":123,"name":"fresco","steam_id":76561199101199477,"connected_time":6191000000000,"state":"active","ping":47},{"user_id":215,"name":"Colossal Falafel","steam_id":76561198108086245,"connected_time":608000000000,"state":"active","ping":46},{"user_id":218,"name":"SLiPpeRyJoe.nosound","steam_id":76561197977206359,"connected_time":7000000000,"state":"spawning","ping":46},{"user_id":217,"name":"ReubenSalsa","steam_id":76561198110060815,"connected_time":41000000000,"state":"active","ping":53},{"user_id":219,"name":"...","steam_id":76561199102883421,"connected_time":6000000000,"state":"spawning","ping":83},{"user_id":208,"name":"frog on the floor","steam_id":76561198041048289,"connected_time":1216000000000,"state":"active","ping":60},{"user_id":203,"name":"2002 Toyota Corolla VE","steam_id":76561198149172070,"connected_time":1669000000000,"state":"active","ping":74},{"user_id":160,"name":"OniSlays","steam_id":76561198043875292,"connected_time":3680000000000,"state":"active","ping":90},{"user_id":198,"name":"Samrizo el Chorizo","steam_id":76561198009838162,"connected_time":2046000000000,"state":"active","ping":58},{"user_id":200,"name":"johnny_potatoes","steam_id":76561198823526581,"connected_time":1876000000000,"state":"active","ping":74},{"user_id":206,"name":"Sean","steam_id":76561199367470003,"connected_time":1345000000000,"state":"active","ping":104},{"user_id":207,"name":"leumas","steam_id":76561198240408540,"connected_time":1228000000000,"state":"active","ping":79},{"user_id":172,"name":"KrashBoomBang","steam_id":76561199002978777,"connected_time":3466000000000,"state":"active","ping":62},{"user_id":186,"name":"cfamadas","steam_id":76561199055881965,"connected_time":3025000000000,"state":"active","ping":74},{"user_id":211,"name":"BUFF THE SCORCH SHOT","steam_id":76561198042899484,"connected_time":1173000000000,"state":"active","ping":86},{"user_id":194,"name":"Boxcars","steam_id":76561198120978767,"connected_time":2291000000000,"state":"active","ping":102},{"user_id":204,"name":"Grumbo","steam_id":76561199002106124,"connected_time":1656000000000,"state":"active","ping":86},{"user_id":179,"name":"I'mWalkerHere","steam_id":76561199310055450,"connected_time":3320000000000,"state":"active","ping":79},{"user_id":216,"name":"Ryxie","steam_id":76561198032404752,"connected_time":580000000000,"state":"active","ping":64}]},{"server_id":36,"name":"Uncletopia | Chicago | 5 | All Maps","name_short":"chi-5","host":"chi-2.us.uncletopia.com","port":27015,"enabled":true,"region":"us-central","cc":"us","latitude":41.881832,"longitude":-87.62318,"reserved":0,"last_update":"0001-01-01T00:00:00Z","name_a2s":"Uncletopia | Chicago | 5 | All Maps","protocol":17,"map":"koth_harvest_final","folder":"tf","game":"Team Fortress","app_id":440,"player_count":24,"max_players":24,"Bots":0,"server_type":"Dedicated","server_os":"Linux","password":true,"vac":true,"version":"7961495","steam_id":85568392924866362,"keywords":["cp","nocrits","nodmgspread","uncletopia"],"game_id":440,"stv_port":27016,"stv_name":"Uncletopia | Chicago | 5 | All Maps | STV","players":[{"user_id":405,"name":"I WAS BUMPING KELPY G","steam_id":76561198254216920,"connected_time":6359000000000,"state":"active","ping":81},{"user_id":427,"name":"Dokkibai","steam_id":76561198355935693,"connected_time":5166000000000,"state":"active","ping":47},{"user_id":454,"name":"Smash Bruh","steam_id":76561198083923618,"connected_time":3057000000000,"state":"active","ping":107},{"user_id":319,"name":"The Final Terminus","steam_id":76561197964985183,"connected_time":11255000000000,"state":"active","ping":57},{"user_id":365,"name":"Cthulwho?","steam_id":76561198165550810,"connected_time":8332000000000,"state":"active","ping":60},{"user_id":497,"name":"Andallfor","steam_id":76561198350143349,"connected_time":2000000000,"state":"spawning","ping":71},{"user_id":453,"name":"Piss Cabinet","steam_id":76561198044831114,"connected_time":3129000000000,"state":"active","ping":53},{"user_id":485,"name":"HurRhombus","steam_id":76561198080839440,"connected_time":617000000000,"state":"active","ping":73},{"user_id":487,"name":"Free2Play","steam_id":76561198065920486,"connected_time":521000000000,"state":"active","ping":33},{"user_id":489,"name":"Daannnyyyy","steam_id":76561198354681920,"connected_time":466000000000,"state":"active","ping":71},{"user_id":456,"name":"Liver stealer","steam_id":76561199029954287,"connected_time":2949000000000,"state":"active","ping":127},{"user_id":470,"name":"Jessicamustdie","steam_id":76561198045230921,"connected_time":1593000000000,"state":"active","ping":63},{"user_id":480,"name":"sleepy3773","steam_id":76561199142381965,"connected_time":886000000000,"state":"active","ping":100},{"user_id":490,"name":"chicken.","steam_id":76561198115910431,"connected_time":457000000000,"state":"active","ping":80},{"user_id":443,"name":"Chunky Pud","steam_id":76561198035393500,"connected_time":3840000000000,"state":"active","ping":61},{"user_id":492,"name":"shroom.","steam_id":76561198140792282,"connected_time":391000000000,"state":"active","ping":58},{"user_id":496,"name":"Kalioc","steam_id":76561198042557843,"connected_time":157000000000,"state":"active","ping":86},{"user_id":493,"name":"Squash","steam_id":76561198054254518,"connected_time":379000000000,"state":"active","ping":63},{"user_id":482,"name":"mootier","steam_id":76561198030365192,"connected_time":865000000000,"state":"active","ping":75},{"user_id":446,"name":"hbort95","steam_id":76561198988223860,"connected_time":3777000000000,"state":"active","ping":75},{"user_id":483,"name":"Gun","steam_id":76561199264073138,"connected_time":842000000000,"state":"active","ping":90},{"user_id":494,"name":"Shyman","steam_id":76561197983988353,"connected_time":375000000000,"state":"active","ping":49},{"user_id":476,"name":"evilgato","steam_id":76561198070688101,"connected_time":1376000000000,"state":"active","ping":43},{"user_id":477,"name":"corrupted giggle gas","steam_id":76561198452517134,"connected_time":1217000000000,"state":"active","ping":158}]},{"server_id":37,"name":"Uncletopia | Chicago | 6 | All Maps","name_short":"chi-6","host":"chi-2.us.uncletopia.com","port":27025,"enabled":true,"region":"us-central","cc":"us","latitude":41.881832,"longitude":-87.62318,"reserved":0,"last_update":"0001-01-01T00:00:00Z","name_a2s":"Uncletopia | Chicago | 6 | All Maps","protocol":17,"map":"pl_swiftwater_final1","folder":"tf","game":"Team Fortress","app_id":440,"player_count":23,"max_players":24,"Bots":0,"server_type":"Dedicated","server_os":"Linux","password":true,"vac":true,"version":"7961495","steam_id":85568392924866363,"keywords":["nocrits","nodmgspread","payload","uncletopia"],"game_id":440,"stv_port":27026,"stv_name":"Uncletopia | Chicago | 6 | All Maps | STV","players":[{"user_id":597,"name":"dog eggs","steam_id":76561197960411847,"connected_time":2834000000000,"state":"active","ping":61},{"user_id":598,"name":"SIN K4RMA","steam_id":76561198869287223,"connected_time":2822000000000,"state":"active","ping":100},{"user_id":613,"name":"klevmeister","steam_id":76561198799106535,"connected_time":1928000000000,"state":"active","ping":90},{"user_id":638,"name":"Satan's Salad","steam_id":76561198043965827,"connected_time":230000000000,"state":"active","ping":54},{"user_id":630,"name":"MillerWhite","steam_id":76561198076060357,"connected_time":411000000000,"state":"active","ping":82},{"user_id":617,"name":"No'el","steam_id":76561198063959574,"connected_time":1858000000000,"state":"active","ping":83},{"user_id":628,"name":"AverageRundownJoe","steam_id":76561198059359620,"connected_time":650000000000,"state":"active","ping":72},{"user_id":631,"name":"Stoopnagle","steam_id":76561198011942560,"connected_time":386000000000,"state":"active","ping":85},{"user_id":625,"name":"Dr.StrangeGlove","steam_id":76561198286114229,"connected_time":954000000000,"state":"active","ping":67},{"user_id":584,"name":"Godmode","steam_id":76561198076240365,"connected_time":3430000000000,"state":"active","ping":64},{"user_id":632,"name":"rf","steam_id":76561198195359229,"connected_time":369000000000,"state":"active","ping":90},{"user_id":604,"name":"Amazingamerhawk","steam_id":76561199064935924,"connected_time":2324000000000,"state":"active","ping":68},{"user_id":612,"name":"Goomba gaming","steam_id":76561199470354045,"connected_time":2052000000000,"state":"active","ping":113},{"user_id":549,"name":"Srg-Waffle","steam_id":76561198204555116,"connected_time":5449000000000,"state":"active","ping":71},{"user_id":605,"name":"Emerald_Knight","steam_id":76561198067372868,"connected_time":2296000000000,"state":"active","ping":54},{"user_id":641,"name":"Mystical Heart","steam_id":76561198064015187,"connected_time":14000000000,"state":"active","ping":70},{"user_id":635,"name":"harold of rock salt kingdom","steam_id":76561199016285746,"connected_time":281000000000,"state":"active","ping":87},{"user_id":627,"name":"gamerfan539","steam_id":76561198803527852,"connected_time":782000000000,"state":"active","ping":69},{"user_id":619,"name":"Nick Nak the Tic Tac","steam_id":76561198061758497,"connected_time":1838000000000,"state":"active","ping":60},{"user_id":615,"name":"Just a Festive TimeButt","steam_id":76561198074261742,"connected_time":1907000000000,"state":"active","ping":70},{"user_id":620,"name":"andyiscolorless","steam_id":76561199239870921,"connected_time":1822000000000,"state":"active","ping":153},{"user_id":636,"name":"Kartyac","steam_id":76561197991069005,"connected_time":257000000000,"state":"active","ping":88},{"user_id":639,"name":"the meat man","steam_id":76561198037921140,"connected_time":209000000000,"state":"active","ping":104}]},{"server_id":38,"name":"Uncletopia | Chicago | 7 | Stopwatch","name_short":"chi-7","host":"chi-2.us.uncletopia.com","port":27035,"enabled":true,"region":"us-central","cc":"us","latitude":41.881832,"longitude":-87.62318,"reserved":0,"last_update":"0001-01-01T00:00:00Z","name_a2s":"Uncletopia | Chicago | 7 | Stopwatch","protocol":17,"map":"workshop/koth_bagel_rc6.ugc2514036946","folder":"tf","game":"Team Fortress","app_id":440,"player_count":0,"max_players":24,"Bots":0,"server_type":"Dedicated","server_os":"Linux","password":true,"vac":true,"version":"7961495","steam_id":85568392924866364,"keywords":["cp","nocrits","nodmgspread","uncletopia"],"game_id":440,"stv_port":27036,"stv_name":"Uncletopia | Chicago | 7 | Stopwatch | STV","players":null},{"server_id":39,"name":"Uncletopia | Chicago | 8 | Community","name_short":"chi-8","host":"chi-2.us.uncletopia.com","port":27045,"enabled":true,"region":"us-central","cc":"us","latitude":41.881832,"longitude":-87.62318,"reserved":0,"last_update":"0001-01-01T00:00:00Z","name_a2s":"Uncletopia | Chicago | 8 | Community","protocol":17,"map":"workshop/pl_cashworks_final1.ugc2904065412","folder":"tf","game":"Team Fortress","app_id":440,"player_count":24,"max_players":24,"Bots":0,"server_type":"Dedicated","server_os":"Linux","password":true,"vac":true,"version":"7961495","steam_id":85568392924866365,"keywords":["nocrits","nodmgspread","payload","uncletopia"],"game_id":440,"stv_port":27046,"stv_name":"Uncletopia | Chicago | 8 | Community | STV","players":[{"user_id":74,"name":"opamojab","steam_id":76561198284988954,"connected_time":1513000000000,"state":"active","ping":52},{"user_id":71,"name":"frank","steam_id":76561198137777483,"connected_time":1594000000000,"state":"active","ping":72},{"user_id":90,"name":"Chuggarocks","steam_id":76561198135650120,"connected_time":466000000000,"state":"active","ping":83},{"user_id":80,"name":"Jacob Hornberger 2016","steam_id":76561198204549723,"connected_time":1366000000000,"state":"active","ping":77},{"user_id":93,"name":"wolfgrey139","steam_id":76561199206554751,"connected_time":121000000000,"state":"active","ping":68},{"user_id":92,"name":"☼Barracuda☼","steam_id":76561198013022083,"connected_time":182000000000,"state":"active","ping":64},{"user_id":88,"name":"Hawkborne","steam_id":76561198107249245,"connected_time":666000000000,"state":"active","ping":68},{"user_id":94,"name":"King","steam_id":76561198123927752,"connected_time":89000000000,"state":"active","ping":54},{"user_id":89,"name":"Lord Scrubling","steam_id":76561198263744445,"connected_time":655000000000,"state":"active","ping":81},{"user_id":54,"name":"irritable vowel syndrome","steam_id":76561198117033273,"connected_time":3691000000000,"state":"active","ping":147},{"user_id":21,"name":"not a good idea","steam_id":76561198032259680,"connected_time":5189000000000,"state":"active","ping":81},{"user_id":20,"name":"bin atlas from atlas","steam_id":76561198075089009,"connected_time":5215000000000,"state":"active","ping":114},{"user_id":95,"name":"NOTAGAMER404","steam_id":76561199165760820,"connected_time":62000000000,"state":"active","ping":55},{"user_id":91,"name":"Brastion","steam_id":76561198257707303,"connected_time":453000000000,"state":"active","ping":76},{"user_id":64,"name":"Nortel Network Telephone T7316","steam_id":76561198399261089,"connected_time":2548000000000,"state":"active","ping":90},{"user_id":38,"name":"defcon","steam_id":76561198100656328,"connected_time":4726000000000,"state":"active","ping":71},{"user_id":50,"name":"ethanf","steam_id":76561198103930234,"connected_time":4185000000000,"state":"active","ping":58},{"user_id":96,"name":"nonagon infinity","steam_id":76561198397662124,"connected_time":36000000000,"state":"active","ping":89},{"user_id":85,"name":"War on Drugs Fighter","steam_id":76561198103211035,"connected_time":1012000000000,"state":"active","ping":62},{"user_id":35,"name":"GnarlySheep","steam_id":76561198067288233,"connected_time":4869000000000,"state":"active","ping":54},{"user_id":79,"name":"Santa Gaming","steam_id":76561198078391538,"connected_time":1421000000000,"state":"active","ping":64},{"user_id":52,"name":"ollipc_64","steam_id":76561199451074534,"connected_time":4124000000000,"state":"active","ping":56},{"user_id":87,"name":"purplerosie334","steam_id":76561199491020174,"connected_time":753000000000,"state":"active","ping":94},{"user_id":47,"name":"Blue_car_Reid","steam_id":76561198161120719,"connected_time":4524000000000,"state":"active","ping":60}]},{"server_id":8,"name":"Uncletopia | Dallas | 1 | All Maps","name_short":"dal-1","host":"dal-1.us.uncletopia.com","port":27015,"enabled":true,"region":"us-central","cc":"us","latitude":32.779167,"longitude":-96.80889,"reserved":0,"last_update":"0001-01-01T00:00:00Z","name_a2s":"Uncletopia | Dallas | 1 | All Maps","protocol":17,"map":"cp_snakewater_final1","folder":"tf","game":"Team Fortress","app_id":440,"player_count":24,"max_players":24,"Bots":0,"server_type":"Dedicated","server_os":"Linux","password":true,"vac":true,"version":"7961495","steam_id":85568392924469986,"keywords":["cp","nocrits","nodmgspread","uncletopia"],"game_id":440,"stv_port":27016,"stv_name":"Uncletopia | Dallas | 1 | All Maps | STV","players":[{"user_id":198,"name":"squaggles!","steam_id":76561197994995011,"connected_time":3434000000000,"state":"active","ping":45},{"user_id":222,"name":"37 septillion tapeworms","steam_id":76561198186128723,"connected_time":2338000000000,"state":"active","ping":47},{"user_id":199,"name":"TGD","steam_id":76561198197582594,"connected_time":3393000000000,"state":"active","ping":45},{"user_id":208,"name":"parsee","steam_id":76561198095139889,"connected_time":3171000000000,"state":"active","ping":85},{"user_id":151,"name":"Imrgrim","steam_id":76561198135866481,"connected_time":7488000000000,"state":"active","ping":61},{"user_id":240,"name":"plink","steam_id":76561198057829889,"connected_time":560000000000,"state":"active","ping":61},{"user_id":247,"name":"8o8","steam_id":76561198996923332,"connected_time":206000000000,"state":"active","ping":77},{"user_id":248,"name":"BoxOfStaples","steam_id":76561198834773017,"connected_time":160000000000,"state":"active","ping":98},{"user_id":249,"name":"LerN","steam_id":76561198083463877,"connected_time":157000000000,"state":"active","ping":76},{"user_id":252,"name":"ᗜˬᗜ","steam_id":76561198831996918,"connected_time":92000000000,"state":"active","ping":75},{"user_id":255,"name":"Randle of John","steam_id":76561198328210524,"connected_time":32000000000,"state":"active","ping":78},{"user_id":232,"name":"ark","steam_id":76561198041066271,"connected_time":1239000000000,"state":"active","ping":70},{"user_id":253,"name":"Koala Bear","steam_id":76561198118025990,"connected_time":85000000000,"state":"active","ping":75},{"user_id":217,"name":"shadow6","steam_id":76561197979807910,"connected_time":2495000000000,"state":"active","ping":117},{"user_id":254,"name":"Scrooge McCuck","steam_id":76561198045919938,"connected_time":77000000000,"state":"active","ping":40},{"user_id":225,"name":"B.","steam_id":76561198040445907,"connected_time":1808000000000,"state":"active","ping":77},{"user_id":256,"name":"Primordial pouch","steam_id":76561198077993687,"connected_time":18000000000,"state":"active","ping":99},{"user_id":206,"name":"[ £Ÿ,Đ ] Not AirmanBlueJay","steam_id":76561198030901346,"connected_time":3213000000000,"state":"active","ping":89},{"user_id":239,"name":"MegaMudkipz","steam_id":76561198354776000,"connected_time":886000000000,"state":"active","ping":62},{"user_id":211,"name":"SE X","steam_id":76561198094525829,"connected_time":3067000000000,"state":"active","ping":81},{"user_id":233,"name":"Joshy","steam_id":76561198061405421,"connected_time":1233000000000,"state":"active","ping":90},{"user_id":242,"name":"tunaa","steam_id":76561198362763159,"connected_time":436000000000,"state":"active","ping":84},{"user_id":237,"name":"famcal2017","steam_id":76561198973479241,"connected_time":1162000000000,"state":"active","ping":105},{"user_id":246,"name":"Roxii :3","steam_id":76561198799922000,"connected_time":328000000000,"state":"active","ping":79}]},{"server_id":108,"name":"Uncletopia | Dallas | 2 | All Maps","name_short":"dal-2","host":"dal-1.us.uncletopia.com","port":27025,"enabled":true,"region":"us-central","cc":"us","latitude":32.779167,"longitude":-96.80889,"reserved":0,"last_update":"0001-01-01T00:00:00Z","name_a2s":"Uncletopia | Dallas | 2 | All Maps","protocol":17,"map":"cp_dustbowl","folder":"tf","game":"Team Fortress","app_id":440,"player_count":22,"max_players":24,"Bots":0,"server_type":"Dedicated","server_os":"Linux","password":true,"vac":true,"version":"7961495","steam_id":85568392924469988,"keywords":["cp","nocrits","nodmgspread","uncletopia"],"game_id":440,"stv_port":27026,"stv_name":"Uncletopia | Dallas | 2 | All Maps | STV","players":[{"user_id":316,"name":"frenemy","steam_id":76561198011363677,"connected_time":573000000000,"state":"active","ping":62},{"user_id":324,"name":"really gay gun spy main","steam_id":76561199026721822,"connected_time":277000000000,"state":"active","ping":83},{"user_id":306,"name":"StarGirl","steam_id":76561197993782508,"connected_time":968000000000,"state":"active","ping":59},{"user_id":308,"name":"An00bis","steam_id":76561198044084508,"connected_time":918000000000,"state":"active","ping":61},{"user_id":317,"name":"Rhutebeer","steam_id":76561198018302761,"connected_time":545000000000,"state":"active","ping":67},{"user_id":311,"name":"Mocha Josie","steam_id":76561198066452726,"connected_time":870000000000,"state":"active","ping":76},{"user_id":318,"name":"Dinoboi","steam_id":76561198163998774,"connected_time":522000000000,"state":"active","ping":98},{"user_id":210,"name":"Bloody Hydra","steam_id":76561198133939192,"connected_time":6469000000000,"state":"active","ping":120},{"user_id":325,"name":"Non-Euclidean Tragic","steam_id":76561197999978254,"connected_time":263000000000,"state":"active","ping":46},{"user_id":321,"name":"YoshiGaming64","steam_id":76561199396299350,"connected_time":394000000000,"state":"active","ping":176},{"user_id":326,"name":"Fire Axe","steam_id":76561198280241812,"connected_time":254000000000,"state":"active","ping":89},{"user_id":329,"name":"Lil' Baby","steam_id":76561197999391252,"connected_time":217000000000,"state":"active","ping":91},{"user_id":333,"name":"woof","steam_id":76561198016562343,"connected_time":112000000000,"state":"active","ping":78},{"user_id":328,"name":"Koffy","steam_id":76561198184386039,"connected_time":236000000000,"state":"active","ping":79},{"user_id":330,"name":"Team Fortress","steam_id":76561198058722801,"connected_time":171000000000,"state":"active","ping":170},{"user_id":331,"name":"Titar Industries","steam_id":76561198143078476,"connected_time":166000000000,"state":"active","ping":87},{"user_id":283,"name":"That guy","steam_id":76561199134891714,"connected_time":3128000000000,"state":"active","ping":85},{"user_id":332,"name":"Hatchet","steam_id":76561198043237439,"connected_time":131000000000,"state":"active","ping":91},{"user_id":334,"name":"Grify","steam_id":76561198012292317,"connected_time":70000000000,"state":"active","ping":78},{"user_id":335,"name":"mkl","steam_id":76561197986401685,"connected_time":14000000000,"state":"active","ping":51},{"user_id":336,"name":"choi","steam_id":76561198053669887,"connected_time":10000000000,"state":"spawning","ping":81},{"user_id":301,"name":"The Weatherman is fucking dying","steam_id":76561198000445420,"connected_time":1298000000000,"state":"active","ping":66}]},{"server_id":404,"name":"Uncletopia | Dallas | 3 | All Maps","name_short":"dal-3","host":"dal-1.us.uncletopia.com","port":27035,"enabled":true,"region":"us-central","cc":"us","latitude":32.779167,"longitude":-96.80889,"reserved":0,"last_update":"0001-01-01T00:00:00Z","name_a2s":"Uncletopia | Dallas | 3 | All Maps","protocol":17,"map":"cp_gorge","folder":"tf","game":"Team Fortress","app_id":440,"player_count":1,"max_players":24,"Bots":0,"server_type":"Dedicated","server_os":"Linux","password":true,"vac":true,"version":"7961495","steam_id":85568392924515219,"keywords":["cp","nocrits","nodmgspread","uncletopia"],"game_id":440,"stv_port":27036,"stv_name":"Uncletopia | Dallas | 3 | All Maps | STV","players":[{"user_id":7,"name":"mj1203mom","steam_id":76561199060392010,"connected_time":105000000000,"state":"active","ping":40}]},{"server_id":405,"name":"Uncletopia | Dallas | 4 | Community","name_short":"dal-4","host":"dal-1.us.uncletopia.com","port":27045,"enabled":true,"region":"us-central","cc":"us","latitude":32.779167,"longitude":-96.80889,"reserved":0,"last_update":"0001-01-01T00:00:00Z","name_a2s":"Uncletopia | Dallas | 4 | Community","protocol":17,"map":"workshop/koth_synthetic_rc6a.ugc1549817316","folder":"tf","game":"Team Fortress","app_id":440,"player_count":0,"max_players":24,"Bots":0,"server_type":"Dedicated","server_os":"Linux","password":true,"vac":true,"version":"7961495","steam_id":85568392924515220,"keywords":["cp","nocrits","nodmgspread","uncletopia"],"game_id":440,"stv_port":27046,"stv_name":"Uncletopia | Dallas | 4 | Community | STV","players":null},{"server_id":5,"name":"Uncletopia | Frankfurt | 1 | All Maps","name_short":"frk-1","host":"frk-1.de.uncletopia.com","port":27015,"enabled":true,"region":"eu","cc":"de","latitude":50.110924,"longitude":8.682127,"reserved":0,"last_update":"0001-01-01T00:00:00Z","name_a2s":"Uncletopia | Frankfurt | 1 | All Maps","protocol":17,"map":"pl_borneo","folder":"tf","game":"Team Fortress","app_id":440,"player_count":0,"max_players":24,"Bots":0,"server_type":"Dedicated","server_os":"Linux","password":true,"vac":true,"version":"7961495","steam_id":85568392924469989,"keywords":["nocrits","nodmgspread","payload","uncletopia"],"game_id":440,"stv_port":27016,"stv_name":"Uncletopia | Frankfurt | 1 | All Maps | STV","players":null},{"server_id":110,"name":"Uncletopia | Frankfurt | 2 | All Maps","name_short":"frk-2","host":"frk-1.de.uncletopia.com","port":27025,"enabled":true,"region":"eu","cc":"de","latitude":50.110924,"longitude":8.682127,"reserved":0,"last_update":"0001-01-01T00:00:00Z","name_a2s":"Uncletopia | Frankfurt | 2 | All Maps","protocol":17,"map":"pl_pier","folder":"tf","game":"Team Fortress","app_id":440,"player_count":24,"max_players":24,"Bots":0,"server_type":"Dedicated","server_os":"Linux","password":true,"vac":true,"version":"7961495","steam_id":85568392924469990,"keywords":["nocrits","nodmgspread","payload","uncletopia"],"game_id":440,"stv_port":27026,"stv_name":"Uncletopia | Frankfurt | 2 | All Maps | STV","players":[{"user_id":673,"name":"LadyMissfit","steam_id":76561198042236349,"connected_time":1435000000000,"state":"active","ping":59},{"user_id":669,"name":"UltimateAura","steam_id":76561198338361324,"connected_time":2046000000000,"state":"active","ping":43},{"user_id":639,"name":"ifre3","steam_id":76561198052545817,"connected_time":4415000000000,"state":"active","ping":99},{"user_id":682,"name":"Kaimbe","steam_id":76561198027849006,"connected_time":951000000000,"state":"active","ping":60},{"user_id":624,"name":"Glitchas","steam_id":76561198883610618,"connected_time":6253000000000,"state":"active","ping":75},{"user_id":652,"name":"S0LDaTo","steam_id":76561198269413360,"connected_time":3274000000000,"state":"active","ping":58},{"user_id":653,"name":"Bebol_420","steam_id":76561198074604296,"connected_time":3248000000000,"state":"active","ping":45},{"user_id":667,"name":"Oaky Leaf","steam_id":76561198162821920,"connected_time":2183000000000,"state":"active","ping":76},{"user_id":671,"name":"Milk","steam_id":76561198125876588,"connected_time":1790000000000,"state":"active","ping":54},{"user_id":635,"name":"sus man","steam_id":76561199234935153,"connected_time":4546000000000,"state":"active","ping":138},{"user_id":663,"name":"yush","steam_id":76561198121688934,"connected_time":2294000000000,"state":"active","ping":81},{"user_id":675,"name":"Charon","steam_id":76561198061714753,"connected_time":1200000000000,"state":"active","ping":80},{"user_id":686,"name":"Snowmotion","steam_id":76561198075022454,"connected_time":844000000000,"state":"active","ping":46},{"user_id":665,"name":"FarbrorBarbro","steam_id":76561198044432289,"connected_time":2252000000000,"state":"active","ping":67},{"user_id":681,"name":"Kolodziej","steam_id":76561198088672385,"connected_time":964000000000,"state":"active","ping":60},{"user_id":621,"name":"Killer8880","steam_id":76561199094449560,"connected_time":6284000000000,"state":"active","ping":89},{"user_id":627,"name":"big mig","steam_id":76561198272318522,"connected_time":5498000000000,"state":"active","ping":90},{"user_id":680,"name":"The Power","steam_id":76561198060566884,"connected_time":980000000000,"state":"active","ping":53},{"user_id":687,"name":"ek!n","steam_id":76561198076219289,"connected_time":827000000000,"state":"active","ping":59},{"user_id":688,"name":"Huskai","steam_id":76561198141512362,"connected_time":811000000000,"state":"active","ping":55},{"user_id":684,"name":"LiterallyRyanGosling","steam_id":76561199017856691,"connected_time":899000000000,"state":"active","ping":66},{"user_id":692,"name":"Germanium_Ge","steam_id":76561198130561775,"connected_time":687000000000,"state":"active","ping":45},{"user_id":690,"name":"bålly","steam_id":76561198037922597,"connected_time":802000000000,"state":"active","ping":54},{"user_id":623,"name":"ArPapar","steam_id":76561198327540328,"connected_time":6265000000000,"state":"active","ping":100}]},{"server_id":308,"name":"Uncletopia | Frankfurt | 3 | All Maps","name_short":"frk-3","host":"frk-1.de.uncletopia.com","port":27035,"enabled":true,"region":"eu","cc":"de","latitude":50.110924,"longitude":8.682127,"reserved":0,"last_update":"0001-01-01T00:00:00Z","name_a2s":"Uncletopia | Frankfurt | 3 | All Maps","protocol":17,"map":"cp_egypt_final","folder":"tf","game":"Team Fortress","app_id":440,"player_count":4,"max_players":24,"Bots":0,"server_type":"Dedicated","server_os":"Linux","password":true,"vac":true,"version":"7961495","steam_id":85568392924504274,"keywords":["cp","nocrits","nodmgspread","uncletopia"],"game_id":440,"stv_port":27036,"stv_name":"Uncletopia | Frankfurt | 3 | All Maps | STV","players":[{"user_id":495,"name":"Ethan","steam_id":76561198342605680,"connected_time":673000000000,"state":"active","ping":45},{"user_id":496,"name":"Calsim","steam_id":76561198164877219,"connected_time":557000000000,"state":"active","ping":51},{"user_id":497,"name":"stanislava.pitrov13","steam_id":76561198267829540,"connected_time":183000000000,"state":"active","ping":56},{"user_id":462,"name":"compact disc","steam_id":76561198154677956,"connected_time":3397000000000,"state":"active","ping":60}]},{"server_id":309,"name":"Uncletopia | Frankfurt | 4 | All Maps","name_short":"frk-4","host":"frk-1.de.uncletopia.com","port":27045,"enabled":true,"region":"eu","cc":"de","latitude":50.110924,"longitude":8.682127,"reserved":0,"last_update":"0001-01-01T00:00:00Z","name_a2s":"Uncletopia | Frankfurt | 4 | All Maps","protocol":17,"map":"pl_frontier_final","folder":"tf","game":"Team Fortress","app_id":440,"player_count":24,"max_players":24,"Bots":0,"server_type":"Dedicated","server_os":"Linux","password":true,"vac":true,"version":"7961495","steam_id":85568392924504275,"keywords":["nocrits","nodmgspread","payload","uncletopia"],"game_id":440,"stv_port":27046,"stv_name":"Uncletopia | Frankfurt | 4 | All Maps | STV","players":[{"user_id":639,"name":"Ville","steam_id":76561198137424821,"connected_time":143000000000,"state":"active","ping":54},{"user_id":641,"name":"The_Sarge444","steam_id":76561198240120308,"connected_time":70000000000,"state":"active","ping":237},{"user_id":632,"name":"equal","steam_id":76561198248994066,"connected_time":428000000000,"state":"active","ping":75},{"user_id":606,"name":"Mike1225","steam_id":76561198861615835,"connected_time":1200000000000,"state":"active","ping":156},{"user_id":603,"name":"Undercover Schizo Gamer","steam_id":76561198087323317,"connected_time":1389000000000,"state":"active","ping":74},{"user_id":599,"name":"ran is running","steam_id":76561199443185667,"connected_time":1857000000000,"state":"active","ping":147},{"user_id":600,"name":"Retz","steam_id":76561198252830166,"connected_time":1826000000000,"state":"active","ping":70},{"user_id":629,"name":"Lance Corporal Boiled Egg","steam_id":76561197989717358,"connected_time":574000000000,"state":"active","ping":48},{"user_id":605,"name":"apple","steam_id":76561198173675271,"connected_time":1367000000000,"state":"active","ping":52},{"user_id":607,"name":"kirklandjacob01","steam_id":76561199258746330,"connected_time":1159000000000,"state":"active","ping":141},{"user_id":642,"name":"Sabour","steam_id":76561197963965445,"connected_time":19000000000,"state":"spawning","ping":55},{"user_id":611,"name":"Kkirkland6","steam_id":76561199259050037,"connected_time":1075000000000,"state":"active","ping":135},{"user_id":620,"name":"BigGreenButton","steam_id":76561198063604832,"connected_time":779000000000,"state":"active","ping":49},{"user_id":633,"name":"hmm yes","steam_id":76561198170322809,"connected_time":373000000000,"state":"active","ping":60},{"user_id":634,"name":"D_Ink","steam_id":76561198267716662,"connected_time":369000000000,"state":"active","ping":46},{"user_id":627,"name":"Violent_Raccoons","steam_id":76561199006002337,"connected_time":587000000000,"state":"active","ping":59},{"user_id":618,"name":"Prongles","steam_id":76561199062407056,"connected_time":848000000000,"state":"active","ping":137},{"user_id":623,"name":"Mr. Boobmastic","steam_id":76561197975482475,"connected_time":769000000000,"state":"active","ping":53},{"user_id":624,"name":"Wolfgang_Schwarz","steam_id":76561198049463090,"connected_time":746000000000,"state":"active","ping":75},{"user_id":635,"name":"UJAGaming","steam_id":76561198147959101,"connected_time":363000000000,"state":"active","ping":69},{"user_id":628,"name":"rummy","steam_id":76561197997573379,"connected_time":587000000000,"state":"active","ping":48},{"user_id":630,"name":"Aaron","steam_id":76561197990046953,"connected_time":556000000000,"state":"active","ping":68},{"user_id":631,"name":"euww","steam_id":76561198061179194,"connected_time":450000000000,"state":"active","ping":65},{"user_id":640,"name":"Haha?","steam_id":76561198056882245,"connected_time":129000000000,"state":"active","ping":45}]},{"server_id":310,"name":"Uncletopia | Frankfurt | 5 | All Maps","name_short":"frk-5","host":"frk-1.de.uncletopia.com","port":27055,"enabled":true,"region":"eu","cc":"de","latitude":50.110924,"longitude":8.682127,"reserved":0,"last_update":"0001-01-01T00:00:00Z","name_a2s":"Uncletopia | Frankfurt | 5 | All Maps","protocol":17,"map":"pl_borneo","folder":"tf","game":"Team Fortress","app_id":440,"player_count":0,"max_players":24,"Bots":0,"server_type":"Dedicated","server_os":"Linux","password":true,"vac":true,"version":"7961495","steam_id":85568392924504277,"keywords":["nocrits","nodmgspread","payload","uncletopia"],"game_id":440,"stv_port":27056,"stv_name":"Uncletopia | Frankfurt | 5 | All Maps | STV","players":null},{"server_id":311,"name":"Uncletopia | Frankfurt | 6 | All Maps","name_short":"frk-6","host":"frk-1.de.uncletopia.com","port":27065,"enabled":true,"region":"eu","cc":"de","latitude":50.110924,"longitude":8.682127,"reserved":0,"last_update":"0001-01-01T00:00:00Z","name_a2s":"Uncletopia | Frankfurt | 6 | All Maps","protocol":17,"map":"pl_pier","folder":"tf","game":"Team Fortress","app_id":440,"player_count":23,"max_players":24,"Bots":0,"server_type":"Dedicated","server_os":"Linux","password":true,"vac":true,"version":"7961495","steam_id":85568392924504278,"keywords":["nocrits","nodmgspread","payload","uncletopia"],"game_id":440,"stv_port":27066,"stv_name":"Uncletopia | Frankfurt | 6 | All Maps | STV","players":[{"user_id":357,"name":"KillerQueen (he/they/she)","steam_id":76561199019399725,"connected_time":2436000000000,"state":"active","ping":60},{"user_id":348,"name":"Lemon","steam_id":76561198188535947,"connected_time":3094000000000,"state":"active","ping":70},{"user_id":349,"name":"Vacys Maslionka","steam_id":76561198126518252,"connected_time":3091000000000,"state":"active","ping":75},{"user_id":345,"name":"CzechMate #SaveTF2","steam_id":76561198012687703,"connected_time":3593000000000,"state":"active","ping":45},{"user_id":358,"name":"alex","steam_id":76561199281389958,"connected_time":2430000000000,"state":"active","ping":60},{"user_id":346,"name":"pandeux","steam_id":76561198343527617,"connected_time":3405000000000,"state":"active","ping":45},{"user_id":369,"name":"Saucisse","steam_id":76561198119955969,"connected_time":1836000000000,"state":"active","ping":43},{"user_id":373,"name":"mild bobby sauce","steam_id":76561198071226602,"connected_time":1223000000000,"state":"active","ping":53},{"user_id":307,"name":"Hyppy ja liipasin pohjaan :D","steam_id":76561198080669698,"connected_time":5165000000000,"state":"active","ping":90},{"user_id":374,"name":"Sciencez","steam_id":76561198032646535,"connected_time":1136000000000,"state":"active","ping":138},{"user_id":379,"name":"Endi","steam_id":76561198914938199,"connected_time":689000000000,"state":"active","ping":75},{"user_id":384,"name":"Karabast","steam_id":76561198041208332,"connected_time":617000000000,"state":"active","ping":68},{"user_id":381,"name":"No Further Appeasement","steam_id":76561198050737972,"connected_time":680000000000,"state":"active","ping":53},{"user_id":366,"name":"Wade Wilson's Spoilt C4","steam_id":76561198013884709,"connected_time":2047000000000,"state":"active","ping":66},{"user_id":361,"name":"Niggallahuakbar","steam_id":76561198042593027,"connected_time":2334000000000,"state":"active","ping":73},{"user_id":323,"name":"sloppy transgirl toppy","steam_id":76561198057092208,"connected_time":4199000000000,"state":"active","ping":59},{"user_id":371,"name":"Thunder Humper","steam_id":76561197988549488,"connected_time":1404000000000,"state":"active","ping":75},{"user_id":288,"name":"Coac","steam_id":76561198085265740,"connected_time":6794000000000,"state":"active","ping":60},{"user_id":355,"name":"gaming gamer","steam_id":76561198212488780,"connected_time":2642000000000,"state":"active","ping":60},{"user_id":362,"name":"Carrotcracker","steam_id":76561198034862396,"connected_time":2306000000000,"state":"active","ping":71},{"user_id":385,"name":"ramko_","steam_id":76561198379753516,"connected_time":25000000000,"state":"active","ping":81},{"user_id":363,"name":"sword machine","steam_id":76561198895235231,"connected_time":2298000000000,"state":"active","ping":66},{"user_id":382,"name":"fem","steam_id":76561199103444466,"connected_time":657000000000,"state":"active","ping":75}]},{"server_id":23,"name":"Uncletopia | Frankfurt | 7 | Stopwatch","name_short":"frk-7","host":"frk-1.de.uncletopia.com","port":27075,"enabled":true,"region":"eu","cc":"de","latitude":50.110924,"longitude":8.682127,"reserved":0,"last_update":"0001-01-01T00:00:00Z","name_a2s":"Uncletopia | Frankfurt | 7 | Stopwatch","protocol":17,"map":"cp_metalworks","folder":"tf","game":"Team Fortress","app_id":440,"player_count":0,"max_players":24,"Bots":0,"server_type":"Dedicated","server_os":"Linux","password":true,"vac":true,"version":"7961495","steam_id":85568392924742827,"keywords":["cp","nocrits","nodmgspread","uncletopia"],"game_id":440,"stv_port":27076,"stv_name":"Uncletopia | Frankfurt | 7 | Stopwatch | STV","players":null},{"server_id":24,"name":"Uncletopia | Frankfurt | 8 | Community","name_short":"frk-8","host":"frk-1.de.uncletopia.com","port":27085,"enabled":true,"region":"eu","cc":"de","latitude":50.110924,"longitude":8.682127,"reserved":0,"last_update":"0001-01-01T00:00:00Z","name_a2s":"Uncletopia | Frankfurt | 8 | Community","protocol":17,"map":"workshop/koth_synthetic_rc6a.ugc1549817316","folder":"tf","game":"Team Fortress","app_id":440,"player_count":0,"max_players":24,"Bots":0,"server_type":"Dedicated","server_os":"Linux","password":true,"vac":true,"version":"7961495","steam_id":85568392924742828,"keywords":["cp","nocrits","nodmgspread","uncletopia"],"game_id":440,"stv_port":27086,"stv_name":"Uncletopia | Frankfurt | 8 | Community | STV","players":null},{"server_id":202,"name":"Uncletopia | Hong Kong | 1 | All Maps","name_short":"hgk-1","host":"hgk-1.hk.uncletopia.com","port":27015,"enabled":true,"region":"asia","cc":"hk","latitude":22.302711,"longitude":114.177216,"reserved":0,"last_update":"0001-01-01T00:00:00Z","name_a2s":"Uncletopia | Hong Kong | 1 | All Maps","protocol":17,"map":"pl_frontier_final","folder":"tf","game":"Team Fortress","app_id":440,"player_count":0,"max_players":24,"Bots":0,"server_type":"Dedicated","server_os":"Linux","password":true,"vac":true,"version":"7961495","steam_id":85568392924494504,"keywords":["nocrits","nodmgspread","payload","uncletopia"],"game_id":440,"stv_port":27016,"stv_name":"Uncletopia | Hong Kong | 1 | All Maps | STV","players":null},{"server_id":1,"name":"Uncletopia | Los Angeles | 1 | All Maps","name_short":"lax-1","host":"lax-1.us.uncletopia.com","port":27015,"enabled":true,"region":"us-west","cc":"us","latitude":33.94279,"longitude":-118.41004,"reserved":0,"last_update":"0001-01-01T00:00:00Z","name_a2s":"Uncletopia | Los Angeles | 1 | All Maps","protocol":17,"map":"cp_dustbowl","folder":"tf","game":"Team Fortress","app_id":440,"player_count":0,"max_players":24,"Bots":0,"server_type":"Dedicated","server_os":"Linux","password":true,"vac":true,"version":"7961495","steam_id":85568392924469991,"keywords":["cp","nocrits","nodmgspread","uncletopia"],"game_id":440,"stv_port":27016,"stv_name":"Uncletopia | Los Angeles | 1 | All Maps | STV","players":null},{"server_id":112,"name":"Uncletopia | Los Angeles | 2 | All Maps","name_short":"lax-2","host":"lax-1.us.uncletopia.com","port":27025,"enabled":true,"region":"us-west","cc":"us","latitude":33.94279,"longitude":-118.41004,"reserved":0,"last_update":"0001-01-01T00:00:00Z","name_a2s":"Uncletopia | Los Angeles | 2 | All Maps","protocol":17,"map":"cp_process_final","folder":"tf","game":"Team Fortress","app_id":440,"player_count":0,"max_players":24,"Bots":0,"server_type":"Dedicated","server_os":"Linux","password":true,"vac":true,"version":"7961495","steam_id":85568392924469992,"keywords":["cp","nocrits","nodmgspread","uncletopia"],"game_id":440,"stv_port":27026,"stv_name":"Uncletopia | Los Angeles | 2 | All Maps | STV","players":null},{"server_id":324,"name":"Uncletopia | Los Angeles | 3 | All Maps","name_short":"lax-3","host":"lax-1.us.uncletopia.com","port":27035,"enabled":true,"region":"us-west","cc":"us","latitude":33.94279,"longitude":-118.41004,"reserved":0,"last_update":"0001-01-01T00:00:00Z","name_a2s":"Uncletopia | Los Angeles | 3 | All Maps","protocol":17,"map":"cp_dustbowl","folder":"tf","game":"Team Fortress","app_id":440,"player_count":24,"max_players":24,"Bots":0,"server_type":"Dedicated","server_os":"Linux","password":true,"vac":true,"version":"7961495","steam_id":85568392924510198,"keywords":["cp","nocrits","nodmgspread","uncletopia"],"game_id":440,"stv_port":27036,"stv_name":"Uncletopia | Los Angeles | 3 | All Maps | STV","players":[{"user_id":44,"name":"EAT SPIT!","steam_id":76561198096836451,"connected_time":980000000000,"state":"active","ping":52},{"user_id":53,"name":"willybonkers","steam_id":76561198023215502,"connected_time":654000000000,"state":"active","ping":96},{"user_id":51,"name":"Tam Honks","steam_id":76561198044347961,"connected_time":697000000000,"state":"active","ping":57},{"user_id":47,"name":"JustAnotherHuman","steam_id":76561199018122924,"connected_time":859000000000,"state":"active","ping":92},{"user_id":55,"name":"cockfighter","steam_id":76561198044268609,"connected_time":632000000000,"state":"active","ping":118},{"user_id":13,"name":"Artemisia (She/They)","steam_id":76561198265616793,"connected_time":1721000000000,"state":"active","ping":76},{"user_id":63,"name":"Imitation Caucasian","steam_id":76561198320536166,"connected_time":423000000000,"state":"active","ping":58},{"user_id":15,"name":"Junipyre","steam_id":76561198044819364,"connected_time":1645000000000,"state":"active","ping":70},{"user_id":56,"name":"Brody Yukin","steam_id":76561198084712019,"connected_time":581000000000,"state":"active","ping":54},{"user_id":52,"name":"Zaku Buster","steam_id":76561198079353602,"connected_time":680000000000,"state":"active","ping":139},{"user_id":57,"name":"Pile of Spinach","steam_id":76561198043068841,"connected_time":576000000000,"state":"active","ping":75},{"user_id":58,"name":"Soap Man","steam_id":76561198000490235,"connected_time":574000000000,"state":"active","ping":98},{"user_id":22,"name":"Pokecat273","steam_id":76561198373768228,"connected_time":1389000000000,"state":"active","ping":51},{"user_id":26,"name":"Tmiracle","steam_id":76561198052375275,"connected_time":1261000000000,"state":"active","ping":46},{"user_id":42,"name":"jdm","steam_id":76561199497603020,"connected_time":1071000000000,"state":"active","ping":47},{"user_id":59,"name":"1989 Honda Civic","steam_id":76561197999420698,"connected_time":568000000000,"state":"active","ping":82},{"user_id":64,"name":"rat","steam_id":76561198130412963,"connected_time":405000000000,"state":"active","ping":92},{"user_id":30,"name":"nanoboosts","steam_id":76561199500861337,"connected_time":1206000000000,"state":"active","ping":46},{"user_id":31,"name":"baunter","steam_id":76561198024311871,"connected_time":1201000000000,"state":"active","ping":45},{"user_id":70,"name":"HRT","steam_id":76561198013781132,"connected_time":203000000000,"state":"active","ping":109},{"user_id":61,"name":"PageBoiSkull","steam_id":76561198237353578,"connected_time":487000000000,"state":"active","ping":66},{"user_id":65,"name":"Ide","steam_id":76561198936116083,"connected_time":390000000000,"state":"active","ping":79},{"user_id":66,"name":"Penis Mike","steam_id":76561198151211444,"connected_time":386000000000,"state":"active","ping":73},{"user_id":71,"name":"Maid 'n' China","steam_id":76561198423392976,"connected_time":69000000000,"state":"active","ping":54}]},{"server_id":25,"name":"Uncletopia | Los Angeles | 4 | Stopwatch","name_short":"lax-4","host":"lax-1.us.uncletopia.com","port":27045,"enabled":true,"region":"us-west","cc":"us","latitude":33.94279,"longitude":-118.41004,"reserved":0,"last_update":"0001-01-01T00:00:00Z","name_a2s":"Uncletopia | Los Angeles | 4 | Stopwatch","protocol":17,"map":"koth_highpass","folder":"tf","game":"Team Fortress","app_id":440,"player_count":4,"max_players":24,"Bots":0,"server_type":"Dedicated","server_os":"Linux","password":true,"vac":true,"version":"7961495","steam_id":85568392924510199,"keywords":["cp","nocrits","nodmgspread","uncletopia"],"game_id":440,"stv_port":27046,"stv_name":"Uncletopia | Los Angeles | 4 | Stopwatch | STV","players":[{"user_id":6,"name":"1NF1N1T1","steam_id":76561199104514098,"connected_time":2976000000000,"state":"active","ping":106},{"user_id":9,"name":"shrimpboi783","steam_id":76561199091069924,"connected_time":975000000000,"state":"active","ping":36},{"user_id":10,"name":"Doge","steam_id":76561199216255059,"connected_time":671000000000,"state":"active","ping":81}]},{"server_id":11,"name":"Uncletopia | London | 1 | All Maps","name_short":"lon-1","host":"lon-1.uk.uncletopia.com","port":27015,"enabled":true,"region":"eu","cc":"gb","latitude":51.509865,"longitude":-0.118092,"reserved":0,"last_update":"0001-01-01T00:00:00Z","name_a2s":"Uncletopia | London | 1 | All Maps","protocol":17,"map":"cp_steel","folder":"tf","game":"Team Fortress","app_id":440,"player_count":24,"max_players":24,"Bots":0,"server_type":"Dedicated","server_os":"Linux","password":true,"vac":true,"version":"7961495","steam_id":85568392924367362,"keywords":["cp","nocrits","nodmgspread","uncletopia"],"game_id":440,"stv_port":27016,"stv_name":"Uncletopia | London | 1 | All Maps | STV","players":[{"user_id":511,"name":"Kahvi","steam_id":76561198723244199,"connected_time":9117000000000,"state":"active","ping":76},{"user_id":728,"name":"Ice_cold_magic","steam_id":76561199209065777,"connected_time":2296000000000,"state":"active","ping":53},{"user_id":722,"name":"SKY_","steam_id":76561198080980508,"connected_time":2824000000000,"state":"active","ping":54},{"user_id":732,"name":"Finkaksu Devourer of Sour Candy","steam_id":76561198201389163,"connected_time":1928000000000,"state":"active","ping":67},{"user_id":620,"name":"fence_","steam_id":76561198150386379,"connected_time":7401000000000,"state":"active","ping":46},{"user_id":723,"name":"Mea","steam_id":76561198353496134,"connected_time":2762000000000,"state":"active","ping":51},{"user_id":428,"name":"ber","steam_id":76561197993892057,"connected_time":14124000000000,"state":"active","ping":92},{"user_id":720,"name":"Minimi","steam_id":76561198873850443,"connected_time":3105000000000,"state":"active","ping":45},{"user_id":714,"name":"teddy","steam_id":76561198007436837,"connected_time":3844000000000,"state":"active","ping":34},{"user_id":738,"name":"lily.exe","steam_id":76561198049840460,"connected_time":440000000000,"state":"active","ping":46},{"user_id":652,"name":"Sandshee","steam_id":76561198088574666,"connected_time":6963000000000,"state":"active","ping":47},{"user_id":710,"name":"Catsicle","steam_id":76561198054614761,"connected_time":5367000000000,"state":"active","ping":51},{"user_id":716,"name":"leesh","steam_id":76561198079603938,"connected_time":3657000000000,"state":"active","ping":133},{"user_id":724,"name":"gibb (heLP HELP HELP)","steam_id":76561198074097655,"connected_time":2611000000000,"state":"active","ping":72},{"user_id":704,"name":"gnarly business","steam_id":76561198832688767,"connected_time":5564000000000,"state":"active","ping":46},{"user_id":735,"name":"impossible whopper eater","steam_id":76561198058641805,"connected_time":469000000000,"state":"active","ping":46},{"user_id":706,"name":"SOPHIIAA","steam_id":76561198443798981,"connected_time":5547000000000,"state":"active","ping":77},{"user_id":579,"name":"GIRLBITER alice","steam_id":76561198180361759,"connected_time":8095000000000,"state":"active","ping":41},{"user_id":730,"name":"Kekeke","steam_id":76561198063672270,"connected_time":2188000000000,"state":"active","ping":81},{"user_id":731,"name":"ScapeGoat","steam_id":76561198137868829,"connected_time":2159000000000,"state":"active","ping":44},{"user_id":726,"name":"One Shiny Boi™","steam_id":76561198199193627,"connected_time":2322000000000,"state":"active","ping":74},{"user_id":678,"name":"Speed-Dial","steam_id":76561198012428315,"connected_time":6521000000000,"state":"active","ping":45},{"user_id":413,"name":"⚧aura⚧","steam_id":76561198066258544,"connected_time":15423000000000,"state":"active","ping":60},{"user_id":737,"name":"sora (live)","steam_id":76561198096547662,"connected_time":467000000000,"state":"active","ping":49}]},{"server_id":114,"name":"Uncletopia | London | 2 | All Maps","name_short":"lon-2","host":"lon-1.uk.uncletopia.com","port":27025,"enabled":true,"region":"eu","cc":"gb","latitude":51.509865,"longitude":-0.118092,"reserved":0,"last_update":"0001-01-01T00:00:00Z","name_a2s":"Uncletopia | London | 2 | All Maps","protocol":17,"map":"pl_badwater","folder":"tf","game":"Team Fortress","app_id":440,"player_count":25,"max_players":24,"Bots":0,"server_type":"Dedicated","server_os":"Linux","password":true,"vac":true,"version":"7961495","steam_id":85568392924470941,"keywords":["nocrits","nodmgspread","payload","uncletopia"],"game_id":440,"stv_port":27026,"stv_name":"Uncletopia | London | 2 | All Maps | STV","players":[{"user_id":639,"name":"Tomato","steam_id":76561199124472513,"connected_time":966000000000,"state":"active","ping":102},{"user_id":649,"name":"MagusCubed","steam_id":76561198083973944,"connected_time":695000000000,"state":"active","ping":42},{"user_id":583,"name":"KittyKate ❤","steam_id":76561198116340817,"connected_time":4025000000000,"state":"active","ping":61},{"user_id":620,"name":"BuzzBees ❤","steam_id":76561198101502273,"connected_time":2306000000000,"state":"active","ping":51},{"user_id":558,"name":"flamingosaurus","steam_id":76561198051455397,"connected_time":5996000000000,"state":"active","ping":45},{"user_id":651,"name":"rizzler cokemilk","steam_id":76561198122814249,"connected_time":646000000000,"state":"active","ping":44},{"user_id":638,"name":"KayPay","steam_id":76561198112127032,"connected_time":1168000000000,"state":"active","ping":87},{"user_id":640,"name":"Çodar","steam_id":76561198235518444,"connected_time":889000000000,"state":"active","ping":35},{"user_id":650,"name":"Frazzles","steam_id":76561199228009586,"connected_time":693000000000,"state":"active","ping":45},{"user_id":616,"name":"mr.resetti","steam_id":76561198974520642,"connected_time":2657000000000,"state":"active","ping":65},{"user_id":652,"name":"BadFemboy","steam_id":76561198072320671,"connected_time":634000000000,"state":"active","ping":31},{"user_id":634,"name":"Radigan-Flanders::","steam_id":76561198100439744,"connected_time":1515000000000,"state":"active","ping":37},{"user_id":653,"name":"three rats in a trenchcoat","steam_id":76561197983889333,"connected_time":531000000000,"state":"active","ping":61},{"user_id":654,"name":"southwest florida","steam_id":76561198049639319,"connected_time":530000000000,"state":"active","ping":73},{"user_id":655,"name":"レミングス","steam_id":76561198054783240,"connected_time":524000000000,"state":"active","ping":119},{"user_id":656,"name":"Pixar Cars on the PS2","steam_id":76561198079386295,"connected_time":494000000000,"state":"active","ping":44},{"user_id":547,"name":"glyph","steam_id":76561197980736364,"connected_time":7098000000000,"state":"active","ping":78},{"user_id":657,"name":"PIMPrenelle","steam_id":76561198021366058,"connected_time":491000000000,"state":"active","ping":49},{"user_id":571,"name":"I'm rusken (=‿‿= ✿)","steam_id":76561198031214470,"connected_time":4906000000000,"state":"active","ping":60},{"user_id":647,"name":"Joo ♦","steam_id":76561197987609203,"connected_time":775000000000,"state":"active","ping":71},{"user_id":658,"name":"BLÅHAJ","steam_id":76561199353672293,"connected_time":490000000000,"state":"active","ping":60},{"user_id":659,"name":"bowchika wowa #SlavaUkraine","steam_id":76561198159564550,"connected_time":447000000000,"state":"active","ping":59},{"user_id":594,"name":"Cheshireycat","steam_id":76561198067204908,"connected_time":3660000000000,"state":"active","ping":60},{"user_id":661,"name":"Ross from F.R.I.E.N.D.S.","steam_id":76561198008511665,"connected_time":411000000000,"state":"active","ping":56},{"user_id":690,"name":"A Table","steam_id":76561198056456470,"connected_time":0,"state":"spawning","ping":26}]},{"server_id":320,"name":"Uncletopia | London | 3 | All Maps","name_short":"lon-3","host":"lon-1.uk.uncletopia.com","port":27035,"enabled":true,"region":"eu","cc":"gb","latitude":51.509865,"longitude":-0.118092,"reserved":0,"last_update":"0001-01-01T00:00:00Z","name_a2s":"Uncletopia | London | 3 | All Maps","protocol":17,"map":"koth_highpass","folder":"tf","game":"Team Fortress","app_id":440,"player_count":0,"max_players":24,"Bots":0,"server_type":"Dedicated","server_os":"Linux","password":true,"vac":true,"version":"7961495","steam_id":85568392924510192,"keywords":["cp","nocrits","nodmgspread","uncletopia"],"game_id":440,"stv_port":27036,"stv_name":"Uncletopia | London | 3 | All Maps | STV","players":null},{"server_id":321,"name":"Uncletopia | London | 4 | All Maps","name_short":"lon-4","host":"lon-1.uk.uncletopia.com","port":27045,"enabled":true,"region":"eu","cc":"gb","latitude":51.509865,"longitude":-0.118092,"reserved":0,"last_update":"0001-01-01T00:00:00Z","name_a2s":"Uncletopia | London | 4 | All Maps","protocol":17,"map":"koth_harvest_final","folder":"tf","game":"Team Fortress","app_id":440,"player_count":24,"max_players":24,"Bots":0,"server_type":"Dedicated","server_os":"Linux","password":true,"vac":true,"version":"7961495","steam_id":85568392924510193,"keywords":["cp","nocrits","nodmgspread","uncletopia"],"game_id":440,"stv_port":27046,"stv_name":"Uncletopia | London | 4 | All Maps | STV","players":[{"user_id":842,"name":"Ineluctable Sex Predator","steam_id":76561197995971061,"connected_time":440000000000,"state":"active","ping":100},{"user_id":843,"name":"[fool] tiia","steam_id":76561198046196005,"connected_time":432000000000,"state":"active","ping":52},{"user_id":855,"name":"Sholunan","steam_id":76561198062435739,"connected_time":194000000000,"state":"active","ping":45},{"user_id":807,"name":"Estamie","steam_id":76561198058527691,"connected_time":2929000000000,"state":"active","ping":73},{"user_id":804,"name":"Smartest Person In the Universe","steam_id":76561199444636848,"connected_time":3103000000000,"state":"active","ping":34},{"user_id":827,"name":"Scr0b ʕᵔᴥᵔʔ","steam_id":76561198100855323,"connected_time":1831000000000,"state":"active","ping":68},{"user_id":856,"name":"Name","steam_id":76561197990757157,"connected_time":193000000000,"state":"active","ping":68},{"user_id":811,"name":"alibi","steam_id":76561198079490000,"connected_time":2671000000000,"state":"active","ping":47},{"user_id":847,"name":"Pain in a Box","steam_id":76561197990777173,"connected_time":284000000000,"state":"active","ping":76},{"user_id":851,"name":"Reljadin","steam_id":76561198054997553,"connected_time":232000000000,"state":"active","ping":76},{"user_id":857,"name":"money bastard\u003e/?","steam_id":76561198042338756,"connected_time":123000000000,"state":"active","ping":29},{"user_id":836,"name":"jack'o classes","steam_id":76561199030218131,"connected_time":1088000000000,"state":"active","ping":39},{"user_id":812,"name":"psu","steam_id":76561198094652091,"connected_time":2669000000000,"state":"active","ping":84},{"user_id":813,"name":"dannytheboy","steam_id":76561198033042412,"connected_time":2662000000000,"state":"active","ping":147},{"user_id":850,"name":"Farao Ramses II","steam_id":76561198078722712,"connected_time":244000000000,"state":"active","ping":47},{"user_id":837,"name":"zog","steam_id":76561198285862099,"connected_time":925000000000,"state":"active","ping":35},{"user_id":852,"name":"BLÅHAJ","steam_id":76561197996473698,"connected_time":215000000000,"state":"active","ping":90},{"user_id":853,"name":"murf","steam_id":76561199184831395,"connected_time":209000000000,"state":"active","ping":43},{"user_id":838,"name":"\u003c blank \u003e","steam_id":76561198355892269,"connected_time":720000000000,"state":"active","ping":54},{"user_id":841,"name":"Alex","steam_id":76561198061327298,"connected_time":517000000000,"state":"active","ping":56},{"user_id":858,"name":"Minigrim0","steam_id":76561198087819466,"connected_time":118000000000,"state":"active","ping":72},{"user_id":762,"name":"godmodule","steam_id":76561198165995444,"connected_time":6437000000000,"state":"active","ping":72},{"user_id":826,"name":"Laru","steam_id":76561197998838438,"connected_time":1847000000000,"state":"active","ping":74},{"user_id":822,"name":"Marcel","steam_id":76561198348686648,"connected_time":2444000000000,"state":"active","ping":45}]},{"server_id":21,"name":"Uncletopia | London | 5 | All Maps","name_short":"lon-5","host":"lon-1.uk.uncletopia.com","port":27055,"enabled":true,"region":"eu","cc":"gb","latitude":51.509865,"longitude":-0.118092,"reserved":0,"last_update":"0001-01-01T00:00:00Z","name_a2s":"Uncletopia | London | 5 | All Maps","protocol":17,"map":"pl_frontier_final","folder":"tf","game":"Team Fortress","app_id":440,"player_count":24,"max_players":24,"Bots":0,"server_type":"Dedicated","server_os":"Linux","password":true,"vac":true,"version":"7961495","steam_id":85568392924742829,"keywords":["nocrits","nodmgspread","payload","uncletopia"],"game_id":440,"stv_port":27056,"stv_name":"Uncletopia | London | 5 | All Maps | STV","players":[{"user_id":367,"name":"Cheese","steam_id":76561198253336519,"connected_time":2768000000000,"state":"active","ping":42},{"user_id":413,"name":"Banook","steam_id":76561198050852823,"connected_time":330000000000,"state":"active","ping":149},{"user_id":414,"name":"tone","steam_id":76561197975301462,"connected_time":282000000000,"state":"active","ping":64},{"user_id":349,"name":"God himself.","steam_id":76561198309874415,"connected_time":3662000000000,"state":"active","ping":42},{"user_id":386,"name":"grandpa's post-mortem photo","steam_id":76561198130116078,"connected_time":1475000000000,"state":"active","ping":105},{"user_id":384,"name":"Benzo Fury","steam_id":76561198025259336,"connected_time":1530000000000,"state":"active","ping":45},{"user_id":415,"name":"FiuffyDaisy!","steam_id":76561198241732704,"connected_time":210000000000,"state":"active","ping":35},{"user_id":388,"name":"boxing heavy","steam_id":76561199166644202,"connected_time":1457000000000,"state":"active","ping":66},{"user_id":368,"name":"Fed Leman","steam_id":76561198076009537,"connected_time":2702000000000,"state":"active","ping":124},{"user_id":379,"name":"Unreliable, funny and dangerous","steam_id":76561198050709790,"connected_time":1969000000000,"state":"active","ping":97},{"user_id":394,"name":"whatever you want","steam_id":76561199085624224,"connected_time":1067000000000,"state":"active","ping":65},{"user_id":421,"name":"DDUUCCKK","steam_id":76561198141953050,"connected_time":101000000000,"state":"active","ping":59},{"user_id":395,"name":"bogan","steam_id":76561198121336735,"connected_time":1019000000000,"state":"active","ping":44},{"user_id":357,"name":"Osaka","steam_id":76561198088909286,"connected_time":3346000000000,"state":"active","ping":72},{"user_id":393,"name":"Kiogeki","steam_id":76561197996707843,"connected_time":1133000000000,"state":"active","ping":42},{"user_id":396,"name":"Aftiks","steam_id":76561198875182686,"connected_time":998000000000,"state":"active","ping":91},{"user_id":416,"name":"Gimble","steam_id":76561198964372777,"connected_time":180000000000,"state":"active","ping":34},{"user_id":417,"name":"Maximilian1359","steam_id":76561198152439608,"connected_time":172000000000,"state":"active","ping":51},{"user_id":358,"name":"Dei Genetrix","steam_id":76561198305678122,"connected_time":3344000000000,"state":"active","ping":45},{"user_id":418,"name":"Jnet","steam_id":76561198001282720,"connected_time":159000000000,"state":"active","ping":83},{"user_id":419,"name":"JAEGXR","steam_id":76561198143428706,"connected_time":158000000000,"state":"active","ping":36},{"user_id":320,"name":"Larry Penus","steam_id":76561198207546233,"connected_time":5362000000000,"state":"active","ping":39},{"user_id":420,"name":"Олексій | UA","steam_id":76561198802594676,"connected_time":156000000000,"state":"active","ping":70},{"user_id":412,"name":"Fabric","steam_id":76561198118742661,"connected_time":707000000000,"state":"active","ping":71}]},{"server_id":22,"name":"Uncletopia | London | 6 | All Maps","name_short":"lon-6","host":"lon-1.uk.uncletopia.com","port":27065,"enabled":true,"region":"eu","cc":"gb","latitude":51.509865,"longitude":-0.118092,"reserved":0,"last_update":"0001-01-01T00:00:00Z","name_a2s":"Uncletopia | London | 6 | All Maps","protocol":17,"map":"cp_snakewater_final1","folder":"tf","game":"Team Fortress","app_id":440,"player_count":2,"max_players":24,"Bots":0,"server_type":"Dedicated","server_os":"Linux","password":true,"vac":true,"version":"7961495","steam_id":85568392924742830,"keywords":["cp","nocrits","nodmgspread","uncletopia"],"game_id":440,"stv_port":27066,"stv_name":"Uncletopia | London | 6 | All Maps | STV","players":[{"user_id":449,"name":"Skinny","steam_id":76561199239986653,"connected_time":88000000000,"state":"active","ping":101},{"user_id":377,"name":"vi","steam_id":76561198303147966,"connected_time":3273000000000,"state":"active","ping":50}]},{"server_id":40,"name":"Uncletopia | London | 7 | Stopwatch","name_short":"lon-7","host":"lon-1.uk.uncletopia.com","port":27075,"enabled":true,"region":"eu","cc":"gb","latitude":51.509865,"longitude":-0.118092,"reserved":0,"last_update":"0001-01-01T00:00:00Z","name_a2s":"Uncletopia | London | 7 | Stopwatch","protocol":17,"map":"cp_snakewater_final1","folder":"tf","game":"Team Fortress","app_id":440,"player_count":0,"max_players":24,"Bots":0,"server_type":"Dedicated","server_os":"Linux","password":true,"vac":true,"version":"7961495","steam_id":85568392924964314,"keywords":["cp","nocrits","nodmgspread","uncletopia"],"game_id":440,"stv_port":27076,"stv_name":"Uncletopia | London | 7 | Stopwatch | STV","players":null},{"server_id":41,"name":"Uncletopia | London | 8 | Community","name_short":"lon-8","host":"lon-1.uk.uncletopia.com","port":27085,"enabled":true,"region":"eu","cc":"gb","latitude":51.509865,"longitude":-0.118092,"reserved":0,"last_update":"0001-01-01T00:00:00Z","name_a2s":"Uncletopia | London | 8 | Community","protocol":17,"map":"workshop/cp_villa_b19.ugc2113052569","folder":"tf","game":"Team Fortress","app_id":440,"player_count":0,"max_players":24,"Bots":0,"server_type":"Dedicated","server_os":"Linux","password":true,"vac":true,"version":"7961495","steam_id":85568392924964315,"keywords":["cp","nocrits","nodmgspread","uncletopia"],"game_id":440,"stv_port":27086,"stv_name":"Uncletopia | London | 8 | Community | STV","players":null},{"server_id":300,"name":"Uncletopia | Montréal | 1 | One Thousand Uncles","name_short":"mtl-1","host":"mtl-1.ca.uncletopia.com","port":27015,"enabled":true,"region":"us-east","cc":"ca","latitude":45.50889,"longitude":-73.56167,"reserved":0,"last_update":"0001-01-01T00:00:00Z","name_a2s":"Uncletopia | Montréal | 1 | One Thousand Uncles","protocol":17,"map":"pl_chilly","folder":"tf","game":"Team Fortress","app_id":440,"player_count":20,"max_players":32,"Bots":16,"server_type":"Dedicated","server_os":"Linux","password":true,"vac":true,"version":"7961495","steam_id":85568392924500087,"keywords":["alltalk","bots","danepve","increased_maxplayers","norespawntime","payload","uncletopia"],"game_id":440,"stv_port":0,"stv_name":"","players":[{"user_id":340,"name":"Hot Cheese Sundae","steam_id":76561198061189527,"connected_time":1790000000000,"state":"active","ping":72},{"user_id":285,"name":"Yimberly","steam_id":76561199206923109,"connected_time":5331000000000,"state":"active","ping":75},{"user_id":317,"name":"PyroBurger","steam_id":76561198847213969,"connected_time":2789000000000,"state":"active","ping":61},{"user_id":233,"name":"fish (2:3)","steam_id":76561198134331073,"connected_time":8270000000000,"state":"active","ping":112}]},{"server_id":301,"name":"Uncletopia | Montréal | 2 | One Thousand Uncles","name_short":"mtl-2","host":"mtl-1.ca.uncletopia.com","port":27025,"enabled":true,"region":"us-east","cc":"ca","latitude":45.50889,"longitude":-73.56167,"reserved":0,"last_update":"0001-01-01T00:00:00Z","name_a2s":"Uncletopia | Montréal | 2 | One Thousand Uncles","protocol":17,"map":"pl_chilly","folder":"tf","game":"Team Fortress","app_id":440,"player_count":0,"max_players":32,"Bots":0,"server_type":"Dedicated","server_os":"Linux","password":true,"vac":true,"version":"7961495","steam_id":85568392924500088,"keywords":["alltalk","danepve","increased_maxplayers","norespawntime","payload","uncletopia"],"game_id":440,"stv_port":0,"stv_name":"","players":null},{"server_id":302,"name":"Uncletopia | Montréal | 3 | One Thousand Uncles","name_short":"mtl-3","host":"mtl-1.ca.uncletopia.com","port":27035,"enabled":true,"region":"us-east","cc":"ca","latitude":45.50889,"longitude":-73.56167,"reserved":0,"last_update":"0001-01-01T00:00:00Z","name_a2s":"Uncletopia | Montréal | 3 | One Thousand Uncles","protocol":17,"map":"pl_pier","folder":"tf","game":"Team Fortress","app_id":440,"player_count":0,"max_players":32,"Bots":0,"server_type":"Dedicated","server_os":"Linux","password":true,"vac":true,"version":"7961495","steam_id":85568392924500089,"keywords":["alltalk","danepve","increased_maxplayers","norespawntime","payload","uncletopia"],"game_id":440,"stv_port":0,"stv_name":"","players":null},{"server_id":13,"name":"Uncletopia | New York City | 1 | All Maps","name_short":"nyc-1","host":"nyc-1.us.uncletopia.com","port":27015,"enabled":true,"region":"us-east","cc":"us","latitude":40.73061,"longitude":-73.93524,"reserved":0,"last_update":"0001-01-01T00:00:00Z","name_a2s":"Uncletopia | New York City | 1 | All Maps","protocol":17,"map":"cp_vanguard","folder":"tf","game":"Team Fortress","app_id":440,"player_count":23,"max_players":24,"Bots":0,"server_type":"Dedicated","server_os":"Linux","password":true,"vac":true,"version":"7961495","steam_id":85568392924469993,"keywords":["cp","nocrits","nodmgspread","uncletopia"],"game_id":440,"stv_port":27016,"stv_name":"Uncletopia | New York City | 1 | All Maps | STV","players":[{"user_id":393,"name":"Piss God","steam_id":76561198090504334,"connected_time":4170000000000,"state":"active","ping":45},{"user_id":419,"name":"Ryoko","steam_id":76561198084725087,"connected_time":1067000000000,"state":"active","ping":50},{"user_id":421,"name":"EPGツ","steam_id":76561198155624038,"connected_time":975000000000,"state":"active","ping":45},{"user_id":420,"name":"Nerrrd_","steam_id":76561198870129960,"connected_time":1026000000000,"state":"active","ping":42},{"user_id":422,"name":"barry steakfries","steam_id":76561199472218520,"connected_time":889000000000,"state":"active","ping":61},{"user_id":423,"name":"Scum Knight | T.I.D.K.","steam_id":76561198282444763,"connected_time":876000000000,"state":"active","ping":50},{"user_id":424,"name":"Tethered","steam_id":76561199237582239,"connected_time":872000000000,"state":"active","ping":61},{"user_id":425,"name":"whatever","steam_id":76561197994759007,"connected_time":851000000000,"state":"active","ping":74},{"user_id":426,"name":"darKnight | T.I.D.K.","steam_id":76561199012488416,"connected_time":845000000000,"state":"active","ping":160},{"user_id":417,"name":"Unfortunate Son","steam_id":76561199123285878,"connected_time":1114000000000,"state":"active","ping":66},{"user_id":427,"name":"LegendaireNic","steam_id":76561198211753861,"connected_time":800000000000,"state":"active","ping":41},{"user_id":413,"name":"cellogamer","steam_id":76561198016937098,"connected_time":1900000000000,"state":"active","ping":45},{"user_id":410,"name":"Kritzburgh","steam_id":76561198149466938,"connected_time":2637000000000,"state":"active","ping":50},{"user_id":428,"name":"otwtomarsoffdabars(spacecore)","steam_id":76561199085974120,"connected_time":798000000000,"state":"active","ping":51},{"user_id":394,"name":"liquid bread","steam_id":76561198012441419,"connected_time":4169000000000,"state":"active","ping":60},{"user_id":369,"name":"GOTTA CLOBBAH DAT KIRBEH","steam_id":76561198153348162,"connected_time":5616000000000,"state":"active","ping":45},{"user_id":436,"name":"GamingTNT","steam_id":76561198164384967,"connected_time":377000000000,"state":"active","ping":45},{"user_id":404,"name":"Cervidé","steam_id":76561198098579497,"connected_time":3355000000000,"state":"active","ping":46},{"user_id":412,"name":"Telomerase","steam_id":76561198095792685,"connected_time":2094000000000,"state":"active","ping":52},{"user_id":430,"name":"Killer-Of-Night","steam_id":76561198054038830,"connected_time":761000000000,"state":"active","ping":119},{"user_id":437,"name":"Whisk #GOOD GAMER","steam_id":76561198272318229,"connected_time":331000000000,"state":"active","ping":61},{"user_id":434,"name":"PumpkinThink","steam_id":76561198393830529,"connected_time":685000000000,"state":"active","ping":82},{"user_id":402,"name":"Viewie","steam_id":76561198280108853,"connected_time":3372000000000,"state":"active","ping":61}]},{"server_id":14,"name":"Uncletopia | New York City | 2 | All Maps","name_short":"nyc-2","host":"nyc-1.us.uncletopia.com","port":27025,"enabled":true,"region":"us-east","cc":"us","latitude":40.73061,"longitude":-73.93524,"reserved":0,"last_update":"0001-01-01T00:00:00Z","name_a2s":"Uncletopia | New York City | 2 | All Maps","protocol":17,"map":"pl_frontier_final","folder":"tf","game":"Team Fortress","app_id":440,"player_count":24,"max_players":24,"Bots":0,"server_type":"Dedicated","server_os":"Linux","password":true,"vac":true,"version":"7961495","steam_id":85568392924469994,"keywords":["nocrits","nodmgspread","payload","uncletopia"],"game_id":440,"stv_port":27026,"stv_name":"Uncletopia | New York City | 2 | All Maps | STV","players":[{"user_id":550,"name":"Uncle Majic the Hip Hop Magicia","steam_id":76561198107924303,"connected_time":467000000000,"state":"active","ping":48},{"user_id":537,"name":"Lost CS2 player","steam_id":76561198892387723,"connected_time":1394000000000,"state":"active","ping":45},{"user_id":527,"name":"Nobody","steam_id":76561198160544586,"connected_time":2839000000000,"state":"active","ping":71},{"user_id":515,"name":"Zake","steam_id":76561198014251391,"connected_time":3355000000000,"state":"active","ping":92},{"user_id":511,"name":"Dukino","steam_id":76561198008455368,"connected_time":3785000000000,"state":"active","ping":67},{"user_id":551,"name":"canadian birds","steam_id":76561198059466588,"connected_time":434000000000,"state":"active","ping":55},{"user_id":544,"name":"[BWLD] boat","steam_id":76561198157124609,"connected_time":976000000000,"state":"active","ping":55},{"user_id":545,"name":"Chumster","steam_id":76561199120624891,"connected_time":963000000000,"state":"active","ping":131},{"user_id":554,"name":"gaming grandpa","steam_id":76561198882758067,"connected_time":311000000000,"state":"active","ping":107},{"user_id":548,"name":"The Horselords and Animal Gods","steam_id":76561197975094050,"connected_time":803000000000,"state":"active","ping":119},{"user_id":489,"name":"Drake the Pixel","steam_id":76561198131824401,"connected_time":4630000000000,"state":"active","ping":43},{"user_id":543,"name":"raisedbybirds","steam_id":76561198131531646,"connected_time":992000000000,"state":"active","ping":63},{"user_id":504,"name":"Im totally a hacker","steam_id":76561198888005736,"connected_time":4155000000000,"state":"active","ping":71},{"user_id":546,"name":"Room_237","steam_id":76561199135081315,"connected_time":962000000000,"state":"active","ping":67},{"user_id":541,"name":"The Grungler","steam_id":76561198126561438,"connected_time":1015000000000,"state":"active","ping":114},{"user_id":547,"name":"Female Gamer","steam_id":76561199366482682,"connected_time":955000000000,"state":"active","ping":118},{"user_id":555,"name":"BigBubble42","steam_id":76561198136286123,"connected_time":294000000000,"state":"active","ping":68},{"user_id":530,"name":"zpalmtree","steam_id":76561198134307620,"connected_time":2539000000000,"state":"active","ping":76},{"user_id":523,"name":"RZA","steam_id":76561198074428237,"connected_time":3064000000000,"state":"active","ping":47},{"user_id":508,"name":"４０ ＦＰＳ","steam_id":76561198272394965,"connected_time":3912000000000,"state":"active","ping":117},{"user_id":521,"name":"CornDog","steam_id":76561198249446918,"connected_time":3128000000000,"state":"active","ping":44},{"user_id":526,"name":"⛧ AlphaSatanOmega ⛧","steam_id":76561198035125511,"connected_time":2938000000000,"state":"active","ping":59},{"user_id":553,"name":"tommy","steam_id":76561198111753974,"connected_time":349000000000,"state":"active","ping":44},{"user_id":556,"name":"nilftb","steam_id":76561198161952186,"connected_time":125000000000,"state":"active","ping":57}]},{"server_id":15,"name":"Uncletopia | New York City | 3 | Stopwatch","name_short":"nyc-3","host":"nyc-1.us.uncletopia.com","port":27035,"enabled":true,"region":"us-east","cc":"us","latitude":40.73061,"longitude":-73.93524,"reserved":0,"last_update":"0001-01-01T00:00:00Z","name_a2s":"Uncletopia | New York City | 3 | Stopwatch","protocol":17,"map":"workshop/koth_ashville_final.ugc2130459942","folder":"tf","game":"Team Fortress","app_id":440,"player_count":0,"max_players":24,"Bots":0,"server_type":"Dedicated","server_os":"Linux","password":true,"vac":true,"version":"7961495","steam_id":85568392924742820,"keywords":["cp","nocrits","nodmgspread","uncletopia"],"game_id":440,"stv_port":27036,"stv_name":"Uncletopia | New York City | 3 | Stopwatch | STV","players":null},{"server_id":16,"name":"Uncletopia | New York City | 4 | Community","name_short":"nyc-4","host":"nyc-1.us.uncletopia.com","port":27045,"enabled":true,"region":"us-east","cc":"us","latitude":40.73061,"longitude":-73.93524,"reserved":0,"last_update":"0001-01-01T00:00:00Z","name_a2s":"Uncletopia | New York City | 4 | Community","protocol":17,"map":"workshop/cp_fulgur_rc2a.ugc2068252300","folder":"tf","game":"Team Fortress","app_id":440,"player_count":0,"max_players":24,"Bots":0,"server_type":"Dedicated","server_os":"Linux","password":true,"vac":true,"version":"7961495","steam_id":85568392924742821,"keywords":["cp","nocrits","nodmgspread","uncletopia"],"game_id":440,"stv_port":27046,"stv_name":"Uncletopia | New York City | 4 | Community | STV","players":null},{"server_id":142,"name":"Uncletopia | São Paulo | 1 | All Maps","name_short":"sao-1","host":"sao-1.br.uncletopia.com","port":27015,"enabled":true,"region":"sa","cc":"br","latitude":-23.533773,"longitude":-46.62529,"reserved":0,"last_update":"0001-01-01T00:00:00Z","name_a2s":"Uncletopia | São Paulo | 1 | All Maps","protocol":17,"map":"koth_cascade","folder":"tf","game":"Team Fortress","app_id":440,"player_count":2,"max_players":24,"Bots":0,"server_type":"Dedicated","server_os":"Linux","password":true,"vac":true,"version":"7961495","steam_id":85568392924469996,"keywords":["cp","nocrits","nodmgspread","uncletopia"],"game_id":440,"stv_port":27016,"stv_name":"Uncletopia | São Paulo | 1 | All Maps | STV","players":[{"user_id":23,"name":"pepiniyo29","steam_id":76561198365974225,"connected_time":1086000000000,"state":"active","ping":60},{"user_id":21,"name":"Thompy, o cactoriano","steam_id":76561199409024712,"connected_time":3745000000000,"state":"active","ping":34}]},{"server_id":143,"name":"Uncletopia | São Paulo | 2 | Community","name_short":"sao-2","host":"sao-2.br.uncletopia.com","port":27015,"enabled":true,"region":"sa","cc":"br","latitude":-23.533773,"longitude":-46.62529,"reserved":0,"last_update":"0001-01-01T00:00:00Z","name_a2s":"Uncletopia | São Paulo | 2 | Community","protocol":17,"map":"workshop/koth_kemptown_rc1.ugc767410655","folder":"tf","game":"Team Fortress","app_id":440,"player_count":0,"max_players":24,"Bots":0,"server_type":"Dedicated","server_os":"Linux","password":true,"vac":true,"version":"7961495","steam_id":85568392924485349,"keywords":["cp","nocrits","nodmgspread","uncletopia"],"game_id":440,"stv_port":27016,"stv_name":"Uncletopia | São Paulo | 2 | Community | STV","players":null},{"server_id":7,"name":"Uncletopia | Seattle | 1 | All Maps","name_short":"sea-1","host":"sea-1.us.uncletopia.com","port":27015,"enabled":true,"region":"us-west","cc":"us","latitude":47.608013,"longitude":-122.33517,"reserved":0,"last_update":"0001-01-01T00:00:00Z","name_a2s":"Uncletopia | Seattle | 1 | All Maps","protocol":17,"map":"plr_bananabay","folder":"tf","game":"Team Fortress","app_id":440,"player_count":24,"max_players":24,"Bots":0,"server_type":"Dedicated","server_os":"Linux","password":true,"vac":true,"version":"7961495","steam_id":85568392924469997,"keywords":["nocrits","nodmgspread","payload","uncletopia"],"game_id":440,"stv_port":27016,"stv_name":"Uncletopia | Seattle | 1 | All Maps | STV","players":[{"user_id":385,"name":"Dim","steam_id":76561198061411324,"connected_time":558000000000,"state":"active","ping":109},{"user_id":353,"name":"Arkus, dave Slayer","steam_id":76561199092478198,"connected_time":2461000000000,"state":"active","ping":45},{"user_id":334,"name":"Nom Skirrett","steam_id":76561198014600788,"connected_time":3214000000000,"state":"active","ping":68},{"user_id":314,"name":"Cr0wd3r","steam_id":76561198153612764,"connected_time":5641000000000,"state":"active","ping":95},{"user_id":389,"name":"hemaglox","steam_id":76561198023187633,"connected_time":353000000000,"state":"active","ping":43},{"user_id":325,"name":"Katie XXII","steam_id":76561198135534297,"connected_time":4782000000000,"state":"active","ping":46},{"user_id":365,"name":"flo rida","steam_id":76561198226169704,"connected_time":2070000000000,"state":"active","ping":88},{"user_id":329,"name":"Spectre⁹⁹⁹","steam_id":76561198037535169,"connected_time":3959000000000,"state":"active","ping":72},{"user_id":163,"name":"PiolaCat","steam_id":76561199100535345,"connected_time":17124000000000,"state":"active","ping":94},{"user_id":378,"name":"NewWorldBlues","steam_id":76561198823311447,"connected_time":1126000000000,"state":"active","ping":57},{"user_id":362,"name":"Shah","steam_id":76561198047508851,"connected_time":2122000000000,"state":"active","ping":51},{"user_id":364,"name":"Civokat","steam_id":76561198389885427,"connected_time":2080000000000,"state":"active","ping":77},{"user_id":390,"name":"Mii Guest C, From Wii Sports","steam_id":76561198197964803,"connected_time":316000000000,"state":"active","ping":47},{"user_id":394,"name":"udon","steam_id":76561198165872348,"connected_time":118000000000,"state":"active","ping":41},{"user_id":392,"name":"RainboomCrash","steam_id":76561198065612273,"connected_time":209000000000,"state":"active","ping":47},{"user_id":373,"name":"Darkgigglemonster","steam_id":76561198870649125,"connected_time":1668000000000,"state":"active","ping":86},{"user_id":336,"name":"Skoad","steam_id":76561198104650528,"connected_time":3202000000000,"state":"active","ping":79},{"user_id":367,"name":"NotAName","steam_id":76561198192584098,"connected_time":2060000000000,"state":"active","ping":75},{"user_id":368,"name":"dave strider","steam_id":76561198065112186,"connected_time":2049000000000,"state":"active","ping":84},{"user_id":377,"name":"Toaster (Hamilton Beach)","steam_id":76561198039891934,"connected_time":1180000000000,"state":"active","ping":59},{"user_id":350,"name":"MelonLikeAFelon","steam_id":76561198060170336,"connected_time":2760000000000,"state":"active","ping":74},{"user_id":374,"name":"Warhead","steam_id":76561198067746049,"connected_time":1532000000000,"state":"active","ping":52},{"user_id":383,"name":"\u003c blank \u003e","steam_id":76561198097188001,"connected_time":823000000000,"state":"active","ping":46},{"user_id":372,"name":"logitchy","steam_id":76561199062753505,"connected_time":1901000000000,"state":"active","ping":105}]},{"server_id":119,"name":"Uncletopia | Seattle | 2 | All Maps","name_short":"sea-2","host":"sea-1.us.uncletopia.com","port":27025,"enabled":true,"region":"us-west","cc":"us","latitude":47.608013,"longitude":-122.33517,"reserved":0,"last_update":"0001-01-01T00:00:00Z","name_a2s":"Uncletopia | Seattle | 2 | All Maps","protocol":17,"map":"pl_upward","folder":"tf","game":"Team Fortress","app_id":440,"player_count":1,"max_players":24,"Bots":0,"server_type":"Dedicated","server_os":"Linux","password":true,"vac":true,"version":"7961495","steam_id":85568392924469998,"keywords":["nocrits","nodmgspread","payload","uncletopia"],"game_id":440,"stv_port":27026,"stv_name":"Uncletopia | Seattle | 2 | All Maps | STV","players":[{"user_id":27,"name":"8seafare8","steam_id":76561199015417105,"connected_time":57000000000,"state":"active","ping":45}]},{"server_id":406,"name":"Uncletopia | Seattle | 3 | Stopwatch","name_short":"sea-3","host":"sea-1.us.uncletopia.com","port":27035,"enabled":true,"region":"us-west","cc":"us","latitude":47.608013,"longitude":-122.33517,"reserved":0,"last_update":"0001-01-01T00:00:00Z","name_a2s":"Uncletopia | Seattle | 3 | Stopwatch","protocol":17,"map":"workshop/koth_product_final.ugc454272353","folder":"tf","game":"Team Fortress","app_id":440,"player_count":0,"max_players":24,"Bots":0,"server_type":"Dedicated","server_os":"Linux","password":true,"vac":true,"version":"7961495","steam_id":85568392924515217,"keywords":["cp","nocrits","nodmgspread","uncletopia"],"game_id":440,"stv_port":27036,"stv_name":"Uncletopia | Seattle | 3 | Stopwatch | STV","players":null},{"server_id":17,"name":"Uncletopia | San Francisco | 1 | All Maps","name_short":"sfo-1","host":"sfo-1.us.uncletopia.com","port":27015,"enabled":true,"region":"us-west","cc":"us","latitude":37.77397,"longitude":-122.4313,"reserved":0,"last_update":"0001-01-01T00:00:00Z","name_a2s":"Uncletopia | San Francisco | 1 | All Maps","protocol":17,"map":"koth_highpass","folder":"tf","game":"Team Fortress","app_id":440,"player_count":0,"max_players":24,"Bots":0,"server_type":"Dedicated","server_os":"Linux","password":true,"vac":true,"version":"7961495","steam_id":85568392924469999,"keywords":["cp","nocrits","nodmgspread","uncletopia"],"game_id":440,"stv_port":27016,"stv_name":"Uncletopia | San Francisco | 1 | All Maps | STV","players":null},{"server_id":18,"name":"Uncletopia | San Francisco | 2 | All Maps","name_short":"sfo-2","host":"sfo-1.us.uncletopia.com","port":27025,"enabled":true,"region":"us-west","cc":"us","latitude":37.77397,"longitude":-122.4313,"reserved":0,"last_update":"0001-01-01T00:00:00Z","name_a2s":"Uncletopia | San Francisco | 2 | All Maps","protocol":17,"map":"koth_cascade","folder":"tf","game":"Team Fortress","app_id":440,"player_count":24,"max_players":24,"Bots":0,"server_type":"Dedicated","server_os":"Linux","password":true,"vac":true,"version":"7961495","steam_id":85568392924470000,"keywords":["cp","nocrits","nodmgspread","uncletopia"],"game_id":440,"stv_port":27026,"stv_name":"Uncletopia | San Francisco | 2 | All Maps | STV","players":[{"user_id":120,"name":"drank baby","steam_id":76561199483723843,"connected_time":405000000000,"state":"active","ping":60},{"user_id":122,"name":"Antikythera","steam_id":76561198045923020,"connected_time":301000000000,"state":"active","ping":96},{"user_id":125,"name":"devamar","steam_id":76561198069115467,"connected_time":258000000000,"state":"active","ping":45},{"user_id":21,"name":"Sudsen","steam_id":76561198370603787,"connected_time":7232000000000,"state":"active","ping":88},{"user_id":108,"name":"Chocola Minaduki","steam_id":76561198815960031,"connected_time":1178000000000,"state":"active","ping":58},{"user_id":127,"name":"Angry Man","steam_id":76561198292276952,"connected_time":209000000000,"state":"active","ping":98},{"user_id":92,"name":"FunnyGoomba","steam_id":76561198279865229,"connected_time":2329000000000,"state":"active","ping":67},{"user_id":25,"name":"Lain","steam_id":76561198118282205,"connected_time":7068000000000,"state":"active","ping":153},{"user_id":119,"name":"Lucky","steam_id":76561198124910662,"connected_time":529000000000,"state":"active","ping":50},{"user_id":84,"name":"Sleuth","steam_id":76561198418288939,"connected_time":3197000000000,"state":"active","ping":40},{"user_id":128,"name":"username","steam_id":76561198063006130,"connected_time":146000000000,"state":"active","ping":67},{"user_id":109,"name":"d4ngerd4n","steam_id":76561198043758735,"connected_time":1147000000000,"state":"active","ping":59},{"user_id":96,"name":"TheTimeLord","steam_id":76561198083715205,"connected_time":2230000000000,"state":"active","ping":42},{"user_id":111,"name":"Bobby Ray","steam_id":76561198044131188,"connected_time":1128000000000,"state":"active","ping":74},{"user_id":129,"name":"Unlimited_Trees","steam_id":76561198299141443,"connected_time":138000000000,"state":"active","ping":59},{"user_id":114,"name":"Laxoloni","steam_id":76561199197045700,"connected_time":922000000000,"state":"active","ping":63},{"user_id":124,"name":"Seanvich","steam_id":76561198065805500,"connected_time":284000000000,"state":"active","ping":112},{"user_id":130,"name":"MayKay","steam_id":76561199016092265,"connected_time":90000000000,"state":"active","ping":66},{"user_id":115,"name":"ronald_stackerusa55","steam_id":76561198150406851,"connected_time":922000000000,"state":"active","ping":45},{"user_id":79,"name":"The Original Ryan","steam_id":76561197992443496,"connected_time":3962000000000,"state":"active","ping":44},{"user_id":113,"name":"oz","steam_id":76561198994752511,"connected_time":986000000000,"state":"active","ping":46},{"user_id":118,"name":"NFL.com","steam_id":76561198113405376,"connected_time":752000000000,"state":"active","ping":62},{"user_id":80,"name":"Lawyer","steam_id":76561197974126447,"connected_time":3951000000000,"state":"active","ping":81},{"user_id":102,"name":"Kev| :)","steam_id":76561198364706359,"connected_time":1853000000000,"state":"active","ping":71}]},{"server_id":19,"name":"Uncletopia | San Francisco | 3 | Stopwatch","name_short":"sfo-3","host":"sfo-1.us.uncletopia.com","port":27035,"enabled":true,"region":"us-west","cc":"us","latitude":37.77397,"longitude":-122.4313,"reserved":0,"last_update":"0001-01-01T00:00:00Z","name_a2s":"Uncletopia | San Francisco | 3 | Stopwatch","protocol":17,"map":"workshop/koth_product_final.ugc454272353","folder":"tf","game":"Team Fortress","app_id":440,"player_count":0,"max_players":24,"Bots":0,"server_type":"Dedicated","server_os":"Linux","password":true,"vac":true,"version":"7961495","steam_id":85568392924742824,"keywords":["cp","nocrits","nodmgspread","uncletopia"],"game_id":440,"stv_port":27036,"stv_name":"Uncletopia | San Francisco | 3 | Stopwatch | STV","players":null},{"server_id":20,"name":"Uncletopia | San Francisco | 4 | Community","name_short":"sfo-4","host":"sfo-1.us.uncletopia.com","port":27045,"enabled":true,"region":"us-west","cc":"us","latitude":37.77397,"longitude":-122.4313,"reserved":0,"last_update":"0001-01-01T00:00:00Z","name_a2s":"Uncletopia | San Francisco | 4 | Community","protocol":17,"map":"workshop/cp_alloy_rc3.ugc592805587","folder":"tf","game":"Team Fortress","app_id":440,"player_count":0,"max_players":24,"Bots":0,"server_type":"Dedicated","server_os":"Linux","password":true,"vac":true,"version":"7961495","steam_id":85568392924742826,"keywords":["cp","nocrits","nodmgspread","uncletopia"],"game_id":440,"stv_port":27046,"stv_name":"Uncletopia | San Francisco | 4 | Community | STV","players":null},{"server_id":141,"name":"Uncletopia | Sydney | 1 | All Maps","name_short":"syd-1","host":"syd-1.au.uncletopia.com","port":27015,"enabled":true,"region":"au","cc":"au","latitude":-33.865143,"longitude":151.2099,"reserved":0,"last_update":"0001-01-01T00:00:00Z","name_a2s":"Uncletopia | Sydney | 1 | All Maps","protocol":17,"map":"koth_nucleus","folder":"tf","game":"Team Fortress","app_id":440,"player_count":0,"max_players":24,"Bots":0,"server_type":"Dedicated","server_os":"Linux","password":true,"vac":true,"version":"7961495","steam_id":85568392924470001,"keywords":["cp","nocrits","nodmgspread","uncletopia"],"game_id":440,"stv_port":27016,"stv_name":"Uncletopia | Sydney | 1 | All Maps | STV","players":null},{"server_id":123,"name":"Uncletopia | Sydney | 2 | All Maps","name_short":"syd-2","host":"syd-1.au.uncletopia.com","port":27025,"enabled":true,"region":"au","cc":"au","latitude":-33.865143,"longitude":151.2099,"reserved":0,"last_update":"0001-01-01T00:00:00Z","name_a2s":"Uncletopia | Sydney | 2 | All Maps","protocol":17,"map":"cp_fastlane","folder":"tf","game":"Team Fortress","app_id":440,"player_count":0,"max_players":24,"Bots":0,"server_type":"Dedicated","server_os":"Linux","password":true,"vac":true,"version":"7961495","steam_id":85568392924470002,"keywords":["cp","nocrits","nodmgspread","uncletopia"],"game_id":440,"stv_port":27026,"stv_name":"Uncletopia | Sydney | 2 | All Maps | STV","players":null},{"server_id":395,"name":"Uncletopia | Sydney | 3 | All Maps","name_short":"syd-3","host":"syd-1.au.uncletopia.com","port":27035,"enabled":true,"region":"au","cc":"au","latitude":-33.865143,"longitude":151.2099,"reserved":0,"last_update":"0001-01-01T00:00:00Z","name_a2s":"Uncletopia | Sydney | 3 | All Maps","protocol":17,"map":"cp_metalworks","folder":"tf","game":"Team Fortress","app_id":440,"player_count":0,"max_players":24,"Bots":0,"server_type":"Dedicated","server_os":"Linux","password":true,"vac":true,"version":"7961495","steam_id":85568392925194467,"keywords":["cp","nocrits","nodmgspread","uncletopia"],"game_id":440,"stv_port":27036,"stv_name":"Uncletopia | Sydney | 3 | All Maps | STV","players":null},{"server_id":396,"name":"Uncletopia | Sydney | 4 | All Maps","name_short":"syd-4","host":"syd-1.au.uncletopia.com","port":27045,"enabled":true,"region":"au","cc":"au","latitude":-33.865143,"longitude":151.2099,"reserved":0,"last_update":"0001-01-01T00:00:00Z","name_a2s":"Uncletopia | Sydney | 4 | All Maps","protocol":17,"map":"koth_cascade","folder":"tf","game":"Team Fortress","app_id":440,"player_count":0,"max_players":24,"Bots":0,"server_type":"Dedicated","server_os":"Linux","password":true,"vac":true,"version":"7961495","steam_id":85568392925397958,"keywords":["cp","nocrits","nodmgspread","uncletopia"],"game_id":440,"stv_port":27046,"stv_name":"Uncletopia | Sydney | 4 | All Maps | STV","players":null},{"server_id":58,"name":"Uncletopia | Sydney | 5 | Stopwatch","name_short":"syd-5","host":"syd-1.au.uncletopia.com","port":27055,"enabled":true,"region":"au","cc":"au","latitude":-33.865143,"longitude":151.2099,"reserved":0,"last_update":"0001-01-01T00:00:00Z","name_a2s":"Uncletopia | Sydney | 5 | Stopwatch","protocol":17,"map":"workshop/koth_product_final.ugc454272353","folder":"tf","game":"Team Fortress","app_id":440,"player_count":0,"max_players":24,"Bots":0,"server_type":"Dedicated","server_os":"Linux","password":true,"vac":true,"version":"7961495","steam_id":85568392925397959,"keywords":["cp","nocrits","nodmgspread","uncletopia"],"game_id":440,"stv_port":27056,"stv_name":"Uncletopia | Sydney | 5 | Stopwatch | STV","players":null},{"server_id":59,"name":"Uncletopia | Sydney | 6 | Community","name_short":"syd-6","host":"syd-1.au.uncletopia.com","port":27065,"enabled":true,"region":"au","cc":"au","latitude":-33.865143,"longitude":151.2099,"reserved":0,"last_update":"0001-01-01T00:00:00Z","name_a2s":"Uncletopia | Sydney | 6 | Community","protocol":17,"map":"workshop/koth_trenchfoot_ab1.ugc731436616","folder":"tf","game":"Team Fortress","app_id":440,"player_count":0,"max_players":24,"Bots":0,"server_type":"Dedicated","server_os":"Linux","password":true,"vac":true,"version":"7961495","steam_id":85568392925397960,"keywords":["cp","nocrits","nodmgspread","uncletopia"],"game_id":440,"stv_port":27066,"stv_name":"Uncletopia | Sydney | 6 | Community | STV","players":null},{"server_id":49,"name":"Uncletopia | Warsaw | 1 | One Thousand Uncles","name_short":"waw-1","host":"waw-1.pl.uncletopia.com","port":27015,"enabled":true,"region":"eu","cc":"pl","latitude":52.2297,"longitude":21.017532,"reserved":0,"last_update":"0001-01-01T00:00:00Z","name_a2s":"Uncletopia | Warsaw | 1 | One Thousand Uncles","protocol":17,"map":"cp_altitude","folder":"tf","game":"Team Fortress","app_id":440,"player_count":25,"max_players":32,"Bots":16,"server_type":"Dedicated","server_os":"Linux","password":true,"vac":true,"version":"7961495","steam_id":85568392925397850,"keywords":["alltalk","bots","cp","danepve","increased_maxplayers","norespawntime","uncletopia"],"game_id":440,"stv_port":0,"stv_name":"","players":[{"user_id":737,"name":"( ͠° ͟ʖ ͡°)","steam_id":76561199362861027,"connected_time":287000000000,"state":"active","ping":319},{"user_id":705,"name":"BaleBlast","steam_id":76561198116569443,"connected_time":2313000000000,"state":"active","ping":68},{"user_id":719,"name":"Voxiit","steam_id":76561198060319116,"connected_time":741000000000,"state":"active","ping":75},{"user_id":738,"name":"Mauryram","steam_id":76561199086134901,"connected_time":254000000000,"state":"active","ping":336},{"user_id":678,"name":"serbanstein","steam_id":76561199112672194,"connected_time":4489000000000,"state":"active","ping":113},{"user_id":707,"name":"Denton","steam_id":76561198367991717,"connected_time":1784000000000,"state":"active","ping":52},{"user_id":708,"name":"pana_soonic","steam_id":76561198118979073,"connected_time":1664000000000,"state":"active","ping":41},{"user_id":712,"name":"LightBulbGlue #SaveTF2","steam_id":76561198329573529,"connected_time":1494000000000,"state":"active","ping":175},{"user_id":680,"name":"ΩvetabolΩ","steam_id":76561199015064558,"connected_time":4359000000000,"state":"active","ping":115}]},{"server_id":50,"name":"Uncletopia | Warsaw | 2 | One Thousand Uncles","name_short":"waw-2","host":"waw-1.pl.uncletopia.com","port":27025,"enabled":true,"region":"eu","cc":"pl","latitude":52.2297,"longitude":21.017532,"reserved":0,"last_update":"0001-01-01T00:00:00Z","name_a2s":"Uncletopia | Warsaw | 2 | One Thousand Uncles","protocol":17,"map":"pl_badwater","folder":"tf","game":"Team Fortress","app_id":440,"player_count":22,"max_players":32,"Bots":16,"server_type":"Dedicated","server_os":"Linux","password":true,"vac":true,"version":"7961495","steam_id":85568392925397851,"keywords":["alltalk","bots","danepve","increased_maxplayers","norespawntime","payload","uncletopia"],"game_id":440,"stv_port":0,"stv_name":"","players":[{"user_id":746,"name":"Damin","steam_id":76561198204500297,"connected_time":1571000000000,"state":"active","ping":57},{"user_id":748,"name":"Junkrat simp","steam_id":76561198134378108,"connected_time":1462000000000,"state":"active","ping":90},{"user_id":730,"name":"Norn30","steam_id":76561198136196465,"connected_time":5143000000000,"state":"active","ping":34},{"user_id":765,"name":"aaaaaa","steam_id":76561198086304421,"connected_time":1061000000000,"state":"active","ping":105},{"user_id":728,"name":"Aar0n","steam_id":76561198203165979,"connected_time":6018000000000,"state":"active","ping":75},{"user_id":577,"name":"Phisor","steam_id":76561198233450952,"connected_time":17224000000000,"state":"active","ping":60}]},{"server_id":51,"name":"Uncletopia | Warsaw | 3 | All Maps","name_short":"waw-3","host":"waw-1.pl.uncletopia.com","port":27035,"enabled":true,"region":"eu","cc":"pl","latitude":52.2297,"longitude":21.017532,"reserved":0,"last_update":"0001-01-01T00:00:00Z","name_a2s":"Uncletopia | Warsaw | 3 | All Maps","protocol":17,"map":"koth_highpass","folder":"tf","game":"Team Fortress","app_id":440,"player_count":0,"max_players":24,"Bots":0,"server_type":"Dedicated","server_os":"Linux","password":true,"vac":true,"version":"7961495","steam_id":85568392925397852,"keywords":["cp","nocrits","nodmgspread","uncletopia"],"game_id":440,"stv_port":27036,"stv_name":"Uncletopia | Warsaw | 3 | All Maps | STV","players":null},{"server_id":52,"name":"Uncletopia | Warsaw | 4 | All Maps","name_short":"waw-4","host":"waw-1.pl.uncletopia.com","port":27045,"enabled":true,"region":"eu","cc":"pl","latitude":52.2297,"longitude":21.017532,"reserved":0,"last_update":"0001-01-01T00:00:00Z","name_a2s":"Uncletopia | Warsaw | 4 | All Maps","protocol":17,"map":"koth_highpass","folder":"tf","game":"Team Fortress","app_id":440,"player_count":0,"max_players":24,"Bots":0,"server_type":"Dedicated","server_os":"Linux","password":true,"vac":true,"version":"7961495","steam_id":85568392925397853,"keywords":["cp","nocrits","nodmgspread","uncletopia"],"game_id":440,"stv_port":27046,"stv_name":"Uncletopia | Warsaw | 4 | All Maps | STV","players":null},{"server_id":53,"name":"Uncletopia | Warsaw | 5 | Stopwatch","name_short":"waw-5","host":"waw-1.pl.uncletopia.com","port":27055,"enabled":true,"region":"eu","cc":"pl","latitude":52.2297,"longitude":21.017532,"reserved":0,"last_update":"0001-01-01T00:00:00Z","name_a2s":"Uncletopia | Warsaw | 5 | Stopwatch","protocol":17,"map":"workshop/koth_clearcut_b15.ugc2107050255","folder":"tf","game":"Team Fortress","app_id":440,"player_count":0,"max_players":24,"Bots":0,"server_type":"Dedicated","server_os":"Linux","password":true,"vac":true,"version":"7961495","steam_id":85568392925397854,"keywords":["cp","nocrits","nodmgspread","uncletopia"],"game_id":440,"stv_port":27056,"stv_name":"Uncletopia | Warsaw | 5 | Stopwatch | STV","players":null},{"server_id":54,"name":"Uncletopia | Warsaw | 6 | Community","name_short":"waw-6","host":"waw-1.pl.uncletopia.com","port":27065,"enabled":true,"region":"eu","cc":"pl","latitude":52.2297,"longitude":21.017532,"reserved":0,"last_update":"0001-01-01T00:00:00Z","name_a2s":"Uncletopia | Warsaw | 6 | Community","protocol":17,"map":"workshop/cp_coilblaze_rc7.ugc1272700588","folder":"tf","game":"Team Fortress","app_id":440,"player_count":0,"max_players":24,"Bots":0,"server_type":"Dedicated","server_os":"Linux","password":true,"vac":true,"version":"7961495","steam_id":85568392925397856,"keywords":["cp","nocrits","nodmgspread","uncletopia"],"game_id":440,"stv_port":27066,"stv_name":"Uncletopia | Warsaw | 6 | Community | STV","players":null}]}