{"status":true,"message":"","result":[{"server_id":9,"name":"Uncletopia | Atlanta | 1 | All Maps","name_short":"atl-1","host":"atl-1.us.uncletopia.com","port":27015,"enabled":true,"region":"us-east","cc":"us","latitude":33.753746,"longitude":-84.38633,"reserved":0,"last_update":"0001-01-01T00:00:00Z","name_a2s":"Uncletopia | Atlanta | 1 | All Maps","protocol":17,"map":"pl_frontier_final","folder":"tf","game":"Team Fortress","app_id":440,"player_count":24,"max_players":24,"Bots":0,"server_type":"Dedicated","server_os":"Linux","password":true,"vac":true,"version":"7961495","steam_id":85568392924469982,"keywords":["nocrits","nodmgspread","payload","uncletopia"],"game_id":440,"stv_port":27016,"stv_name":"Uncletopia | Atlanta | 1 | All Maps | STV","players":null},{"server_id":104,"name":"Uncletopia | Atlanta | 2 | All Maps","name_short":"atl-2","host":"atl-1.us.uncletopia.com","port":27025,"enabled":true,"region":"us-east","cc":"us","latitude":33.753746,"longitude":-84.38633,"reserved":0,"last_update":"0001-01-01T00:00:00Z","name_a2s":"Uncletopia | Atlanta | 2 | All Maps","protocol":17,"map":"koth_highpass","folder":"tf","game":"Team Fortress","app_id":440,"player_count":0,"max_players":24,"Bots":0,"server_type":"Dedicated","server_os":"Linux","password":true,"vac":true,"version":"7961495","steam_id":85568392924469983,"keywords":["cp","nocrits","nodmgspread","uncletopia"],"game_id":440,"stv_port":27026,"stv_name":"Uncletopia | Atlanta | 2 | All Maps | STV","players":null},{"server_id":400,"name":"Uncletopia | Atlanta | 3 | All Maps","name_short":"atl-3","host":"atl-1.us.uncletopia.com","port":27035,"enabled":true,"region":"us-east","cc":"us","latitude":33.753746,"longitude":-84.38633,"reserved":0,"last_update":"0001-01-01T00:00:00Z","name_a2s":"Uncletopia | Atlanta | 3 | All Maps","protocol":17,"map":"koth_highpass","folder":"tf","game":"Team Fortress","app_id":440,"player_count":0,"max_players":24,"Bots":0,"server_type":"Dedicated","server_os":"Linux","password":true,"vac":true,"version":"7961495","steam_id":85568392924515187,"keywords":["cp","nocrits","nodmgspread","uncletopia"],"game_id":440,"stv_port":27036,"stv_name":"Uncletopia | Atlanta | 3 | All Maps | STV","players":null},{"server_id":401,"name":"Uncletopia | Atlanta | 4 | Community","name_short":"atl-4","host":"atl-1.us.uncletopia.com","port":27045,"enabled":true,"region":"us-east","cc":"us","latitude":33.753746,"longitude":-84.38633,"reserved":0,"last_update":"0001-01-01T00:00:00Z","name_a2s":"Uncletopia | Atlanta | 4 | Community","protocol":17,"map":"rd_asteroid_redux_b1","folder":"tf","game":"Team Fortress","app_id":440,"player_count":0,"max_players":24,"Bots":0,"server_type":"Dedicated","server_os":"Linux","password":true,"vac":true,"version":"7961495","steam_id":85568392924515188,"keywords":["beta","nocrits","nodmgspread","rd","uncletopia"],"game_id":440,"stv_port":27046,"stv_name":"Uncletopia | Atlanta | 4 | Community | STV","players":null},{"server_id":2,"name":"Uncletopia | Chicago | 1 | All Maps","name_short":"chi-1","host":"chi-1.us.uncletopia.com","port":27015,"enabled":true,"region":"us-central","cc":"us","latitude":41.881832,"longitude":-87.62318,"reserved":0,"last_update":"0001-01-01T00:00:00Z","name_a2s":"Uncletopia | Chicago | 1 | All Maps","protocol":17,"map":"pl_upward","folder":"tf","game":"Team Fortress","app_id":440,"player_count":24,"max_players":24,"Bots":0,"server_type":"Dedicated","server_os":"Linux","password":true,"vac":true,"version":"7961495","steam_id":85568392924469984,"keywords":["nocrits","nodmgspread","payload","uncletopia"],"game_id":440,"stv_port":27016,"stv_name":"Uncletopia | Chicago | 1 | All Maps | STV","players":[{"user_id":513,"name":"stampdawg","steam_id":76561198050500060,"connected_time":2790000000000,"state":"active","ping":76},{"user_id":514,"name":"gaming unit","steam_id":76561198148059714,"connected_time":2789000000000,"state":"active","ping":60},{"user_id":432,"name":"Tito","steam_id":76561198041702529,"connected_time":8420000000000,"state":"active","ping":88},{"user_id":562,"name":"attentiondeficit","steam_id":76561198129682583,"connected_time":1000000000,"state":"spawning","ping":52},{"user_id":556,"name":"atmBomb","steam_id":76561198055557988,"connected_time":387000000000,"state":"active","ping":66},{"user_id":476,"name":"Kero","steam_id":76561198343231436,"connected_time":5850000000000,"state":"active","ping":59},{"user_id":538,"name":"Icaras","steam_id":76561198416724843,"connected_time":1363000000000,"state":"active","ping":130},{"user_id":546,"name":"KTB","steam_id":76561197990744614,"connected_time":875000000000,"state":"active","ping":44},{"user_id":550,"name":"[]{}#^*+=","steam_id":76561198127039453,"connected_time":662000000000,"state":"active","ping":100},{"user_id":560,"name":"Orange Triangle","steam_id":76561198320498182,"connected_time":162000000000,"state":"active","ping":59},{"user_id":545,"name":"Contempest","steam_id":76561198025375209,"connected_time":1096000000000,"state":"active","ping":79},{"user_id":522,"name":"Aster","steam_id":76561198037920420,"connected_time":2630000000000,"state":"active","ping":71},{"user_id":512,"name":"Stranger in a Strange Land","steam_id":76561198049843671,"connected_time":2822000000000,"state":"active","ping":65},{"user_id":553,"name":"tailorturtle","steam_id":76561198107481127,"connected_time":529000000000,"state":"active","ping":75},{"user_id":506,"name":"Pwn✭","steam_id":76561198040885639,"connected_time":3418000000000,"state":"active","ping":77},{"user_id":507,"name":"shut up homestuck pfp","steam_id":76561198094772431,"connected_time":3282000000000,"state":"active","ping":57},{"user_id":555,"name":"chunguspilled","steam_id":76561198263122601,"connected_time":423000000000,"state":"active","ping":50},{"user_id":549,"name":"dancing on thin ice","steam_id":76561198354622099,"connected_time":702000000000,"state":"active","ping":80},{"user_id":536,"name":"Runny Eggs","steam_id":76561198006785882,"connected_time":1507000000000,"state":"active","ping":80},{"user_id":559,"name":"M4TT","steam_id":76561198118496274,"connected_time":175000000000,"state":"active","ping":74},{"user_id":561,"name":"AkimboAoki","steam_id":76561198158323058,"connected_time":28000000000,"state":"active","ping":95},{"user_id":499,"name":"purple diesel","steam_id":76561197976548449,"connected_time":3703000000000,"state":"active","ping":92},{"user_id":529,"name":"Rook","steam_id":76561199455421783,"connected_time":1810000000000,"state":"active","ping":69},{"user_id":537,"name":"creeeeeee","steam_id":76561198392539722,"connected_time":1493000000000,"state":"active","ping":82}]},{"server_id":106,"name":"Uncletopia | Chicago | 2 | All Maps","name_short":"chi-2","host":"chi-1.us.uncletopia.com","port":27025,"enabled":true,"region":"us-central","cc":"us","latitude":41.881832,"longitude":-87.62318,"reserved":0,"last_update":"0001-01-01T00:00:00Z","name_a2s":"Uncletopia | Chicago | 2 | All Maps","protocol":17,"map":"plr_nightfall_final","folder":"tf","game":"Team Fortress","app_id":440,"player_count":24,"max_players":24,"Bots":0,"server_type":"Dedicated","server_os":"Linux","password":true,"vac":true,"version":"7961495","steam_id":85568392924469985,"keywords":["nocrits","nodmgspread","payload","uncletopia"],"game_id":440,"stv_port":27026,"stv_name":"Uncletopia | Chicago | 2 | All Maps | STV","players":[{"user_id":549,"name":"Osrio","steam_id":76561198083428069,"connected_time":197000000000,"state":"active","ping":97},{"user_id":517,"name":"cheeser","steam_id":76561198281772700,"connected_time":2373000000000,"state":"active","ping":60},{"user_id":551,"name":"eat Pant","steam_id":76561197974965536,"connected_time":174000000000,"state":"active","ping":59},{"user_id":535,"name":"Zombie hunter","steam_id":76561198328423470,"connected_time":1699000000000,"state":"active","ping":68},{"user_id":532,"name":"subdromeda","steam_id":76561198884351860,"connected_time":2013000000000,"state":"active","ping":60},{"user_id":533,"name":"CherriKat","steam_id":76561198821297512,"connected_time":1705000000000,"state":"active","ping":102},{"user_id":536,"name":"Crunchy","steam_id":76561198060342804,"connected_time":1691000000000,"state":"active","ping":69},{"user_id":547,"name":"Acehay14","steam_id":76561198052373291,"connected_time":804000000000,"state":"active","ping":56},{"user_id":526,"name":"Gaming-Sentinel","steam_id":76561198115896873,"connected_time":2142000000000,"state":"active","ping":136},{"user_id":484,"name":"Cthulwho?","steam_id":76561198165550810,"connected_time":5175000000000,"state":"active","ping":63},{"user_id":552,"name":"Tockbird","steam_id":76561199437964594,"connected_time":167000000000,"state":"active","ping":107},{"user_id":553,"name":"CorgiYasu","steam_id":76561198082298201,"connected_time":144000000000,"state":"active","ping":90},{"user_id":546,"name":"Harrier \"Harry\" du Bois","steam_id":76561198435876131,"connected_time":1057000000000,"state":"active","ping":64},{"user_id":523,"name":"Truck-kun2107","steam_id":76561199161417910,"connected_time":2266000000000,"state":"active","ping":86},{"user_id":548,"name":"7/11 Employee @ 3AM","steam_id":76561198032529704,"connected_time":657000000000,"state":"active","ping":75},{"user_id":512,"name":"TarrDashie","steam_id":76561198079507614,"connected_time":2483000000000,"state":"active","ping":103},{"user_id":545,"name":"wafflehamster2000","steam_id":76561198849161820,"connected_time":1268000000000,"state":"active","ping":69},{"user_id":528,"name":"steve","steam_id":76561198124791670,"connected_time":2135000000000,"state":"active","ping":55},{"user_id":530,"name":"MikeLovesRabbit","steam_id":76561197997742625,"connected_time":2073000000000,"state":"active","ping":65},{"user_id":488,"name":"igotmail","steam_id":76561198070631899,"connected_time":5066000000000,"state":"active","ping":70},{"user_id":555,"name":"09robcraft2","steam_id":76561199073189184,"connected_time":137000000000,"state":"active","ping":66},{"user_id":499,"name":"Toxic-Fluid","steam_id":76561198115530353,"connected_time":4194000000000,"state":"active","ping":71},{"user_id":531,"name":"James!","steam_id":76561198328443797,"connected_time":2059000000000,"state":"active","ping":52},{"user_id":558,"name":"bbb","steam_id":76561198091328388,"connected_time":108000000000,"state":"active","ping":61}]},{"server_id":402,"name":"Uncletopia | Chicago | 3 | All Maps","name_short":"chi-3","host":"chi-1.us.uncletopia.com","port":27035,"enabled":true,"region":"us-central","cc":"us","latitude":41.881832,"longitude":-87.62318,"reserved":0,"last_update":"0001-01-01T00:00:00Z","name_a2s":"Uncletopia | Chicago | 3 | All Maps","protocol":17,"map":"cp_snakewater_final1","folder":"tf","game":"Team Fortress","app_id":440,"player_count":24,"max_players":24,"Bots":0,"server_type":"Dedicated","server_os":"Linux","password":true,"vac":true,"version":"7961495","steam_id":85568392924515191,"keywords":["cp","nocrits","nodmgspread","uncletopia"],"game_id":440,"stv_port":27036,"stv_name":"Uncletopia | Chicago | 3 | All Maps | STV","players":[{"user_id":454,"name":"sunny","steam_id":76561198069380992,"connected_time":1001000000000,"state":"active","ping":76},{"user_id":409,"name":"DuragGod69","steam_id":76561198067814426,"connected_time":3281000000000,"state":"active","ping":82},{"user_id":455,"name":"Junsei","steam_id":76561199088984886,"connected_time":966000000000,"state":"active","ping":65},{"user_id":447,"name":"Totally_faraam","steam_id":76561199230162663,"connected_time":1197000000000,"state":"active","ping":61},{"user_id":461,"name":"SwampMonkeyJR","steam_id":76561198218862723,"connected_time":485000000000,"state":"active","ping":98},{"user_id":442,"name":"㋛ countblanc","steam_id":76561197993171771,"connected_time":1611000000000,"state":"active","ping":55},{"user_id":430,"name":"vv","steam_id":76561198134813102,"connected_time":2297000000000,"state":"active","ping":53},{"user_id":458,"name":"[82DK] Ike","steam_id":76561198135256526,"connected_time":526000000000,"state":"active","ping":85},{"user_id":412,"name":"DivineBanana","steam_id":76561198026529731,"connected_time":3241000000000,"state":"active","ping":90},{"user_id":445,"name":"fr","steam_id":76561198374871080,"connected_time":1511000000000,"state":"active","ping":107},{"user_id":457,"name":"Ahhpple","steam_id":76561197993322448,"connected_time":609000000000,"state":"active","ping":71},{"user_id":465,"name":"[NAME-REDACTED]","steam_id":76561198035682975,"connected_time":192000000000,"state":"active","ping":63},{"user_id":463,"name":"sailor","steam_id":76561198091015050,"connected_time":350000000000,"state":"active","ping":52},{"user_id":448,"name":"Bloodborne Reference","steam_id":76561198380666998,"connected_time":1194000000000,"state":"active","ping":137},{"user_id":460,"name":"Hidden Phantom","steam_id":76561198115531799,"connected_time":488000000000,"state":"active","ping":83},{"user_id":432,"name":"basket","steam_id":76561199486768009,"connected_time":2126000000000,"state":"active","ping":101},{"user_id":459,"name":"JHLO","steam_id":76561198074359967,"connected_time":503000000000,"state":"active","ping":79},{"user_id":462,"name":"FoxStrike","steam_id":76561198218232011,"connected_time":412000000000,"state":"active","ping":85},{"user_id":417,"name":"thatguy_luigi","steam_id":76561198968055462,"connected_time":3088000000000,"state":"active","ping":125},{"user_id":464,"name":"trianamarco780","steam_id":76561199084319677,"connected_time":250000000000,"state":"active","ping":135},{"user_id":400,"name":"BarrowBaron","steam_id":76561198013633236,"connected_time":3997000000000,"state":"active","ping":59},{"user_id":425,"name":"ChillyJones","steam_id":76561198017658702,"connected_time":2667000000000,"state":"active","ping":79},{"user_id":450,"name":"Tired","steam_id":76561198072620682,"connected_time":1147000000000,"state":"active","ping":89},{"user_id":429,"name":"Mortal Flame","steam_id":76561198130698418,"connected_time":2500000000000,"state":"active","ping":86}]},{"server_id":403,"name":"Uncletopia | Chicago | 4 | All Maps","name_short":"chi-4","host":"chi-1.us.uncletopia.com","port":27045,"enabled":true,"region":"us-central","cc":"us","latitude":41.881832,"longitude":-87.62318,"reserved":0,"last_update":"0001-01-01T00:00:00Z","name_a2s":"Uncletopia | Chicago | 4 | All Maps","protocol":17,"map":"pl_snowycoast","folder":"tf","game":"Team Fortress","app_id":440,"player_count":24,"max_players":24,"Bots":0,"server_type":"Dedicated","server_os":"Linux","password":true,"vac":true,"version":"7961495","steam_id":85568392924515193,"keywords":["nocrits","nodmgspread","payload","uncletopia"],"game_id":440,"stv_port":27046,"stv_name":"Uncletopia | Chicago | 4 | All Maps | STV","players":[{"user_id":467,"name":"4 life","steam_id":76561198175961598,"connected_time":5012000000000,"state":"active","ping":111},{"user_id":514,"name":"BugsAreMyWorstEnemy","steam_id":76561199440395505,"connected_time":1197000000000,"state":"active","ping":71},{"user_id":507,"name":"Evil little man","steam_id":76561198311053471,"connected_time":2182000000000,"state":"active","ping":78},{"user_id":482,"name":"Doof","steam_id":76561198034031819,"connected_time":4019000000000,"state":"active","ping":60},{"user_id":442,"name":"Allah-lover","steam_id":76561198076768673,"connected_time":6539000000000,"state":"active","ping":64},{"user_id":476,"name":"Shush","steam_id":76561198123902813,"connected_time":4195000000000,"state":"active","ping":100},{"user_id":515,"name":"emeraldrhymes","steam_id":76561198842486176,"connected_time":1178000000000,"state":"active","ping":84},{"user_id":524,"name":"lego star wars on the psp","steam_id":76561198148014773,"connected_time":328000000000,"state":"active","ping":72},{"user_id":469,"name":"Crazy Dave!","steam_id":76561198951414566,"connected_time":4602000000000,"state":"active","ping":61},{"user_id":520,"name":"captainskullet","steam_id":76561198314597170,"connected_time":908000000000,"state":"active","ping":67},{"user_id":406,"name":"J The Jounin","steam_id":76561198034583622,"connected_time":9707000000000,"state":"active","ping":74},{"user_id":523,"name":"Fatal Butt Cramps","steam_id":76561198046591177,"connected_time":423000000000,"state":"active","ping":71},{"user_id":513,"name":":)","steam_id":76561198093921290,"connected_time":1242000000000,"state":"active","ping":38},{"user_id":517,"name":"kaputis","steam_id":76561198127468114,"connected_time":1098000000000,"state":"active","ping":86},{"user_id":521,"name":"conner","steam_id":76561198052911241,"connected_time":710000000000,"state":"active","ping":75},{"user_id":522,"name":"Fuzzy Toast","steam_id":76561198028067781,"connected_time":441000000000,"state":"active","ping":45},{"user_id":498,"name":"thumb","steam_id":76561198353762582,"connected_time":2977000000000,"state":"active","ping":123},{"user_id":505,"name":"Krazetrain:76","steam_id":76561198284628604,"connected_time":2326000000000,"state":"active","ping":66},{"user_id":510,"name":"Cat in Your Backyard","steam_id":76561197979078330,"connected_time":2121000000000,"state":"active","ping":62},{"user_id":492,"name":"jpuzza","steam_id":76561198035535731,"connected_time":3487000000000,"state":"active","ping":56},{"user_id":488,"name":"L to the OG","steam_id":76561199215811448,"connected_time":3680000000000,"state":"active","ping":75},{"user_id":511,"name":"HOOPLA","steam_id":76561198993451858,"connected_time":1760000000000,"state":"active","ping":72},{"user_id":519,"name":"Wengatang","steam_id":76561198021747059,"connected_time":1072000000000,"state":"active","ping":50},{"user_id":503,"name":"IAmAProfesonal","steam_id":76561199171858953,"connected_time":2446000000000,"state":"active","ping":37}]},{"server_id":36,"name":"Uncletopia | Chicago | 5 | All Maps","name_short":"chi-5","host":"chi-2.us.uncletopia.com","port":27015,"enabled":true,"region":"us-central","cc":"us","latitude":41.881832,"longitude":-87.62318,"reserved":0,"last_update":"0001-01-01T00:00:00Z","name_a2s":"Uncletopia | Chicago | 5 | All Maps","protocol":17,"map":"cp_snakewater_final1","folder":"tf","game":"Team Fortress","app_id":440,"player_count":23,"max_players":24,"Bots":0,"server_type":"Dedicated","server_os":"Linux","password":true,"vac":true,"version":"7961495","steam_id":85568392924866362,"keywords":["cp","nocrits","nodmgspread","uncletopia"],"game_id":440,"stv_port":27016,"stv_name":"Uncletopia | Chicago | 5 | All Maps | STV","players":[{"user_id":229,"name":"Trotsky Gaming","steam_id":76561199101638460,"connected_time":11554000000000,"state":"active","ping":70},{"user_id":343,"name":"RokkitFrog","steam_id":76561198046465850,"connected_time":2352000000000,"state":"active","ping":68},{"user_id":374,"name":"a narwhal","steam_id":76561198014527353,"connected_time":420000000000,"state":"active","ping":75},{"user_id":365,"name":"CupFruit","steam_id":76561198983993193,"connected_time":977000000000,"state":"active","ping":75},{"user_id":368,"name":"sugoiboi48","steam_id":76561198060056280,"connected_time":875000000000,"state":"active","ping":54},{"user_id":338,"name":"Observer","steam_id":76561198220720512,"connected_time":3064000000000,"state":"active","ping":72},{"user_id":366,"name":"dogface","steam_id":76561198074407897,"connected_time":884000000000,"state":"active","ping":69},{"user_id":328,"name":"Dragus","steam_id":76561198032967285,"connected_time":4031000000000,"state":"active","ping":54},{"user_id":286,"name":"NovaSc6ut","steam_id":76561198277163301,"connected_time":7430000000000,"state":"active","ping":64},{"user_id":359,"name":"eaglesfan609","steam_id":76561198151032242,"connected_time":1461000000000,"state":"active","ping":62},{"user_id":361,"name":"Kebab","steam_id":76561199075899115,"connected_time":1421000000000,"state":"active","ping":93},{"user_id":330,"name":"jon.cinnamon","steam_id":76561198127316418,"connected_time":3790000000000,"state":"active","ping":75},{"user_id":369,"name":"hystrix","steam_id":76561198049623819,"connected_time":857000000000,"state":"active","ping":173},{"user_id":313,"name":"Tripll-L","steam_id":76561197998077437,"connected_time":5352000000000,"state":"active","ping":80},{"user_id":329,"name":"JakeK","steam_id":76561198149375504,"connected_time":4030000000000,"state":"active","ping":68},{"user_id":364,"name":"Bored Barred Owl","steam_id":76561198263895597,"connected_time":1118000000000,"state":"active","ping":80},{"user_id":370,"name":"t","steam_id":76561198175988929,"connected_time":856000000000,"state":"active","ping":71},{"user_id":350,"name":"Synergy","steam_id":76561198098630198,"connected_time":2207000000000,"state":"active","ping":99},{"user_id":281,"name":"LordOfTheNoobs","steam_id":76561197962697523,"connected_time":8056000000000,"state":"active","ping":59},{"user_id":371,"name":"gn92","steam_id":76561198847749278,"connected_time":803000000000,"state":"active","ping":70},{"user_id":373,"name":"je1i","steam_id":76561198268951743,"connected_time":480000000000,"state":"active","ping":65},{"user_id":290,"name":"--_Cook_--","steam_id":76561198080855748,"connected_time":7241000000000,"state":"active","ping":46},{"user_id":376,"name":"C Papi","steam_id":76561198027779564,"connected_time":318000000000,"state":"active","ping":60}]},{"server_id":37,"name":"Uncletopia | Chicago | 6 | All Maps","name_short":"chi-6","host":"chi-2.us.uncletopia.com","port":27025,"enabled":true,"region":"us-central","cc":"us","latitude":41.881832,"longitude":-87.62318,"reserved":0,"last_update":"0001-01-01T00:00:00Z","name_a2s":"Uncletopia | Chicago | 6 | All Maps","protocol":17,"map":"koth_nucleus","folder":"tf","game":"Team Fortress","app_id":440,"player_count":24,"max_players":24,"Bots":0,"server_type":"Dedicated","server_os":"Linux","password":true,"vac":true,"version":"7961495","steam_id":85568392924866363,"keywords":["cp","nocrits","nodmgspread","uncletopia"],"game_id":440,"stv_port":27026,"stv_name":"Uncletopia | Chicago | 6 | All Maps | STV","players":[{"user_id":491,"name":"Tuvok Shakur","steam_id":76561198018875334,"connected_time":236000000000,"state":"active","ping":80},{"user_id":479,"name":"Griffin","steam_id":76561198159339442,"connected_time":632000000000,"state":"active","ping":68},{"user_id":485,"name":"ivan","steam_id":76561199017754044,"connected_time":352000000000,"state":"active","ping":74},{"user_id":481,"name":"22","steam_id":76561198138109149,"connected_time":622000000000,"state":"active","ping":61},{"user_id":487,"name":"frim le yousse","steam_id":76561198107765260,"connected_time":308000000000,"state":"active","ping":85},{"user_id":430,"name":"bananer_man_74","steam_id":76561199484199687,"connected_time":3558000000000,"state":"active","ping":61},{"user_id":436,"name":"Peepster","steam_id":76561198297854733,"connected_time":2895000000000,"state":"active","ping":71},{"user_id":422,"name":"Scorpie Doodle","steam_id":76561198021845763,"connected_time":3944000000000,"state":"active","ping":56},{"user_id":468,"name":"Soda","steam_id":76561198219209367,"connected_time":1063000000000,"state":"active","ping":67},{"user_id":492,"name":"Sugahu17S","steam_id":76561198799403828,"connected_time":125000000000,"state":"active","ping":49},{"user_id":446,"name":"Bim","steam_id":76561198155979811,"connected_time":2495000000000,"state":"active","ping":72},{"user_id":488,"name":"Dundramino","steam_id":76561198196976154,"connected_time":286000000000,"state":"active","ping":66},{"user_id":489,"name":"Dyld","steam_id":76561197979603871,"connected_time":262000000000,"state":"active","ping":150},{"user_id":484,"name":"k3ramb1t","steam_id":76561198097880352,"connected_time":408000000000,"state":"active","ping":72},{"user_id":490,"name":"That Guy","steam_id":76561198074138740,"connected_time":245000000000,"state":"active","ping":80},{"user_id":469,"name":"KSupes","steam_id":76561199131995067,"connected_time":1049000000000,"state":"active","ping":46},{"user_id":371,"name":"Ottabie","steam_id":76561198871480678,"connected_time":7729000000000,"state":"active","ping":81},{"user_id":473,"name":"nemesis","steam_id":76561198115050507,"connected_time":911000000000,"state":"active","ping":70},{"user_id":466,"name":"c64guy","steam_id":76561198023022744,"connected_time":1258000000000,"state":"active","ping":62},{"user_id":470,"name":"Mug Moment Gaming","steam_id":76561198233098136,"connected_time":1032000000000,"state":"active","ping":80},{"user_id":493,"name":"GruntRule","steam_id":76561198039987143,"connected_time":73000000000,"state":"active","ping":75},{"user_id":474,"name":"battle clown","steam_id":76561198045788371,"connected_time":905000000000,"state":"active","ping":67},{"user_id":495,"name":"juicy j","steam_id":76561198043497451,"connected_time":26000000000,"state":"active","ping":46},{"user_id":411,"name":"Miner2495","steam_id":76561198445904523,"connected_time":4871000000000,"state":"active","ping":68}]},{"server_id":38,"name":"Uncletopia | Chicago | 7 | Stopwatch Beta","name_short":"chi-7","host":"chi-2.us.uncletopia.com","port":27035,"enabled":true,"region":"us-central","cc":"us","latitude":41.881832,"longitude":-87.62318,"reserved":0,"last_update":"0001-01-01T00:00:00Z","name_a2s":"Uncletopia | Chicago | 7 | Stopwatch Beta","protocol":17,"map":"workshop/koth_bagel_rc6.ugc2514036946","folder":"tf","game":"Team Fortress","app_id":440,"player_count":1,"max_players":24,"Bots":0,"server_type":"Dedicated","server_os":"Linux","password":true,"vac":true,"version":"7961495","steam_id":85568392924866364,"keywords":["cp","nocrits","nodmgspread","uncletopia"],"game_id":440,"stv_port":27036,"stv_name":"Uncletopia | Chicago | 7 | Stopwatch Beta | STV","players":[{"user_id":26,"name":"crispylego_","steam_id":76561199453679719,"connected_time":87000000000,"state":"active","ping":146}]},{"server_id":39,"name":"Uncletopia | Chicago | 8 | Community","name_short":"chi-8","host":"chi-2.us.uncletopia.com","port":27045,"enabled":true,"region":"us-central","cc":"us","latitude":41.881832,"longitude":-87.62318,"reserved":0,"last_update":"0001-01-01T00:00:00Z","name_a2s":"Uncletopia | Chicago | 8 | Community","protocol":17,"map":"workshop/koth_product_final.ugc454272353","folder":"tf","game":"Team Fortress","app_id":440,"player_count":24,"max_players":24,"Bots":0,"server_type":"Dedicated","server_os":"Linux","password":true,"vac":true,"version":"7961495","steam_id":85568392924866365,"keywords":["cp","nocrits","nodmgspread","uncletopia"],"game_id":440,"stv_port":27046,"stv_name":"Uncletopia | Chicago | 8 | Community | STV","players":[{"user_id":138,"name":"Kdwag","steam_id":76561198030761042,"connected_time":3051000000000,"state":"active","ping":93},{"user_id":195,"name":"aimboat","steam_id":76561198218131923,"connected_time":74000000000,"state":"active","ping":59},{"user_id":170,"name":"Darakrish","steam_id":76561198133126686,"connected_time":871000000000,"state":"active","ping":63},{"user_id":156,"name":"Orakcaj","steam_id":76561198080563935,"connected_time":1712000000000,"state":"active","ping":41},{"user_id":167,"name":"\"Big\" P. Rivates","steam_id":76561198399415217,"connected_time":1018000000000,"state":"active","ping":85},{"user_id":160,"name":"MeKaso TropStar","steam_id":76561199109895840,"connected_time":1271000000000,"state":"active","ping":69},{"user_id":190,"name":"Przemomalin","steam_id":76561197987528170,"connected_time":411000000000,"state":"active","ping":173},{"user_id":162,"name":"Dr. Pl0x","steam_id":76561198040785401,"connected_time":1240000000000,"state":"active","ping":106},{"user_id":163,"name":"vanta","steam_id":76561198084317504,"connected_time":1234000000000,"state":"active","ping":45},{"user_id":164,"name":"zen","steam_id":76561198066485047,"connected_time":1221000000000,"state":"active","ping":59},{"user_id":165,"name":"UNCLE RUCKUS","steam_id":76561199380604147,"connected_time":1189000000000,"state":"active","ping":73},{"user_id":166,"name":"Ganondorf","steam_id":76561198010421059,"connected_time":1123000000000,"state":"active","ping":54},{"user_id":95,"name":"trollos (real)","steam_id":76561199195097493,"connected_time":7461000000000,"state":"active","ping":72},{"user_id":179,"name":"watchfull","steam_id":76561198433266742,"connected_time":671000000000,"state":"active","ping":104},{"user_id":172,"name":"Candy Sparkles","steam_id":76561198126871264,"connected_time":768000000000,"state":"active","ping":83},{"user_id":193,"name":"Nick","steam_id":76561198144448144,"connected_time":328000000000,"state":"active","ping":52},{"user_id":175,"name":"Johnny Lawrence #JohnnyMaxxing","steam_id":76561199367141671,"connected_time":743000000000,"state":"active","ping":60},{"user_id":184,"name":"AMBVURT","steam_id":76561198910561700,"connected_time":544000000000,"state":"active","ping":85},{"user_id":192,"name":"That Darned Imperialist","steam_id":76561198854501307,"connected_time":342000000000,"state":"active","ping":62},{"user_id":183,"name":"Soap","steam_id":76561198074619142,"connected_time":569000000000,"state":"active","ping":58},{"user_id":194,"name":"LerN","steam_id":76561198083463877,"connected_time":159000000000,"state":"active","ping":60},{"user_id":186,"name":"Arab_RuntZ","steam_id":76561198284164847,"connected_time":519000000000,"state":"active","ping":69},{"user_id":187,"name":"herb","steam_id":76561198185980055,"connected_time":517000000000,"state":"active","ping":61},{"user_id":188,"name":"bengineer","steam_id":76561198171912174,"connected_time":505000000000,"state":"active","ping":101}]},{"server_id":8,"name":"Uncletopia | Dallas | 1 | All Maps","name_short":"dal-1","host":"dal-1.us.uncletopia.com","port":27015,"enabled":true,"region":"us-central","cc":"us","latitude":32.779167,"longitude":-96.80889,"reserved":0,"last_update":"0001-01-01T00:00:00Z","name_a2s":"Uncletopia | Dallas | 1 | All Maps","protocol":17,"map":"pl_upward","folder":"tf","game":"Team Fortress","app_id":440,"player_count":24,"max_players":24,"Bots":0,"server_type":"Dedicated","server_os":"Linux","password":true,"vac":true,"version":"7961495","steam_id":85568392924469986,"keywords":["nocrits","nodmgspread","payload","uncletopia"],"game_id":440,"stv_port":27016,"stv_name":"Uncletopia | Dallas | 1 | All Maps | STV","players":[{"user_id":496,"name":"LampMan","steam_id":76561198079857527,"connected_time":3606000000000,"state":"active","ping":56},{"user_id":544,"name":"Alberto2104","steam_id":76561198094968873,"connected_time":834000000000,"state":"active","ping":87},{"user_id":542,"name":"Kaiju","steam_id":76561198035703156,"connected_time":1061000000000,"state":"active","ping":50},{"user_id":550,"name":"aisu","steam_id":76561198043768507,"connected_time":371000000000,"state":"active","ping":90},{"user_id":551,"name":"rice white","steam_id":76561198320732910,"connected_time":367000000000,"state":"active","ping":90},{"user_id":522,"name":"soft butt","steam_id":76561198821440690,"connected_time":1957000000000,"state":"active","ping":103},{"user_id":440,"name":"flippercurve","steam_id":76561199238295034,"connected_time":9146000000000,"state":"active","ping":73},{"user_id":517,"name":"MickyMerc","steam_id":76561198041387228,"connected_time":2236000000000,"state":"active","ping":56},{"user_id":540,"name":"Sanity Impaired Toast Man","steam_id":76561198057654265,"connected_time":1141000000000,"state":"active","ping":63},{"user_id":556,"name":"controller gaming","steam_id":76561198439963761,"connected_time":83000000000,"state":"active","ping":76},{"user_id":495,"name":"frank","steam_id":76561198137777483,"connected_time":3614000000000,"state":"active","ping":89},{"user_id":554,"name":"artichoke","steam_id":76561198980994364,"connected_time":186000000000,"state":"active","ping":108},{"user_id":523,"name":"The rat","steam_id":76561198050432341,"connected_time":1945000000000,"state":"active","ping":140},{"user_id":546,"name":"rumidog","steam_id":76561198046896005,"connected_time":813000000000,"state":"active","ping":116},{"user_id":549,"name":"Sophi","steam_id":76561198958125792,"connected_time":480000000000,"state":"active","ping":108},{"user_id":548,"name":"vastrobotmax","steam_id":76561198417110724,"connected_time":492000000000,"state":"active","ping":103},{"user_id":525,"name":"Unarmed Gun Man","steam_id":76561199489296949,"connected_time":1901000000000,"state":"active","ping":151},{"user_id":553,"name":"Exetior","steam_id":76561198978688451,"connected_time":266000000000,"state":"active","ping":68},{"user_id":526,"name":"FormalCheese","steam_id":76561198068636715,"connected_time":1831000000000,"state":"active","ping":75},{"user_id":527,"name":"Seta \u003c3","steam_id":76561198100174945,"connected_time":1825000000000,"state":"active","ping":142},{"user_id":537,"name":"brotalium","steam_id":76561198055439054,"connected_time":1322000000000,"state":"active","ping":98},{"user_id":528,"name":"KatNipTon","steam_id":76561198339215256,"connected_time":1802000000000,"state":"active","ping":81},{"user_id":502,"name":"Kramer's Apology (Full Video)","steam_id":76561198009339435,"connected_time":3483000000000,"state":"active","ping":58},{"user_id":509,"name":"pinglefingle","steam_id":76561198216580197,"connected_time":2755000000000,"state":"active","ping":55}]},{"server_id":108,"name":"Uncletopia | Dallas | 2 | All Maps","name_short":"dal-2","host":"dal-1.us.uncletopia.com","port":27025,"enabled":true,"region":"us-central","cc":"us","latitude":32.779167,"longitude":-96.80889,"reserved":0,"last_update":"0001-01-01T00:00:00Z","name_a2s":"Uncletopia | Dallas | 2 | All Maps","protocol":17,"map":"pl_upward","folder":"tf","game":"Team Fortress","app_id":440,"player_count":23,"max_players":24,"Bots":0,"server_type":"Dedicated","server_os":"Linux","password":true,"vac":true,"version":"7961495","steam_id":85568392924469988,"keywords":["nocrits","nodmgspread","payload","uncletopia"],"game_id":440,"stv_port":27026,"stv_name":"Uncletopia | Dallas | 2 | All Maps | STV","players":[{"user_id":297,"name":"shotgunlover45","steam_id":76561198201249071,"connected_time":551000000000,"state":"active","ping":50},{"user_id":299,"name":"Clownfucker","steam_id":76561198091713728,"connected_time":522000000000,"state":"active","ping":102},{"user_id":298,"name":"|Wyman|","steam_id":76561199013124535,"connected_time":549000000000,"state":"active","ping":78},{"user_id":310,"name":"RyInc","steam_id":76561198874261643,"connected_time":224000000000,"state":"active","ping":67},{"user_id":308,"name":"smooth brain","steam_id":76561198049253541,"connected_time":334000000000,"state":"active","ping":64},{"user_id":302,"name":"SC|Formuoli","steam_id":76561198254354595,"connected_time":461000000000,"state":"active","ping":60},{"user_id":30,"name":"CeLeb144","steam_id":76561199089907740,"connected_time":20338000000000,"state":"active","ping":71},{"user_id":295,"name":"Quick-Fix","steam_id":76561198295501978,"connected_time":714000000000,"state":"active","ping":63},{"user_id":264,"name":"Fightin Cow","steam_id":76561198080941486,"connected_time":3091000000000,"state":"active","ping":58},{"user_id":309,"name":"Mail Delivery","steam_id":76561198290046318,"connected_time":273000000000,"state":"active","ping":62},{"user_id":245,"name":"Japes","steam_id":76561198079625724,"connected_time":4127000000000,"state":"active","ping":99},{"user_id":296,"name":"Bᵢg Bₒₛₛ","steam_id":76561198090271815,"connected_time":614000000000,"state":"active","ping":127},{"user_id":303,"name":"cold","steam_id":76561199017901552,"connected_time":454000000000,"state":"active","ping":57},{"user_id":304,"name":"Chilis 2 for 20","steam_id":76561198121544531,"connected_time":439000000000,"state":"active","ping":77},{"user_id":282,"name":"The Assistant Regional Manager","steam_id":76561199221484936,"connected_time":1420000000000,"state":"active","ping":94},{"user_id":269,"name":"VerrucktMedic","steam_id":76561198093144226,"connected_time":2577000000000,"state":"active","ping":91},{"user_id":311,"name":"urine trouble","steam_id":76561199013266640,"connected_time":154000000000,"state":"active","ping":78},{"user_id":305,"name":"OneLess","steam_id":76561198150870338,"connected_time":426000000000,"state":"active","ping":75},{"user_id":277,"name":"EMPEROR","steam_id":76561198333093167,"connected_time":2050000000000,"state":"active","ping":120},{"user_id":271,"name":"menonamed","steam_id":76561198199564382,"connected_time":2473000000000,"state":"active","ping":83},{"user_id":312,"name":"pizza","steam_id":76561198019959482,"connected_time":146000000000,"state":"active","ping":98},{"user_id":243,"name":"Glaceon","steam_id":76561198177715869,"connected_time":4155000000000,"state":"active","ping":58},{"user_id":197,"name":"RockMan","steam_id":76561199228684720,"connected_time":7366000000000,"state":"active","ping":50}]},{"server_id":404,"name":"Uncletopia | Dallas | 3 | All Maps","name_short":"dal-3","host":"dal-1.us.uncletopia.com","port":27035,"enabled":true,"region":"us-central","cc":"us","latitude":32.779167,"longitude":-96.80889,"reserved":0,"last_update":"0001-01-01T00:00:00Z","name_a2s":"Uncletopia | Dallas | 3 | All Maps","protocol":17,"map":"pl_snowycoast","folder":"tf","game":"Team Fortress","app_id":440,"player_count":24,"max_players":24,"Bots":0,"server_type":"Dedicated","server_os":"Linux","password":true,"vac":true,"version":"7961495","steam_id":85568392924515219,"keywords":["nocrits","nodmgspread","payload","uncletopia"],"game_id":440,"stv_port":27036,"stv_name":"Uncletopia | Dallas | 3 | All Maps | STV","players":[{"user_id":229,"name":"Dat1SpenceyBoi","steam_id":76561199446171976,"connected_time":456000000000,"state":"active","ping":77},{"user_id":207,"name":"Titar Industries","steam_id":76561198143078476,"connected_time":1827000000000,"state":"active","ping":94},{"user_id":216,"name":"Robolow","steam_id":76561198238109496,"connected_time":1054000000000,"state":"active","ping":83},{"user_id":210,"name":"Cliffigriff","steam_id":76561198121924499,"connected_time":1749000000000,"state":"active","ping":58},{"user_id":230,"name":"Ryzema","steam_id":76561198165594229,"connected_time":86000000000,"state":"active","ping":89},{"user_id":205,"name":"Shattered Glass","steam_id":76561198116835391,"connected_time":1989000000000,"state":"active","ping":91},{"user_id":168,"name":"Gangbang Venture Capitalist","steam_id":76561198188115438,"connected_time":5789000000000,"state":"active","ping":83},{"user_id":218,"name":"99square","steam_id":76561198364033024,"connected_time":969000000000,"state":"active","ping":110},{"user_id":132,"name":"Jerk Tryhard (roleplay)","steam_id":76561199470538309,"connected_time":7847000000000,"state":"active","ping":77},{"user_id":219,"name":"Lyxbris","steam_id":76561198172294627,"connected_time":943000000000,"state":"active","ping":87},{"user_id":222,"name":"Bill Nye The Science Guy","steam_id":76561198989232317,"connected_time":915000000000,"state":"active","ping":102},{"user_id":221,"name":"The Benefactor","steam_id":76561198307247913,"connected_time":927000000000,"state":"active","ping":86},{"user_id":223,"name":"leesh","steam_id":76561198079603938,"connected_time":913000000000,"state":"active","ping":63},{"user_id":209,"name":"keffers","steam_id":76561198202338796,"connected_time":1769000000000,"state":"active","ping":77},{"user_id":231,"name":"NoobCesar","steam_id":76561198095250755,"connected_time":25000000000,"state":"spawning","ping":80},{"user_id":224,"name":"uzr","steam_id":76561198799343084,"connected_time":895000000000,"state":"active","ping":81},{"user_id":206,"name":"Dick Fisthammer","steam_id":76561198110586348,"connected_time":1907000000000,"state":"active","ping":81},{"user_id":208,"name":"Lolxdloldx","steam_id":76561198136887125,"connected_time":1821000000000,"state":"active","ping":102},{"user_id":225,"name":"macaco","steam_id":76561198113828255,"connected_time":888000000000,"state":"active","ping":146},{"user_id":214,"name":"tamaclagan","steam_id":76561198882009720,"connected_time":1215000000000,"state":"active","ping":100},{"user_id":213,"name":"Jerphf","steam_id":76561198328825964,"connected_time":1379000000000,"state":"active","ping":60},{"user_id":226,"name":"P.C. Baby","steam_id":76561198067011379,"connected_time":847000000000,"state":"active","ping":91},{"user_id":186,"name":"No I am not okay","steam_id":76561198153509586,"connected_time":4662000000000,"state":"active","ping":87},{"user_id":227,"name":"Gimli","steam_id":76561198153729934,"connected_time":846000000000,"state":"active","ping":68}]},{"server_id":405,"name":"Uncletopia | Dallas | 4 | Community","name_short":"dal-4","host":"dal-1.us.uncletopia.com","port":27045,"enabled":true,"region":"us-central","cc":"us","latitude":32.779167,"longitude":-96.80889,"reserved":0,"last_update":"0001-01-01T00:00:00Z","name_a2s":"Uncletopia | Dallas | 4 | Community","protocol":17,"map":"workshop/koth_ramjam_rc1.ugc459778887","folder":"tf","game":"Team Fortress","app_id":440,"player_count":18,"max_players":24,"Bots":0,"server_type":"Dedicated","server_os":"Linux","password":true,"vac":true,"version":"7961495","steam_id":85568392924515220,"keywords":["cp","nocrits","nodmgspread","uncletopia"],"game_id":440,"stv_port":27046,"stv_name":"Uncletopia | Dallas | 4 | Community | STV","players":[{"user_id":149,"name":"Jill","steam_id":76561198097398193,"connected_time":548000000000,"state":"active","ping":79},{"user_id":148,"name":"Nervere","steam_id":76561198102214687,"connected_time":773000000000,"state":"active","ping":82},{"user_id":150,"name":"Nwhis","steam_id":76561198119528214,"connected_time":494000000000,"state":"active","ping":69},{"user_id":132,"name":"GuyOnline","steam_id":76561198345414361,"connected_time":1359000000000,"state":"active","ping":105},{"user_id":126,"name":"StarManMatt","steam_id":76561198125513574,"connected_time":1518000000000,"state":"active","ping":96},{"user_id":155,"name":"mlyb","steam_id":76561198144052860,"connected_time":253000000000,"state":"active","ping":105},{"user_id":156,"name":"BigMuslimBoi","steam_id":76561198014598893,"connected_time":242000000000,"state":"active","ping":92},{"user_id":107,"name":"The Cannon Man","steam_id":76561198058384335,"connected_time":3023000000000,"state":"active","ping":102},{"user_id":153,"name":"ZuKe","steam_id":76561198086081909,"connected_time":324000000000,"state":"active","ping":89},{"user_id":154,"name":"seats","steam_id":76561197998756039,"connected_time":315000000000,"state":"active","ping":76},{"user_id":157,"name":"neet","steam_id":76561197968115168,"connected_time":57000000000,"state":"active","ping":68},{"user_id":130,"name":"Sacknana","steam_id":76561199001811226,"connected_time":1429000000000,"state":"active","ping":47},{"user_id":144,"name":"Banjoei","steam_id":76561198888896040,"connected_time":1017000000000,"state":"active","ping":76},{"user_id":140,"name":"Architect","steam_id":76561198015242016,"connected_time":1204000000000,"state":"active","ping":70},{"user_id":106,"name":"huh","steam_id":76561198128009444,"connected_time":3089000000000,"state":"active","ping":136},{"user_id":143,"name":"White_Wizard_Named_Corona","steam_id":76561198055652735,"connected_time":1100000000000,"state":"active","ping":67},{"user_id":138,"name":"NikoNikoREE","steam_id":76561199084870197,"connected_time":1293000000000,"state":"active","ping":89},{"user_id":139,"name":"Jolly","steam_id":76561198271989642,"connected_time":1276000000000,"state":"active","ping":82}]},{"server_id":5,"name":"Uncletopia | Frankfurt | 1 | All Maps","name_short":"frk-1","host":"frk-1.de.uncletopia.com","port":27015,"enabled":true,"region":"eu","cc":"de","latitude":50.110924,"longitude":8.682127,"reserved":0,"last_update":"0001-01-01T00:00:00Z","name_a2s":"Uncletopia | Frankfurt | 1 | All Maps","protocol":17,"map":"cp_snakewater_final1","folder":"tf","game":"Team Fortress","app_id":440,"player_count":24,"max_players":24,"Bots":0,"server_type":"Dedicated","server_os":"Linux","password":true,"vac":true,"version":"7961495","steam_id":85568392924469989,"keywords":["cp","nocrits","nodmgspread","uncletopia"],"game_id":440,"stv_port":27016,"stv_name":"Uncletopia | Frankfurt | 1 | All Maps | STV","players":[{"user_id":983,"name":"turdh","steam_id":76561198420188090,"connected_time":2390000000000,"state":"active","ping":69},{"user_id":1008,"name":"alejandro","steam_id":76561198326470064,"connected_time":435000000000,"state":"active","ping":57},{"user_id":981,"name":"SIERRA1","steam_id":76561198231470280,"connected_time":2416000000000,"state":"active","ping":59},{"user_id":846,"name":"Nikoanker","steam_id":76561198090336068,"connected_time":13590000000000,"state":"active","ping":59},{"user_id":975,"name":"waZywoo","steam_id":76561198313253111,"connected_time":3658000000000,"state":"active","ping":67},{"user_id":1013,"name":"Daruun","steam_id":76561198019068781,"connected_time":107000000000,"state":"active","ping":71},{"user_id":930,"name":"Astyloblatta","steam_id":76561199222909666,"connected_time":6688000000000,"state":"active","ping":64},{"user_id":989,"name":"C0d3s","steam_id":76561198093907544,"connected_time":1389000000000,"state":"active","ping":85},{"user_id":996,"name":"BonBon","steam_id":76561198351080588,"connected_time":645000000000,"state":"active","ping":68},{"user_id":993,"name":"hardway","steam_id":76561198272529254,"connected_time":678000000000,"state":"active","ping":59},{"user_id":972,"name":"Brozy","steam_id":76561199014951849,"connected_time":3784000000000,"state":"active","ping":76},{"user_id":963,"name":"Ceiling fan enthusiast","steam_id":76561197989214268,"connected_time":4159000000000,"state":"active","ping":65},{"user_id":998,"name":"Royal Dutch Shell","steam_id":76561198215986979,"connected_time":596000000000,"state":"active","ping":54},{"user_id":1014,"name":"Malkuth","steam_id":76561198058567662,"connected_time":64000000000,"state":"active","ping":80},{"user_id":1011,"name":"DarthFather","steam_id":76561198104494345,"connected_time":176000000000,"state":"active","ping":117},{"user_id":1000,"name":"Eujekas","steam_id":76561198010527145,"connected_time":579000000000,"state":"active","ping":99},{"user_id":1001,"name":"Weenie Hut Jr's","steam_id":76561198050515739,"connected_time":574000000000,"state":"active","ping":61},{"user_id":978,"name":"Sand","steam_id":76561198103761268,"connected_time":3394000000000,"state":"active","ping":52},{"user_id":1012,"name":"Epexegeticus","steam_id":76561198164545360,"connected_time":176000000000,"state":"active","ping":55},{"user_id":1002,"name":"H2n9","steam_id":76561198055811259,"connected_time":567000000000,"state":"active","ping":64},{"user_id":1003,"name":"Real (Real)","steam_id":76561198323425034,"connected_time":552000000000,"state":"active","ping":69},{"user_id":990,"name":"robu","steam_id":76561198113874116,"connected_time":691000000000,"state":"active","ping":72},{"user_id":987,"name":"live funny joke reaction cam","steam_id":76561198346324423,"connected_time":1445000000000,"state":"active","ping":105},{"user_id":1005,"name":"Suspicious Viktor","steam_id":76561198136496249,"connected_time":528000000000,"state":"active","ping":69}]},{"server_id":110,"name":"Uncletopia | Frankfurt | 2 | All Maps","name_short":"frk-2","host":"frk-1.de.uncletopia.com","port":27025,"enabled":true,"region":"eu","cc":"de","latitude":50.110924,"longitude":8.682127,"reserved":0,"last_update":"0001-01-01T00:00:00Z","name_a2s":"Uncletopia | Frankfurt | 2 | All Maps","protocol":17,"map":"koth_highpass","folder":"tf","game":"Team Fortress","app_id":440,"player_count":0,"max_players":24,"Bots":0,"server_type":"Dedicated","server_os":"Linux","password":true,"vac":true,"version":"7961495","steam_id":85568392924469990,"keywords":["cp","nocrits","nodmgspread","uncletopia"],"game_id":440,"stv_port":27026,"stv_name":"Uncletopia | Frankfurt | 2 | All Maps | STV","players":null},{"server_id":308,"name":"Uncletopia | Frankfurt | 3 | All Maps","name_short":"frk-3","host":"frk-1.de.uncletopia.com","port":27035,"enabled":true,"region":"eu","cc":"de","latitude":50.110924,"longitude":8.682127,"reserved":0,"last_update":"0001-01-01T00:00:00Z","name_a2s":"Uncletopia | Frankfurt | 3 | All Maps","protocol":17,"map":"koth_viaduct","folder":"tf","game":"Team Fortress","app_id":440,"player_count":0,"max_players":24,"Bots":0,"server_type":"Dedicated","server_os":"Linux","password":true,"vac":true,"version":"7961495","steam_id":85568392924504274,"keywords":["cp","nocrits","nodmgspread","uncletopia"],"game_id":440,"stv_port":27036,"stv_name":"Uncletopia | Frankfurt | 3 | All Maps | STV","players":null},{"server_id":309,"name":"Uncletopia | Frankfurt | 4 | All Maps","name_short":"frk-4","host":"frk-1.de.uncletopia.com","port":27045,"enabled":true,"region":"eu","cc":"de","latitude":50.110924,"longitude":8.682127,"reserved":0,"last_update":"0001-01-01T00:00:00Z","name_a2s":"Uncletopia | Frankfurt | 4 | All Maps","protocol":17,"map":"pl_badwater","folder":"tf","game":"Team Fortress","app_id":440,"player_count":24,"max_players":24,"Bots":0,"server_type":"Dedicated","server_os":"Linux","password":true,"vac":true,"version":"7961495","steam_id":85568392924504275,"keywords":["nocrits","nodmgspread","payload","uncletopia"],"game_id":440,"stv_port":27046,"stv_name":"Uncletopia | Frankfurt | 4 | All Maps | STV","players":[{"user_id":649,"name":"gothmoth","steam_id":76561198386910896,"connected_time":774000000000,"state":"active","ping":59},{"user_id":650,"name":"Koudlam","steam_id":76561197994375119,"connected_time":687000000000,"state":"active","ping":68},{"user_id":652,"name":"Slavdrew20","steam_id":76561198874638395,"connected_time":662000000000,"state":"active","ping":62},{"user_id":505,"name":"Ixsus\u003c3","steam_id":76561198094756869,"connected_time":13722000000000,"state":"active","ping":53},{"user_id":630,"name":"rets","steam_id":76561198061551392,"connected_time":3163000000000,"state":"active","ping":45},{"user_id":653,"name":"Toot","steam_id":76561198267288496,"connected_time":661000000000,"state":"active","ping":59},{"user_id":648,"name":"Tichy☆","steam_id":76561198026218934,"connected_time":817000000000,"state":"active","ping":56},{"user_id":654,"name":"SSoppen","steam_id":76561198027245969,"connected_time":651000000000,"state":"active","ping":75},{"user_id":655,"name":"Grubby Grebe","steam_id":76561198003914171,"connected_time":650000000000,"state":"active","ping":73},{"user_id":656,"name":"twisted","steam_id":76561198039685348,"connected_time":635000000000,"state":"active","ping":69},{"user_id":657,"name":"armadillo","steam_id":76561198324656652,"connected_time":632000000000,"state":"active","ping":59},{"user_id":658,"name":"Superiumentarius","steam_id":76561198081642249,"connected_time":631000000000,"state":"active","ping":45},{"user_id":644,"name":"енот raccoon","steam_id":76561198203802855,"connected_time":1454000000000,"state":"active","ping":75},{"user_id":663,"name":"cinny","steam_id":76561198832112629,"connected_time":523000000000,"state":"active","ping":76},{"user_id":643,"name":"slippin jimmy","steam_id":76561198090788590,"connected_time":1502000000000,"state":"active","ping":51},{"user_id":659,"name":"krazytxddy","steam_id":76561199072458281,"connected_time":616000000000,"state":"active","ping":74},{"user_id":660,"name":"sbagasser","steam_id":76561198051283300,"connected_time":613000000000,"state":"active","ping":75},{"user_id":647,"name":"Cava","steam_id":76561198054840118,"connected_time":1093000000000,"state":"active","ping":73},{"user_id":628,"name":"mossfan1","steam_id":76561198087525446,"connected_time":3742000000000,"state":"active","ping":89},{"user_id":661,"name":"Mr_Pulse_","steam_id":76561198095001602,"connected_time":596000000000,"state":"active","ping":89},{"user_id":598,"name":"SANS UNDEREXXIE","steam_id":76561198087993931,"connected_time":6407000000000,"state":"active","ping":57},{"user_id":618,"name":"tm`","steam_id":76561197993580412,"connected_time":4309000000000,"state":"active","ping":57},{"user_id":664,"name":"Burpman","steam_id":76561198022897937,"connected_time":397000000000,"state":"active","ping":61},{"user_id":662,"name":"dd","steam_id":76561198257836694,"connected_time":589000000000,"state":"active","ping":52}]},{"server_id":310,"name":"Uncletopia | Frankfurt | 5 | All Maps","name_short":"frk-5","host":"frk-1.de.uncletopia.com","port":27055,"enabled":true,"region":"eu","cc":"de","latitude":50.110924,"longitude":8.682127,"reserved":0,"last_update":"0001-01-01T00:00:00Z","name_a2s":"Uncletopia | Frankfurt | 5 | All Maps","protocol":17,"map":"koth_viaduct","folder":"tf","game":"Team Fortress","app_id":440,"player_count":0,"max_players":24,"Bots":0,"server_type":"Dedicated","server_os":"Linux","password":true,"vac":true,"version":"7961495","steam_id":85568392924504277,"keywords":["cp","nocrits","nodmgspread","uncletopia"],"game_id":440,"stv_port":27056,"stv_name":"Uncletopia | Frankfurt | 5 | All Maps | STV","players":null},{"server_id":311,"name":"Uncletopia | Frankfurt | 6 | All Maps","name_short":"frk-6","host":"frk-1.de.uncletopia.com","port":27065,"enabled":true,"region":"eu","cc":"de","latitude":50.110924,"longitude":8.682127,"reserved":0,"last_update":"0001-01-01T00:00:00Z","name_a2s":"Uncletopia | Frankfurt | 6 | All Maps","protocol":17,"map":"cp_sunshine","folder":"tf","game":"Team Fortress","app_id":440,"player_count":5,"max_players":24,"Bots":0,"server_type":"Dedicated","server_os":"Linux","password":true,"vac":true,"version":"7961495","steam_id":85568392924504278,"keywords":["cp","nocrits","nodmgspread","uncletopia"],"game_id":440,"stv_port":27066,"stv_name":"Uncletopia | Frankfurt | 6 | All Maps | STV","players":[{"user_id":524,"name":"homophobe","steam_id":76561198303701158,"connected_time":53000000000,"state":"active","ping":59},{"user_id":500,"name":"PinkCuve","steam_id":76561198802989702,"connected_time":1917000000000,"state":"active","ping":83},{"user_id":509,"name":"Glacierwinter","steam_id":76561198229675152,"connected_time":1617000000000,"state":"active","ping":73},{"user_id":523,"name":"JurtisCones","steam_id":76561198049312442,"connected_time":451000000000,"state":"active","ping":60},{"user_id":512,"name":"Pop a choccy milk..","steam_id":76561198056790920,"connected_time":1387000000000,"state":"active","ping":60}]},{"server_id":23,"name":"Uncletopia | Frankfurt | 7 | Stopwatch Beta","name_short":"frk-7","host":"frk-1.de.uncletopia.com","port":27075,"enabled":true,"region":"eu","cc":"de","latitude":50.110924,"longitude":8.682127,"reserved":0,"last_update":"0001-01-01T00:00:00Z","name_a2s":"Uncletopia | Frankfurt | 7 | Stopwatch Beta","protocol":17,"map":"workshop/cp_reckoner_rc6.ugc674719999","folder":"tf","game":"Team Fortress","app_id":440,"player_count":0,"max_players":24,"Bots":0,"server_type":"Dedicated","server_os":"Linux","password":true,"vac":true,"version":"7961495","steam_id":85568392924742827,"keywords":["cp","nocrits","nodmgspread","uncletopia"],"game_id":440,"stv_port":27076,"stv_name":"Uncletopia | Frankfurt | 7 | Stopwatch Beta | STV","players":null},{"server_id":24,"name":"Uncletopia | Frankfurt | 8 | Community","name_short":"frk-8","host":"frk-1.de.uncletopia.com","port":27085,"enabled":true,"region":"eu","cc":"de","latitude":50.110924,"longitude":8.682127,"reserved":0,"last_update":"0001-01-01T00:00:00Z","name_a2s":"Uncletopia | Frankfurt | 8 | Community","protocol":17,"map":"workshop/cp_reckoner_rc6.ugc674719999","folder":"tf","game":"Team Fortress","app_id":440,"player_count":0,"max_players":24,"Bots":0,"server_type":"Dedicated","server_os":"Linux","password":true,"vac":true,"version":"7961495","steam_id":85568392924742828,"keywords":["cp","nocrits","nodmgspread","uncletopia"],"game_id":440,"stv_port":27086,"stv_name":"Uncletopia | Frankfurt | 8 | Community | STV","players":null},{"server_id":202,"name":"Uncletopia | Hong Kong | 1 | All Maps","name_short":"hgk-1","host":"hgk-1.hk.uncletopia.com","port":27015,"enabled":true,"region":"asia","cc":"hk","latitude":22.302711,"longitude":114.177216,"reserved":0,"last_update":"0001-01-01T00:00:00Z","name_a2s":"Uncletopia | Hong Kong | 1 | All Maps","protocol":17,"map":"koth_viaduct","folder":"tf","game":"Team Fortress","app_id":440,"player_count":0,"max_players":24,"Bots":0,"server_type":"Dedicated","server_os":"Linux","password":true,"vac":true,"version":"7961495","steam_id":85568392924494504,"keywords":["cp","nocrits","nodmgspread","uncletopia"],"game_id":440,"stv_port":27016,"stv_name":"Uncletopia | Hong Kong | 1 | All Maps | STV","players":null},{"server_id":1,"name":"Uncletopia | Los Angeles | 1 | All Maps","name_short":"lax-1","host":"lax-1.us.uncletopia.com","port":27015,"enabled":true,"region":"us-west","cc":"us","latitude":33.94279,"longitude":-118.41004,"reserved":0,"last_update":"0001-01-01T00:00:00Z","name_a2s":"Uncletopia | Los Angeles | 1 | All Maps","protocol":17,"map":"koth_viaduct","folder":"tf","game":"Team Fortress","app_id":440,"player_count":0,"max_players":24,"Bots":0,"server_type":"Dedicated","server_os":"Linux","password":true,"vac":true,"version":"7961495","steam_id":85568392924469991,"keywords":["cp","nocrits","nodmgspread","uncletopia"],"game_id":440,"stv_port":27016,"stv_name":"Uncletopia | Los Angeles | 1 | All Maps | STV","players":null},{"server_id":112,"name":"Uncletopia | Los Angeles | 2 | All Maps","name_short":"lax-2","host":"lax-1.us.uncletopia.com","port":27025,"enabled":true,"region":"us-west","cc":"us","latitude":33.94279,"longitude":-118.41004,"reserved":0,"last_update":"0001-01-01T00:00:00Z","name_a2s":"Uncletopia | Los Angeles | 2 | All Maps","protocol":17,"map":"pl_swiftwater_final1","folder":"tf","game":"Team Fortress","app_id":440,"player_count":24,"max_players":24,"Bots":0,"server_type":"Dedicated","server_os":"Linux","password":true,"vac":true,"version":"7961495","steam_id":85568392924469992,"keywords":["nocrits","nodmgspread","payload","uncletopia"],"game_id":440,"stv_port":27026,"stv_name":"Uncletopia | Los Angeles | 2 | All Maps | STV","players":[{"user_id":461,"name":"RysN Yeen ♥","steam_id":76561198105359319,"connected_time":2512000000000,"state":"active","ping":47},{"user_id":495,"name":"shreklover69","steam_id":76561198054070811,"connected_time":548000000000,"state":"active","ping":57},{"user_id":487,"name":"samvaluez","steam_id":76561199213743808,"connected_time":1139000000000,"state":"active","ping":64},{"user_id":253,"name":"Tang","steam_id":76561198121340574,"connected_time":17499000000000,"state":"active","ping":61},{"user_id":481,"name":"bubby","steam_id":76561198049258493,"connected_time":1305000000000,"state":"active","ping":89},{"user_id":473,"name":"Bocchi The Rock Johnson","steam_id":76561198216017952,"connected_time":1774000000000,"state":"active","ping":99},{"user_id":491,"name":"supcupman","steam_id":76561198051513866,"connected_time":936000000000,"state":"active","ping":71},{"user_id":496,"name":"Jabroni RIP DOOM","steam_id":76561198066385842,"connected_time":501000000000,"state":"active","ping":61},{"user_id":471,"name":"Skippy Dinglechalk","steam_id":76561198133291980,"connected_time":1804000000000,"state":"active","ping":175},{"user_id":450,"name":"SanitysEdge","steam_id":76561198130732813,"connected_time":4226000000000,"state":"active","ping":47},{"user_id":464,"name":"don't get mad","steam_id":76561198064662875,"connected_time":2348000000000,"state":"active","ping":59},{"user_id":460,"name":"♥ STEE ♥","steam_id":76561198030495003,"connected_time":3079000000000,"state":"active","ping":53},{"user_id":468,"name":"Heartnet","steam_id":76561198083045999,"connected_time":1893000000000,"state":"active","ping":63},{"user_id":482,"name":"nomis","steam_id":76561198115367704,"connected_time":1297000000000,"state":"active","ping":76},{"user_id":490,"name":"npc energy","steam_id":76561198035342207,"connected_time":1026000000000,"state":"active","ping":90},{"user_id":478,"name":"BradB","steam_id":76561199163905036,"connected_time":1345000000000,"state":"active","ping":105},{"user_id":477,"name":"Soulja Boy","steam_id":76561198066091050,"connected_time":1561000000000,"state":"active","ping":80},{"user_id":428,"name":"Meth Goblin","steam_id":76561198086355221,"connected_time":5124000000000,"state":"active","ping":92},{"user_id":454,"name":"wlfgng","steam_id":76561198316639499,"connected_time":4062000000000,"state":"active","ping":46},{"user_id":458,"name":"❤ Ashley ❤","steam_id":76561198056428303,"connected_time":3583000000000,"state":"active","ping":50},{"user_id":497,"name":"BreadGod","steam_id":76561198050665205,"connected_time":202000000000,"state":"active","ping":114},{"user_id":480,"name":"AROUSEDJELLY","steam_id":76561198011237530,"connected_time":1344000000000,"state":"active","ping":51},{"user_id":494,"name":"wolfspider","steam_id":76561199073738227,"connected_time":659000000000,"state":"active","ping":67},{"user_id":476,"name":"lol","steam_id":76561198026491738,"connected_time":1754000000000,"state":"active","ping":63}]},{"server_id":324,"name":"Uncletopia | Los Angeles | 3 | All Maps","name_short":"lax-3","host":"lax-1.us.uncletopia.com","port":27035,"enabled":true,"region":"us-west","cc":"us","latitude":33.94279,"longitude":-118.41004,"reserved":0,"last_update":"0001-01-01T00:00:00Z","name_a2s":"Uncletopia | Los Angeles | 3 | All Maps","protocol":17,"map":"koth_cascade","folder":"tf","game":"Team Fortress","app_id":440,"player_count":23,"max_players":24,"Bots":0,"server_type":"Dedicated","server_os":"Linux","password":true,"vac":true,"version":"7961495","steam_id":85568392924510198,"keywords":["cp","nocrits","nodmgspread","uncletopia"],"game_id":440,"stv_port":27036,"stv_name":"Uncletopia | Los Angeles | 3 | All Maps | STV","players":[{"user_id":353,"name":"orangePulp","steam_id":76561198038373636,"connected_time":233000000000,"state":"active","ping":63},{"user_id":195,"name":"Bodhi","steam_id":76561198043199143,"connected_time":10486000000000,"state":"active","ping":57},{"user_id":344,"name":"Reem0h","steam_id":76561198169848690,"connected_time":720000000000,"state":"active","ping":121},{"user_id":355,"name":"KlassicLoL","steam_id":76561198081815303,"connected_time":39000000000,"state":"active","ping":46},{"user_id":350,"name":"lushtakular","steam_id":76561198840080823,"connected_time":488000000000,"state":"active","ping":114},{"user_id":338,"name":"Cartmachine","steam_id":76561198060362323,"connected_time":842000000000,"state":"active","ping":68},{"user_id":294,"name":"Benji","steam_id":76561198158187293,"connected_time":3722000000000,"state":"active","ping":176},{"user_id":345,"name":"suffrage for frogs","steam_id":76561198024661591,"connected_time":682000000000,"state":"active","ping":110},{"user_id":354,"name":"luigiclub","steam_id":76561198180548194,"connected_time":95000000000,"state":"active","ping":77},{"user_id":334,"name":"mwee machine","steam_id":76561198047126327,"connected_time":990000000000,"state":"active","ping":89},{"user_id":301,"name":"Soddit","steam_id":76561198181166143,"connected_time":3270000000000,"state":"active","ping":68},{"user_id":315,"name":"fagola :3","steam_id":76561198105374054,"connected_time":2441000000000,"state":"active","ping":65},{"user_id":326,"name":"Ryshy02","steam_id":76561198055425447,"connected_time":1245000000000,"state":"active","ping":70},{"user_id":347,"name":"cool beans","steam_id":76561198045758072,"connected_time":618000000000,"state":"active","ping":58},{"user_id":320,"name":"yoelrr","steam_id":76561198028499500,"connected_time":2061000000000,"state":"active","ping":145},{"user_id":351,"name":"Blue⛧Melon","steam_id":76561197970926435,"connected_time":454000000000,"state":"active","ping":118},{"user_id":348,"name":"Handsome Pete","steam_id":76561198003224229,"connected_time":568000000000,"state":"active","ping":46},{"user_id":352,"name":"tOwl","steam_id":76561198094005426,"connected_time":449000000000,"state":"active","ping":53},{"user_id":323,"name":"Reflector","steam_id":76561198078999855,"connected_time":1898000000000,"state":"active","ping":109},{"user_id":337,"name":"Taco+Taco=Burrito","steam_id":76561198063128663,"connected_time":858000000000,"state":"active","ping":47},{"user_id":319,"name":"tum","steam_id":76561198084712019,"connected_time":2255000000000,"state":"active","ping":55},{"user_id":321,"name":"Pile of Spinach","steam_id":76561198043068841,"connected_time":1976000000000,"state":"active","ping":69},{"user_id":356,"name":"Canned Lobster","steam_id":76561198110847328,"connected_time":39000000000,"state":"active","ping":49}]},{"server_id":25,"name":"Uncletopia | Los Angeles | 4 | Stopwatch Beta","name_short":"lax-4","host":"lax-1.us.uncletopia.com","port":27045,"enabled":true,"region":"us-west","cc":"us","latitude":33.94279,"longitude":-118.41004,"reserved":0,"last_update":"0001-01-01T00:00:00Z","name_a2s":"Uncletopia | Los Angeles | 4 | Stopwatch Beta","protocol":17,"map":"workshop/cp_process_f12.ugc2302948105","folder":"tf","game":"Team Fortress","app_id":440,"player_count":0,"max_players":24,"Bots":0,"server_type":"Dedicated","server_os":"Linux","password":true,"vac":true,"version":"7961495","steam_id":85568392924510199,"keywords":["cp","nocrits","nodmgspread","uncletopia"],"game_id":440,"stv_port":27046,"stv_name":"Uncletopia | Los Angeles | 4 | Stopwatch Beta | STV","players":null},{"server_id":11,"name":"Uncletopia | London | 1 | All Maps","name_short":"lon-1","host":"lon-1.uk.uncletopia.com","port":27015,"enabled":true,"region":"eu","cc":"gb","latitude":51.509865,"longitude":-0.118092,"reserved":0,"last_update":"0001-01-01T00:00:00Z","name_a2s":"Uncletopia | London | 1 | All Maps","protocol":17,"map":"pl_swiftwater_final1","folder":"tf","game":"Team Fortress","app_id":440,"player_count":24,"max_players":24,"Bots":0,"server_type":"Dedicated","server_os":"Linux","password":true,"vac":true,"version":"7961495","steam_id":85568392924367362,"keywords":["nocrits","nodmgspread","payload","uncletopia"],"game_id":440,"stv_port":27016,"stv_name":"Uncletopia | London | 1 | All Maps | STV","players":[{"user_id":647,"name":"t.tv/anguishjumps","steam_id":76561198086442571,"connected_time":1938000000000,"state":"active","ping":47},{"user_id":566,"name":"sora","steam_id":76561198096547662,"connected_time":7837000000000,"state":"active","ping":54},{"user_id":500,"name":"halow","steam_id":76561198061505163,"connected_time":12609000000000,"state":"active","ping":99},{"user_id":650,"name":"Eltonius","steam_id":76561198157560715,"connected_time":1572000000000,"state":"active","ping":85},{"user_id":619,"name":"owo","steam_id":76561198158209651,"connected_time":4628000000000,"state":"active","ping":62},{"user_id":643,"name":"beebo","steam_id":76561199120277007,"connected_time":2304000000000,"state":"active","ping":41},{"user_id":627,"name":"femboy enjoyer","steam_id":76561199041737814,"connected_time":3136000000000,"state":"active","ping":32},{"user_id":610,"name":"MatchaPanda","steam_id":76561198027383926,"connected_time":5136000000000,"state":"active","ping":45},{"user_id":638,"name":"Yakub","steam_id":76561198014279521,"connected_time":2384000000000,"state":"active","ping":109},{"user_id":655,"name":"Nid","steam_id":76561198023371922,"connected_time":400000000000,"state":"active","ping":64},{"user_id":658,"name":"MrBarryAllen","steam_id":76561198008795422,"connected_time":382000000000,"state":"active","ping":72},{"user_id":585,"name":"Fish Fingers \u0026 Custard","steam_id":76561198094911581,"connected_time":7183000000000,"state":"active","ping":50},{"user_id":663,"name":"Selfish","steam_id":76561198014759487,"connected_time":240000000000,"state":"active","ping":62},{"user_id":656,"name":"ashley","steam_id":76561198448551449,"connected_time":400000000000,"state":"active","ping":61},{"user_id":646,"name":"stroyo","steam_id":76561198409592046,"connected_time":2085000000000,"state":"active","ping":67},{"user_id":664,"name":"flappi","steam_id":76561198072892783,"connected_time":136000000000,"state":"active","ping":63},{"user_id":659,"name":"Hydrone","steam_id":76561198046485365,"connected_time":379000000000,"state":"active","ping":42},{"user_id":649,"name":"Maveth","steam_id":76561198315021197,"connected_time":1705000000000,"state":"active","ping":135},{"user_id":530,"name":"jonesy","steam_id":76561198073975078,"connected_time":11713000000000,"state":"active","ping":58},{"user_id":637,"name":"teddy","steam_id":76561198007436837,"connected_time":2897000000000,"state":"active","ping":30},{"user_id":661,"name":"Akopi","steam_id":76561198110765486,"connected_time":349000000000,"state":"active","ping":86},{"user_id":660,"name":"Lennox","steam_id":76561198069063554,"connected_time":376000000000,"state":"active","ping":49},{"user_id":626,"name":"Sixie","steam_id":76561198251675360,"connected_time":3760000000000,"state":"active","ping":54},{"user_id":653,"name":"Belfast\u003eGlasgow","steam_id":76561198324775476,"connected_time":446000000000,"state":"active","ping":52}]},{"server_id":114,"name":"Uncletopia | London | 2 | All Maps","name_short":"lon-2","host":"lon-1.uk.uncletopia.com","port":27025,"enabled":true,"region":"eu","cc":"gb","latitude":51.509865,"longitude":-0.118092,"reserved":0,"last_update":"0001-01-01T00:00:00Z","name_a2s":"Uncletopia | London | 2 | All Maps","protocol":17,"map":"pl_snowycoast","folder":"tf","game":"Team Fortress","app_id":440,"player_count":0,"max_players":24,"Bots":0,"server_type":"Dedicated","server_os":"Linux","password":true,"vac":true,"version":"7961495","steam_id":85568392924470941,"keywords":["nocrits","nodmgspread","payload","uncletopia"],"game_id":440,"stv_port":27026,"stv_name":"Uncletopia | London | 2 | All Maps | STV","players":null},{"server_id":320,"name":"Uncletopia | London | 3 | All Maps","name_short":"lon-3","host":"lon-1.uk.uncletopia.com","port":27035,"enabled":true,"region":"eu","cc":"gb","latitude":51.509865,"longitude":-0.118092,"reserved":0,"last_update":"0001-01-01T00:00:00Z","name_a2s":"Uncletopia | London | 3 | All Maps","protocol":17,"map":"cp_mountainlab","folder":"tf","game":"Team Fortress","app_id":440,"player_count":24,"max_players":24,"Bots":0,"server_type":"Dedicated","server_os":"Linux","password":true,"vac":true,"version":"7961495","steam_id":85568392924510192,"keywords":["cp","nocrits","nodmgspread","uncletopia"],"game_id":440,"stv_port":27036,"stv_name":"Uncletopia | London | 3 | All Maps | STV","players":[{"user_id":295,"name":"j0rdyb0y58","steam_id":76561198035357039,"connected_time":10367000000000,"state":"active","ping":37},{"user_id":376,"name":"chowsiq","steam_id":76561198809018035,"connected_time":2674000000000,"state":"active","ping":59},{"user_id":377,"name":"Will","steam_id":76561198072641194,"connected_time":2647000000000,"state":"active","ping":51},{"user_id":404,"name":"MLG Peridot","steam_id":76561198069780233,"connected_time":868000000000,"state":"active","ping":47},{"user_id":296,"name":"Bradders","steam_id":76561198072225758,"connected_time":10351000000000,"state":"active","ping":45},{"user_id":409,"name":"Joel!","steam_id":76561198155422742,"connected_time":82000000000,"state":"active","ping":38},{"user_id":397,"name":"MANBOYBOYBOYMAN","steam_id":76561198097612561,"connected_time":1693000000000,"state":"active","ping":73},{"user_id":405,"name":"Barthelomew Jarequeisies III","steam_id":76561197960509452,"connected_time":731000000000,"state":"active","ping":48},{"user_id":410,"name":"dilansci","steam_id":76561199085626017,"connected_time":67000000000,"state":"active","ping":55},{"user_id":408,"name":"Mav","steam_id":76561198004403881,"connected_time":93000000000,"state":"active","ping":74},{"user_id":398,"name":"Maxmind24","steam_id":76561198859888778,"connected_time":1687000000000,"state":"active","ping":174},{"user_id":403,"name":"madijo","steam_id":76561198012617400,"connected_time":980000000000,"state":"active","ping":74},{"user_id":383,"name":"Lewis","steam_id":76561198368223578,"connected_time":2337000000000,"state":"active","ping":45},{"user_id":293,"name":"Memph","steam_id":76561198093280341,"connected_time":10538000000000,"state":"active","ping":30},{"user_id":399,"name":"VampiuS","steam_id":76561197998827007,"connected_time":1637000000000,"state":"active","ping":73},{"user_id":369,"name":"Snowmotion","steam_id":76561198075022454,"connected_time":3314000000000,"state":"active","ping":70},{"user_id":386,"name":"Shadowengell","steam_id":76561198019284410,"connected_time":2236000000000,"state":"active","ping":114},{"user_id":400,"name":"badrobot","steam_id":76561198322878356,"connected_time":1615000000000,"state":"active","ping":105},{"user_id":388,"name":"Can I get a Beep Beep","steam_id":76561198010730967,"connected_time":2207000000000,"state":"active","ping":56},{"user_id":396,"name":"testicular torque","steam_id":76561198107978481,"connected_time":1966000000000,"state":"active","ping":86},{"user_id":338,"name":"randem_","steam_id":76561198338793755,"connected_time":6709000000000,"state":"active","ping":49},{"user_id":390,"name":"Forklift Certified","steam_id":76561198001816577,"connected_time":2145000000000,"state":"active","ping":85},{"user_id":411,"name":"Sergio Leone's fourth movie","steam_id":76561199233979726,"connected_time":61000000000,"state":"active","ping":90},{"user_id":407,"name":"Edak","steam_id":76561198799033438,"connected_time":105000000000,"state":"active","ping":56}]},{"server_id":321,"name":"Uncletopia | London | 4 | All Maps","name_short":"lon-4","host":"lon-1.uk.uncletopia.com","port":27045,"enabled":true,"region":"eu","cc":"gb","latitude":51.509865,"longitude":-0.118092,"reserved":0,"last_update":"0001-01-01T00:00:00Z","name_a2s":"Uncletopia | London | 4 | All Maps","protocol":17,"map":"pl_borneo","folder":"tf","game":"Team Fortress","app_id":440,"player_count":14,"max_players":24,"Bots":0,"server_type":"Dedicated","server_os":"Linux","password":true,"vac":true,"version":"7961495","steam_id":85568392924510193,"keywords":["nocrits","nodmgspread","payload","uncletopia"],"game_id":440,"stv_port":27046,"stv_name":"Uncletopia | London | 4 | All Maps | STV","players":[{"user_id":712,"name":"Olympic Toe Curling","steam_id":76561198433807531,"connected_time":2114000000000,"state":"active","ping":143},{"user_id":747,"name":"Moon","steam_id":76561198808108594,"connected_time":617000000000,"state":"active","ping":95},{"user_id":743,"name":"Jinxie","steam_id":76561198008762303,"connected_time":822000000000,"state":"active","ping":62},{"user_id":749,"name":"jjkun786","steam_id":76561199438517484,"connected_time":505000000000,"state":"active","ping":104},{"user_id":750,"name":"Tx_madmash","steam_id":76561198924656512,"connected_time":394000000000,"state":"active","ping":76},{"user_id":745,"name":"Mobster Tortoise","steam_id":76561199036837091,"connected_time":705000000000,"state":"active","ping":85},{"user_id":751,"name":"n0usy","steam_id":76561198410060139,"connected_time":387000000000,"state":"active","ping":76},{"user_id":752,"name":"nakedpee","steam_id":76561198064345980,"connected_time":349000000000,"state":"active","ping":85},{"user_id":762,"name":"fence_","steam_id":76561198150386379,"connected_time":36000000000,"state":"active","ping":40},{"user_id":763,"name":"JELLYBITCH","steam_id":76561198282011087,"connected_time":29000000000,"state":"active","ping":57},{"user_id":755,"name":"Toofy","steam_id":76561197989727907,"connected_time":215000000000,"state":"active","ping":37},{"user_id":759,"name":"Em | Freshmeat Cup? Add me!","steam_id":76561198057911246,"connected_time":131000000000,"state":"active","ping":84},{"user_id":757,"name":"snowycoast","steam_id":76561198346638308,"connected_time":202000000000,"state":"active","ping":57},{"user_id":758,"name":"KingPotatoChips","steam_id":76561198035156465,"connected_time":140000000000,"state":"active","ping":74}]},{"server_id":21,"name":"Uncletopia | London | 5 | All Maps","name_short":"lon-5","host":"lon-1.uk.uncletopia.com","port":27055,"enabled":true,"region":"eu","cc":"gb","latitude":51.509865,"longitude":-0.118092,"reserved":0,"last_update":"0001-01-01T00:00:00Z","name_a2s":"Uncletopia | London | 5 | All Maps","protocol":17,"map":"pl_upward","folder":"tf","game":"Team Fortress","app_id":440,"player_count":24,"max_players":24,"Bots":0,"server_type":"Dedicated","server_os":"Linux","password":true,"vac":true,"version":"7961495","steam_id":85568392924742829,"keywords":["nocrits","nodmgspread","payload","uncletopia"],"game_id":440,"stv_port":27056,"stv_name":"Uncletopia | London | 5 | All Maps | STV","players":[{"user_id":458,"name":"Mike","steam_id":76561198228455736,"connected_time":2937000000000,"state":"active","ping":50},{"user_id":461,"name":"georgiboy111","steam_id":76561198093018761,"connected_time":2905000000000,"state":"active","ping":71},{"user_id":484,"name":"monikka","steam_id":76561198297003397,"connected_time":1972000000000,"state":"active","ping":62},{"user_id":435,"name":"Sommelier_","steam_id":76561198354180808,"connected_time":3917000000000,"state":"active","ping":75},{"user_id":460,"name":"Tamas","steam_id":76561198106783406,"connected_time":2913000000000,"state":"active","ping":75},{"user_id":478,"name":"Marquis de Hoto","steam_id":76561198080687708,"connected_time":2194000000000,"state":"active","ping":76},{"user_id":447,"name":"SpeedY","steam_id":76561199238207915,"connected_time":3382000000000,"state":"active","ping":83},{"user_id":472,"name":"ducks","steam_id":76561198166148685,"connected_time":2622000000000,"state":"active","ping":30},{"user_id":436,"name":"MAGik","steam_id":76561198085793729,"connected_time":3854000000000,"state":"active","ping":87},{"user_id":443,"name":"Bineapple","steam_id":76561198983650763,"connected_time":3514000000000,"state":"active","ping":55},{"user_id":438,"name":"DiJin","steam_id":76561198154349638,"connected_time":3835000000000,"state":"active","ping":73},{"user_id":506,"name":"Elon Musk's Last Braincell","steam_id":76561198846784757,"connected_time":77000000000,"state":"active","ping":56},{"user_id":499,"name":"Абсолютная водка","steam_id":76561198886250433,"connected_time":413000000000,"state":"active","ping":77},{"user_id":505,"name":"alien","steam_id":76561197968892194,"connected_time":101000000000,"state":"active","ping":60},{"user_id":503,"name":"Naomi","steam_id":76561198060307235,"connected_time":137000000000,"state":"active","ping":63},{"user_id":490,"name":"slnc","steam_id":76561198041151496,"connected_time":1723000000000,"state":"active","ping":73},{"user_id":444,"name":"Loaf","steam_id":76561198369922194,"connected_time":3506000000000,"state":"active","ping":64},{"user_id":497,"name":"MovingIsOverRated","steam_id":76561198385633292,"connected_time":760000000000,"state":"active","ping":153},{"user_id":500,"name":"twitch.tv/zxcghoul2007","steam_id":76561198349648942,"connected_time":234000000000,"state":"active","ping":77},{"user_id":494,"name":"A Red Brick","steam_id":76561198317522580,"connected_time":1330000000000,"state":"active","ping":97},{"user_id":418,"name":"taste Fanta through your balls","steam_id":76561198823497252,"connected_time":6135000000000,"state":"active","ping":62},{"user_id":475,"name":"ThatKetos","steam_id":76561198989682540,"connected_time":2408000000000,"state":"active","ping":59},{"user_id":479,"name":"thomas3003","steam_id":76561198209860039,"connected_time":2137000000000,"state":"active","ping":39},{"user_id":496,"name":"Chucko Kokos","steam_id":76561198112553005,"connected_time":1035000000000,"state":"active","ping":75}]},{"server_id":22,"name":"Uncletopia | London | 6 | All Maps","name_short":"lon-6","host":"lon-1.uk.uncletopia.com","port":27065,"enabled":true,"region":"eu","cc":"gb","latitude":51.509865,"longitude":-0.118092,"reserved":0,"last_update":"0001-01-01T00:00:00Z","name_a2s":"Uncletopia | London | 6 | All Maps","protocol":17,"map":"pl_borneo","folder":"tf","game":"Team Fortress","app_id":440,"player_count":24,"max_players":24,"Bots":0,"server_type":"Dedicated","server_os":"Linux","password":true,"vac":true,"version":"7961495","steam_id":85568392924742830,"keywords":["nocrits","nodmgspread","payload","uncletopia"],"game_id":440,"stv_port":27066,"stv_name":"Uncletopia | London | 6 | All Maps | STV","players":[{"user_id":811,"name":"minn","steam_id":76561198099101232,"connected_time":1221000000000,"state":"active","ping":50},{"user_id":825,"name":"I333I","steam_id":76561198969286813,"connected_time":125000000000,"state":"active","ping":75},{"user_id":795,"name":"Baked Beans Gaming","steam_id":76561199177778966,"connected_time":2631000000000,"state":"active","ping":49},{"user_id":824,"name":"Mr. Bean","steam_id":76561198086929777,"connected_time":277000000000,"state":"active","ping":59},{"user_id":780,"name":"nyanezt","steam_id":76561198253734265,"connected_time":3253000000000,"state":"active","ping":88},{"user_id":814,"name":"=Xal=","steam_id":76561198052622095,"connected_time":1160000000000,"state":"active","ping":59},{"user_id":730,"name":"frosty","steam_id":76561198094560834,"connected_time":5442000000000,"state":"active","ping":45},{"user_id":813,"name":"Dozer","steam_id":76561197998742338,"connected_time":1209000000000,"state":"active","ping":55},{"user_id":731,"name":"Bill Carr","steam_id":76561198110033943,"connected_time":5433000000000,"state":"active","ping":36},{"user_id":778,"name":"Jon (ebic gamer)","steam_id":76561199380849468,"connected_time":3374000000000,"state":"active","ping":59},{"user_id":821,"name":"pinhead","steam_id":76561198162641776,"connected_time":586000000000,"state":"active","ping":86},{"user_id":804,"name":"Sly cooperzinho","steam_id":76561198442803577,"connected_time":2133000000000,"state":"active","ping":75},{"user_id":784,"name":"Perpetual Pub Push","steam_id":76561198256714846,"connected_time":3203000000000,"state":"active","ping":32},{"user_id":818,"name":"Tanukibouwer","steam_id":76561198225438832,"connected_time":975000000000,"state":"active","ping":47},{"user_id":807,"name":"Turek","steam_id":76561198280066503,"connected_time":1397000000000,"state":"active","ping":84},{"user_id":772,"name":"TylowStar","steam_id":76561198357107806,"connected_time":3846000000000,"state":"active","ping":60},{"user_id":823,"name":"Miss Bari (epik gamer)","steam_id":76561198365286092,"connected_time":397000000000,"state":"active","ping":41},{"user_id":806,"name":"Yssi","steam_id":76561198072365572,"connected_time":1811000000000,"state":"active","ping":60},{"user_id":826,"name":"Axio","steam_id":76561198046826031,"connected_time":107000000000,"state":"active","ping":60},{"user_id":805,"name":"Boki","steam_id":76561198044553351,"connected_time":1816000000000,"state":"active","ping":73},{"user_id":827,"name":"JujuBalu","steam_id":76561198207253071,"connected_time":90000000000,"state":"active","ping":61},{"user_id":752,"name":"Joseph Stalin","steam_id":76561198033199746,"connected_time":4845000000000,"state":"active","ping":46},{"user_id":791,"name":"The Lady","steam_id":76561198029895809,"connected_time":2909000000000,"state":"active","ping":90},{"user_id":717,"name":"Bostrash641","steam_id":76561199447225685,"connected_time":6250000000000,"state":"active","ping":73}]},{"server_id":40,"name":"Uncletopia | London | 7 | No Payload","name_short":"lon-7","host":"lon-1.uk.uncletopia.com","port":27075,"enabled":true,"region":"eu","cc":"gb","latitude":51.509865,"longitude":-0.118092,"reserved":0,"last_update":"0001-01-01T00:00:00Z","name_a2s":"Uncletopia | London | 7 | No Payload","protocol":17,"map":"koth_nucleus","folder":"tf","game":"Team Fortress","app_id":440,"player_count":4,"max_players":24,"Bots":0,"server_type":"Dedicated","server_os":"Linux","password":true,"vac":true,"version":"7961495","steam_id":85568392924964314,"keywords":["cp","nocrits","nodmgspread","uncletopia"],"game_id":440,"stv_port":27076,"stv_name":"Uncletopia | London | 7 | No Payload | STV","players":[{"user_id":33,"name":"gatl","steam_id":76561198116926545,"connected_time":509000000000,"state":"active","ping":67},{"user_id":34,"name":"Kiervce","steam_id":76561199175427371,"connected_time":458000000000,"state":"active","ping":144},{"user_id":31,"name":"Combirdable","steam_id":76561198401003172,"connected_time":1098000000000,"state":"active","ping":176},{"user_id":32,"name":"KarmaSlap™","steam_id":76561198236340066,"connected_time":1085000000000,"state":"active","ping":156}]},{"server_id":41,"name":"Uncletopia | London | 8 | Community","name_short":"lon-8","host":"lon-1.uk.uncletopia.com","port":27085,"enabled":true,"region":"eu","cc":"gb","latitude":51.509865,"longitude":-0.118092,"reserved":0,"last_update":"0001-01-01T00:00:00Z","name_a2s":"Uncletopia | London | 8 | Community","protocol":17,"map":"workshop/pl_vigil_rc9.ugc1266210012","folder":"tf","game":"Team Fortress","app_id":440,"player_count":0,"max_players":24,"Bots":0,"server_type":"Dedicated","server_os":"Linux","password":true,"vac":true,"version":"7961495","steam_id":85568392924964315,"keywords":["nocrits","nodmgspread","payload","uncletopia"],"game_id":440,"stv_port":27086,"stv_name":"Uncletopia | London | 8 | Community | STV","players":null},{"server_id":300,"name":"Uncletopia | Montréal | 1 | All Maps","name_short":"mtl-1","host":"mtl-1.ca.uncletopia.com","port":27015,"enabled":true,"region":"us-east","cc":"ca","latitude":45.50889,"longitude":-73.56167,"reserved":0,"last_update":"0001-01-01T00:00:00Z","name_a2s":"","protocol":0,"map":"","folder":"","game":"","app_id":0,"player_count":0,"max_players":0,"Bots":0,"server_type":"","server_os":"","password":false,"vac":false,"version":"","steam_id":0,"keywords":null,"game_id":0,"stv_port":0,"stv_name":"","players":null},{"server_id":301,"name":"Uncletopia | Montréal | 2 | All Maps","name_short":"mtl-2","host":"mtl-1.ca.uncletopia.com","port":27025,"enabled":true,"region":"us-east","cc":"ca","latitude":45.50889,"longitude":-73.56167,"reserved":0,"last_update":"0001-01-01T00:00:00Z","name_a2s":"","protocol":0,"map":"","folder":"","game":"","app_id":0,"player_count":0,"max_players":0,"Bots":0,"server_type":"","server_os":"","password":false,"vac":false,"version":"","steam_id":0,"keywords":null,"game_id":0,"stv_port":0,"stv_name":"","players":null},{"server_id":302,"name":"Uncletopia | Montréal | 3 | All Maps","name_short":"mtl-3","host":"mtl-1.ca.uncletopia.com","port":27035,"enabled":true,"region":"us-east","cc":"ca","latitude":45.50889,"longitude":-73.56167,"reserved":0,"last_update":"0001-01-01T00:00:00Z","name_a2s":"","protocol":0,"map":"","folder":"","game":"","app_id":0,"player_count":4,"max_players":0,"Bots":0,"server_type":"","server_os":"","password":false,"vac":false,"version":"","steam_id":0,"keywords":null,"game_id":0,"stv_port":0,"stv_name":"","players":[{"user_id":11,"name":"jakexsists","steam_id":76561199025696785,"connected_time":2984000000000,"state":"active","ping":73},{"user_id":12,"name":"crazyfacedolives","steam_id":76561199466534135,"connected_time":2856000000000,"state":"active","ping":86},{"user_id":14,"name":"dragon_boy0531","steam_id":76561199066059061,"connected_time":1648000000000,"state":"active","ping":72},{"user_id":15,"name":"chiswola","steam_id":76561198046920142,"connected_time":61000000000,"state":"active","ping":83}]},{"server_id":303,"name":"Uncletopia | Montréal | 4 | No Payload","name_short":"mtl-4","host":"mtl-1.ca.uncletopia.com","port":27045,"enabled":true,"region":"us-east","cc":"ca","latitude":45.50889,"longitude":-73.56167,"reserved":0,"last_update":"0001-01-01T00:00:00Z","name_a2s":"","protocol":0,"map":"","folder":"","game":"","app_id":0,"player_count":18,"max_players":0,"Bots":0,"server_type":"","server_os":"","password":false,"vac":false,"version":"","steam_id":0,"keywords":null,"game_id":0,"stv_port":0,"stv_name":"","players":[{"user_id":143,"name":"Moe Nuts","steam_id":76561198365598733,"connected_time":927000000000,"state":"active","ping":70},{"user_id":144,"name":"Cimbasso","steam_id":76561198968050004,"connected_time":502000000000,"state":"active","ping":80},{"user_id":153,"name":"whatisupdoq","steam_id":76561199057743412,"connected_time":87000000000,"state":"active","ping":72},{"user_id":123,"name":"donnie.dangervest","steam_id":76561199437640368,"connected_time":2809000000000,"state":"active","ping":117},{"user_id":135,"name":"jeremy_the_cool","steam_id":76561198078238722,"connected_time":1732000000000,"state":"active","ping":102},{"user_id":140,"name":"Monke","steam_id":76561198162887886,"connected_time":1518000000000,"state":"active","ping":63},{"user_id":118,"name":"dipinpreet","steam_id":76561198329035044,"connected_time":3582000000000,"state":"active","ping":61},{"user_id":145,"name":"Black Santa","steam_id":76561198134542514,"connected_time":497000000000,"state":"active","ping":58},{"user_id":146,"name":"TM06","steam_id":76561198046326398,"connected_time":384000000000,"state":"active","ping":75},{"user_id":147,"name":"BrickDiggity","steam_id":76561198297548684,"connected_time":351000000000,"state":"active","ping":90},{"user_id":148,"name":"froge","steam_id":76561198304959766,"connected_time":302000000000,"state":"active","ping":154},{"user_id":150,"name":"Redrox112016","steam_id":76561199250762203,"connected_time":212000000000,"state":"active","ping":93},{"user_id":125,"name":"awesomeajb08","steam_id":76561199056316311,"connected_time":2522000000000,"state":"active","ping":81},{"user_id":152,"name":"Scout With A Sword","steam_id":76561199290596527,"connected_time":185000000000,"state":"active","ping":112},{"user_id":127,"name":"Megatronn","steam_id":76561198796716496,"connected_time":2454000000000,"state":"active","ping":71},{"user_id":154,"name":"TF2 Vending Machine","steam_id":76561199105777951,"connected_time":64000000000,"state":"active","ping":124},{"user_id":134,"name":"Post nut clarity","steam_id":76561198060246831,"connected_time":1818000000000,"state":"active","ping":51},{"user_id":138,"name":"Gorlami","steam_id":76561199003079242,"connected_time":1591000000000,"state":"active","ping":140}]},{"server_id":13,"name":"Uncletopia | New York City | 1 | All Maps","name_short":"nyc-1","host":"nyc-1.us.uncletopia.com","port":27015,"enabled":true,"region":"us-east","cc":"us","latitude":40.73061,"longitude":-73.93524,"reserved":0,"last_update":"0001-01-01T00:00:00Z","name_a2s":"Uncletopia | New York City | 1 | All Maps","protocol":17,"map":"plr_pipeline","folder":"tf","game":"Team Fortress","app_id":440,"player_count":23,"max_players":24,"Bots":0,"server_type":"Dedicated","server_os":"Linux","password":true,"vac":true,"version":"7961495","steam_id":85568392924469993,"keywords":["nocrits","nodmgspread","payload","uncletopia"],"game_id":440,"stv_port":27016,"stv_name":"Uncletopia | New York City | 1 | All Maps | STV","players":[{"user_id":406,"name":"Crab","steam_id":76561199124447928,"connected_time":750000000000,"state":"active","ping":69},{"user_id":409,"name":"Ziron","steam_id":76561198998393032,"connected_time":694000000000,"state":"active","ping":43},{"user_id":342,"name":"Domswish","steam_id":76561198331444240,"connected_time":5229000000000,"state":"active","ping":51},{"user_id":408,"name":"stratoposs","steam_id":76561198267831406,"connected_time":742000000000,"state":"active","ping":83},{"user_id":434,"name":"dr. pepper fan","steam_id":76561198070380404,"connected_time":256000000000,"state":"active","ping":45},{"user_id":430,"name":"rosable ☆","steam_id":76561199164371592,"connected_time":425000000000,"state":"active","ping":69},{"user_id":411,"name":"Voltaire!","steam_id":76561198047528141,"connected_time":688000000000,"state":"active","ping":86},{"user_id":412,"name":"Joy","steam_id":76561198073690173,"connected_time":679000000000,"state":"active","ping":54},{"user_id":423,"name":"Melaza Madera","steam_id":76561199031977210,"connected_time":543000000000,"state":"active","ping":73},{"user_id":414,"name":"Peketo","steam_id":76561199104376294,"connected_time":588000000000,"state":"active","ping":47},{"user_id":436,"name":"Eidary","steam_id":76561198060002585,"connected_time":43000000000,"state":"active","ping":151},{"user_id":435,"name":"ElChuchoXf","steam_id":76561199235124146,"connected_time":91000000000,"state":"active","ping":148},{"user_id":394,"name":"motherwhydoyouhateme","steam_id":76561199185517153,"connected_time":2260000000000,"state":"active","ping":58},{"user_id":419,"name":"gods hungriest pitbull","steam_id":76561198111669774,"connected_time":570000000000,"state":"active","ping":72},{"user_id":429,"name":"Chernov","steam_id":76561198014463424,"connected_time":450000000000,"state":"active","ping":36},{"user_id":393,"name":"antoniov00gaming","steam_id":76561198364632073,"connected_time":2287000000000,"state":"active","ping":77},{"user_id":387,"name":"Herb","steam_id":76561198330311949,"connected_time":2796000000000,"state":"active","ping":56},{"user_id":403,"name":"Bippums","steam_id":76561198366406729,"connected_time":1364000000000,"state":"active","ping":85},{"user_id":422,"name":"noel","steam_id":76561198128280883,"connected_time":566000000000,"state":"active","ping":63},{"user_id":424,"name":"TheChickenChuck","steam_id":76561199192686708,"connected_time":538000000000,"state":"active","ping":79},{"user_id":432,"name":"hxngry_","steam_id":76561198370332168,"connected_time":400000000000,"state":"active","ping":37},{"user_id":402,"name":"Telomerase","steam_id":76561198095792685,"connected_time":1396000000000,"state":"active","ping":66},{"user_id":425,"name":"Jimbo Slice","steam_id":76561198064830847,"connected_time":519000000000,"state":"active","ping":56}]},{"server_id":14,"name":"Uncletopia | New York City | 2 | All Maps","name_short":"nyc-2","host":"nyc-1.us.uncletopia.com","port":27025,"enabled":true,"region":"us-east","cc":"us","latitude":40.73061,"longitude":-73.93524,"reserved":0,"last_update":"0001-01-01T00:00:00Z","name_a2s":"Uncletopia | New York City | 2 | All Maps","protocol":17,"map":"pl_borneo","folder":"tf","game":"Team Fortress","app_id":440,"player_count":24,"max_players":24,"Bots":0,"server_type":"Dedicated","server_os":"Linux","password":true,"vac":true,"version":"7961495","steam_id":85568392924469994,"keywords":["nocrits","nodmgspread","payload","uncletopia"],"game_id":440,"stv_port":27026,"stv_name":"Uncletopia | New York City | 2 | All Maps | STV","players":[{"user_id":466,"name":"acid","steam_id":76561198055855408,"connected_time":1888000000000,"state":"active","ping":60},{"user_id":490,"name":"konkey","steam_id":76561198030119065,"connected_time":296000000000,"state":"active","ping":137},{"user_id":477,"name":"Bert.","steam_id":76561198140666346,"connected_time":1069000000000,"state":"active","ping":45},{"user_id":476,"name":"Rat","steam_id":76561198187698871,"connected_time":1168000000000,"state":"active","ping":59},{"user_id":450,"name":"tuuka","steam_id":76561198986534519,"connected_time":3239000000000,"state":"active","ping":108},{"user_id":478,"name":"nilftb","steam_id":76561198161952186,"connected_time":1026000000000,"state":"active","ping":55},{"user_id":389,"name":"Mufalito","steam_id":76561198951889482,"connected_time":7290000000000,"state":"active","ping":117},{"user_id":479,"name":"Wiggle Wiggle","steam_id":76561199053447896,"connected_time":1000000000000,"state":"active","ping":78},{"user_id":375,"name":"epsilene","steam_id":76561198027468624,"connected_time":7711000000000,"state":"active","ping":37},{"user_id":488,"name":"A new Player(F2p)","steam_id":76561199388826335,"connected_time":510000000000,"state":"active","ping":64},{"user_id":459,"name":"breathingtrees","steam_id":76561198118931690,"connected_time":2165000000000,"state":"active","ping":60},{"user_id":481,"name":"lamadre07","steam_id":76561198067337453,"connected_time":964000000000,"state":"active","ping":107},{"user_id":440,"name":"Sem","steam_id":76561198035671516,"connected_time":3668000000000,"state":"active","ping":44},{"user_id":483,"name":"Windup Monkey in a Human Suit","steam_id":76561198119501444,"connected_time":962000000000,"state":"active","ping":96},{"user_id":489,"name":"alex","steam_id":76561198095203229,"connected_time":307000000000,"state":"active","ping":69},{"user_id":492,"name":"Bee_Pirate","steam_id":76561199000599111,"connected_time":127000000000,"state":"active","ping":63},{"user_id":462,"name":"threshecutioner612","steam_id":76561199482933802,"connected_time":2110000000000,"state":"active","ping":70},{"user_id":366,"name":"zpalmtree","steam_id":76561198134307620,"connected_time":8327000000000,"state":"active","ping":74},{"user_id":291,"name":"götóttir sokkar","steam_id":76561197999657118,"connected_time":13032000000000,"state":"active","ping":66},{"user_id":463,"name":"garlic","steam_id":76561198810444711,"connected_time":2083000000000,"state":"active","ping":67},{"user_id":485,"name":"Person","steam_id":76561198093244204,"connected_time":931000000000,"state":"active","ping":66},{"user_id":468,"name":"3AM Toast","steam_id":76561199013415011,"connected_time":1772000000000,"state":"active","ping":129},{"user_id":491,"name":"cyclops","steam_id":76561197970370198,"connected_time":238000000000,"state":"active","ping":70},{"user_id":465,"name":"fargo","steam_id":76561198025839958,"connected_time":2058000000000,"state":"active","ping":61}]},{"server_id":15,"name":"Uncletopia | New York City | 3 | Stopwatch Beta","name_short":"nyc-3","host":"nyc-1.us.uncletopia.com","port":27035,"enabled":true,"region":"us-east","cc":"us","latitude":40.73061,"longitude":-73.93524,"reserved":0,"last_update":"0001-01-01T00:00:00Z","name_a2s":"Uncletopia | New York City | 3 | Stopwatch Beta","protocol":17,"map":"pl_borneo","folder":"tf","game":"Team Fortress","app_id":440,"player_count":0,"max_players":24,"Bots":0,"server_type":"Dedicated","server_os":"Linux","password":true,"vac":true,"version":"7961495","steam_id":85568392924742820,"keywords":["nocrits","nodmgspread","payload","uncletopia"],"game_id":440,"stv_port":27036,"stv_name":"Uncletopia | New York City | 3 | Stopwatch Beta | STV","players":null},{"server_id":16,"name":"Uncletopia | New York City | 4 | Community","name_short":"nyc-4","host":"nyc-1.us.uncletopia.com","port":27045,"enabled":true,"region":"us-east","cc":"us","latitude":40.73061,"longitude":-73.93524,"reserved":0,"last_update":"0001-01-01T00:00:00Z","name_a2s":"Uncletopia | New York City | 4 | Community","protocol":17,"map":"workshop/pl_boundary_final1.ugc456799153","folder":"tf","game":"Team Fortress","app_id":440,"player_count":24,"max_players":24,"Bots":0,"server_type":"Dedicated","server_os":"Linux","password":true,"vac":true,"version":"7961495","steam_id":85568392924742821,"keywords":["nocrits","nodmgspread","payload","uncletopia"],"game_id":440,"stv_port":27046,"stv_name":"Uncletopia | New York City | 4 | Community | STV","players":[{"user_id":277,"name":"Goth Italian Lady","steam_id":76561198058461449,"connected_time":3808000000000,"state":"active","ping":58},{"user_id":272,"name":"iamtheSpicer","steam_id":76561198263557044,"connected_time":4195000000000,"state":"active","ping":72},{"user_id":320,"name":"harold","steam_id":76561199016285746,"connected_time":1124000000000,"state":"active","ping":95},{"user_id":341,"name":"2000 Toyota Tundra","steam_id":76561198123370309,"connected_time":103000000000,"state":"active","ping":60},{"user_id":321,"name":"Circuit Spark","steam_id":76561198832124473,"connected_time":964000000000,"state":"active","ping":85},{"user_id":318,"name":"Mad{}Mouse","steam_id":76561198162576354,"connected_time":1311000000000,"state":"active","ping":74},{"user_id":335,"name":"congrats on the divorce","steam_id":76561198255436011,"connected_time":448000000000,"state":"active","ping":72},{"user_id":324,"name":"JsLo64V","steam_id":76561199076233876,"connected_time":879000000000,"state":"active","ping":170},{"user_id":319,"name":"general.b","steam_id":76561198162480519,"connected_time":1277000000000,"state":"active","ping":59},{"user_id":338,"name":"i love the government :)","steam_id":76561199015353035,"connected_time":269000000000,"state":"active","ping":68},{"user_id":342,"name":"wolfic(subby zero)","steam_id":76561198809556371,"connected_time":81000000000,"state":"active","ping":64},{"user_id":312,"name":"MontellWilliams","steam_id":76561198172143015,"connected_time":1757000000000,"state":"active","ping":47},{"user_id":326,"name":"tntkiller","steam_id":76561198067401676,"connected_time":829000000000,"state":"active","ping":56},{"user_id":334,"name":"Bayne","steam_id":76561198082988498,"connected_time":459000000000,"state":"active","ping":60},{"user_id":304,"name":"zinc","steam_id":76561198042555325,"connected_time":2127000000000,"state":"active","ping":87},{"user_id":310,"name":"snafu","steam_id":76561198211062267,"connected_time":1920000000000,"state":"active","ping":63},{"user_id":332,"name":"EvenNine","steam_id":76561198207745293,"connected_time":527000000000,"state":"active","ping":62},{"user_id":328,"name":"thug shaker mind control","steam_id":76561198984612489,"connected_time":750000000000,"state":"active","ping":116},{"user_id":333,"name":"Major_JoJo_Fan","steam_id":76561199160612609,"connected_time":509000000000,"state":"active","ping":64},{"user_id":311,"name":"Philo","steam_id":76561198061873341,"connected_time":1826000000000,"state":"active","ping":88},{"user_id":270,"name":"ROFL","steam_id":76561198170381402,"connected_time":4305000000000,"state":"active","ping":43},{"user_id":331,"name":"Dawg","steam_id":76561198214090164,"connected_time":711000000000,"state":"active","ping":59},{"user_id":291,"name":"flameboy50","steam_id":76561198258638052,"connected_time":3186000000000,"state":"active","ping":129},{"user_id":292,"name":"FrOGgY FrOg ԅ(⊙Д⊙)","steam_id":76561199008884088,"connected_time":3165000000000,"state":"active","ping":56}]},{"server_id":142,"name":"Uncletopia | São Paulo | 1 | All Maps","name_short":"sao-1","host":"sao-1.br.uncletopia.com","port":27015,"enabled":true,"region":"sa","cc":"br","latitude":-23.533773,"longitude":-46.62529,"reserved":0,"last_update":"0001-01-01T00:00:00Z","name_a2s":"Uncletopia | São Paulo | 1 | All Maps","protocol":17,"map":"koth_cascade","folder":"tf","game":"Team Fortress","app_id":440,"player_count":0,"max_players":24,"Bots":0,"server_type":"Dedicated","server_os":"Linux","password":true,"vac":true,"version":"7961495","steam_id":85568392924469996,"keywords":["cp","nocrits","nodmgspread","uncletopia"],"game_id":440,"stv_port":27016,"stv_name":"Uncletopia | São Paulo | 1 | All Maps | STV","players":null},{"server_id":143,"name":"Uncletopia | São Paulo | 2 | Community","name_short":"sao-2","host":"sao-2.br.uncletopia.com","port":27015,"enabled":true,"region":"sa","cc":"br","latitude":-23.533773,"longitude":-46.62529,"reserved":0,"last_update":"0001-01-01T00:00:00Z","name_a2s":"Uncletopia | São Paulo | 2 | Community","protocol":17,"map":"workshop/cp_reckoner_rc6.ugc674719999","folder":"tf","game":"Team Fortress","app_id":440,"player_count":1,"max_players":24,"Bots":0,"server_type":"Dedicated","server_os":"Linux","password":true,"vac":true,"version":"7961495","steam_id":85568392924485349,"keywords":["cp","nocrits","nodmgspread","uncletopia"],"game_id":440,"stv_port":27016,"stv_name":"Uncletopia | São Paulo | 2 | Community | STV","players":[{"user_id":40,"name":"Dori","steam_id":76561198205362603,"connected_time":3000000000,"state":"spawning","ping":80}]},{"server_id":7,"name":"Uncletopia | Seattle | 1 | All Maps","name_short":"sea-1","host":"sea-1.us.uncletopia.com","port":27015,"enabled":true,"region":"us-west","cc":"us","latitude":47.608013,"longitude":-122.33517,"reserved":0,"last_update":"0001-01-01T00:00:00Z","name_a2s":"Uncletopia | Seattle | 1 | All Maps","protocol":17,"map":"pl_upward","folder":"tf","game":"Team Fortress","app_id":440,"player_count":24,"max_players":24,"Bots":0,"server_type":"Dedicated","server_os":"Linux","password":true,"vac":true,"version":"7961495","steam_id":85568392924469997,"keywords":["nocrits","nodmgspread","payload","uncletopia"],"game_id":440,"stv_port":27016,"stv_name":"Uncletopia | Seattle | 1 | All Maps | STV","players":[{"user_id":214,"name":"ุ","steam_id":76561198084134025,"connected_time":1154000000000,"state":"active","ping":60},{"user_id":208,"name":"Wafflemuscle","steam_id":76561198868628982,"connected_time":1797000000000,"state":"active","ping":50},{"user_id":166,"name":"Closed.","steam_id":76561198212598967,"connected_time":7096000000000,"state":"active","ping":83},{"user_id":222,"name":"SeeNik","steam_id":76561198149499817,"connected_time":475000000000,"state":"active","ping":74},{"user_id":225,"name":"Schaephyr","steam_id":76561199153886364,"connected_time":81000000000,"state":"active","ping":58},{"user_id":186,"name":"Daz","steam_id":76561198041431938,"connected_time":4145000000000,"state":"active","ping":51},{"user_id":185,"name":"Ping","steam_id":76561199206514106,"connected_time":4181000000000,"state":"active","ping":108},{"user_id":202,"name":"ed","steam_id":76561198080475712,"connected_time":2161000000000,"state":"active","ping":65},{"user_id":215,"name":"Cheezbeargur","steam_id":76561198164702899,"connected_time":985000000000,"state":"active","ping":62},{"user_id":210,"name":"Hope (Birthday Tomorrow)","steam_id":76561199182558088,"connected_time":1204000000000,"state":"active","ping":76},{"user_id":115,"name":"♥ President Shitfart ♥","steam_id":76561198141819053,"connected_time":12423000000000,"state":"active","ping":73},{"user_id":216,"name":"Tech Priest","steam_id":76561198958876163,"connected_time":784000000000,"state":"active","ping":69},{"user_id":146,"name":"shiadyne","steam_id":76561198271939793,"connected_time":8318000000000,"state":"active","ping":46},{"user_id":219,"name":"zweibier","steam_id":76561197970844561,"connected_time":754000000000,"state":"active","ping":63},{"user_id":224,"name":"the","steam_id":76561198174418066,"connected_time":97000000000,"state":"active","ping":87},{"user_id":90,"name":"BolognaWithOlives","steam_id":76561198101262668,"connected_time":14600000000000,"state":"active","ping":105},{"user_id":176,"name":"Toaster (Hamilton Beach)","steam_id":76561198039891934,"connected_time":5789000000000,"state":"active","ping":72},{"user_id":211,"name":"Forty","steam_id":76561198257410181,"connected_time":1203000000000,"state":"active","ping":47},{"user_id":188,"name":"DrD","steam_id":76561198067266383,"connected_time":4037000000000,"state":"active","ping":41},{"user_id":194,"name":"Kc","steam_id":76561198210734407,"connected_time":3431000000000,"state":"active","ping":118},{"user_id":114,"name":"camp3r","steam_id":76561197992870439,"connected_time":12955000000000,"state":"active","ping":35},{"user_id":181,"name":"Chili","steam_id":76561198042942046,"connected_time":4654000000000,"state":"active","ping":97},{"user_id":203,"name":"bbbbb","steam_id":76561198095480838,"connected_time":2161000000000,"state":"active","ping":47},{"user_id":213,"name":"ZEKKER","steam_id":76561197967968980,"connected_time":1203000000000,"state":"active","ping":53}]},{"server_id":119,"name":"Uncletopia | Seattle | 2 | All Maps","name_short":"sea-2","host":"sea-1.us.uncletopia.com","port":27025,"enabled":true,"region":"us-west","cc":"us","latitude":47.608013,"longitude":-122.33517,"reserved":0,"last_update":"0001-01-01T00:00:00Z","name_a2s":"Uncletopia | Seattle | 2 | All Maps","protocol":17,"map":"ctf_2fort","folder":"tf","game":"Team Fortress","app_id":440,"player_count":17,"max_players":24,"Bots":0,"server_type":"Dedicated","server_os":"Linux","password":true,"vac":true,"version":"7961495","steam_id":85568392924469998,"keywords":["ctf","nocrits","nodmgspread","uncletopia"],"game_id":440,"stv_port":27026,"stv_name":"Uncletopia | Seattle | 2 | All Maps | STV","players":[{"user_id":270,"name":"mooney","steam_id":76561199110622484,"connected_time":4965000000000,"state":"active","ping":69},{"user_id":307,"name":"MyMonkeyBaby","steam_id":76561198046896670,"connected_time":495000000000,"state":"active","ping":62},{"user_id":246,"name":"Mario","steam_id":76561198321794277,"connected_time":7260000000000,"state":"active","ping":87},{"user_id":292,"name":"Jose THE MAN (the man)","steam_id":76561199133395169,"connected_time":2174000000000,"state":"active","ping":124},{"user_id":309,"name":"Mr defrost","steam_id":76561198322125657,"connected_time":301000000000,"state":"active","ping":64},{"user_id":311,"name":"johnman gooberguy","steam_id":76561199014859764,"connected_time":243000000000,"state":"active","ping":76},{"user_id":314,"name":"jailbreak","steam_id":76561198802085218,"connected_time":124000000000,"state":"active","ping":92},{"user_id":313,"name":"Long Wong Van Hugendong","steam_id":76561198074856827,"connected_time":166000000000,"state":"active","ping":91},{"user_id":289,"name":"cat woman yuri","steam_id":76561198004916219,"connected_time":2547000000000,"state":"active","ping":79},{"user_id":302,"name":"Tibetan Pop Star","steam_id":76561198844903984,"connected_time":1530000000000,"state":"active","ping":81},{"user_id":300,"name":"your girl","steam_id":76561199050118111,"connected_time":1875000000000,"state":"active","ping":55},{"user_id":268,"name":"prime example of furry L","steam_id":76561198097745857,"connected_time":5245000000000,"state":"active","ping":63},{"user_id":287,"name":"SnoDot","steam_id":76561198062209970,"connected_time":2943000000000,"state":"active","ping":30},{"user_id":298,"name":"old woman yuri","steam_id":76561198111844236,"connected_time":2069000000000,"state":"active","ping":117},{"user_id":291,"name":"greens beans","steam_id":76561198153611491,"connected_time":2178000000000,"state":"active","ping":39},{"user_id":308,"name":"Strikerbolt","steam_id":76561199095622897,"connected_time":469000000000,"state":"active","ping":76},{"user_id":304,"name":"luc","steam_id":76561198093883448,"connected_time":1326000000000,"state":"active","ping":45}]},{"server_id":406,"name":"Uncletopia | Seattle | 3 | Stopwatch Beta","name_short":"sea-3","host":"sea-1.us.uncletopia.com","port":27035,"enabled":true,"region":"us-west","cc":"us","latitude":47.608013,"longitude":-122.33517,"reserved":0,"last_update":"0001-01-01T00:00:00Z","name_a2s":"Uncletopia | Seattle | 3 | Stopwatch Beta","protocol":17,"map":"workshop/pl_badwater_pro_v12.ugc2142942074","folder":"tf","game":"Team Fortress","app_id":440,"player_count":0,"max_players":24,"Bots":0,"server_type":"Dedicated","server_os":"Linux","password":true,"vac":true,"version":"7961495","steam_id":85568392924515217,"keywords":["nocrits","nodmgspread","payload","uncletopia"],"game_id":440,"stv_port":27036,"stv_name":"Uncletopia | Seattle | 3 | Stopwatch Beta | STV","players":null},{"server_id":17,"name":"Uncletopia | San Francisco | 1 | All Maps","name_short":"sfo-1","host":"sfo-1.us.uncletopia.com","port":27015,"enabled":true,"region":"us-west","cc":"us","latitude":37.77397,"longitude":-122.4313,"reserved":0,"last_update":"0001-01-01T00:00:00Z","name_a2s":"Uncletopia | San Francisco | 1 | All Maps","protocol":17,"map":"cp_mountainlab","folder":"tf","game":"Team Fortress","app_id":440,"player_count":23,"max_players":24,"Bots":0,"server_type":"Dedicated","server_os":"Linux","password":true,"vac":true,"version":"7961495","steam_id":85568392924469999,"keywords":["cp","nocrits","nodmgspread","uncletopia"],"game_id":440,"stv_port":27016,"stv_name":"Uncletopia | San Francisco | 1 | All Maps | STV","players":[{"user_id":202,"name":"WastefulTrash","steam_id":76561198119003597,"connected_time":4999000000000,"state":"active","ping":83},{"user_id":250,"name":"Stapler","steam_id":76561198099295077,"connected_time":2366000000000,"state":"active","ping":45},{"user_id":280,"name":"Freelance Police","steam_id":76561198333279646,"connected_time":276000000000,"state":"active","ping":45},{"user_id":277,"name":"eagleeyejr","steam_id":76561198298655478,"connected_time":679000000000,"state":"active","ping":72},{"user_id":217,"name":"Jackrifleman","steam_id":76561198067764004,"connected_time":3946000000000,"state":"active","ping":60},{"user_id":259,"name":"Apex","steam_id":76561198039981618,"connected_time":1620000000000,"state":"active","ping":94},{"user_id":252,"name":"ForAPessimistImPrettyOptimistic","steam_id":76561198170128009,"connected_time":2184000000000,"state":"active","ping":50},{"user_id":266,"name":"The Rock","steam_id":76561198433328517,"connected_time":1255000000000,"state":"active","ping":122},{"user_id":283,"name":"TruthHut","steam_id":76561198093452436,"connected_time":198000000000,"state":"active","ping":60},{"user_id":267,"name":"Hollow gamer","steam_id":76561198426798913,"connected_time":1230000000000,"state":"active","ping":64},{"user_id":278,"name":"crowe","steam_id":76561198142185527,"connected_time":431000000000,"state":"active","ping":63},{"user_id":282,"name":"rise","steam_id":76561198452312880,"connected_time":228000000000,"state":"active","ping":37},{"user_id":246,"name":"LEE","steam_id":76561199127408846,"connected_time":2745000000000,"state":"active","ping":71},{"user_id":285,"name":"down horrendous","steam_id":76561198093241352,"connected_time":146000000000,"state":"active","ping":39},{"user_id":265,"name":"вниз погано","steam_id":76561198142819600,"connected_time":1286000000000,"state":"active","ping":87},{"user_id":209,"name":"Randle of John","steam_id":76561198328210524,"connected_time":4493000000000,"state":"active","ping":60},{"user_id":286,"name":"eBay","steam_id":76561198061214569,"connected_time":113000000000,"state":"active","ping":85},{"user_id":288,"name":"A loaf of bread","steam_id":76561198152372219,"connected_time":4000000000,"state":"spawning","ping":59},{"user_id":189,"name":"Magic Sam","steam_id":76561198089426224,"connected_time":5781000000000,"state":"active","ping":75},{"user_id":279,"name":"territori64 simp","steam_id":76561198385250944,"connected_time":408000000000,"state":"active","ping":45},{"user_id":207,"name":"shoutyman","steam_id":76561198055456198,"connected_time":4799000000000,"state":"active","ping":96},{"user_id":274,"name":"shomo","steam_id":76561198158787127,"connected_time":1065000000000,"state":"active","ping":67},{"user_id":275,"name":"CheeseCake488","steam_id":76561199407617942,"connected_time":1052000000000,"state":"active","ping":104}]},{"server_id":18,"name":"Uncletopia | San Francisco | 2 | All Maps","name_short":"sfo-2","host":"sfo-1.us.uncletopia.com","port":27025,"enabled":true,"region":"us-west","cc":"us","latitude":37.77397,"longitude":-122.4313,"reserved":0,"last_update":"0001-01-01T00:00:00Z","name_a2s":"Uncletopia | San Francisco | 2 | All Maps","protocol":17,"map":"koth_lakeside_final","folder":"tf","game":"Team Fortress","app_id":440,"player_count":24,"max_players":24,"Bots":0,"server_type":"Dedicated","server_os":"Linux","password":true,"vac":true,"version":"7961495","steam_id":85568392924470000,"keywords":["cp","nocrits","nodmgspread","uncletopia"],"game_id":440,"stv_port":27026,"stv_name":"Uncletopia | San Francisco | 2 | All Maps | STV","players":[{"user_id":13,"name":"Bloodgoat","steam_id":76561198047407295,"connected_time":9036000000000,"state":"active","ping":72},{"user_id":14,"name":"Droozlex","steam_id":76561198157221366,"connected_time":9032000000000,"state":"active","ping":83},{"user_id":130,"name":"Quigi","steam_id":76561198144645874,"connected_time":956000000000,"state":"active","ping":70},{"user_id":131,"name":"Echo Dragoon","steam_id":76561198014273034,"connected_time":887000000000,"state":"active","ping":83},{"user_id":110,"name":"KodamaLlama","steam_id":76561198104510111,"connected_time":3694000000000,"state":"active","ping":86},{"user_id":152,"name":"Ssamjang","steam_id":76561197966891870,"connected_time":206000000000,"state":"active","ping":67},{"user_id":126,"name":"nogoodnameshere","steam_id":76561199065926375,"connected_time":1522000000000,"state":"active","ping":67},{"user_id":132,"name":"Jacket","steam_id":76561198062736450,"connected_time":826000000000,"state":"active","ping":62},{"user_id":109,"name":"SnakeyK","steam_id":76561198038414152,"connected_time":3736000000000,"state":"active","ping":71},{"user_id":127,"name":"mountainkug","steam_id":76561199491802535,"connected_time":1514000000000,"state":"active","ping":160},{"user_id":133,"name":"sbweldon","steam_id":76561199103228365,"connected_time":820000000000,"state":"active","ping":105},{"user_id":128,"name":"dog","steam_id":76561198295237946,"connected_time":1457000000000,"state":"active","ping":107},{"user_id":151,"name":"Sworddemonboggle","steam_id":76561198295526535,"connected_time":254000000000,"state":"active","ping":133},{"user_id":113,"name":"dewey.","steam_id":76561198138325039,"connected_time":3248000000000,"state":"active","ping":71},{"user_id":145,"name":"FreshLord27","steam_id":76561198388697530,"connected_time":451000000000,"state":"active","ping":72},{"user_id":112,"name":"||BassMan||","steam_id":76561198279865229,"connected_time":3312000000000,"state":"active","ping":88},{"user_id":135,"name":"Feral Femboy","steam_id":76561198130714378,"connected_time":702000000000,"state":"active","ping":84},{"user_id":119,"name":"dansal","steam_id":76561197997042510,"connected_time":2363000000000,"state":"active","ping":97},{"user_id":148,"name":"moe","steam_id":76561198929586245,"connected_time":328000000000,"state":"active","ping":59},{"user_id":149,"name":"Skip Hop Doo Bop","steam_id":76561199161571849,"connected_time":302000000000,"state":"active","ping":45},{"user_id":143,"name":"Lavalace","steam_id":76561198073757592,"connected_time":492000000000,"state":"active","ping":79},{"user_id":137,"name":"Boy Kisser","steam_id":76561199069629037,"connected_time":672000000000,"state":"active","ping":131},{"user_id":123,"name":"Sirmrmagoo","steam_id":76561198993190424,"connected_time":1880000000000,"state":"active","ping":100},{"user_id":138,"name":"TheTalentlessChicken","steam_id":76561198148390834,"connected_time":658000000000,"state":"active","ping":69}]},{"server_id":19,"name":"Uncletopia | San Francisco | 3 | Stopwatch Beta","name_short":"sfo-3","host":"sfo-1.us.uncletopia.com","port":27035,"enabled":true,"region":"us-west","cc":"us","latitude":37.77397,"longitude":-122.4313,"reserved":0,"last_update":"0001-01-01T00:00:00Z","name_a2s":"Uncletopia | San Francisco | 3 | Stopwatch Beta","protocol":17,"map":"pl_borneo","folder":"tf","game":"Team Fortress","app_id":440,"player_count":0,"max_players":24,"Bots":0,"server_type":"Dedicated","server_os":"Linux","password":true,"vac":true,"version":"7961495","steam_id":85568392924742824,"keywords":["nocrits","nodmgspread","payload","uncletopia"],"game_id":440,"stv_port":27036,"stv_name":"Uncletopia | San Francisco | 3 | Stopwatch Beta | STV","players":null},{"server_id":20,"name":"Uncletopia | San Francisco | 4 | Community","name_short":"sfo-4","host":"sfo-1.us.uncletopia.com","port":27045,"enabled":true,"region":"us-west","cc":"us","latitude":37.77397,"longitude":-122.4313,"reserved":0,"last_update":"0001-01-01T00:00:00Z","name_a2s":"Uncletopia | San Francisco | 4 | Community","protocol":17,"map":"koth_viaduct","folder":"tf","game":"Team Fortress","app_id":440,"player_count":0,"max_players":24,"Bots":0,"server_type":"Dedicated","server_os":"Linux","password":true,"vac":true,"version":"7961495","steam_id":85568392924742826,"keywords":["cp","nocrits","nodmgspread","uncletopia"],"game_id":440,"stv_port":27046,"stv_name":"Uncletopia | San Francisco | 4 | Community | STV","players":null},{"server_id":141,"name":"Uncletopia | Sydney | 1 | All Maps","name_short":"syd-1","host":"syd-1.au.uncletopia.com","port":27015,"enabled":true,"region":"au","cc":"au","latitude":-33.865143,"longitude":151.2099,"reserved":0,"last_update":"0001-01-01T00:00:00Z","name_a2s":"Uncletopia | Sydney | 1 | All Maps","protocol":17,"map":"koth_cascade","folder":"tf","game":"Team Fortress","app_id":440,"player_count":0,"max_players":24,"Bots":0,"server_type":"Dedicated","server_os":"Linux","password":true,"vac":true,"version":"7961495","steam_id":85568392924470001,"keywords":["cp","nocrits","nodmgspread","uncletopia"],"game_id":440,"stv_port":27016,"stv_name":"Uncletopia | Sydney | 1 | All Maps | STV","players":null},{"server_id":123,"name":"Uncletopia | Sydney | 2 | All Maps","name_short":"syd-2","host":"syd-1.au.uncletopia.com","port":27025,"enabled":true,"region":"au","cc":"au","latitude":-33.865143,"longitude":151.2099,"reserved":0,"last_update":"0001-01-01T00:00:00Z","name_a2s":"Uncletopia | Sydney | 2 | All Maps","protocol":17,"map":"pl_snowycoast","folder":"tf","game":"Team Fortress","app_id":440,"player_count":0,"max_players":24,"Bots":0,"server_type":"Dedicated","server_os":"Linux","password":true,"vac":true,"version":"7961495","steam_id":85568392924470002,"keywords":["nocrits","nodmgspread","payload","uncletopia"],"game_id":440,"stv_port":27026,"stv_name":"Uncletopia | Sydney | 2 | All Maps | STV","players":null},{"server_id":395,"name":"Uncletopia | Sydney | 3 | All Maps","name_short":"syd-3","host":"syd-1.au.uncletopia.com","port":27035,"enabled":true,"region":"au","cc":"au","latitude":-33.865143,"longitude":151.2099,"reserved":0,"last_update":"0001-01-01T00:00:00Z","name_a2s":"Uncletopia | Sydney | 3 | All Maps","protocol":17,"map":"cp_dustbowl","folder":"tf","game":"Team Fortress","app_id":440,"player_count":0,"max_players":24,"Bots":0,"server_type":"Dedicated","server_os":"Linux","password":true,"vac":true,"version":"7961495","steam_id":85568392925194467,"keywords":["cp","nocrits","nodmgspread","uncletopia"],"game_id":440,"stv_port":27036,"stv_name":"Uncletopia | Sydney | 3 | All Maps | STV","players":null},{"server_id":396,"name":"Uncletopia | Sydney | 4 | All Maps","name_short":"syd-4","host":"syd-1.au.uncletopia.com","port":27045,"enabled":true,"region":"au","cc":"au","latitude":-33.865143,"longitude":151.2099,"reserved":0,"last_update":"0001-01-01T00:00:00Z","name_a2s":"Uncletopia | Sydney | 4 | All Maps","protocol":17,"map":"cp_dustbowl","folder":"tf","game":"Team Fortress","app_id":440,"player_count":0,"max_players":24,"Bots":0,"server_type":"Dedicated","server_os":"Linux","password":true,"vac":true,"version":"7961495","steam_id":85568392925397958,"keywords":["cp","nocrits","nodmgspread","uncletopia"],"game_id":440,"stv_port":27046,"stv_name":"Uncletopia | Sydney | 4 | All Maps | STV","players":null},{"server_id":58,"name":"Uncletopia | Sydney | 5 | Stopwatch Beta","name_short":"syd-5","host":"syd-1.au.uncletopia.com","port":27055,"enabled":true,"region":"au","cc":"au","latitude":-33.865143,"longitude":151.2099,"reserved":0,"last_update":"0001-01-01T00:00:00Z","name_a2s":"Uncletopia | Sydney | 5 | Stopwatch Beta","protocol":17,"map":"koth_viaduct","folder":"tf","game":"Team Fortress","app_id":440,"player_count":0,"max_players":24,"Bots":0,"server_type":"Dedicated","server_os":"Linux","password":true,"vac":true,"version":"7961495","steam_id":85568392925397959,"keywords":["cp","nocrits","nodmgspread","uncletopia"],"game_id":440,"stv_port":27056,"stv_name":"Uncletopia | Sydney | 5 | Stopwatch Beta | STV","players":null},{"server_id":59,"name":"Uncletopia | Sydney | 6 | Community","name_short":"syd-6","host":"syd-1.au.uncletopia.com","port":27065,"enabled":true,"region":"au","cc":"au","latitude":-33.865143,"longitude":151.2099,"reserved":0,"last_update":"0001-01-01T00:00:00Z","name_a2s":"Uncletopia | Sydney | 6 | Community","protocol":17,"map":"koth_cascade","folder":"tf","game":"Team Fortress","app_id":440,"player_count":0,"max_players":24,"Bots":0,"server_type":"Dedicated","server_os":"Linux","password":true,"vac":true,"version":"7961495","steam_id":85568392925397960,"keywords":["cp","nocrits","nodmgspread","uncletopia"],"game_id":440,"stv_port":27066,"stv_name":"Uncletopia | Sydney | 6 | Community | STV","players":null},{"server_id":49,"name":"Uncletopia | Warsaw | 1 | All Maps","name_short":"waw-1","host":"waw-1.pl.uncletopia.com","port":27015,"enabled":true,"region":"eu","cc":"pl","latitude":52.2297,"longitude":21.017532,"reserved":0,"last_update":"0001-01-01T00:00:00Z","name_a2s":"Uncletopia | Warsaw | 1 | All Maps","protocol":17,"map":"pl_swiftwater_final1","folder":"tf","game":"Team Fortress","app_id":440,"player_count":0,"max_players":24,"Bots":0,"server_type":"Dedicated","server_os":"Linux","password":true,"vac":true,"version":"7961495","steam_id":85568392925397850,"keywords":["nocrits","nodmgspread","payload","uncletopia"],"game_id":440,"stv_port":27016,"stv_name":"Uncletopia | Warsaw | 1 | All Maps | STV","players":null},{"server_id":50,"name":"Uncletopia | Warsaw | 2 | All Maps","name_short":"waw-2","host":"waw-1.pl.uncletopia.com","port":27025,"enabled":true,"region":"eu","cc":"pl","latitude":52.2297,"longitude":21.017532,"reserved":0,"last_update":"0001-01-01T00:00:00Z","name_a2s":"Uncletopia | Warsaw | 2 | All Maps","protocol":17,"map":"cp_mountainlab","folder":"tf","game":"Team Fortress","app_id":440,"player_count":0,"max_players":24,"Bots":0,"server_type":"Dedicated","server_os":"Linux","password":true,"vac":true,"version":"7961495","steam_id":85568392925397851,"keywords":["cp","nocrits","nodmgspread","uncletopia"],"game_id":440,"stv_port":27026,"stv_name":"Uncletopia | Warsaw | 2 | All Maps | STV","players":null},{"server_id":51,"name":"Uncletopia | Warsaw | 3 | All Maps","name_short":"waw-3","host":"waw-1.pl.uncletopia.com","port":27035,"enabled":true,"region":"eu","cc":"pl","latitude":52.2297,"longitude":21.017532,"reserved":0,"last_update":"0001-01-01T00:00:00Z","name_a2s":"Uncletopia | Warsaw | 3 | All Maps","protocol":17,"map":"koth_lakeside_final","folder":"tf","game":"Team Fortress","app_id":440,"player_count":0,"max_players":24,"Bots":0,"server_type":"Dedicated","server_os":"Linux","password":true,"vac":true,"version":"7961495","steam_id":85568392925397852,"keywords":["cp","nocrits","nodmgspread","uncletopia"],"game_id":440,"stv_port":27036,"stv_name":"Uncletopia | Warsaw | 3 | All Maps | STV","players":null},{"server_id":52,"name":"Uncletopia | Warsaw | 4 | All Maps","name_short":"waw-4","host":"waw-1.pl.uncletopia.com","port":27045,"enabled":true,"region":"eu","cc":"pl","latitude":52.2297,"longitude":21.017532,"reserved":0,"last_update":"0001-01-01T00:00:00Z","name_a2s":"Uncletopia | Warsaw | 4 | All Maps","protocol":17,"map":"cp_dustbowl","folder":"tf","game":"Team Fortress","app_id":440,"player_count":0,"max_players":24,"Bots":0,"server_type":"Dedicated","server_os":"Linux","password":true,"vac":true,"version":"7961495","steam_id":85568392925397853,"keywords":["cp","nocrits","nodmgspread","uncletopia"],"game_id":440,"stv_port":27046,"stv_name":"Uncletopia | Warsaw | 4 | All Maps | STV","players":null},{"server_id":53,"name":"Uncletopia | Warsaw | 5 | Stopwatch Beta","name_short":"waw-5","host":"waw-1.pl.uncletopia.com","port":27055,"enabled":true,"region":"eu","cc":"pl","latitude":52.2297,"longitude":21.017532,"reserved":0,"last_update":"0001-01-01T00:00:00Z","name_a2s":"Uncletopia | Warsaw | 5 | Stopwatch Beta","protocol":17,"map":"workshop/koth_ramjam_rc1.ugc459778887","folder":"tf","game":"Team Fortress","app_id":440,"player_count":0,"max_players":24,"Bots":0,"server_type":"Dedicated","server_os":"Linux","password":true,"vac":true,"version":"7961495","steam_id":85568392925397854,"keywords":["cp","nocrits","nodmgspread","uncletopia"],"game_id":440,"stv_port":27056,"stv_name":"Uncletopia | Warsaw | 5 | Stopwatch Beta | STV","players":null},{"server_id":54,"name":"Uncletopia | Warsaw | 6 | Community","name_short":"waw-6","host":"waw-1.pl.uncletopia.com","port":27065,"enabled":true,"region":"eu","cc":"pl","latitude":52.2297,"longitude":21.017532,"reserved":0,"last_update":"0001-01-01T00:00:00Z","name_a2s":"Uncletopia | Warsaw | 6 | Community","protocol":17,"map":"workshop/cp_caldera_rc2.ugc2834196889","folder":"tf","game":"Team Fortress","app_id":440,"player_count":0,"max_players":24,"Bots":0,"server_type":"Dedicated","server_os":"Linux","password":true,"vac":true,"version":"7961495","steam_id":85568392925397856,"keywords":["cp","nocrits","nodmgspread","uncletopia"],"game_id":440,"stv_port":27066,"stv_name":"Uncletopia | Warsaw | 6 | Community | STV","players":null}]}