{"status":true,"message":"","result":[{"server_id":9,"name":"Uncletopia | Atlanta | 1 | All Maps","name_short":"atl-1","host":"atl-1.us.uncletopia.com","port":27015,"enabled":true,"region":"us-east","cc":"us","latitude":33.753746,"longitude":-84.38633,"reserved":0,"last_update":"0001-01-01T00:00:00Z","name_a2s":"Uncletopia | Atlanta | 1 | All Maps","protocol":17,"map":"pl_swiftwater_final1","folder":"tf","game":"Team Fortress","app_id":440,"player_count":24,"max_players":24,"Bots":0,"server_type":"Dedicated","server_os":"Linux","password":true,"vac":true,"version":"7961495","steam_id":85568392924469982,"keywords":["nocrits","nodmgspread","payload","uncletopia"],"game_id":440,"stv_port":27016,"stv_name":"Uncletopia | Atlanta | 1 | All Maps | STV","players":[{"user_id":532,"name":"zabloinkus","steam_id":76561198069967245,"connected_time":531000000000,"state":"active","ping":92},{"user_id":501,"name":"Bandit","steam_id":76561199087543553,"connected_time":2181000000000,"state":"active","ping":127},{"user_id":518,"name":"chexo4","steam_id":76561198150532531,"connected_time":1372000000000,"state":"active","ping":50},{"user_id":521,"name":"Punchy","steam_id":76561198200000641,"connected_time":794000000000,"state":"active","ping":52},{"user_id":494,"name":"lexi","steam_id":76561198176299759,"connected_time":2561000000000,"state":"active","ping":87},{"user_id":533,"name":"I Eat Money","steam_id":76561199226007666,"connected_time":420000000000,"state":"active","ping":87},{"user_id":491,"name":"Oddball","steam_id":76561198040440984,"connected_time":2574000000000,"state":"active","ping":89},{"user_id":516,"name":"freyjaaaaaaaaaaaaaaaaaaaaaaaaaa","steam_id":76561198249206656,"connected_time":1429000000000,"state":"active","ping":86},{"user_id":469,"name":"MONKE","steam_id":76561199211345801,"connected_time":3610000000000,"state":"active","ping":54},{"user_id":511,"name":"Ich Bin Doge","steam_id":76561198880653063,"connected_time":1591000000000,"state":"active","ping":116},{"user_id":487,"name":"eish","steam_id":76561198089463603,"connected_time":2898000000000,"state":"active","ping":121},{"user_id":535,"name":"Shame","steam_id":76561198100490994,"connected_time":247000000000,"state":"active","ping":59},{"user_id":534,"name":"BaconLol","steam_id":76561199125317999,"connected_time":376000000000,"state":"active","ping":194},{"user_id":527,"name":"Lilith","steam_id":76561198125102885,"connected_time":709000000000,"state":"active","ping":63},{"user_id":524,"name":"lalman","steam_id":76561198196605887,"connected_time":760000000000,"state":"active","ping":72},{"user_id":525,"name":"Icaras","steam_id":76561198416724843,"connected_time":757000000000,"state":"active","ping":133},{"user_id":520,"name":"Mr_Frosty","steam_id":76561199380389079,"connected_time":1011000000000,"state":"active","ping":84},{"user_id":526,"name":"malicious links","steam_id":76561199489391928,"connected_time":738000000000,"state":"active","ping":75},{"user_id":519,"name":"carrot cake","steam_id":76561198055174915,"connected_time":1359000000000,"state":"active","ping":79},{"user_id":529,"name":"big steve","steam_id":76561199037050183,"connected_time":647000000000,"state":"active","ping":78},{"user_id":531,"name":"Heathcliff","steam_id":76561198044288534,"connected_time":544000000000,"state":"active","ping":78},{"user_id":482,"name":"A/funny/dream","steam_id":76561198354481597,"connected_time":3201000000000,"state":"active","ping":68},{"user_id":503,"name":"CHAOS LORD","steam_id":76561199351708521,"connected_time":2110000000000,"state":"active","ping":94},{"user_id":512,"name":"Sushi Chef Gaming","steam_id":76561199038566105,"connected_time":1565000000000,"state":"active","ping":88}]},{"server_id":104,"name":"Uncletopia | Atlanta | 2 | All Maps","name_short":"atl-2","host":"atl-1.us.uncletopia.com","port":27025,"enabled":true,"region":"us-east","cc":"us","latitude":33.753746,"longitude":-84.38633,"reserved":0,"last_update":"0001-01-01T00:00:00Z","name_a2s":"Uncletopia | Atlanta | 2 | All Maps","protocol":17,"map":"pl_upward","folder":"tf","game":"Team Fortress","app_id":440,"player_count":24,"max_players":24,"Bots":0,"server_type":"Dedicated","server_os":"Linux","password":true,"vac":true,"version":"7961495","steam_id":85568392924469983,"keywords":["nocrits","nodmgspread","payload","uncletopia"],"game_id":440,"stv_port":27026,"stv_name":"Uncletopia | Atlanta | 2 | All Maps | STV","players":[{"user_id":265,"name":"Yoshimelon","steam_id":76561198253054325,"connected_time":461000000000,"state":"active","ping":60},{"user_id":241,"name":"roma","steam_id":76561198028811916,"connected_time":1519000000000,"state":"active","ping":46},{"user_id":259,"name":"üéÑAndreaJinglingüéÑ","steam_id":76561198198658783,"connected_time":848000000000,"state":"active","ping":132},{"user_id":228,"name":"SEGNO","steam_id":76561198102780113,"connected_time":3328000000000,"state":"active","ping":77},{"user_id":284,"name":"Sheembs","steam_id":76561199010524390,"connected_time":223000000000,"state":"active","ping":65},{"user_id":283,"name":"Sorrelyn","steam_id":76561198040851062,"connected_time":243000000000,"state":"active","ping":46},{"user_id":196,"name":"Monkey Mode","steam_id":76561197961267543,"connected_time":5154000000000,"state":"active","ping":48},{"user_id":288,"name":"Andallfor","steam_id":76561198350143349,"connected_time":156000000000,"state":"active","ping":70},{"user_id":250,"name":"add me","steam_id":76561198148873693,"connected_time":1093000000000,"state":"active","ping":50},{"user_id":251,"name":"Jammy Jam","steam_id":76561198122804589,"connected_time":1051000000000,"state":"active","ping":65},{"user_id":280,"name":"Dripless The Poor","steam_id":76561198090546454,"connected_time":326000000000,"state":"active","ping":74},{"user_id":285,"name":"Soldier","steam_id":76561199078537280,"connected_time":198000000000,"state":"active","ping":51},{"user_id":262,"name":"Gary Budussy","steam_id":76561197969793969,"connected_time":503000000000,"state":"active","ping":65},{"user_id":289,"name":"Stevelonk","steam_id":76561198088224665,"connected_time":126000000000,"state":"active","ping":53},{"user_id":235,"name":"Vorpas Jabwak","steam_id":76561198112186064,"connected_time":2454000000000,"state":"active","ping":93},{"user_id":286,"name":"The Last Knight","steam_id":76561198041622040,"connected_time":190000000000,"state":"active","ping":31},{"user_id":253,"name":"Antwan","steam_id":76561198246200638,"connected_time":942000000000,"state":"active","ping":60},{"user_id":287,"name":"Tomato","steam_id":76561197996472649,"connected_time":186000000000,"state":"active","ping":70},{"user_id":182,"name":"confield","steam_id":76561198004322265,"connected_time":6175000000000,"state":"active","ping":47},{"user_id":290,"name":"The Engineering Puro","steam_id":76561199186496740,"connected_time":79000000000,"state":"active","ping":114},{"user_id":276,"name":"Pathara44","steam_id":76561198048238620,"connected_time":359000000000,"state":"active","ping":79},{"user_id":257,"name":"toastman","steam_id":76561198207073088,"connected_time":899000000000,"state":"active","ping":85},{"user_id":270,"name":"Kuwait Grips","steam_id":76561198292689973,"connected_time":414000000000,"state":"active","ping":66},{"user_id":267,"name":"Varveer","steam_id":76561198218897383,"connected_time":454000000000,"state":"active","ping":89}]},{"server_id":400,"name":"Uncletopia | Atlanta | 3 | Stopwatch","name_short":"atl-3","host":"atl-1.us.uncletopia.com","port":27035,"enabled":true,"region":"us-east","cc":"us","latitude":33.753746,"longitude":-84.38633,"reserved":0,"last_update":"0001-01-01T00:00:00Z","name_a2s":"Uncletopia | Atlanta | 3 | Stopwatch","protocol":17,"map":"workshop/koth_product_final.ugc454272353","folder":"tf","game":"Team Fortress","app_id":440,"player_count":0,"max_players":24,"Bots":0,"server_type":"Dedicated","server_os":"Linux","password":true,"vac":true,"version":"7961495","steam_id":85568392924515187,"keywords":["cp","nocrits","nodmgspread","uncletopia"],"game_id":440,"stv_port":27036,"stv_name":"Uncletopia | Atlanta | 3 | Stopwatch | STV","players":null},{"server_id":401,"name":"Uncletopia | Atlanta | 4 | Community","name_short":"atl-4","host":"atl-1.us.uncletopia.com","port":27045,"enabled":true,"region":"us-east","cc":"us","latitude":33.753746,"longitude":-84.38633,"reserved":0,"last_update":"0001-01-01T00:00:00Z","name_a2s":"Uncletopia | Atlanta | 4 | Community","protocol":17,"map":"workshop/cp_bruhstbowl_b6.ugc2878604990","folder":"tf","game":"Team Fortress","app_id":440,"player_count":2,"max_players":24,"Bots":0,"server_type":"Dedicated","server_os":"Linux","password":true,"vac":true,"version":"7961495","steam_id":85568392924515188,"keywords":["cp","nocrits","nodmgspread","uncletopia"],"game_id":440,"stv_port":27046,"stv_name":"Uncletopia | Atlanta | 4 | Community | STV","players":[{"user_id":12,"name":"PhinXander (they/them)","steam_id":76561199012968625,"connected_time":1840000000000,"state":"active","ping":94},{"user_id":13,"name":"Bubby","steam_id":76561199163019490,"connected_time":1580000000000,"state":"active","ping":81}]},{"server_id":2,"name":"Uncletopia | Chicago | 1 | All Maps","name_short":"chi-1","host":"chi-1.us.uncletopia.com","port":27015,"enabled":true,"region":"us-central","cc":"us","latitude":41.881832,"longitude":-87.62318,"reserved":0,"last_update":"0001-01-01T00:00:00Z","name_a2s":"Uncletopia | Chicago | 1 | All Maps","protocol":17,"map":"pl_pier","folder":"tf","game":"Team Fortress","app_id":440,"player_count":24,"max_players":24,"Bots":0,"server_type":"Dedicated","server_os":"Linux","password":true,"vac":true,"version":"7961495","steam_id":85568392924469984,"keywords":["nocrits","nodmgspread","payload","uncletopia"],"game_id":440,"stv_port":27016,"stv_name":"Uncletopia | Chicago | 1 | All Maps | STV","players":[{"user_id":381,"name":"Argo","steam_id":76561198353725622,"connected_time":1872000000000,"state":"active","ping":82},{"user_id":366,"name":"Lia_Rein","steam_id":76561198151569597,"connected_time":3197000000000,"state":"active","ping":141},{"user_id":390,"name":"Space","steam_id":76561198350489754,"connected_time":1013000000000,"state":"active","ping":52},{"user_id":364,"name":"Word To Your Mothership","steam_id":76561198034329138,"connected_time":3268000000000,"state":"active","ping":101},{"user_id":394,"name":"Comfy!","steam_id":76561198008818346,"connected_time":278000000000,"state":"active","ping":83},{"user_id":392,"name":"THE RADIANCE","steam_id":76561198871897563,"connected_time":724000000000,"state":"active","ping":55},{"user_id":372,"name":"fried rice","steam_id":76561198928939100,"connected_time":2760000000000,"state":"active","ping":75},{"user_id":315,"name":"HumFreY","steam_id":76561198076639682,"connected_time":6578000000000,"state":"active","ping":73},{"user_id":382,"name":"agless","steam_id":76561198045248344,"connected_time":1857000000000,"state":"active","ping":53},{"user_id":360,"name":"noho hank","steam_id":76561198046650995,"connected_time":3642000000000,"state":"active","ping":85},{"user_id":367,"name":"yer_nerd","steam_id":76561199435454093,"connected_time":3193000000000,"state":"active","ping":73},{"user_id":379,"name":"loser","steam_id":76561198259380127,"connected_time":1880000000000,"state":"active","ping":57},{"user_id":373,"name":"Pound Sine","steam_id":76561198044480181,"connected_time":2725000000000,"state":"active","ping":52},{"user_id":290,"name":"qory","steam_id":76561198152064890,"connected_time":8247000000000,"state":"active","ping":56},{"user_id":393,"name":"Der Krieger105","steam_id":76561197978384609,"connected_time":517000000000,"state":"active","ping":88},{"user_id":388,"name":"Astoriae!","steam_id":76561199090168858,"connected_time":1220000000000,"state":"active","ping":68},{"user_id":376,"name":"winning","steam_id":76561198003206947,"connected_time":2297000000000,"state":"active","ping":58},{"user_id":384,"name":"Zeebop","steam_id":76561198148332988,"connected_time":1829000000000,"state":"active","ping":52},{"user_id":378,"name":"joosssh","steam_id":76561198072130805,"connected_time":1897000000000,"state":"active","ping":147},{"user_id":356,"name":"Dogma","steam_id":76561198879961615,"connected_time":3918000000000,"state":"active","ping":69},{"user_id":383,"name":"yELLow","steam_id":76561198178488195,"connected_time":1846000000000,"state":"active","ping":74},{"user_id":387,"name":"Master Oogway","steam_id":76561198252199106,"connected_time":1293000000000,"state":"active","ping":76},{"user_id":354,"name":"bologna forklift 2012","steam_id":76561198199061206,"connected_time":4015000000000,"state":"active","ping":45},{"user_id":375,"name":"A skill issue","steam_id":76561198246701796,"connected_time":2437000000000,"state":"active","ping":81}]},{"server_id":106,"name":"Uncletopia | Chicago | 2 | All Maps","name_short":"chi-2","host":"chi-1.us.uncletopia.com","port":27025,"enabled":true,"region":"us-central","cc":"us","latitude":41.881832,"longitude":-87.62318,"reserved":0,"last_update":"0001-01-01T00:00:00Z","name_a2s":"Uncletopia | Chicago | 2 | All Maps","protocol":17,"map":"pl_frontier_final","folder":"tf","game":"Team Fortress","app_id":440,"player_count":20,"max_players":24,"Bots":0,"server_type":"Dedicated","server_os":"Linux","password":true,"vac":true,"version":"7961495","steam_id":85568392924469985,"keywords":["nocrits","nodmgspread","payload","uncletopia"],"game_id":440,"stv_port":27026,"stv_name":"Uncletopia | Chicago | 2 | All Maps | STV","players":[{"user_id":77,"name":"lil juice","steam_id":76561198057811695,"connected_time":1676000000000,"state":"active","ping":83},{"user_id":71,"name":"d5","steam_id":76561199339997328,"connected_time":2084000000000,"state":"active","ping":73},{"user_id":30,"name":"menonamed","steam_id":76561198199564382,"connected_time":3412000000000,"state":"active","ping":60},{"user_id":81,"name":"anonion","steam_id":76561198056477584,"connected_time":498000000000,"state":"active","ping":89},{"user_id":41,"name":"serro","steam_id":76561198059057024,"connected_time":3045000000000,"state":"active","ping":68},{"user_id":88,"name":"the pizza","steam_id":76561198221331476,"connected_time":26000000000,"state":"spawning","ping":76},{"user_id":37,"name":"B1N4RY","steam_id":76561198101117144,"connected_time":3085000000000,"state":"active","ping":67},{"user_id":79,"name":"Weebmcgee","steam_id":76561198081231557,"connected_time":1243000000000,"state":"active","ping":53},{"user_id":84,"name":"Rein","steam_id":76561198300340427,"connected_time":150000000000,"state":"active","ping":61},{"user_id":42,"name":"I Must Frag","steam_id":76561198909415646,"connected_time":3026000000000,"state":"active","ping":76},{"user_id":46,"name":"Perfume Department","steam_id":76561198128299594,"connected_time":2853000000000,"state":"active","ping":103},{"user_id":76,"name":"Kaestal","steam_id":76561198033174157,"connected_time":1777000000000,"state":"spawning","ping":48},{"user_id":52,"name":"i should go","steam_id":76561198194614289,"connected_time":2734000000000,"state":"active","ping":65},{"user_id":66,"name":"BarrowBaron","steam_id":76561198013633236,"connected_time":2300000000000,"state":"active","ping":56},{"user_id":72,"name":"=Silver=","steam_id":76561198292307127,"connected_time":2018000000000,"state":"active","ping":157},{"user_id":73,"name":"AWGER","steam_id":76561198284683624,"connected_time":2014000000000,"state":"active","ping":76},{"user_id":67,"name":"H0wlr","steam_id":76561198012332824,"connected_time":2204000000000,"state":"active","ping":38},{"user_id":64,"name":"Punkin","steam_id":76561198334301755,"connected_time":2348000000000,"state":"active","ping":68},{"user_id":83,"name":"bdkaine1","steam_id":76561198133545467,"connected_time":283000000000,"state":"active","ping":60},{"user_id":65,"name":"Terminally Online Weeb [Dexgod]","steam_id":76561198017130786,"connected_time":2347000000000,"state":"active","ping":75}]},{"server_id":402,"name":"Uncletopia | Chicago | 3 | All Maps","name_short":"chi-3","host":"chi-1.us.uncletopia.com","port":27035,"enabled":true,"region":"us-central","cc":"us","latitude":41.881832,"longitude":-87.62318,"reserved":0,"last_update":"0001-01-01T00:00:00Z","name_a2s":"Uncletopia | Chicago | 3 | All Maps","protocol":17,"map":"pl_frontier_final","folder":"tf","game":"Team Fortress","app_id":440,"player_count":21,"max_players":24,"Bots":0,"server_type":"Dedicated","server_os":"Linux","password":true,"vac":true,"version":"7961495","steam_id":85568392924515191,"keywords":["nocrits","nodmgspread","payload","uncletopia"],"game_id":440,"stv_port":27036,"stv_name":"Uncletopia | Chicago | 3 | All Maps | STV","players":[{"user_id":213,"name":"Eager99","steam_id":76561198975382876,"connected_time":2606000000000,"state":"active","ping":90},{"user_id":239,"name":"crazy CHEAPwm1CRITS","steam_id":76561198061502797,"connected_time":52000000000,"state":"spawning","ping":58},{"user_id":196,"name":"‚úßÔΩ•Ôæühooligan!!","steam_id":76561198874149130,"connected_time":4269000000000,"state":"active","ping":73},{"user_id":226,"name":"gmaay","steam_id":76561199104911185,"connected_time":355000000000,"state":"active","ping":65},{"user_id":231,"name":"The Jar","steam_id":76561198146013385,"connected_time":287000000000,"state":"active","ping":66},{"user_id":212,"name":"Rukks","steam_id":76561197993918954,"connected_time":2854000000000,"state":"active","ping":90},{"user_id":228,"name":"Bread Baker","steam_id":76561198185335103,"connected_time":327000000000,"state":"active","ping":46},{"user_id":186,"name":"Epha","steam_id":76561198079379951,"connected_time":5514000000000,"state":"active","ping":60},{"user_id":229,"name":"proof","steam_id":76561199002403588,"connected_time":313000000000,"state":"active","ping":52},{"user_id":236,"name":"wahooka","steam_id":76561197981211922,"connected_time":209000000000,"state":"active","ping":70},{"user_id":234,"name":"Coms","steam_id":76561198204995668,"connected_time":253000000000,"state":"active","ping":85},{"user_id":205,"name":"SIN K4RMA","steam_id":76561198869287223,"connected_time":3767000000000,"state":"active","ping":105},{"user_id":235,"name":"boo_thefeared","steam_id":76561198127967685,"connected_time":247000000000,"state":"active","ping":134},{"user_id":209,"name":"hyazzz","steam_id":76561199100342013,"connected_time":3391000000000,"state":"active","ping":90},{"user_id":237,"name":"eeebydeeby","steam_id":76561198135736718,"connected_time":131000000000,"state":"active","ping":81},{"user_id":214,"name":"mkl","steam_id":76561197986401685,"connected_time":2590000000000,"state":"active","ping":76},{"user_id":220,"name":"thrompo","steam_id":76561197996845059,"connected_time":1710000000000,"state":"active","ping":60},{"user_id":238,"name":"A Sun","steam_id":76561198142545364,"connected_time":98000000000,"state":"active","ping":70},{"user_id":138,"name":"la goblina","steam_id":76561198094225038,"connected_time":7675000000000,"state":"active","ping":50},{"user_id":223,"name":"Riltreks","steam_id":76561198800482183,"connected_time":1594000000000,"state":"active","ping":84},{"user_id":207,"name":"Adam (Cursed Confetti Creature)","steam_id":76561198317690197,"connected_time":3464000000000,"state":"active","ping":53}]},{"server_id":403,"name":"Uncletopia | Chicago | 4 | All Maps","name_short":"chi-4","host":"chi-1.us.uncletopia.com","port":27045,"enabled":true,"region":"us-central","cc":"us","latitude":41.881832,"longitude":-87.62318,"reserved":0,"last_update":"0001-01-01T00:00:00Z","name_a2s":"Uncletopia | Chicago | 4 | All Maps","protocol":17,"map":"cp_altitude","folder":"tf","game":"Team Fortress","app_id":440,"player_count":23,"max_players":24,"Bots":0,"server_type":"Dedicated","server_os":"Linux","password":true,"vac":true,"version":"7961495","steam_id":85568392924515193,"keywords":["cp","nocrits","nodmgspread","uncletopia"],"game_id":440,"stv_port":27046,"stv_name":"Uncletopia | Chicago | 4 | All Maps | STV","players":[{"user_id":295,"name":"Cogenheimer","steam_id":76561198146321550,"connected_time":5345000000000,"state":"active","ping":84},{"user_id":379,"name":"John Xina","steam_id":76561198350649871,"connected_time":882000000000,"state":"active","ping":97},{"user_id":393,"name":"cardsfish","steam_id":76561199195316687,"connected_time":50000000000,"state":"active","ping":58},{"user_id":385,"name":"49belowzero","steam_id":76561198108177252,"connected_time":288000000000,"state":"active","ping":91},{"user_id":298,"name":"IsleBound","steam_id":76561198278451717,"connected_time":5297000000000,"state":"active","ping":59},{"user_id":299,"name":"Walka","steam_id":76561198074325951,"connected_time":5245000000000,"state":"active","ping":74},{"user_id":395,"name":"TheOnlyDj101","steam_id":76561198798152859,"connected_time":11000000000,"state":"spawning","ping":46},{"user_id":392,"name":"penguinlord","steam_id":76561198305192692,"connected_time":53000000000,"state":"spawning","ping":113},{"user_id":382,"name":"deaf and bad","steam_id":76561199011865268,"connected_time":523000000000,"state":"active","ping":55},{"user_id":386,"name":"Mailguy","steam_id":76561199066183834,"connected_time":275000000000,"state":"active","ping":55},{"user_id":390,"name":"a bellhop","steam_id":76561198046797995,"connected_time":119000000000,"state":"active","ping":66},{"user_id":389,"name":"zephyr","steam_id":76561198436431109,"connected_time":191000000000,"state":"active","ping":100},{"user_id":344,"name":"Thot Patrol","steam_id":76561198026003193,"connected_time":2394000000000,"state":"active","ping":61},{"user_id":372,"name":"thetroupegang","steam_id":76561198340510098,"connected_time":1068000000000,"state":"active","ping":72},{"user_id":341,"name":"HasheM","steam_id":76561198090308879,"connected_time":2687000000000,"state":"active","ping":132},{"user_id":301,"name":"jello","steam_id":76561199274158922,"connected_time":5166000000000,"state":"active","ping":104},{"user_id":351,"name":"Ejaculation Zach","steam_id":76561198203765200,"connected_time":1942000000000,"state":"active","ping":63},{"user_id":394,"name":"cookiecaker69","steam_id":76561199471302893,"connected_time":28000000000,"state":"active","ping":243},{"user_id":357,"name":"Thequirka","steam_id":76561198968058652,"connected_time":1746000000000,"state":"active","ping":95},{"user_id":359,"name":"lwyr","steam_id":76561198007982579,"connected_time":1724000000000,"state":"active","ping":60},{"user_id":377,"name":"Piss Man","steam_id":76561199446367874,"connected_time":989000000000,"state":"active","ping":47},{"user_id":371,"name":"Baby gaming","steam_id":76561198867319323,"connected_time":1127000000000,"state":"active","ping":61},{"user_id":378,"name":"Sultan","steam_id":76561198447852406,"connected_time":948000000000,"state":"active","ping":188}]},{"server_id":36,"name":"Uncletopia | Chicago | 5 | All Maps","name_short":"chi-5","host":"chi-2.us.uncletopia.com","port":27015,"enabled":true,"region":"us-central","cc":"us","latitude":41.881832,"longitude":-87.62318,"reserved":0,"last_update":"0001-01-01T00:00:00Z","name_a2s":"Uncletopia | Chicago | 5 | All Maps","protocol":17,"map":"koth_viaduct","folder":"tf","game":"Team Fortress","app_id":440,"player_count":8,"max_players":24,"Bots":0,"server_type":"Dedicated","server_os":"Linux","password":true,"vac":true,"version":"7961495","steam_id":85568392924866362,"keywords":["cp","nocrits","nodmgspread","uncletopia"],"game_id":440,"stv_port":27016,"stv_name":"Uncletopia | Chicago | 5 | All Maps | STV","players":[{"user_id":36,"name":"Stomp","steam_id":76561198167765748,"connected_time":966000000000,"state":"active","ping":45},{"user_id":40,"name":"Jetty","steam_id":76561198004885583,"connected_time":295000000000,"state":"active","ping":61},{"user_id":28,"name":"Drewey","steam_id":76561199258609863,"connected_time":1309000000000,"state":"active","ping":50},{"user_id":38,"name":"hellishBells","steam_id":76561199118782381,"connected_time":738000000000,"state":"active","ping":64},{"user_id":35,"name":"caption cool","steam_id":76561197990612056,"connected_time":1113000000000,"state":"active","ping":39},{"user_id":39,"name":"KittySlayer","steam_id":76561199230811439,"connected_time":666000000000,"state":"active","ping":74},{"user_id":41,"name":"ShoottheEngineer‚Ñ¢","steam_id":76561198354917827,"connected_time":218000000000,"state":"active","ping":87},{"user_id":42,"name":"Ethanol","steam_id":76561198252600202,"connected_time":4000000000,"state":"spawning","ping":44}]},{"server_id":37,"name":"Uncletopia | Chicago | 6 | All Maps","name_short":"chi-6","host":"chi-2.us.uncletopia.com","port":27025,"enabled":true,"region":"us-central","cc":"us","latitude":41.881832,"longitude":-87.62318,"reserved":0,"last_update":"0001-01-01T00:00:00Z","name_a2s":"Uncletopia | Chicago | 6 | All Maps","protocol":17,"map":"pl_frontier_final","folder":"tf","game":"Team Fortress","app_id":440,"player_count":24,"max_players":24,"Bots":0,"server_type":"Dedicated","server_os":"Linux","password":true,"vac":true,"version":"7961495","steam_id":85568392924866363,"keywords":["nocrits","nodmgspread","payload","uncletopia"],"game_id":440,"stv_port":27026,"stv_name":"Uncletopia | Chicago | 6 | All Maps | STV","players":[{"user_id":232,"name":"josh","steam_id":76561198110063909,"connected_time":598000000000,"state":"active","ping":76},{"user_id":201,"name":"BucketOfGondor","steam_id":76561198313660223,"connected_time":2364000000000,"state":"active","ping":73},{"user_id":199,"name":"Black_chestnut","steam_id":76561198155524915,"connected_time":2562000000000,"state":"active","ping":86},{"user_id":188,"name":"the.land.of.avalon","steam_id":76561198245431668,"connected_time":3399000000000,"state":"active","ping":70},{"user_id":189,"name":"itsPanzerPanda","steam_id":76561199441946346,"connected_time":3059000000000,"state":"active","ping":56},{"user_id":216,"name":"twizted","steam_id":76561197960407274,"connected_time":1373000000000,"state":"active","ping":81},{"user_id":237,"name":"Stoopnagle","steam_id":76561198011942560,"connected_time":155000000000,"state":"active","ping":84},{"user_id":238,"name":"Mr. Sauce","steam_id":76561198055512324,"connected_time":69000000000,"state":"active","ping":67},{"user_id":226,"name":"AndrewNursh","steam_id":76561199155538700,"connected_time":748000000000,"state":"active","ping":70},{"user_id":156,"name":"Ojen","steam_id":76561197998414482,"connected_time":4709000000000,"state":"active","ping":68},{"user_id":239,"name":"dingus deluxe","steam_id":76561198834355366,"connected_time":67000000000,"state":"active","ping":101},{"user_id":227,"name":"Tags3","steam_id":76561198115926329,"connected_time":741000000000,"state":"active","ping":70},{"user_id":233,"name":"lukiss","steam_id":76561199134999203,"connected_time":539000000000,"state":"active","ping":87},{"user_id":217,"name":"Renkawa Cherino","steam_id":76561198096562569,"connected_time":1346000000000,"state":"active","ping":70},{"user_id":230,"name":"Tokey","steam_id":76561198825943127,"connected_time":664000000000,"state":"active","ping":96},{"user_id":195,"name":"Gunkpump","steam_id":76561197975794806,"connected_time":2671000000000,"state":"active","ping":87},{"user_id":236,"name":"Mega Madness","steam_id":76561198204862037,"connected_time":392000000000,"state":"active","ping":71},{"user_id":183,"name":"The_Epic_Conclusion","steam_id":76561198084250179,"connected_time":3657000000000,"state":"active","ping":74},{"user_id":234,"name":"Huntra","steam_id":76561198058053288,"connected_time":470000000000,"state":"active","ping":81},{"user_id":141,"name":"Top Frog","steam_id":76561198072793446,"connected_time":5501000000000,"state":"active","ping":85},{"user_id":220,"name":"AJTarcza","steam_id":76561198070800190,"connected_time":984000000000,"state":"active","ping":90},{"user_id":212,"name":"Flowers","steam_id":76561198031669899,"connected_time":1608000000000,"state":"active","ping":87},{"user_id":200,"name":"Dr.BendyBones","steam_id":76561198048846641,"connected_time":2482000000000,"state":"active","ping":67},{"user_id":223,"name":"Aglovail","steam_id":76561198276988844,"connected_time":866000000000,"state":"active","ping":100}]},{"server_id":38,"name":"Uncletopia | Chicago | 7 | Stopwatch","name_short":"chi-7","host":"chi-2.us.uncletopia.com","port":27035,"enabled":true,"region":"us-central","cc":"us","latitude":41.881832,"longitude":-87.62318,"reserved":0,"last_update":"0001-01-01T00:00:00Z","name_a2s":"Uncletopia | Chicago | 7 | Stopwatch","protocol":17,"map":"pl_badwater","folder":"tf","game":"Team Fortress","app_id":440,"player_count":0,"max_players":24,"Bots":0,"server_type":"Dedicated","server_os":"Linux","password":true,"vac":true,"version":"7961495","steam_id":85568392924866364,"keywords":["nocrits","nodmgspread","payload","uncletopia"],"game_id":440,"stv_port":27036,"stv_name":"Uncletopia | Chicago | 7 | Stopwatch | STV","players":null},{"server_id":39,"name":"Uncletopia | Chicago | 8 | Community","name_short":"chi-8","host":"chi-2.us.uncletopia.com","port":27045,"enabled":true,"region":"us-central","cc":"us","latitude":41.881832,"longitude":-87.62318,"reserved":0,"last_update":"0001-01-01T00:00:00Z","name_a2s":"Uncletopia | Chicago | 8 | Community","protocol":17,"map":"workshop/pl_cashworks_final1.ugc2904065412","folder":"tf","game":"Team Fortress","app_id":440,"player_count":0,"max_players":24,"Bots":0,"server_type":"Dedicated","server_os":"Linux","password":true,"vac":true,"version":"7961495","steam_id":85568392924866365,"keywords":["nocrits","nodmgspread","payload","uncletopia"],"game_id":440,"stv_port":27046,"stv_name":"Uncletopia | Chicago | 8 | Community | STV","players":null},{"server_id":8,"name":"Uncletopia | Dallas | 1 | All Maps","name_short":"dal-1","host":"dal-1.us.uncletopia.com","port":27015,"enabled":true,"region":"us-central","cc":"us","latitude":32.779167,"longitude":-96.80889,"reserved":0,"last_update":"0001-01-01T00:00:00Z","name_a2s":"Uncletopia | Dallas | 1 | All Maps","protocol":17,"map":"koth_lakeside_final","folder":"tf","game":"Team Fortress","app_id":440,"player_count":24,"max_players":24,"Bots":0,"server_type":"Dedicated","server_os":"Linux","password":true,"vac":true,"version":"7961495","steam_id":85568392924469986,"keywords":["cp","nocrits","nodmgspread","uncletopia"],"game_id":440,"stv_port":27016,"stv_name":"Uncletopia | Dallas | 1 | All Maps | STV","players":[{"user_id":69,"name":"Dragon Mommy from Caelid","steam_id":76561198338424715,"connected_time":6949000000000,"state":"active","ping":85},{"user_id":158,"name":"makotothompson","steam_id":76561199012033756,"connected_time":20000000000,"state":"active","ping":73},{"user_id":134,"name":"„ÇØ„Ç±„Ç§","steam_id":76561198215122444,"connected_time":2001000000000,"state":"active","ping":69},{"user_id":142,"name":"dog","steam_id":76561198263873491,"connected_time":604000000000,"state":"active","ping":59},{"user_id":121,"name":"Easey","steam_id":76561198230316868,"connected_time":2512000000000,"state":"active","ping":62},{"user_id":112,"name":"Frank Fortain","steam_id":76561198953613972,"connected_time":3616000000000,"state":"active","ping":46},{"user_id":117,"name":"Pancho","steam_id":76561198155847264,"connected_time":3089000000000,"state":"active","ping":56},{"user_id":143,"name":"sandwich artist","steam_id":76561198070635731,"connected_time":573000000000,"state":"active","ping":61},{"user_id":153,"name":"radicalPolio","steam_id":76561197961561855,"connected_time":373000000000,"state":"active","ping":46},{"user_id":144,"name":"walterg","steam_id":76561199500444784,"connected_time":572000000000,"state":"active","ping":96},{"user_id":135,"name":"schmuck","steam_id":76561198143789773,"connected_time":1869000000000,"state":"active","ping":50},{"user_id":155,"name":"MINILEGOLAS","steam_id":76561198859362058,"connected_time":268000000000,"state":"active","ping":84},{"user_id":146,"name":"Zaz","steam_id":76561198140587647,"connected_time":553000000000,"state":"active","ping":73},{"user_id":119,"name":"FanaticSalt","steam_id":76561199380123059,"connected_time":2724000000000,"state":"active","ping":49},{"user_id":152,"name":"Lobstyr","steam_id":76561198884406859,"connected_time":410000000000,"state":"active","ping":78},{"user_id":139,"name":"Stormwind","steam_id":76561198088927550,"connected_time":1031000000000,"state":"active","ping":112},{"user_id":147,"name":"Goblin Gaming","steam_id":76561198280861067,"connected_time":544000000000,"state":"active","ping":99},{"user_id":148,"name":"Alchemist","steam_id":76561198094238189,"connected_time":518000000000,"state":"active","ping":74},{"user_id":154,"name":"Marge \"ZaZa\" Simpson","steam_id":76561198156496197,"connected_time":365000000000,"state":"active","ping":78},{"user_id":159,"name":"Evil little man","steam_id":76561198311053471,"connected_time":6000000000,"state":"active","ping":269},{"user_id":66,"name":"Rat God","steam_id":76561198066161598,"connected_time":7360000000000,"state":"active","ping":82},{"user_id":157,"name":"UrFavFemboy","steam_id":76561199140460467,"connected_time":25000000000,"state":"active","ping":180},{"user_id":65,"name":"Kantamoe","steam_id":76561198046661611,"connected_time":7437000000000,"state":"active","ping":79},{"user_id":131,"name":"the munch","steam_id":76561199164347838,"connected_time":2206000000000,"state":"active","ping":70}]},{"server_id":108,"name":"Uncletopia | Dallas | 2 | All Maps","name_short":"dal-2","host":"dal-1.us.uncletopia.com","port":27025,"enabled":true,"region":"us-central","cc":"us","latitude":32.779167,"longitude":-96.80889,"reserved":0,"last_update":"0001-01-01T00:00:00Z","name_a2s":"Uncletopia | Dallas | 2 | All Maps","protocol":17,"map":"koth_lakeside_final","folder":"tf","game":"Team Fortress","app_id":440,"player_count":24,"max_players":24,"Bots":0,"server_type":"Dedicated","server_os":"Linux","password":true,"vac":true,"version":"7961495","steam_id":85568392924469988,"keywords":["cp","nocrits","nodmgspread","uncletopia"],"game_id":440,"stv_port":27026,"stv_name":"Uncletopia | Dallas | 2 | All Maps | STV","players":[{"user_id":242,"name":"Tomatanator","steam_id":76561198993330383,"connected_time":792000000000,"state":"active","ping":75},{"user_id":236,"name":"Genius Meme","steam_id":76561198162911254,"connected_time":855000000000,"state":"active","ping":84},{"user_id":252,"name":"Rayquaza232","steam_id":76561198165597435,"connected_time":192000000000,"state":"active","ping":91},{"user_id":210,"name":"ihave80hp","steam_id":76561199251621911,"connected_time":3428000000000,"state":"active","ping":69},{"user_id":251,"name":"AmericanMan","steam_id":76561198399814560,"connected_time":219000000000,"state":"active","ping":103},{"user_id":256,"name":"ShadowWasUhOh","steam_id":76561198400361935,"connected_time":36000000000,"state":"active","ping":79},{"user_id":203,"name":"captain red","steam_id":76561198191587983,"connected_time":3466000000000,"state":"active","ping":69},{"user_id":224,"name":"Steel Tombstone","steam_id":76561199160542103,"connected_time":1946000000000,"state":"active","ping":75},{"user_id":257,"name":"Chaotic Rushu","steam_id":76561198170054407,"connected_time":2000000000,"state":"spawning","ping":87},{"user_id":237,"name":"NGsterson","steam_id":76561198162108154,"connected_time":851000000000,"state":"active","ping":108},{"user_id":239,"name":"Menacing","steam_id":76561198009093788,"connected_time":807000000000,"state":"active","ping":47},{"user_id":240,"name":"Charles","steam_id":76561198155322277,"connected_time":802000000000,"state":"active","ping":114},{"user_id":247,"name":"lonely fortnite gamer girl","steam_id":76561198272948471,"connected_time":291000000000,"state":"active","ping":82},{"user_id":230,"name":"Blitzoetic","steam_id":76561198053239412,"connected_time":1381000000000,"state":"active","ping":94},{"user_id":246,"name":"amaz","steam_id":76561198386233160,"connected_time":322000000000,"state":"active","ping":61},{"user_id":227,"name":"+","steam_id":76561198262422184,"connected_time":1532000000000,"state":"active","ping":49},{"user_id":167,"name":"Shipmunk","steam_id":76561198063062670,"connected_time":5916000000000,"state":"active","ping":81},{"user_id":234,"name":"Arthur SSJ2","steam_id":76561198043678479,"connected_time":1040000000000,"state":"active","ping":75},{"user_id":241,"name":"‚ù§Breadshot (She)‚ù§","steam_id":76561199005756738,"connected_time":801000000000,"state":"active","ping":75},{"user_id":201,"name":"antoniov00gaming","steam_id":76561198364632073,"connected_time":3697000000000,"state":"active","ping":85},{"user_id":243,"name":"lmfaoo","steam_id":76561198305201458,"connected_time":691000000000,"state":"active","ping":128},{"user_id":182,"name":"trash beast","steam_id":76561198015792736,"connected_time":4954000000000,"state":"active","ping":77},{"user_id":255,"name":"Dirtbike rider","steam_id":76561198030457066,"connected_time":76000000000,"state":"active","ping":70},{"user_id":222,"name":"Toasterduds","steam_id":76561198163477584,"connected_time":2027000000000,"state":"active","ping":85}]},{"server_id":404,"name":"Uncletopia | Dallas | 3 | All Maps","name_short":"dal-3","host":"dal-1.us.uncletopia.com","port":27035,"enabled":true,"region":"us-central","cc":"us","latitude":32.779167,"longitude":-96.80889,"reserved":0,"last_update":"0001-01-01T00:00:00Z","name_a2s":"Uncletopia | Dallas | 3 | All Maps","protocol":17,"map":"pl_borneo","folder":"tf","game":"Team Fortress","app_id":440,"player_count":25,"max_players":24,"Bots":0,"server_type":"Dedicated","server_os":"Linux","password":true,"vac":true,"version":"7961495","steam_id":85568392924515219,"keywords":["nocrits","nodmgspread","payload","uncletopia"],"game_id":440,"stv_port":27036,"stv_name":"Uncletopia | Dallas | 3 | All Maps | STV","players":[{"user_id":532,"name":"Dqzz","steam_id":76561199440761155,"connected_time":851000000000,"state":"active","ping":101},{"user_id":523,"name":"Fostrel","steam_id":76561198152160601,"connected_time":1715000000000,"state":"active","ping":55},{"user_id":535,"name":"The All-Seeing Tim","steam_id":76561198075510786,"connected_time":528000000000,"state":"active","ping":63},{"user_id":514,"name":"Silly Shark","steam_id":76561198130714378,"connected_time":2466000000000,"state":"active","ping":113},{"user_id":516,"name":"skidmark mafia","steam_id":76561198288604502,"connected_time":2361000000000,"state":"active","ping":100},{"user_id":517,"name":"Gas Can","steam_id":76561198162853003,"connected_time":2324000000000,"state":"active","ping":115},{"user_id":542,"name":"TheBrocklobster","steam_id":76561198039682984,"connected_time":47000000000,"state":"active","ping":87},{"user_id":503,"name":"NeoWolf","steam_id":76561198144759784,"connected_time":3025000000000,"state":"active","ping":99},{"user_id":456,"name":"Ockulus","steam_id":76561199069638460,"connected_time":5467000000000,"state":"active","ping":86},{"user_id":496,"name":"Badgino56","steam_id":76561198146547214,"connected_time":3241000000000,"state":"active","ping":125},{"user_id":508,"name":"Exidy","steam_id":76561198036216584,"connected_time":2724000000000,"state":"active","ping":90},{"user_id":522,"name":"Goblin Merchant (50 OFF)","steam_id":76561199323707429,"connected_time":2004000000000,"state":"active","ping":88},{"user_id":510,"name":"Elias","steam_id":76561198106431732,"connected_time":2567000000000,"state":"active","ping":60},{"user_id":525,"name":"maxer","steam_id":76561198121514123,"connected_time":1692000000000,"state":"active","ping":108},{"user_id":537,"name":"nella","steam_id":76561198079349621,"connected_time":202000000000,"state":"active","ping":85},{"user_id":462,"name":"Lord_Dabbatron","steam_id":76561199058480985,"connected_time":5266000000000,"state":"active","ping":57},{"user_id":515,"name":"BobRossDaMobBoss","steam_id":76561198799262066,"connected_time":2458000000000,"state":"active","ping":104},{"user_id":536,"name":"PTSleepyHead","steam_id":76561198037748705,"connected_time":213000000000,"state":"active","ping":69},{"user_id":527,"name":"DRACO$","steam_id":76561198389198223,"connected_time":1636000000000,"state":"active","ping":99},{"user_id":465,"name":"astrobob911","steam_id":76561199099110654,"connected_time":5215000000000,"state":"active","ping":102},{"user_id":539,"name":"Bankito","steam_id":76561198972260865,"connected_time":116000000000,"state":"active","ping":99},{"user_id":543,"name":"Pip","steam_id":76561199069629037,"connected_time":13000000000,"state":"spawning","ping":94},{"user_id":533,"name":"mafu","steam_id":76561198028028045,"connected_time":697000000000,"state":"active","ping":78},{"user_id":529,"name":"james_bondage","steam_id":76561199476062624,"connected_time":1608000000000,"state":"active","ping":107},{"user_id":540,"name":"Avid Tomato Hater","steam_id":76561198062459671,"connected_time":116000000000,"state":"active","ping":84}]},{"server_id":405,"name":"Uncletopia | Dallas | 4 | Community","name_short":"dal-4","host":"dal-1.us.uncletopia.com","port":27045,"enabled":true,"region":"us-central","cc":"us","latitude":32.779167,"longitude":-96.80889,"reserved":0,"last_update":"0001-01-01T00:00:00Z","name_a2s":"Uncletopia | Dallas | 4 | Community","protocol":17,"map":"workshop/cp_caldera_rc3.ugc2834196889","folder":"tf","game":"Team Fortress","app_id":440,"player_count":0,"max_players":24,"Bots":0,"server_type":"Dedicated","server_os":"Linux","password":true,"vac":true,"version":"7961495","steam_id":85568392924515220,"keywords":["cp","nocrits","nodmgspread","uncletopia"],"game_id":440,"stv_port":27046,"stv_name":"Uncletopia | Dallas | 4 | Community | STV","players":null},{"server_id":5,"name":"Uncletopia | Frankfurt | 1 | All Maps","name_short":"frk-1","host":"frk-1.de.uncletopia.com","port":27015,"enabled":true,"region":"eu","cc":"de","latitude":50.110924,"longitude":8.682127,"reserved":0,"last_update":"0001-01-01T00:00:00Z","name_a2s":"Uncletopia | Frankfurt | 1 | All Maps","protocol":17,"map":"pl_frontier_final","folder":"tf","game":"Team Fortress","app_id":440,"player_count":23,"max_players":24,"Bots":0,"server_type":"Dedicated","server_os":"Linux","password":true,"vac":true,"version":"7961495","steam_id":85568392924469989,"keywords":["nocrits","nodmgspread","payload","uncletopia"],"game_id":440,"stv_port":27016,"stv_name":"Uncletopia | Frankfurt | 1 | All Maps | STV","players":[{"user_id":796,"name":"Suetolog","steam_id":76561199053090212,"connected_time":851000000000,"state":"active","ping":50},{"user_id":748,"name":"SNEAKY TURTLE","steam_id":76561198172177650,"connected_time":6233000000000,"state":"active","ping":77},{"user_id":759,"name":"henrique_best","steam_id":76561199317304919,"connected_time":5213000000000,"state":"active","ping":78},{"user_id":799,"name":"Bengt","steam_id":76561198176294323,"connected_time":191000000000,"state":"active","ping":65},{"user_id":797,"name":"aolkdi","steam_id":76561198025479415,"connected_time":810000000000,"state":"active","ping":126},{"user_id":793,"name":"Duke Fishlord","steam_id":76561198079928327,"connected_time":876000000000,"state":"active","ping":57},{"user_id":761,"name":"bilgobaggings","steam_id":76561198041520751,"connected_time":5193000000000,"state":"active","ping":57},{"user_id":794,"name":"Spikejaw Baxter","steam_id":76561198035667332,"connected_time":875000000000,"state":"active","ping":176},{"user_id":779,"name":"TOKOZACKO","steam_id":76561198125163526,"connected_time":3021000000000,"state":"active","ping":83},{"user_id":782,"name":"Floris","steam_id":76561198001717422,"connected_time":2258000000000,"state":"active","ping":53},{"user_id":792,"name":"guyava","steam_id":76561198046229680,"connected_time":900000000000,"state":"active","ping":101},{"user_id":775,"name":"Yelowchy","steam_id":76561198199416121,"connected_time":4023000000000,"state":"active","ping":60},{"user_id":787,"name":"Harry","steam_id":76561198046899720,"connected_time":2155000000000,"state":"active","ping":60},{"user_id":789,"name":"wG auto","steam_id":76561198062247888,"connected_time":1732000000000,"state":"active","ping":71},{"user_id":765,"name":"Arthur","steam_id":76561198066109166,"connected_time":5169000000000,"state":"active","ping":75},{"user_id":780,"name":"Scout","steam_id":76561198992898803,"connected_time":2456000000000,"state":"active","ping":68},{"user_id":798,"name":"rummy","steam_id":76561197997573379,"connected_time":704000000000,"state":"active","ping":46},{"user_id":737,"name":"Snowmotion","steam_id":76561198075022454,"connected_time":7075000000000,"state":"active","ping":59},{"user_id":754,"name":"jjkun786","steam_id":76561199438517484,"connected_time":6072000000000,"state":"active","ping":86},{"user_id":790,"name":"cansado","steam_id":76561198003898089,"connected_time":1716000000000,"state":"active","ping":77},{"user_id":791,"name":"benjels big day","steam_id":76561198025970709,"connected_time":1239000000000,"state":"active","ping":51},{"user_id":750,"name":"F2P Challenge","steam_id":76561199498773639,"connected_time":6217000000000,"state":"active","ping":64},{"user_id":795,"name":"üöΩKorfJobüöΩ","steam_id":76561198212932833,"connected_time":874000000000,"state":"active","ping":88}]},{"server_id":110,"name":"Uncletopia | Frankfurt | 2 | All Maps","name_short":"frk-2","host":"frk-1.de.uncletopia.com","port":27025,"enabled":true,"region":"eu","cc":"de","latitude":50.110924,"longitude":8.682127,"reserved":0,"last_update":"0001-01-01T00:00:00Z","name_a2s":"Uncletopia | Frankfurt | 2 | All Maps","protocol":17,"map":"pl_barnblitz","folder":"tf","game":"Team Fortress","app_id":440,"player_count":0,"max_players":24,"Bots":0,"server_type":"Dedicated","server_os":"Linux","password":true,"vac":true,"version":"7961495","steam_id":85568392924469990,"keywords":["nocrits","nodmgspread","payload","uncletopia"],"game_id":440,"stv_port":27026,"stv_name":"Uncletopia | Frankfurt | 2 | All Maps | STV","players":null},{"server_id":308,"name":"Uncletopia | Frankfurt | 3 | All Maps","name_short":"frk-3","host":"frk-1.de.uncletopia.com","port":27035,"enabled":true,"region":"eu","cc":"de","latitude":50.110924,"longitude":8.682127,"reserved":0,"last_update":"0001-01-01T00:00:00Z","name_a2s":"Uncletopia | Frankfurt | 3 | All Maps","protocol":17,"map":"cp_steel","folder":"tf","game":"Team Fortress","app_id":440,"player_count":17,"max_players":24,"Bots":0,"server_type":"Dedicated","server_os":"Linux","password":true,"vac":true,"version":"7961495","steam_id":85568392924504274,"keywords":["cp","nocrits","nodmgspread","uncletopia"],"game_id":440,"stv_port":27036,"stv_name":"Uncletopia | Frankfurt | 3 | All Maps | STV","players":[{"user_id":381,"name":"SlikeDollar","steam_id":76561199092295526,"connected_time":56000000000,"state":"active","ping":60},{"user_id":369,"name":"tapeworms!","steam_id":76561198069649097,"connected_time":1032000000000,"state":"active","ping":74},{"user_id":356,"name":"pezza","steam_id":76561197995173247,"connected_time":2249000000000,"state":"active","ping":71},{"user_id":359,"name":"peeka","steam_id":76561198221122068,"connected_time":1923000000000,"state":"active","ping":63},{"user_id":382,"name":"Larry Penus","steam_id":76561198207546233,"connected_time":44000000000,"state":"active","ping":47},{"user_id":361,"name":"sticks","steam_id":76561198127099299,"connected_time":1768000000000,"state":"active","ping":46},{"user_id":383,"name":"kelvindavid121","steam_id":76561199010489413,"connected_time":1000000000,"state":"spawning","ping":103},{"user_id":362,"name":"HotWater250","steam_id":76561198175014665,"connected_time":1761000000000,"state":"active","ping":53},{"user_id":366,"name":"Lukero","steam_id":76561198301594341,"connected_time":1148000000000,"state":"active","ping":71},{"user_id":370,"name":"CatInTheFestiveHat","steam_id":76561198096468920,"connected_time":868000000000,"state":"active","ping":45},{"user_id":371,"name":"Skip ‚ô•","steam_id":76561198197425385,"connected_time":853000000000,"state":"active","ping":61},{"user_id":373,"name":"Iris","steam_id":76561198430295815,"connected_time":772000000000,"state":"active","ping":68},{"user_id":379,"name":"semplisimohome","steam_id":76561198019977257,"connected_time":310000000000,"state":"active","ping":75},{"user_id":376,"name":"Maddie","steam_id":76561198870966488,"connected_time":365000000000,"state":"active","ping":86},{"user_id":377,"name":"Immortalyes","steam_id":76561198050800698,"connected_time":364000000000,"state":"active","ping":77},{"user_id":378,"name":"*joji - tick tock plays*","steam_id":76561198276654092,"connected_time":321000000000,"state":"active","ping":89},{"user_id":380,"name":"Rev0lved | tacobot.tf","steam_id":76561198422260456,"connected_time":262000000000,"state":"active","ping":47}]},{"server_id":309,"name":"Uncletopia | Frankfurt | 4 | All Maps","name_short":"frk-4","host":"frk-1.de.uncletopia.com","port":27045,"enabled":true,"region":"eu","cc":"de","latitude":50.110924,"longitude":8.682127,"reserved":0,"last_update":"0001-01-01T00:00:00Z","name_a2s":"Uncletopia | Frankfurt | 4 | All Maps","protocol":17,"map":"cp_process_final","folder":"tf","game":"Team Fortress","app_id":440,"player_count":0,"max_players":24,"Bots":0,"server_type":"Dedicated","server_os":"Linux","password":true,"vac":true,"version":"7961495","steam_id":85568392924504275,"keywords":["cp","nocrits","nodmgspread","uncletopia"],"game_id":440,"stv_port":27046,"stv_name":"Uncletopia | Frankfurt | 4 | All Maps | STV","players":null},{"server_id":310,"name":"Uncletopia | Frankfurt | 5 | All Maps","name_short":"frk-5","host":"frk-1.de.uncletopia.com","port":27055,"enabled":true,"region":"eu","cc":"de","latitude":50.110924,"longitude":8.682127,"reserved":0,"last_update":"0001-01-01T00:00:00Z","name_a2s":"Uncletopia | Frankfurt | 5 | All Maps","protocol":17,"map":"cp_process_final","folder":"tf","game":"Team Fortress","app_id":440,"player_count":0,"max_players":24,"Bots":0,"server_type":"Dedicated","server_os":"Linux","password":true,"vac":true,"version":"7961495","steam_id":85568392924504277,"keywords":["cp","nocrits","nodmgspread","uncletopia"],"game_id":440,"stv_port":27056,"stv_name":"Uncletopia | Frankfurt | 5 | All Maps | STV","players":null},{"server_id":311,"name":"Uncletopia | Frankfurt | 6 | All Maps","name_short":"frk-6","host":"frk-1.de.uncletopia.com","port":27065,"enabled":true,"region":"eu","cc":"de","latitude":50.110924,"longitude":8.682127,"reserved":0,"last_update":"0001-01-01T00:00:00Z","name_a2s":"Uncletopia | Frankfurt | 6 | All Maps","protocol":17,"map":"pl_swiftwater_final1","folder":"tf","game":"Team Fortress","app_id":440,"player_count":24,"max_players":24,"Bots":0,"server_type":"Dedicated","server_os":"Linux","password":true,"vac":true,"version":"7961495","steam_id":85568392924504278,"keywords":["nocrits","nodmgspread","payload","uncletopia"],"game_id":440,"stv_port":27066,"stv_name":"Uncletopia | Frankfurt | 6 | All Maps | STV","players":[{"user_id":251,"name":"Zamorocian","steam_id":76561198076604017,"connected_time":9169000000000,"state":"active","ping":54},{"user_id":342,"name":"SeaKane","steam_id":76561198165453318,"connected_time":2561000000000,"state":"active","ping":54},{"user_id":357,"name":"◊ê◊ë◊ê","steam_id":76561198184360615,"connected_time":1308000000000,"state":"active","ping":90},{"user_id":315,"name":"Tose√≠na","steam_id":76561198107652375,"connected_time":4188000000000,"state":"active","ping":51},{"user_id":360,"name":"Labia in Fishnets","steam_id":76561198061382104,"connected_time":1295000000000,"state":"active","ping":60},{"user_id":373,"name":"bin","steam_id":76561198085163975,"connected_time":265000000000,"state":"active","ping":60},{"user_id":272,"name":"skam","steam_id":76561198393181352,"connected_time":6936000000000,"state":"active","ping":80},{"user_id":371,"name":"C++, Git and Linux Enjoyer","steam_id":76561198277310442,"connected_time":289000000000,"state":"active","ping":60},{"user_id":323,"name":"Prawo Jazdy","steam_id":76561198121589024,"connected_time":3977000000000,"state":"active","ping":74},{"user_id":345,"name":"Nomakh","steam_id":76561198096414653,"connected_time":2355000000000,"state":"active","ping":80},{"user_id":341,"name":"Killer Fish from San Diego","steam_id":76561198209223023,"connected_time":2580000000000,"state":"active","ping":60},{"user_id":346,"name":"chillrend_morphs_high_lod6","steam_id":76561198452963141,"connected_time":2350000000000,"state":"active","ping":75},{"user_id":326,"name":"flip flop man(Lee)","steam_id":76561198374860339,"connected_time":3906000000000,"state":"active","ping":63},{"user_id":304,"name":"Stefman","steam_id":76561199025104038,"connected_time":4970000000000,"state":"active","ping":60},{"user_id":370,"name":"mun (^o^)/","steam_id":76561198389852292,"connected_time":490000000000,"state":"active","ping":125},{"user_id":375,"name":"GGlut","steam_id":76561198034281473,"connected_time":92000000000,"state":"active","ping":34},{"user_id":366,"name":"Scottish Resistance","steam_id":76561198071360214,"connected_time":714000000000,"state":"active","ping":45},{"user_id":364,"name":"McCamuga","steam_id":76561198059806422,"connected_time":981000000000,"state":"active","ping":57},{"user_id":374,"name":"Wolfdad Duke","steam_id":76561197986442930,"connected_time":155000000000,"state":"active","ping":60},{"user_id":353,"name":"Endi","steam_id":76561198914938199,"connected_time":1893000000000,"state":"active","ping":92},{"user_id":365,"name":"tomydjoh","steam_id":76561198077421906,"connected_time":897000000000,"state":"active","ping":51},{"user_id":350,"name":"·õÄ·ö©·õè ·õñ·õû·ö∑·ö§","steam_id":76561198842950723,"connected_time":2174000000000,"state":"active","ping":86},{"user_id":355,"name":"Chad Senko Fan","steam_id":76561199082919724,"connected_time":1657000000000,"state":"active","ping":160},{"user_id":369,"name":"Moffy The Femboy ‚ù§","steam_id":76561199068915917,"connected_time":570000000000,"state":"active","ping":75}]},{"server_id":23,"name":"Uncletopia | Frankfurt | 7 | Stopwatch","name_short":"frk-7","host":"frk-1.de.uncletopia.com","port":27075,"enabled":true,"region":"eu","cc":"de","latitude":50.110924,"longitude":8.682127,"reserved":0,"last_update":"0001-01-01T00:00:00Z","name_a2s":"Uncletopia | Frankfurt | 7 | Stopwatch","protocol":17,"map":"koth_lakeside_final","folder":"tf","game":"Team Fortress","app_id":440,"player_count":0,"max_players":24,"Bots":0,"server_type":"Dedicated","server_os":"Linux","password":true,"vac":true,"version":"7961495","steam_id":85568392924742827,"keywords":["cp","nocrits","nodmgspread","uncletopia"],"game_id":440,"stv_port":27076,"stv_name":"Uncletopia | Frankfurt | 7 | Stopwatch | STV","players":null},{"server_id":24,"name":"Uncletopia | Frankfurt | 8 | Community","name_short":"frk-8","host":"frk-1.de.uncletopia.com","port":27085,"enabled":true,"region":"eu","cc":"de","latitude":50.110924,"longitude":8.682127,"reserved":0,"last_update":"0001-01-01T00:00:00Z","name_a2s":"Uncletopia | Frankfurt | 8 | Community","protocol":17,"map":"workshop/koth_kemptown_rc1.ugc767410655","folder":"tf","game":"Team Fortress","app_id":440,"player_count":0,"max_players":24,"Bots":0,"server_type":"Dedicated","server_os":"Linux","password":true,"vac":true,"version":"7961495","steam_id":85568392924742828,"keywords":["cp","nocrits","nodmgspread","uncletopia"],"game_id":440,"stv_port":27086,"stv_name":"Uncletopia | Frankfurt | 8 | Community | STV","players":null},{"server_id":202,"name":"Uncletopia | Hong Kong | 1 | All Maps","name_short":"hgk-1","host":"hgk-1.hk.uncletopia.com","port":27015,"enabled":true,"region":"asia","cc":"hk","latitude":22.302711,"longitude":114.177216,"reserved":0,"last_update":"0001-01-01T00:00:00Z","name_a2s":"Uncletopia | Hong Kong | 1 | All Maps","protocol":17,"map":"pl_frontier_final","folder":"tf","game":"Team Fortress","app_id":440,"player_count":0,"max_players":24,"Bots":0,"server_type":"Dedicated","server_os":"Linux","password":true,"vac":true,"version":"7961495","steam_id":85568392924494504,"keywords":["nocrits","nodmgspread","payload","uncletopia"],"game_id":440,"stv_port":27016,"stv_name":"Uncletopia | Hong Kong | 1 | All Maps | STV","players":null},{"server_id":1,"name":"Uncletopia | Los Angeles | 1 | All Maps","name_short":"lax-1","host":"lax-1.us.uncletopia.com","port":27015,"enabled":true,"region":"us-west","cc":"us","latitude":33.94279,"longitude":-118.41004,"reserved":0,"last_update":"0001-01-01T00:00:00Z","name_a2s":"Uncletopia | Los Angeles | 1 | All Maps","protocol":17,"map":"pl_swiftwater_final1","folder":"tf","game":"Team Fortress","app_id":440,"player_count":0,"max_players":24,"Bots":0,"server_type":"Dedicated","server_os":"Linux","password":true,"vac":true,"version":"7961495","steam_id":85568392924469991,"keywords":["nocrits","nodmgspread","payload","uncletopia"],"game_id":440,"stv_port":27016,"stv_name":"Uncletopia | Los Angeles | 1 | All Maps | STV","players":null},{"server_id":112,"name":"Uncletopia | Los Angeles | 2 | All Maps","name_short":"lax-2","host":"lax-1.us.uncletopia.com","port":27025,"enabled":true,"region":"us-west","cc":"us","latitude":33.94279,"longitude":-118.41004,"reserved":0,"last_update":"0001-01-01T00:00:00Z","name_a2s":"Uncletopia | Los Angeles | 2 | All Maps","protocol":17,"map":"pl_snowycoast","folder":"tf","game":"Team Fortress","app_id":440,"player_count":0,"max_players":24,"Bots":0,"server_type":"Dedicated","server_os":"Linux","password":true,"vac":true,"version":"7961495","steam_id":85568392924469992,"keywords":["nocrits","nodmgspread","payload","uncletopia"],"game_id":440,"stv_port":27026,"stv_name":"Uncletopia | Los Angeles | 2 | All Maps | STV","players":null},{"server_id":324,"name":"Uncletopia | Los Angeles | 3 | All Maps","name_short":"lax-3","host":"lax-1.us.uncletopia.com","port":27035,"enabled":true,"region":"us-west","cc":"us","latitude":33.94279,"longitude":-118.41004,"reserved":0,"last_update":"0001-01-01T00:00:00Z","name_a2s":"Uncletopia | Los Angeles | 3 | All Maps","protocol":17,"map":"koth_cascade","folder":"tf","game":"Team Fortress","app_id":440,"player_count":0,"max_players":24,"Bots":0,"server_type":"Dedicated","server_os":"Linux","password":true,"vac":true,"version":"7961495","steam_id":85568392924510198,"keywords":["cp","nocrits","nodmgspread","uncletopia"],"game_id":440,"stv_port":27036,"stv_name":"Uncletopia | Los Angeles | 3 | All Maps | STV","players":null},{"server_id":25,"name":"Uncletopia | Los Angeles | 4 | Stopwatch","name_short":"lax-4","host":"lax-1.us.uncletopia.com","port":27045,"enabled":true,"region":"us-west","cc":"us","latitude":33.94279,"longitude":-118.41004,"reserved":0,"last_update":"0001-01-01T00:00:00Z","name_a2s":"Uncletopia | Los Angeles | 4 | Stopwatch","protocol":17,"map":"pl_barnblitz","folder":"tf","game":"Team Fortress","app_id":440,"player_count":0,"max_players":24,"Bots":0,"server_type":"Dedicated","server_os":"Linux","password":true,"vac":true,"version":"7961495","steam_id":85568392924510199,"keywords":["nocrits","nodmgspread","payload","uncletopia"],"game_id":440,"stv_port":27046,"stv_name":"Uncletopia | Los Angeles | 4 | Stopwatch | STV","players":null},{"server_id":11,"name":"Uncletopia | London | 1 | All Maps","name_short":"lon-1","host":"lon-1.uk.uncletopia.com","port":27015,"enabled":true,"region":"eu","cc":"gb","latitude":51.509865,"longitude":-0.118092,"reserved":0,"last_update":"0001-01-01T00:00:00Z","name_a2s":"Uncletopia | London | 1 | All Maps","protocol":17,"map":"cp_snakewater_final1","folder":"tf","game":"Team Fortress","app_id":440,"player_count":24,"max_players":24,"Bots":0,"server_type":"Dedicated","server_os":"Linux","password":true,"vac":true,"version":"7961495","steam_id":85568392924367362,"keywords":["cp","nocrits","nodmgspread","uncletopia"],"game_id":440,"stv_port":27016,"stv_name":"Uncletopia | London | 1 | All Maps | STV","players":[{"user_id":789,"name":"KnugenIV","steam_id":76561198127091993,"connected_time":3542000000000,"state":"active","ping":56},{"user_id":820,"name":"Minimi","steam_id":76561198873850443,"connected_time":701000000000,"state":"active","ping":40},{"user_id":808,"name":"stink","steam_id":76561198099318923,"connected_time":2417000000000,"state":"active","ping":148},{"user_id":821,"name":"goff","steam_id":76561198118989010,"connected_time":697000000000,"state":"active","ping":50},{"user_id":828,"name":"NotChloe","steam_id":76561198080658092,"connected_time":576000000000,"state":"active","ping":56},{"user_id":812,"name":"beebo","steam_id":76561199120277007,"connected_time":1900000000000,"state":"active","ping":53},{"user_id":824,"name":"Vince","steam_id":76561199103000131,"connected_time":667000000000,"state":"active","ping":35},{"user_id":825,"name":"vi","steam_id":76561198303147966,"connected_time":653000000000,"state":"active","ping":46},{"user_id":822,"name":"Heinrich","steam_id":76561198063897745,"connected_time":696000000000,"state":"active","ping":77},{"user_id":829,"name":"Furious_Coder Is Quickselling!","steam_id":76561198146046621,"connected_time":508000000000,"state":"active","ping":104},{"user_id":773,"name":"SKY_","steam_id":76561198080980508,"connected_time":5873000000000,"state":"active","ping":71},{"user_id":704,"name":"Purps","steam_id":76561198053886680,"connected_time":11845000000000,"state":"active","ping":45},{"user_id":816,"name":"shooer!","steam_id":76561198110531281,"connected_time":951000000000,"state":"active","ping":72},{"user_id":733,"name":"BreadBubbles","steam_id":76561198174332826,"connected_time":8551000000000,"state":"active","ping":56},{"user_id":827,"name":"PissLord | Project Commissions","steam_id":76561198254653580,"connected_time":608000000000,"state":"active","ping":45},{"user_id":785,"name":"Slifer, The Hunter","steam_id":76561198062255803,"connected_time":4384000000000,"state":"active","ping":69},{"user_id":830,"name":"f0x","steam_id":76561198072921704,"connected_time":15000000000,"state":"active","ping":282},{"user_id":805,"name":"JulianND","steam_id":76561198074083306,"connected_time":2495000000000,"state":"active","ping":56},{"user_id":806,"name":"ScapeGoat","steam_id":76561198137868829,"connected_time":2494000000000,"state":"active","ping":54},{"user_id":823,"name":"Teslobo","steam_id":76561198178233641,"connected_time":696000000000,"state":"active","ping":47},{"user_id":811,"name":"Twa","steam_id":76561198295529541,"connected_time":2126000000000,"state":"active","ping":162},{"user_id":787,"name":"GoblinGaming w/ Pizza Tower OST","steam_id":76561198360395476,"connected_time":3666000000000,"state":"active","ping":37},{"user_id":801,"name":"sora","steam_id":76561198096547662,"connected_time":2943000000000,"state":"active","ping":52},{"user_id":770,"name":"teddy","steam_id":76561198007436837,"connected_time":5888000000000,"state":"active","ping":30}]},{"server_id":114,"name":"Uncletopia | London | 2 | All Maps","name_short":"lon-2","host":"lon-1.uk.uncletopia.com","port":27025,"enabled":true,"region":"eu","cc":"gb","latitude":51.509865,"longitude":-0.118092,"reserved":0,"last_update":"0001-01-01T00:00:00Z","name_a2s":"Uncletopia | London | 2 | All Maps","protocol":17,"map":"koth_highpass","folder":"tf","game":"Team Fortress","app_id":440,"player_count":0,"max_players":24,"Bots":0,"server_type":"Dedicated","server_os":"Linux","password":true,"vac":true,"version":"7961495","steam_id":85568392924470941,"keywords":["cp","nocrits","nodmgspread","uncletopia"],"game_id":440,"stv_port":27026,"stv_name":"Uncletopia | London | 2 | All Maps | STV","players":null},{"server_id":320,"name":"Uncletopia | London | 3 | All Maps","name_short":"lon-3","host":"lon-1.uk.uncletopia.com","port":27035,"enabled":true,"region":"eu","cc":"gb","latitude":51.509865,"longitude":-0.118092,"reserved":0,"last_update":"0001-01-01T00:00:00Z","name_a2s":"Uncletopia | London | 3 | All Maps","protocol":17,"map":"koth_lakeside_final","folder":"tf","game":"Team Fortress","app_id":440,"player_count":2,"max_players":24,"Bots":0,"server_type":"Dedicated","server_os":"Linux","password":true,"vac":true,"version":"7961495","steam_id":85568392924510192,"keywords":["cp","nocrits","nodmgspread","uncletopia"],"game_id":440,"stv_port":27036,"stv_name":"Uncletopia | London | 3 | All Maps | STV","players":[{"user_id":555,"name":"Vyllckart","steam_id":76561198119172997,"connected_time":111000000000,"state":"active","ping":77},{"user_id":554,"name":"Tx_madmash and knuckles","steam_id":76561198924656512,"connected_time":324000000000,"state":"active","ping":110}]},{"server_id":321,"name":"Uncletopia | London | 4 | All Maps","name_short":"lon-4","host":"lon-1.uk.uncletopia.com","port":27045,"enabled":true,"region":"eu","cc":"gb","latitude":51.509865,"longitude":-0.118092,"reserved":0,"last_update":"0001-01-01T00:00:00Z","name_a2s":"Uncletopia | London | 4 | All Maps","protocol":17,"map":"cp_egypt_final","folder":"tf","game":"Team Fortress","app_id":440,"player_count":0,"max_players":24,"Bots":0,"server_type":"Dedicated","server_os":"Linux","password":true,"vac":true,"version":"7961495","steam_id":85568392924510193,"keywords":["cp","nocrits","nodmgspread","uncletopia"],"game_id":440,"stv_port":27046,"stv_name":"Uncletopia | London | 4 | All Maps | STV","players":null},{"server_id":21,"name":"Uncletopia | London | 5 | All Maps","name_short":"lon-5","host":"lon-1.uk.uncletopia.com","port":27055,"enabled":true,"region":"eu","cc":"gb","latitude":51.509865,"longitude":-0.118092,"reserved":0,"last_update":"0001-01-01T00:00:00Z","name_a2s":"Uncletopia | London | 5 | All Maps","protocol":17,"map":"koth_lakeside_final","folder":"tf","game":"Team Fortress","app_id":440,"player_count":0,"max_players":24,"Bots":0,"server_type":"Dedicated","server_os":"Linux","password":true,"vac":true,"version":"7961495","steam_id":85568392924742829,"keywords":["cp","nocrits","nodmgspread","uncletopia"],"game_id":440,"stv_port":27056,"stv_name":"Uncletopia | London | 5 | All Maps | STV","players":null},{"server_id":22,"name":"Uncletopia | London | 6 | All Maps","name_short":"lon-6","host":"lon-1.uk.uncletopia.com","port":27065,"enabled":true,"region":"eu","cc":"gb","latitude":51.509865,"longitude":-0.118092,"reserved":0,"last_update":"0001-01-01T00:00:00Z","name_a2s":"Uncletopia | London | 6 | All Maps","protocol":17,"map":"pl_upward","folder":"tf","game":"Team Fortress","app_id":440,"player_count":24,"max_players":24,"Bots":0,"server_type":"Dedicated","server_os":"Linux","password":true,"vac":true,"version":"7961495","steam_id":85568392924742830,"keywords":["nocrits","nodmgspread","payload","uncletopia"],"game_id":440,"stv_port":27066,"stv_name":"Uncletopia | London | 6 | All Maps | STV","players":[{"user_id":577,"name":"Fenris√∫lfr","steam_id":76561198042012705,"connected_time":1552000000000,"state":"active","ping":232},{"user_id":562,"name":"I am [XXL]FrEnZy","steam_id":76561198321318862,"connected_time":2194000000000,"state":"active","ping":75},{"user_id":583,"name":"TPD16","steam_id":76561198354138834,"connected_time":860000000000,"state":"active","ping":59},{"user_id":584,"name":"Tero","steam_id":76561198073147972,"connected_time":589000000000,"state":"active","ping":83},{"user_id":582,"name":"TravelerFinis","steam_id":76561199181244690,"connected_time":1198000000000,"state":"active","ping":164},{"user_id":560,"name":"CreepyYellowDuck","steam_id":76561198000479387,"connected_time":2318000000000,"state":"active","ping":37},{"user_id":548,"name":"Jeffacakes","steam_id":76561198280101970,"connected_time":2637000000000,"state":"active","ping":61},{"user_id":492,"name":"Vivid","steam_id":76561198346546144,"connected_time":6928000000000,"state":"active","ping":54},{"user_id":561,"name":"Worm","steam_id":76561198296497176,"connected_time":2311000000000,"state":"active","ping":44},{"user_id":566,"name":"filthy","steam_id":76561198089069719,"connected_time":1987000000000,"state":"active","ping":55},{"user_id":534,"name":"[HOL] Solringen","steam_id":76561198003584681,"connected_time":3639000000000,"state":"active","ping":77},{"user_id":567,"name":"selzic ‚òÖ","steam_id":76561198068100717,"connected_time":1947000000000,"state":"active","ping":50},{"user_id":480,"name":"It's a me Malario","steam_id":76561198176546013,"connected_time":7454000000000,"state":"active","ping":50},{"user_id":552,"name":"Cute Cow","steam_id":76561198047691462,"connected_time":2616000000000,"state":"active","ping":62},{"user_id":553,"name":"SneaK","steam_id":76561198280344773,"connected_time":2606000000000,"state":"active","ping":90},{"user_id":590,"name":"Klorophyte","steam_id":76561198885112655,"connected_time":409000000000,"state":"active","ping":93},{"user_id":576,"name":"Clarnex","steam_id":76561198032438366,"connected_time":1578000000000,"state":"active","ping":61},{"user_id":574,"name":"meistjr","steam_id":76561198077240093,"connected_time":1657000000000,"state":"active","ping":49},{"user_id":572,"name":"Hank J Wimbleton","steam_id":76561198408623293,"connected_time":1718000000000,"state":"active","ping":79},{"user_id":578,"name":"PIMPrenelle","steam_id":76561198021366058,"connected_time":1541000000000,"state":"active","ping":55},{"user_id":573,"name":"Dark","steam_id":76561198086889620,"connected_time":1700000000000,"state":"active","ping":57},{"user_id":580,"name":"Tornado","steam_id":76561198025684320,"connected_time":1360000000000,"state":"active","ping":44},{"user_id":587,"name":"Lunaria","steam_id":76561198175428545,"connected_time":464000000000,"state":"active","ping":68},{"user_id":588,"name":"elijah","steam_id":76561198093936708,"connected_time":443000000000,"state":"active","ping":45}]},{"server_id":40,"name":"Uncletopia | London | 7 | Stopwatch","name_short":"lon-7","host":"lon-1.uk.uncletopia.com","port":27075,"enabled":true,"region":"eu","cc":"gb","latitude":51.509865,"longitude":-0.118092,"reserved":0,"last_update":"0001-01-01T00:00:00Z","name_a2s":"Uncletopia | London | 7 | Stopwatch","protocol":17,"map":"workshop/koth_product_final.ugc454272353","folder":"tf","game":"Team Fortress","app_id":440,"player_count":0,"max_players":24,"Bots":0,"server_type":"Dedicated","server_os":"Linux","password":true,"vac":true,"version":"7961495","steam_id":85568392924964314,"keywords":["cp","nocrits","nodmgspread","uncletopia"],"game_id":440,"stv_port":27076,"stv_name":"Uncletopia | London | 7 | Stopwatch | STV","players":null},{"server_id":41,"name":"Uncletopia | London | 8 | Community","name_short":"lon-8","host":"lon-1.uk.uncletopia.com","port":27085,"enabled":true,"region":"eu","cc":"gb","latitude":51.509865,"longitude":-0.118092,"reserved":0,"last_update":"0001-01-01T00:00:00Z","name_a2s":"Uncletopia | London | 8 | Community","protocol":17,"map":"workshop/koth_kemptown_rc1.ugc767410655","folder":"tf","game":"Team Fortress","app_id":440,"player_count":0,"max_players":24,"Bots":0,"server_type":"Dedicated","server_os":"Linux","password":true,"vac":true,"version":"7961495","steam_id":85568392924964315,"keywords":["cp","nocrits","nodmgspread","uncletopia"],"game_id":440,"stv_port":27086,"stv_name":"Uncletopia | London | 8 | Community | STV","players":null},{"server_id":300,"name":"Uncletopia | Montr√©al | 1 | One Thousand Uncles","name_short":"mtl-1","host":"mtl-1.ca.uncletopia.com","port":27015,"enabled":true,"region":"us-east","cc":"ca","latitude":45.50889,"longitude":-73.56167,"reserved":0,"last_update":"0001-01-01T00:00:00Z","name_a2s":"","protocol":0,"map":"","folder":"","game":"","app_id":0,"player_count":3,"max_players":0,"Bots":0,"server_type":"","server_os":"","password":false,"vac":false,"version":"","steam_id":0,"keywords":null,"game_id":0,"stv_port":0,"stv_name":"","players":[{"user_id":213,"name":"DrMisteryous2","steam_id":76561198336307012,"connected_time":2219000000000,"state":"active","ping":170},{"user_id":246,"name":"Jeb_error","steam_id":76561199260090417,"connected_time":997000000000,"state":"active","ping":75},{"user_id":248,"name":"Boykisser","steam_id":76561199382783363,"connected_time":60000000000,"state":"active","ping":91}]},{"server_id":301,"name":"Uncletopia | Montr√©al | 2 | One Thousand Uncles","name_short":"mtl-2","host":"mtl-1.ca.uncletopia.com","port":27025,"enabled":true,"region":"us-east","cc":"ca","latitude":45.50889,"longitude":-73.56167,"reserved":0,"last_update":"0001-01-01T00:00:00Z","name_a2s":"","protocol":0,"map":"","folder":"","game":"","app_id":0,"player_count":6,"max_players":0,"Bots":0,"server_type":"","server_os":"","password":false,"vac":false,"version":"","steam_id":0,"keywords":null,"game_id":0,"stv_port":0,"stv_name":"","players":[{"user_id":2,"name":"Willi the Gifter of Chaos","steam_id":76561198066508251,"connected_time":8061000000000,"state":"active","ping":51},{"user_id":35,"name":"pan","steam_id":76561199019732036,"connected_time":4961000000000,"state":"active","ping":60},{"user_id":36,"name":"Rhutebeer","steam_id":76561198018302761,"connected_time":4072000000000,"state":"active","ping":105},{"user_id":44,"name":"1-800-GHOST-DANCE","steam_id":76561198835430429,"connected_time":1354000000000,"state":"active","ping":75},{"user_id":48,"name":"party pooper","steam_id":76561198068760559,"connected_time":10000000000,"state":"active","ping":54},{"user_id":45,"name":"Master Of Whales","steam_id":76561198349104889,"connected_time":1127000000000,"state":"active","ping":108}]},{"server_id":302,"name":"Uncletopia | Montr√©al | 3 | One Thousand Uncles","name_short":"mtl-3","host":"mtl-1.ca.uncletopia.com","port":27035,"enabled":true,"region":"us-east","cc":"ca","latitude":45.50889,"longitude":-73.56167,"reserved":0,"last_update":"0001-01-01T00:00:00Z","name_a2s":"","protocol":0,"map":"","folder":"","game":"","app_id":0,"player_count":0,"max_players":0,"Bots":0,"server_type":"","server_os":"","password":false,"vac":false,"version":"","steam_id":0,"keywords":null,"game_id":0,"stv_port":0,"stv_name":"","players":null},{"server_id":13,"name":"Uncletopia | New York City | 1 | All Maps","name_short":"nyc-1","host":"nyc-1.us.uncletopia.com","port":27015,"enabled":true,"region":"us-east","cc":"us","latitude":40.73061,"longitude":-73.93524,"reserved":0,"last_update":"0001-01-01T00:00:00Z","name_a2s":"Uncletopia | New York City | 1 | All Maps","protocol":17,"map":"pl_badwater","folder":"tf","game":"Team Fortress","app_id":440,"player_count":24,"max_players":24,"Bots":0,"server_type":"Dedicated","server_os":"Linux","password":true,"vac":true,"version":"7961495","steam_id":85568392924469993,"keywords":["nocrits","nodmgspread","payload","uncletopia"],"game_id":440,"stv_port":27016,"stv_name":"Uncletopia | New York City | 1 | All Maps | STV","players":[{"user_id":200,"name":"Nerrrd_","steam_id":76561198870129960,"connected_time":2942000000000,"state":"active","ping":45},{"user_id":199,"name":"David Blaine","steam_id":76561198980560578,"connected_time":2953000000000,"state":"active","ping":62},{"user_id":244,"name":"Booba","steam_id":76561198150959184,"connected_time":236000000000,"state":"active","ping":121},{"user_id":231,"name":"Bucket","steam_id":76561198816448398,"connected_time":437000000000,"state":"active","ping":70},{"user_id":245,"name":"SoldMyKidneyForCollege","steam_id":76561198096329559,"connected_time":220000000000,"state":"active","ping":115},{"user_id":229,"name":"randomusername","steam_id":76561199078214700,"connected_time":544000000000,"state":"active","ping":81},{"user_id":230,"name":"Top 0.001 Weezer Fan On Spotif","steam_id":76561198045867648,"connected_time":479000000000,"state":"active","ping":48},{"user_id":246,"name":"mike","steam_id":76561198099412571,"connected_time":220000000000,"state":"active","ping":53},{"user_id":233,"name":"Aeris","steam_id":76561198287271028,"connected_time":429000000000,"state":"active","ping":84},{"user_id":243,"name":"Tokyo_Timeshift_","steam_id":76561198048677523,"connected_time":244000000000,"state":"active","ping":66},{"user_id":247,"name":"asimus","steam_id":76561199141433499,"connected_time":207000000000,"state":"active","ping":120},{"user_id":235,"name":"Timber","steam_id":76561198156746320,"connected_time":410000000000,"state":"active","ping":64},{"user_id":251,"name":"MurkScribe","steam_id":76561198077304095,"connected_time":130000000000,"state":"active","ping":45},{"user_id":248,"name":"LOW INTELLIGENCE SPECIMEN","steam_id":76561198333985626,"connected_time":206000000000,"state":"active","ping":76},{"user_id":167,"name":"your moms car","steam_id":76561199389283507,"connected_time":5221000000000,"state":"active","ping":67},{"user_id":249,"name":"vulcan nightclub pon farr night","steam_id":76561197974283797,"connected_time":194000000000,"state":"active","ping":67},{"user_id":250,"name":"Stonks","steam_id":76561199490085068,"connected_time":186000000000,"state":"active","ping":64},{"user_id":238,"name":"Kwol-o Tingba","steam_id":76561198067653291,"connected_time":359000000000,"state":"active","ping":41},{"user_id":222,"name":"Unfortunate Son","steam_id":76561199123285878,"connected_time":990000000000,"state":"active","ping":62},{"user_id":239,"name":"xen","steam_id":76561198048568188,"connected_time":330000000000,"state":"active","ping":48},{"user_id":221,"name":"sauce","steam_id":76561198068430673,"connected_time":1031000000000,"state":"active","ping":68},{"user_id":214,"name":"fpin","steam_id":76561198109900369,"connected_time":1629000000000,"state":"active","ping":119},{"user_id":241,"name":"ElChuchoXf","steam_id":76561199235124146,"connected_time":309000000000,"state":"active","ping":145},{"user_id":242,"name":"Hertz","steam_id":76561198310927351,"connected_time":289000000000,"state":"active","ping":141}]},{"server_id":14,"name":"Uncletopia | New York City | 2 | All Maps","name_short":"nyc-2","host":"nyc-1.us.uncletopia.com","port":27025,"enabled":true,"region":"us-east","cc":"us","latitude":40.73061,"longitude":-73.93524,"reserved":0,"last_update":"0001-01-01T00:00:00Z","name_a2s":"Uncletopia | New York City | 2 | All Maps","protocol":17,"map":"pl_pier","folder":"tf","game":"Team Fortress","app_id":440,"player_count":22,"max_players":24,"Bots":0,"server_type":"Dedicated","server_os":"Linux","password":true,"vac":true,"version":"7961495","steam_id":85568392924469994,"keywords":["nocrits","nodmgspread","payload","uncletopia"],"game_id":440,"stv_port":27026,"stv_name":"Uncletopia | New York City | 2 | All Maps | STV","players":[{"user_id":318,"name":"·πΩ‚ßâ cookie","steam_id":76561197998884823,"connected_time":1137000000000,"state":"active","ping":72},{"user_id":335,"name":"AlecTheNefarious","steam_id":76561198035291230,"connected_time":403000000000,"state":"active","ping":85},{"user_id":321,"name":"Arctem","steam_id":76561198012937871,"connected_time":1077000000000,"state":"active","ping":91},{"user_id":319,"name":"leumas","steam_id":76561198240408540,"connected_time":1136000000000,"state":"active","ping":45},{"user_id":332,"name":"PK","steam_id":76561198368722500,"connected_time":702000000000,"state":"active","ping":65},{"user_id":323,"name":"‚Ä¢PixelGhost25‚Ä¢","steam_id":76561197998922428,"connected_time":1057000000000,"state":"active","ping":55},{"user_id":324,"name":"sithreis","steam_id":76561198000564263,"connected_time":996000000000,"state":"active","ping":76},{"user_id":325,"name":"Rummy the Blargh-gineer","steam_id":76561197997192800,"connected_time":992000000000,"state":"active","ping":63},{"user_id":312,"name":"kinetic","steam_id":76561198061346578,"connected_time":1528000000000,"state":"active","ping":61},{"user_id":326,"name":"lanoc","steam_id":76561198055415367,"connected_time":991000000000,"state":"active","ping":75},{"user_id":290,"name":"AttentionDeficitDad","steam_id":76561199093919121,"connected_time":3428000000000,"state":"active","ping":85},{"user_id":337,"name":"KingDogAss","steam_id":76561198055464982,"connected_time":266000000000,"state":"active","ping":102},{"user_id":330,"name":"Earballs","steam_id":76561198002601490,"connected_time":913000000000,"state":"active","ping":73},{"user_id":331,"name":"Discourse","steam_id":76561198984286678,"connected_time":893000000000,"state":"active","ping":75},{"user_id":339,"name":"freedom staff","steam_id":76561199123218315,"connected_time":215000000000,"state":"active","ping":104},{"user_id":314,"name":"WHO DAT BIT","steam_id":76561198072179483,"connected_time":1327000000000,"state":"active","ping":80},{"user_id":315,"name":"garf","steam_id":76561198451939128,"connected_time":1306000000000,"state":"active","ping":94},{"user_id":313,"name":"Kraftlos","steam_id":76561198074350350,"connected_time":1406000000000,"state":"active","ping":62},{"user_id":304,"name":"TonesMcGroans","steam_id":76561197996691606,"connected_time":2490000000000,"state":"active","ping":80},{"user_id":307,"name":"emotional ******* e-cigarette","steam_id":76561198172120615,"connected_time":1809000000000,"state":"active","ping":36},{"user_id":338,"name":"MichelangeloStark","steam_id":76561197976489900,"connected_time":217000000000,"state":"active","ping":76},{"user_id":279,"name":"AllMightyLoaf","steam_id":76561198093057217,"connected_time":4176000000000,"state":"active","ping":67}]},{"server_id":15,"name":"Uncletopia | New York City | 3 | Stopwatch","name_short":"nyc-3","host":"nyc-1.us.uncletopia.com","port":27035,"enabled":true,"region":"us-east","cc":"us","latitude":40.73061,"longitude":-73.93524,"reserved":0,"last_update":"0001-01-01T00:00:00Z","name_a2s":"Uncletopia | New York City | 3 | Stopwatch","protocol":17,"map":"cp_granary","folder":"tf","game":"Team Fortress","app_id":440,"player_count":0,"max_players":24,"Bots":0,"server_type":"Dedicated","server_os":"Linux","password":true,"vac":true,"version":"7961495","steam_id":85568392924742820,"keywords":["cp","nocrits","nodmgspread","uncletopia"],"game_id":440,"stv_port":27036,"stv_name":"Uncletopia | New York City | 3 | Stopwatch | STV","players":null},{"server_id":16,"name":"Uncletopia | New York City | 4 | Community","name_short":"nyc-4","host":"nyc-1.us.uncletopia.com","port":27045,"enabled":true,"region":"us-east","cc":"us","latitude":40.73061,"longitude":-73.93524,"reserved":0,"last_update":"0001-01-01T00:00:00Z","name_a2s":"Uncletopia | New York City | 4 | Community","protocol":17,"map":"workshop/koth_ramjam_rc1.ugc459778887","folder":"tf","game":"Team Fortress","app_id":440,"player_count":0,"max_players":24,"Bots":0,"server_type":"Dedicated","server_os":"Linux","password":true,"vac":true,"version":"7961495","steam_id":85568392924742821,"keywords":["cp","nocrits","nodmgspread","uncletopia"],"game_id":440,"stv_port":27046,"stv_name":"Uncletopia | New York City | 4 | Community | STV","players":null},{"server_id":142,"name":"Uncletopia | S√£o Paulo | 1 | All Maps","name_short":"sao-1","host":"sao-1.br.uncletopia.com","port":27015,"enabled":true,"region":"sa","cc":"br","latitude":-23.533773,"longitude":-46.62529,"reserved":0,"last_update":"0001-01-01T00:00:00Z","name_a2s":"Uncletopia | S√£o Paulo | 1 | All Maps","protocol":17,"map":"koth_highpass","folder":"tf","game":"Team Fortress","app_id":440,"player_count":0,"max_players":24,"Bots":0,"server_type":"Dedicated","server_os":"Linux","password":true,"vac":true,"version":"7961495","steam_id":85568392924469996,"keywords":["cp","nocrits","nodmgspread","uncletopia"],"game_id":440,"stv_port":27016,"stv_name":"Uncletopia | S√£o Paulo | 1 | All Maps | STV","players":null},{"server_id":143,"name":"Uncletopia | S√£o Paulo | 2 | Community","name_short":"sao-2","host":"sao-2.br.uncletopia.com","port":27015,"enabled":true,"region":"sa","cc":"br","latitude":-23.533773,"longitude":-46.62529,"reserved":0,"last_update":"0001-01-01T00:00:00Z","name_a2s":"Uncletopia | S√£o Paulo | 2 | Community","protocol":17,"map":"workshop/cp_sulfur_rc2.ugc619869471","folder":"tf","game":"Team Fortress","app_id":440,"player_count":0,"max_players":24,"Bots":0,"server_type":"Dedicated","server_os":"Linux","password":true,"vac":true,"version":"7961495","steam_id":85568392924485349,"keywords":["cp","nocrits","nodmgspread","uncletopia"],"game_id":440,"stv_port":27016,"stv_name":"Uncletopia | S√£o Paulo | 2 | Community | STV","players":null},{"server_id":7,"name":"Uncletopia | Seattle | 1 | All Maps","name_short":"sea-1","host":"sea-1.us.uncletopia.com","port":27015,"enabled":true,"region":"us-west","cc":"us","latitude":47.608013,"longitude":-122.33517,"reserved":0,"last_update":"0001-01-01T00:00:00Z","name_a2s":"Uncletopia | Seattle | 1 | All Maps","protocol":17,"map":"ctf_well","folder":"tf","game":"Team Fortress","app_id":440,"player_count":24,"max_players":24,"Bots":0,"server_type":"Dedicated","server_os":"Linux","password":true,"vac":true,"version":"7961495","steam_id":85568392924469997,"keywords":["ctf","nocrits","nodmgspread","uncletopia"],"game_id":440,"stv_port":27016,"stv_name":"Uncletopia | Seattle | 1 | All Maps | STV","players":[{"user_id":630,"name":"moe","steam_id":76561198929586245,"connected_time":1597000000000,"state":"active","ping":73},{"user_id":643,"name":"chocolat3823","steam_id":76561199249875689,"connected_time":1279000000000,"state":"active","ping":60},{"user_id":607,"name":"Meso","steam_id":76561199088153190,"connected_time":4369000000000,"state":"active","ping":55},{"user_id":637,"name":"Norriss","steam_id":76561198920296293,"connected_time":1460000000000,"state":"active","ping":44},{"user_id":658,"name":"Jimmy Fallon","steam_id":76561198069131730,"connected_time":102000000000,"state":"active","ping":45},{"user_id":618,"name":"Dextersbrain","steam_id":76561198011831579,"connected_time":3298000000000,"state":"active","ping":60},{"user_id":653,"name":"Scrux","steam_id":76561198129763115,"connected_time":551000000000,"state":"active","ping":70},{"user_id":624,"name":"General Grievances","steam_id":76561198043766727,"connected_time":2293000000000,"state":"active","ping":122},{"user_id":652,"name":"Wheaty","steam_id":76561198003553412,"connected_time":558000000000,"state":"active","ping":45},{"user_id":657,"name":"J O S H¬≥¬≤","steam_id":76561198122603779,"connected_time":411000000000,"state":"active","ping":85},{"user_id":631,"name":"Rattlesnake","steam_id":76561198321044152,"connected_time":1560000000000,"state":"active","ping":66},{"user_id":638,"name":"roach :3","steam_id":76561198354811369,"connected_time":1447000000000,"state":"active","ping":75},{"user_id":581,"name":"DaddyGalaxy","steam_id":76561198139697796,"connected_time":5852000000000,"state":"active","ping":54},{"user_id":625,"name":"DaBigA","steam_id":76561198326492538,"connected_time":2230000000000,"state":"active","ping":42},{"user_id":548,"name":"Mer","steam_id":76561198192171041,"connected_time":8004000000000,"state":"active","ping":171},{"user_id":641,"name":"Greskrendtregk","steam_id":76561197969553142,"connected_time":1414000000000,"state":"active","ping":57},{"user_id":634,"name":"lukamine","steam_id":76561198166827208,"connected_time":1478000000000,"state":"active","ping":48},{"user_id":656,"name":"Zhukov","steam_id":76561199006602717,"connected_time":485000000000,"state":"active","ping":114},{"user_id":616,"name":"fishtank.live","steam_id":76561198280085840,"connected_time":3462000000000,"state":"active","ping":93},{"user_id":614,"name":"Klone","steam_id":76561198854485605,"connected_time":3578000000000,"state":"active","ping":109},{"user_id":650,"name":"philprager06","steam_id":76561198802562279,"connected_time":601000000000,"state":"active","ping":71},{"user_id":617,"name":"Nom Skirrett","steam_id":76561198014600788,"connected_time":3315000000000,"state":"active","ping":62},{"user_id":659,"name":"Turts","steam_id":76561197998448097,"connected_time":34000000000,"state":"active","ping":72},{"user_id":601,"name":"cielael","steam_id":76561198043971956,"connected_time":4762000000000,"state":"active","ping":77}]},{"server_id":119,"name":"Uncletopia | Seattle | 2 | All Maps","name_short":"sea-2","host":"sea-1.us.uncletopia.com","port":27025,"enabled":true,"region":"us-west","cc":"us","latitude":47.608013,"longitude":-122.33517,"reserved":0,"last_update":"0001-01-01T00:00:00Z","name_a2s":"Uncletopia | Seattle | 2 | All Maps","protocol":17,"map":"pl_pier","folder":"tf","game":"Team Fortress","app_id":440,"player_count":4,"max_players":24,"Bots":0,"server_type":"Dedicated","server_os":"Linux","password":true,"vac":true,"version":"7961495","steam_id":85568392924469998,"keywords":["nocrits","nodmgspread","payload","uncletopia"],"game_id":440,"stv_port":27026,"stv_name":"Uncletopia | Seattle | 2 | All Maps | STV","players":[{"user_id":17,"name":"FidelGuevara","steam_id":76561198368296171,"connected_time":3252000000000,"state":"active","ping":90},{"user_id":26,"name":"Rev","steam_id":76561199060355036,"connected_time":605000000000,"state":"active","ping":40},{"user_id":27,"name":"Elijah123","steam_id":76561199037648021,"connected_time":38000000000,"state":"active","ping":115},{"user_id":20,"name":"artemisjackson2","steam_id":76561199094686268,"connected_time":2856000000000,"state":"active","ping":97}]},{"server_id":406,"name":"Uncletopia | Seattle | 3 | Stopwatch","name_short":"sea-3","host":"sea-1.us.uncletopia.com","port":27035,"enabled":true,"region":"us-west","cc":"us","latitude":47.608013,"longitude":-122.33517,"reserved":0,"last_update":"0001-01-01T00:00:00Z","name_a2s":"Uncletopia | Seattle | 3 | Stopwatch","protocol":17,"map":"pl_pier","folder":"tf","game":"Team Fortress","app_id":440,"player_count":0,"max_players":24,"Bots":0,"server_type":"Dedicated","server_os":"Linux","password":true,"vac":true,"version":"7961495","steam_id":85568392924515217,"keywords":["nocrits","nodmgspread","payload","uncletopia"],"game_id":440,"stv_port":27036,"stv_name":"Uncletopia | Seattle | 3 | Stopwatch | STV","players":null},{"server_id":17,"name":"Uncletopia | San Francisco | 1 | All Maps","name_short":"sfo-1","host":"sfo-1.us.uncletopia.com","port":27015,"enabled":true,"region":"us-west","cc":"us","latitude":37.77397,"longitude":-122.4313,"reserved":0,"last_update":"0001-01-01T00:00:00Z","name_a2s":"Uncletopia | San Francisco | 1 | All Maps","protocol":17,"map":"cp_altitude","folder":"tf","game":"Team Fortress","app_id":440,"player_count":4,"max_players":24,"Bots":0,"server_type":"Dedicated","server_os":"Linux","password":true,"vac":true,"version":"7961495","steam_id":85568392924469999,"keywords":["cp","nocrits","nodmgspread","uncletopia"],"game_id":440,"stv_port":27016,"stv_name":"Uncletopia | San Francisco | 1 | All Maps | STV","players":[{"user_id":12,"name":"Ark√°n","steam_id":76561198205702933,"connected_time":4561000000000,"state":"active","ping":51},{"user_id":28,"name":"Nuggies","steam_id":76561198272432592,"connected_time":1572000000000,"state":"active","ping":45},{"user_id":30,"name":"cajun thotsauce","steam_id":76561198101636066,"connected_time":750000000000,"state":"active","ping":54},{"user_id":32,"name":"Yackaboi","steam_id":76561199444911765,"connected_time":294000000000,"state":"active","ping":73}]},{"server_id":18,"name":"Uncletopia | San Francisco | 2 | All Maps","name_short":"sfo-2","host":"sfo-1.us.uncletopia.com","port":27025,"enabled":true,"region":"us-west","cc":"us","latitude":37.77397,"longitude":-122.4313,"reserved":0,"last_update":"0001-01-01T00:00:00Z","name_a2s":"Uncletopia | San Francisco | 2 | All Maps","protocol":17,"map":"pl_badwater","folder":"tf","game":"Team Fortress","app_id":440,"player_count":25,"max_players":24,"Bots":0,"server_type":"Dedicated","server_os":"Linux","password":true,"vac":true,"version":"7961495","steam_id":85568392924470000,"keywords":["nocrits","nodmgspread","payload","uncletopia"],"game_id":440,"stv_port":27026,"stv_name":"Uncletopia | San Francisco | 2 | All Maps | STV","players":[{"user_id":23,"name":"Sul Gutmun","steam_id":76561198308817394,"connected_time":3729000000000,"state":"active","ping":114},{"user_id":64,"name":"FX","steam_id":76561198096889040,"connected_time":214000000000,"state":"active","ping":108},{"user_id":66,"name":"cool beans","steam_id":76561198321591685,"connected_time":4000000000,"state":"spawning","ping":88},{"user_id":62,"name":"A Blender","steam_id":76561198085439451,"connected_time":284000000000,"state":"active","ping":49},{"user_id":27,"name":"autogynocelia","steam_id":76561198038995286,"connected_time":2078000000000,"state":"active","ping":142},{"user_id":57,"name":"FELXIUFEL","steam_id":76561198352095947,"connected_time":556000000000,"state":"active","ping":126},{"user_id":61,"name":"'Oddo","steam_id":76561198090866900,"connected_time":309000000000,"state":"active","ping":105},{"user_id":30,"name":"mrthugpug1732","steam_id":76561198881200768,"connected_time":1461000000000,"state":"active","ping":62},{"user_id":51,"name":"sweglord227","steam_id":76561198415510262,"connected_time":716000000000,"state":"active","ping":101},{"user_id":32,"name":"the big shitter","steam_id":76561198396326793,"connected_time":1397000000000,"state":"active","ping":106},{"user_id":40,"name":"fish (2:3)","steam_id":76561198134331073,"connected_time":1106000000000,"state":"active","ping":76},{"user_id":55,"name":"close","steam_id":76561198067058308,"connected_time":619000000000,"state":"active","ping":66},{"user_id":38,"name":"lol","steam_id":76561198026491738,"connected_time":1160000000000,"state":"active","ping":76},{"user_id":52,"name":"dang, i'm hungry","steam_id":76561198011675372,"connected_time":708000000000,"state":"active","ping":72},{"user_id":67,"name":"d4ngerd4n","steam_id":76561198043758735,"connected_time":4000000000,"state":"spawning","ping":53},{"user_id":60,"name":"noceof","steam_id":76561198043656816,"connected_time":324000000000,"state":"active","ping":166},{"user_id":58,"name":"Platinum","steam_id":76561198052463484,"connected_time":554000000000,"state":"active","ping":42},{"user_id":43,"name":"ars110","steam_id":76561198030492435,"connected_time":1041000000000,"state":"active","ping":75},{"user_id":44,"name":"Caspian","steam_id":76561199041466962,"connected_time":1025000000000,"state":"active","ping":39},{"user_id":45,"name":"011sra","steam_id":76561199489542125,"connected_time":993000000000,"state":"active","ping":60},{"user_id":63,"name":"Manfred von Richthofen","steam_id":76561198881106202,"connected_time":281000000000,"state":"active","ping":94},{"user_id":47,"name":"who","steam_id":76561198066091050,"connected_time":966000000000,"state":"active","ping":79},{"user_id":59,"name":"bottom pride burger","steam_id":76561198322247602,"connected_time":547000000000,"state":"active","ping":59},{"user_id":56,"name":"Pablosantiago09","steam_id":76561199482142793,"connected_time":593000000000,"state":"active","ping":46},{"user_id":65,"name":"Dog","steam_id":76561198041841128,"connected_time":188000000000,"state":"active","ping":59}]},{"server_id":19,"name":"Uncletopia | San Francisco | 3 | Stopwatch","name_short":"sfo-3","host":"sfo-1.us.uncletopia.com","port":27035,"enabled":true,"region":"us-west","cc":"us","latitude":37.77397,"longitude":-122.4313,"reserved":0,"last_update":"0001-01-01T00:00:00Z","name_a2s":"Uncletopia | San Francisco | 3 | Stopwatch","protocol":17,"map":"pl_pier","folder":"tf","game":"Team Fortress","app_id":440,"player_count":0,"max_players":24,"Bots":0,"server_type":"Dedicated","server_os":"Linux","password":true,"vac":true,"version":"7961495","steam_id":85568392924742824,"keywords":["nocrits","nodmgspread","payload","uncletopia"],"game_id":440,"stv_port":27036,"stv_name":"Uncletopia | San Francisco | 3 | Stopwatch | STV","players":null},{"server_id":20,"name":"Uncletopia | San Francisco | 4 | Community","name_short":"sfo-4","host":"sfo-1.us.uncletopia.com","port":27045,"enabled":true,"region":"us-west","cc":"us","latitude":37.77397,"longitude":-122.4313,"reserved":0,"last_update":"0001-01-01T00:00:00Z","name_a2s":"Uncletopia | San Francisco | 4 | Community","protocol":17,"map":"pl_pier","folder":"tf","game":"Team Fortress","app_id":440,"player_count":0,"max_players":24,"Bots":0,"server_type":"Dedicated","server_os":"Linux","password":true,"vac":true,"version":"7961495","steam_id":85568392924742826,"keywords":["nocrits","nodmgspread","payload","uncletopia"],"game_id":440,"stv_port":27046,"stv_name":"Uncletopia | San Francisco | 4 | Community | STV","players":null},{"server_id":141,"name":"Uncletopia | Sydney | 1 | All Maps","name_short":"syd-1","host":"syd-1.au.uncletopia.com","port":27015,"enabled":true,"region":"au","cc":"au","latitude":-33.865143,"longitude":151.2099,"reserved":0,"last_update":"0001-01-01T00:00:00Z","name_a2s":"Uncletopia | Sydney | 1 | All Maps","protocol":17,"map":"koth_viaduct","folder":"tf","game":"Team Fortress","app_id":440,"player_count":0,"max_players":24,"Bots":0,"server_type":"Dedicated","server_os":"Linux","password":true,"vac":true,"version":"7961495","steam_id":85568392924470001,"keywords":["cp","nocrits","nodmgspread","uncletopia"],"game_id":440,"stv_port":27016,"stv_name":"Uncletopia | Sydney | 1 | All Maps | STV","players":null},{"server_id":123,"name":"Uncletopia | Sydney | 2 | All Maps","name_short":"syd-2","host":"syd-1.au.uncletopia.com","port":27025,"enabled":true,"region":"au","cc":"au","latitude":-33.865143,"longitude":151.2099,"reserved":0,"last_update":"0001-01-01T00:00:00Z","name_a2s":"Uncletopia | Sydney | 2 | All Maps","protocol":17,"map":"koth_lakeside_final","folder":"tf","game":"Team Fortress","app_id":440,"player_count":0,"max_players":24,"Bots":0,"server_type":"Dedicated","server_os":"Linux","password":true,"vac":true,"version":"7961495","steam_id":85568392924470002,"keywords":["cp","nocrits","nodmgspread","uncletopia"],"game_id":440,"stv_port":27026,"stv_name":"Uncletopia | Sydney | 2 | All Maps | STV","players":null},{"server_id":395,"name":"Uncletopia | Sydney | 3 | All Maps","name_short":"syd-3","host":"syd-1.au.uncletopia.com","port":27035,"enabled":true,"region":"au","cc":"au","latitude":-33.865143,"longitude":151.2099,"reserved":0,"last_update":"0001-01-01T00:00:00Z","name_a2s":"Uncletopia | Sydney | 3 | All Maps","protocol":17,"map":"pl_frontier_final","folder":"tf","game":"Team Fortress","app_id":440,"player_count":0,"max_players":24,"Bots":0,"server_type":"Dedicated","server_os":"Linux","password":true,"vac":true,"version":"7961495","steam_id":85568392925194467,"keywords":["nocrits","nodmgspread","payload","uncletopia"],"game_id":440,"stv_port":27036,"stv_name":"Uncletopia | Sydney | 3 | All Maps | STV","players":null},{"server_id":396,"name":"Uncletopia | Sydney | 4 | All Maps","name_short":"syd-4","host":"syd-1.au.uncletopia.com","port":27045,"enabled":true,"region":"au","cc":"au","latitude":-33.865143,"longitude":151.2099,"reserved":0,"last_update":"0001-01-01T00:00:00Z","name_a2s":"Uncletopia | Sydney | 4 | All Maps","protocol":17,"map":"cp_process_final","folder":"tf","game":"Team Fortress","app_id":440,"player_count":0,"max_players":24,"Bots":0,"server_type":"Dedicated","server_os":"Linux","password":true,"vac":true,"version":"7961495","steam_id":85568392925397958,"keywords":["cp","nocrits","nodmgspread","uncletopia"],"game_id":440,"stv_port":27046,"stv_name":"Uncletopia | Sydney | 4 | All Maps | STV","players":null},{"server_id":58,"name":"Uncletopia | Sydney | 5 | Stopwatch","name_short":"syd-5","host":"syd-1.au.uncletopia.com","port":27055,"enabled":true,"region":"au","cc":"au","latitude":-33.865143,"longitude":151.2099,"reserved":0,"last_update":"0001-01-01T00:00:00Z","name_a2s":"Uncletopia | Sydney | 5 | Stopwatch","protocol":17,"map":"pl_frontier_final","folder":"tf","game":"Team Fortress","app_id":440,"player_count":0,"max_players":24,"Bots":0,"server_type":"Dedicated","server_os":"Linux","password":true,"vac":true,"version":"7961495","steam_id":85568392925397959,"keywords":["nocrits","nodmgspread","payload","uncletopia"],"game_id":440,"stv_port":27056,"stv_name":"Uncletopia | Sydney | 5 | Stopwatch | STV","players":null},{"server_id":59,"name":"Uncletopia | Sydney | 6 | Community","name_short":"syd-6","host":"syd-1.au.uncletopia.com","port":27065,"enabled":true,"region":"au","cc":"au","latitude":-33.865143,"longitude":151.2099,"reserved":0,"last_update":"0001-01-01T00:00:00Z","name_a2s":"Uncletopia | Sydney | 6 | Community","protocol":17,"map":"cp_sunshine","folder":"tf","game":"Team Fortress","app_id":440,"player_count":0,"max_players":24,"Bots":0,"server_type":"Dedicated","server_os":"Linux","password":true,"vac":true,"version":"7961495","steam_id":85568392925397960,"keywords":["cp","nocrits","nodmgspread","uncletopia"],"game_id":440,"stv_port":27066,"stv_name":"Uncletopia | Sydney | 6 | Community | STV","players":null},{"server_id":49,"name":"Uncletopia | Warsaw | 1 | One Thousand Uncles","name_short":"waw-1","host":"waw-1.pl.uncletopia.com","port":27015,"enabled":true,"region":"eu","cc":"pl","latitude":52.2297,"longitude":21.017532,"reserved":0,"last_update":"0001-01-01T00:00:00Z","name_a2s":"Uncletopia | Warsaw | 1 | One Thousand Uncles","protocol":17,"map":"pl_goldrush","folder":"tf","game":"Team Fortress","app_id":440,"player_count":26,"max_players":32,"Bots":16,"server_type":"Dedicated","server_os":"Linux","password":true,"vac":true,"version":"7961495","steam_id":85568392925397850,"keywords":["alltalk","bots","danepve","increased_maxplayers","nocrits","norespawntime","payload","uncletopia"],"game_id":440,"stv_port":0,"stv_name":"","players":[{"user_id":638,"name":"LizardMilk_19","steam_id":76561199435002235,"connected_time":2683000000000,"state":"active","ping":265},{"user_id":639,"name":"Ake","steam_id":76561198099722662,"connected_time":1315000000000,"state":"active","ping":105},{"user_id":621,"name":"tyroksi :D","steam_id":76561198103875245,"connected_time":7496000000000,"state":"active","ping":102},{"user_id":640,"name":"JoeFalco","steam_id":76561198064005012,"connected_time":1107000000000,"state":"active","ping":201},{"user_id":641,"name":"Grog the caveman","steam_id":76561199040975062,"connected_time":1090000000000,"state":"active","ping":89},{"user_id":643,"name":"haunt1ng","steam_id":76561198307330138,"connected_time":528000000000,"state":"active","ping":213},{"user_id":633,"name":"tralalaOuiOui","steam_id":76561197963471507,"connected_time":5182000000000,"state":"active","ping":66},{"user_id":644,"name":"S4LV4G3","steam_id":76561198130314779,"connected_time":436000000000,"state":"active","ping":43},{"user_id":645,"name":"trench4","steam_id":76561198873111453,"connected_time":396000000000,"state":"active","ping":106},{"user_id":646,"name":"Zero-Xyfer","steam_id":76561198351621003,"connected_time":294000000000,"state":"active","ping":173}]},{"server_id":50,"name":"Uncletopia | Warsaw | 2 | One Thousand Uncles","name_short":"waw-2","host":"waw-1.pl.uncletopia.com","port":27025,"enabled":true,"region":"eu","cc":"pl","latitude":52.2297,"longitude":21.017532,"reserved":0,"last_update":"0001-01-01T00:00:00Z","name_a2s":"Uncletopia | Warsaw | 2 | One Thousand Uncles","protocol":17,"map":"cp_egypt_final","folder":"tf","game":"Team Fortress","app_id":440,"player_count":0,"max_players":32,"Bots":0,"server_type":"Dedicated","server_os":"Linux","password":true,"vac":true,"version":"7961495","steam_id":85568392925397851,"keywords":["alltalk","cp","danepve","increased_maxplayers","nocrits","norespawntime","uncletopia"],"game_id":440,"stv_port":0,"stv_name":"","players":null},{"server_id":51,"name":"Uncletopia | Warsaw | 3 | All Maps","name_short":"waw-3","host":"waw-1.pl.uncletopia.com","port":27035,"enabled":true,"region":"eu","cc":"pl","latitude":52.2297,"longitude":21.017532,"reserved":0,"last_update":"0001-01-01T00:00:00Z","name_a2s":"Uncletopia | Warsaw | 3 | All Maps","protocol":17,"map":"cp_dustbowl","folder":"tf","game":"Team Fortress","app_id":440,"player_count":0,"max_players":24,"Bots":0,"server_type":"Dedicated","server_os":"Linux","password":true,"vac":true,"version":"7961495","steam_id":85568392925397852,"keywords":["cp","nocrits","nodmgspread","uncletopia"],"game_id":440,"stv_port":27036,"stv_name":"Uncletopia | Warsaw | 3 | All Maps | STV","players":null},{"server_id":52,"name":"Uncletopia | Warsaw | 4 | All Maps","name_short":"waw-4","host":"waw-1.pl.uncletopia.com","port":27045,"enabled":true,"region":"eu","cc":"pl","latitude":52.2297,"longitude":21.017532,"reserved":0,"last_update":"0001-01-01T00:00:00Z","name_a2s":"Uncletopia | Warsaw | 4 | All Maps","protocol":17,"map":"cp_coldfront","folder":"tf","game":"Team Fortress","app_id":440,"player_count":0,"max_players":24,"Bots":0,"server_type":"Dedicated","server_os":"Linux","password":true,"vac":true,"version":"7961495","steam_id":85568392925397853,"keywords":["cp","nocrits","nodmgspread","uncletopia"],"game_id":440,"stv_port":27046,"stv_name":"Uncletopia | Warsaw | 4 | All Maps | STV","players":null},{"server_id":53,"name":"Uncletopia | Warsaw | 5 | Stopwatch","name_short":"waw-5","host":"waw-1.pl.uncletopia.com","port":27055,"enabled":true,"region":"eu","cc":"pl","latitude":52.2297,"longitude":21.017532,"reserved":0,"last_update":"0001-01-01T00:00:00Z","name_a2s":"Uncletopia | Warsaw | 5 | Stopwatch","protocol":17,"map":"workshop/pl_badwater_pro_v12.ugc2142942074","folder":"tf","game":"Team Fortress","app_id":440,"player_count":0,"max_players":24,"Bots":0,"server_type":"Dedicated","server_os":"Linux","password":true,"vac":true,"version":"7961495","steam_id":85568392925397854,"keywords":["nocrits","nodmgspread","payload","uncletopia"],"game_id":440,"stv_port":27056,"stv_name":"Uncletopia | Warsaw | 5 | Stopwatch | STV","players":null},{"server_id":54,"name":"Uncletopia | Warsaw | 6 | Community","name_short":"waw-6","host":"waw-1.pl.uncletopia.com","port":27065,"enabled":true,"region":"eu","cc":"pl","latitude":52.2297,"longitude":21.017532,"reserved":0,"last_update":"0001-01-01T00:00:00Z","name_a2s":"Uncletopia | Warsaw | 6 | Community","protocol":17,"map":"workshop/rd_asteroid_redux_b1.ugc2154902912","folder":"tf","game":"Team Fortress","app_id":440,"player_count":0,"max_players":24,"Bots":0,"server_type":"Dedicated","server_os":"Linux","password":true,"vac":true,"version":"7961495","steam_id":85568392925397856,"keywords":["beta","nocrits","nodmgspread","rd","uncletopia"],"game_id":440,"stv_port":27066,"stv_name":"Uncletopia | Warsaw | 6 | Community | STV","players":null}]}