{"status":true,"message":"","result":[{"server_id":9,"name":"Uncletopia | Atlanta | 1 | All Maps","name_short":"atl-1","host":"atl-1.us.uncletopia.com","port":27015,"enabled":true,"region":"us-east","cc":"us","latitude":33.753746,"longitude":-84.38633,"reserved":0,"last_update":"0001-01-01T00:00:00Z","name_a2s":"Uncletopia | Atlanta | 1 | All Maps","protocol":17,"map":"cp_altitude","folder":"tf","game":"Team Fortress","app_id":440,"player_count":0,"max_players":24,"Bots":0,"server_type":"Dedicated","server_os":"Linux","password":true,"vac":true,"version":"7882260","steam_id":85568392924469982,"keywords":["cp","nocrits","nodmgspread","uncletopia"],"game_id":440,"stv_port":27016,"stv_name":"Uncletopia | Atlanta | 1 | All Maps | STV","players":null},{"server_id":104,"name":"Uncletopia | Atlanta | 2 | All Maps","name_short":"atl-2","host":"atl-1.us.uncletopia.com","port":27025,"enabled":true,"region":"us-east","cc":"us","latitude":33.753746,"longitude":-84.38633,"reserved":0,"last_update":"0001-01-01T00:00:00Z","name_a2s":"Uncletopia | Atlanta | 2 | All Maps","protocol":17,"map":"pl_swiftwater_final1","folder":"tf","game":"Team Fortress","app_id":440,"player_count":0,"max_players":24,"Bots":0,"server_type":"Dedicated","server_os":"Linux","password":true,"vac":true,"version":"7882260","steam_id":85568392924469983,"keywords":["nocrits","nodmgspread","payload","uncletopia"],"game_id":440,"stv_port":27026,"stv_name":"Uncletopia | Atlanta | 2 | All Maps | STV","players":null},{"server_id":400,"name":"Uncletopia | Atlanta | 3 | Community","name_short":"atl-3","host":"atl-1.us.uncletopia.com","port":27035,"enabled":true,"region":"us-east","cc":"us","latitude":33.753746,"longitude":-84.38633,"reserved":0,"last_update":"0001-01-01T00:00:00Z","name_a2s":"Uncletopia | Atlanta | 3 | Community","protocol":17,"map":"pl_borneo","folder":"tf","game":"Team Fortress","app_id":440,"player_count":0,"max_players":24,"Bots":0,"server_type":"Dedicated","server_os":"Linux","password":true,"vac":true,"version":"7882260","steam_id":85568392924515187,"keywords":["nocrits","nodmgspread","payload","uncletopia"],"game_id":440,"stv_port":27036,"stv_name":"Uncletopia | Atlanta | 3 | Community | STV","players":null},{"server_id":401,"name":"Uncletopia | Atlanta | 4 | No Payload","name_short":"atl-4","host":"atl-1.us.uncletopia.com","port":27045,"enabled":true,"region":"us-east","cc":"us","latitude":33.753746,"longitude":-84.38633,"reserved":0,"last_update":"0001-01-01T00:00:00Z","name_a2s":"","protocol":0,"map":"","folder":"","game":"","app_id":0,"player_count":0,"max_players":0,"Bots":0,"server_type":"","server_os":"","password":false,"vac":false,"version":"","steam_id":0,"keywords":null,"game_id":0,"stv_port":0,"stv_name":"","players":null},{"server_id":2,"name":"Uncletopia | Chicago | 1 | All Maps","name_short":"chi-1","host":"chi-1.us.uncletopia.com","port":27015,"enabled":true,"region":"us-central","cc":"us","latitude":41.881832,"longitude":-87.62318,"reserved":0,"last_update":"0001-01-01T00:00:00Z","name_a2s":"Uncletopia | Chicago | 1 | All Maps","protocol":17,"map":"pl_barnblitz","folder":"tf","game":"Team Fortress","app_id":440,"player_count":24,"max_players":24,"Bots":0,"server_type":"Dedicated","server_os":"Linux","password":true,"vac":true,"version":"7882260","steam_id":85568392924469984,"keywords":["nocrits","nodmgspread","payload","uncletopia"],"game_id":440,"stv_port":27016,"stv_name":"Uncletopia | Chicago | 1 | All Maps | STV","players":[{"user_id":109,"name":"Looking for BBW in stanfield nc","steam_id":76561199207371234,"connected_time":606000000000,"state":"active","ping":87},{"user_id":93,"name":"AllMyProblemsAreBecauseOfSociet","steam_id":76561198081617990,"connected_time":1905000000000,"state":"active","ping":96},{"user_id":101,"name":"FunGi","steam_id":76561198881418662,"connected_time":630000000000,"state":"active","ping":76},{"user_id":79,"name":"posting.","steam_id":76561198066619792,"connected_time":2808000000000,"state":"active","ping":67},{"user_id":113,"name":"Questor","steam_id":76561198034859665,"connected_time":409000000000,"state":"active","ping":89},{"user_id":110,"name":"swinters48","steam_id":76561198091228899,"connected_time":595000000000,"state":"active","ping":54},{"user_id":94,"name":"FaZe Pumpkin","steam_id":76561197999128868,"connected_time":1903000000000,"state":"active","ping":72},{"user_id":98,"name":"Your Local Queer Librarian","steam_id":76561198013077080,"connected_time":1609000000000,"state":"active","ping":55},{"user_id":90,"name":"Cdi","steam_id":76561198056223909,"connected_time":2391000000000,"state":"active","ping":54},{"user_id":96,"name":"Yugoslavian Offensive","steam_id":76561197986850168,"connected_time":1890000000000,"state":"active","ping":57},{"user_id":60,"name":"vyx","steam_id":76561198037205391,"connected_time":4576000000000,"state":"active","ping":57},{"user_id":111,"name":"fnkwgn","steam_id":76561198036884600,"connected_time":571000000000,"state":"active","ping":69},{"user_id":112,"name":"JoJoJo","steam_id":76561198067153390,"connected_time":554000000000,"state":"active","ping":52},{"user_id":36,"name":"Lost","steam_id":76561198093713427,"connected_time":6564000000000,"state":"active","ping":60},{"user_id":114,"name":"SCARY MONSTERS","steam_id":76561198042034176,"connected_time":406000000000,"state":"active","ping":68},{"user_id":97,"name":"Saber0X1","steam_id":76561198090226093,"connected_time":1704000000000,"state":"active","ping":73},{"user_id":75,"name":"ghastlierest gamer","steam_id":76561198057374871,"connected_time":3161000000000,"state":"active","ping":61},{"user_id":23,"name":"dansci","steam_id":76561198269530717,"connected_time":7944000000000,"state":"active","ping":65},{"user_id":99,"name":"jack","steam_id":76561198314104415,"connected_time":1537000000000,"state":"active","ping":75},{"user_id":49,"name":"trash beast","steam_id":76561198015792736,"connected_time":5362000000000,"state":"active","ping":76},{"user_id":92,"name":"chipchip","steam_id":76561199483183459,"connected_time":2009000000000,"state":"active","ping":94},{"user_id":87,"name":"EX","steam_id":76561198160335315,"connected_time":2481000000000,"state":"active","ping":38},{"user_id":103,"name":"Zen","steam_id":76561199008362890,"connected_time":630000000000,"state":"active","ping":60}]},{"server_id":106,"name":"Uncletopia | Chicago | 2 | All Maps","name_short":"chi-2","host":"chi-1.us.uncletopia.com","port":27025,"enabled":true,"region":"us-central","cc":"us","latitude":41.881832,"longitude":-87.62318,"reserved":0,"last_update":"0001-01-01T00:00:00Z","name_a2s":"Uncletopia | Chicago | 2 | All Maps","protocol":17,"map":"koth_lakeside_final","folder":"tf","game":"Team Fortress","app_id":440,"player_count":0,"max_players":24,"Bots":0,"server_type":"Dedicated","server_os":"Linux","password":true,"vac":true,"version":"7882260","steam_id":85568392924469985,"keywords":["cp","nocrits","nodmgspread","uncletopia"],"game_id":440,"stv_port":27026,"stv_name":"Uncletopia | Chicago | 2 | All Maps | STV","players":null},{"server_id":402,"name":"Uncletopia | Chicago | 3 | All Maps","name_short":"chi-3","host":"chi-1.us.uncletopia.com","port":27035,"enabled":true,"region":"us-central","cc":"us","latitude":41.881832,"longitude":-87.62318,"reserved":0,"last_update":"0001-01-01T00:00:00Z","name_a2s":"Uncletopia | Chicago | 3 | All Maps","protocol":17,"map":"cp_sunshine","folder":"tf","game":"Team Fortress","app_id":440,"player_count":24,"max_players":24,"Bots":0,"server_type":"Dedicated","server_os":"Linux","password":true,"vac":true,"version":"7882260","steam_id":85568392924515191,"keywords":["cp","nocrits","nodmgspread","uncletopia"],"game_id":440,"stv_port":27036,"stv_name":"Uncletopia | Chicago | 3 | All Maps | STV","players":[{"user_id":65,"name":"BudTuggly","steam_id":76561198026873580,"connected_time":220000000000,"state":"active","ping":45},{"user_id":5,"name":"OOOOOOOOOOOOOOOOOOOOOOOOOOOOOOO","steam_id":76561198083276946,"connected_time":4512000000000,"state":"active","ping":66},{"user_id":67,"name":"Mr. Morale","steam_id":76561198868600487,"connected_time":149000000000,"state":"active","ping":107},{"user_id":45,"name":"J21","steam_id":76561198066590783,"connected_time":1854000000000,"state":"active","ping":63},{"user_id":68,"name":"The Loveable CHI.I.BI.","steam_id":76561198039262228,"connected_time":146000000000,"state":"active","ping":77},{"user_id":9,"name":"never existed","steam_id":76561198054390505,"connected_time":4180000000000,"state":"active","ping":45},{"user_id":55,"name":"oh..woahh...","steam_id":76561198021224745,"connected_time":1154000000000,"state":"active","ping":49},{"user_id":44,"name":"Fresh0c0","steam_id":76561198271933283,"connected_time":1876000000000,"state":"active","ping":57},{"user_id":12,"name":"glue sniffer","steam_id":76561198044689778,"connected_time":4085000000000,"state":"active","ping":60},{"user_id":51,"name":"Caveman Forever","steam_id":76561198079994020,"connected_time":1485000000000,"state":"active","ping":81},{"user_id":32,"name":"Helloppl65","steam_id":76561198272420658,"connected_time":3406000000000,"state":"active","ping":115},{"user_id":42,"name":"Mury","steam_id":76561198069743049,"connected_time":2367000000000,"state":"active","ping":95},{"user_id":50,"name":"wearing my sunday pants","steam_id":76561198834106533,"connected_time":1517000000000,"state":"active","ping":80},{"user_id":60,"name":"Ping","steam_id":76561199206514106,"connected_time":809000000000,"state":"active","ping":45},{"user_id":40,"name":"meat glasses","steam_id":76561198046742645,"connected_time":2472000000000,"state":"active","ping":63},{"user_id":61,"name":"SWISSSS","steam_id":76561198202369220,"connected_time":679000000000,"state":"active","ping":158},{"user_id":49,"name":"gaming elliptical","steam_id":76561198013456569,"connected_time":1603000000000,"state":"active","ping":45},{"user_id":58,"name":"Gogo","steam_id":76561198172430633,"connected_time":913000000000,"state":"active","ping":88},{"user_id":69,"name":"Asanez3","steam_id":76561198037381436,"connected_time":65000000000,"state":"active","ping":72},{"user_id":39,"name":"steak","steam_id":76561199220381413,"connected_time":2693000000000,"state":"active","ping":103},{"user_id":62,"name":"Argon","steam_id":76561198091133177,"connected_time":633000000000,"state":"active","ping":54},{"user_id":33,"name":"MellowBoy-2354","steam_id":76561199080630632,"connected_time":3398000000000,"state":"active","ping":88},{"user_id":63,"name":"Mr.Bady","steam_id":76561199094651706,"connected_time":496000000000,"state":"active","ping":75},{"user_id":64,"name":"erm....","steam_id":76561198143132686,"connected_time":485000000000,"state":"active","ping":89}]},{"server_id":403,"name":"Uncletopia | Chicago | 4 | All Maps","name_short":"chi-4","host":"chi-1.us.uncletopia.com","port":27045,"enabled":true,"region":"us-central","cc":"us","latitude":41.881832,"longitude":-87.62318,"reserved":0,"last_update":"0001-01-01T00:00:00Z","name_a2s":"Uncletopia | Chicago | 4 | All Maps","protocol":17,"map":"koth_lakeside_final","folder":"tf","game":"Team Fortress","app_id":440,"player_count":0,"max_players":24,"Bots":0,"server_type":"Dedicated","server_os":"Linux","password":true,"vac":true,"version":"7882260","steam_id":85568392924515193,"keywords":["cp","nocrits","nodmgspread","uncletopia"],"game_id":440,"stv_port":27046,"stv_name":"Uncletopia | Chicago | 4 | All Maps | STV","players":null},{"server_id":36,"name":"Uncletopia | Chicago | 5 | All Maps","name_short":"chi-5","host":"chi-2.us.uncletopia.com","port":27015,"enabled":true,"region":"us-central","cc":"us","latitude":41.881832,"longitude":-87.62318,"reserved":0,"last_update":"0001-01-01T00:00:00Z","name_a2s":"Uncletopia | Chicago | 5 | All Maps","protocol":17,"map":"cp_dustbowl","folder":"tf","game":"Team Fortress","app_id":440,"player_count":0,"max_players":24,"Bots":0,"server_type":"Dedicated","server_os":"Linux","password":true,"vac":true,"version":"7882260","steam_id":85568392924866362,"keywords":["cp","nocrits","nodmgspread","uncletopia"],"game_id":440,"stv_port":27016,"stv_name":"Uncletopia | Chicago | 5 | All Maps | STV","players":null},{"server_id":37,"name":"Uncletopia | Chicago | 6 | All Maps","name_short":"chi-6","host":"chi-2.us.uncletopia.com","port":27025,"enabled":true,"region":"us-central","cc":"us","latitude":41.881832,"longitude":-87.62318,"reserved":0,"last_update":"0001-01-01T00:00:00Z","name_a2s":"Uncletopia | Chicago | 6 | All Maps","protocol":17,"map":"cp_altitude","folder":"tf","game":"Team Fortress","app_id":440,"player_count":0,"max_players":24,"Bots":0,"server_type":"Dedicated","server_os":"Linux","password":true,"vac":true,"version":"7882260","steam_id":85568392924866363,"keywords":["cp","nocrits","nodmgspread","uncletopia"],"game_id":440,"stv_port":27026,"stv_name":"Uncletopia | Chicago | 6 | All Maps | STV","players":null},{"server_id":38,"name":"Uncletopia | Chicago | 7 | Stopwatch Beta","name_short":"chi-7","host":"chi-2.us.uncletopia.com","port":27035,"enabled":true,"region":"us-central","cc":"us","latitude":41.881832,"longitude":-87.62318,"reserved":0,"last_update":"0001-01-01T00:00:00Z","name_a2s":"Uncletopia | Chicago | 7 | Stopwatch Beta","protocol":17,"map":"pl_upward","folder":"tf","game":"Team Fortress","app_id":440,"player_count":0,"max_players":24,"Bots":0,"server_type":"Dedicated","server_os":"Linux","password":true,"vac":true,"version":"7882260","steam_id":85568392924866364,"keywords":["nocrits","nodmgspread","payload","uncletopia"],"game_id":440,"stv_port":27036,"stv_name":"Uncletopia | Chicago | 7 | Stopwatch Beta | STV","players":null},{"server_id":39,"name":"Uncletopia | Chicago | 8 | Community","name_short":"chi-8","host":"chi-2.us.uncletopia.com","port":27045,"enabled":true,"region":"us-central","cc":"us","latitude":41.881832,"longitude":-87.62318,"reserved":0,"last_update":"0001-01-01T00:00:00Z","name_a2s":"Uncletopia | Chicago | 8 | Community","protocol":17,"map":"pl_badwater","folder":"tf","game":"Team Fortress","app_id":440,"player_count":0,"max_players":24,"Bots":0,"server_type":"Dedicated","server_os":"Linux","password":true,"vac":true,"version":"7882260","steam_id":85568392924866365,"keywords":["nocrits","nodmgspread","payload","uncletopia"],"game_id":440,"stv_port":27046,"stv_name":"Uncletopia | Chicago | 8 | Community | STV","players":null},{"server_id":8,"name":"Uncletopia | Dallas | 1 | All Maps","name_short":"dal-1","host":"dal-1.us.uncletopia.com","port":27015,"enabled":true,"region":"us-central","cc":"us","latitude":32.779167,"longitude":-96.80889,"reserved":0,"last_update":"0001-01-01T00:00:00Z","name_a2s":"Uncletopia | Dallas | 1 | All Maps","protocol":17,"map":"koth_viaduct","folder":"tf","game":"Team Fortress","app_id":440,"player_count":0,"max_players":24,"Bots":0,"server_type":"Dedicated","server_os":"Linux","password":true,"vac":true,"version":"7882260","steam_id":85568392924469986,"keywords":["cp","nocrits","nodmgspread","uncletopia"],"game_id":440,"stv_port":27016,"stv_name":"Uncletopia | Dallas | 1 | All Maps | STV","players":null},{"server_id":108,"name":"Uncletopia | Dallas | 2 | All Maps","name_short":"dal-2","host":"dal-1.us.uncletopia.com","port":27025,"enabled":true,"region":"us-central","cc":"us","latitude":32.779167,"longitude":-96.80889,"reserved":0,"last_update":"0001-01-01T00:00:00Z","name_a2s":"Uncletopia | Dallas | 2 | All Maps","protocol":17,"map":"cp_snakewater_final1","folder":"tf","game":"Team Fortress","app_id":440,"player_count":0,"max_players":24,"Bots":0,"server_type":"Dedicated","server_os":"Linux","password":true,"vac":true,"version":"7882260","steam_id":85568392924469988,"keywords":["cp","nocrits","nodmgspread","uncletopia"],"game_id":440,"stv_port":27026,"stv_name":"Uncletopia | Dallas | 2 | All Maps | STV","players":null},{"server_id":5,"name":"Uncletopia | Frankfurt | 1 | All Maps","name_short":"frk-1","host":"frk-1.de.uncletopia.com","port":27015,"enabled":true,"region":"eu","cc":"de","latitude":50.110924,"longitude":8.682127,"reserved":0,"last_update":"0001-01-01T00:00:00Z","name_a2s":"Uncletopia | Frankfurt | 1 | All Maps","protocol":17,"map":"pl_pier","folder":"tf","game":"Team Fortress","app_id":440,"player_count":24,"max_players":24,"Bots":0,"server_type":"Dedicated","server_os":"Linux","password":true,"vac":true,"version":"7882260","steam_id":85568392924469989,"keywords":["nocrits","nodmgspread","payload","uncletopia"],"game_id":440,"stv_port":27016,"stv_name":"Uncletopia | Frankfurt | 1 | All Maps | STV","players":[{"user_id":328,"name":"mole","steam_id":76561198082177314,"connected_time":484000000000,"state":"active","ping":77},{"user_id":309,"name":"Skeletros","steam_id":76561198130969152,"connected_time":1471000000000,"state":"active","ping":136},{"user_id":304,"name":"Bustin","steam_id":76561198142263809,"connected_time":1663000000000,"state":"active","ping":73},{"user_id":332,"name":"{YS} AAAAAAAAAAAAAAAAA","steam_id":76561198267463398,"connected_time":345000000000,"state":"active","ping":48},{"user_id":322,"name":"clems17","steam_id":76561199420685482,"connected_time":1252000000000,"state":"active","ping":59},{"user_id":336,"name":"Maru","steam_id":76561198030931030,"connected_time":66000000000,"state":"active","ping":152},{"user_id":297,"name":"Piox","steam_id":76561198125689157,"connected_time":2167000000000,"state":"active","ping":76},{"user_id":288,"name":"BEASTSLAYER","steam_id":76561197988085026,"connected_time":2995000000000,"state":"active","ping":68},{"user_id":326,"name":"skill based","steam_id":76561198341178432,"connected_time":585000000000,"state":"active","ping":57},{"user_id":335,"name":"Monara12th","steam_id":76561199478607360,"connected_time":140000000000,"state":"active","ping":69},{"user_id":256,"name":"walluu","steam_id":76561198121830870,"connected_time":5698000000000,"state":"active","ping":72},{"user_id":298,"name":"Drakehellstone","steam_id":76561199112627742,"connected_time":2142000000000,"state":"active","ping":73},{"user_id":331,"name":"BELADIT","steam_id":76561198011911501,"connected_time":389000000000,"state":"active","ping":67},{"user_id":314,"name":"domek brexit geezerüá¨üáß","steam_id":76561198048447632,"connected_time":1379000000000,"state":"active","ping":69},{"user_id":302,"name":"Kurage","steam_id":76561198021221288,"connected_time":1716000000000,"state":"active","ping":54},{"user_id":315,"name":"Qwertuss","steam_id":76561198026305366,"connected_time":1377000000000,"state":"active","ping":60},{"user_id":295,"name":"Sayu","steam_id":76561198395421637,"connected_time":2204000000000,"state":"active","ping":57},{"user_id":316,"name":"Star_","steam_id":76561198160975698,"connected_time":1372000000000,"state":"active","ping":59},{"user_id":321,"name":"\u003c blank \u003e","steam_id":76561198059375315,"connected_time":1290000000000,"state":"active","ping":68},{"user_id":318,"name":"Daviid__","steam_id":76561198162849492,"connected_time":1342000000000,"state":"active","ping":113},{"user_id":319,"name":"MGE BROTHER","steam_id":76561198796600155,"connected_time":1333000000000,"state":"active","ping":78},{"user_id":320,"name":"LET'S F!CK THEM!","steam_id":76561198297602677,"connected_time":1312000000000,"state":"active","ping":89},{"user_id":253,"name":"Aspartus","steam_id":76561198101385763,"connected_time":5856000000000,"state":"active","ping":47},{"user_id":296,"name":"radek","steam_id":76561197998883721,"connected_time":2204000000000,"state":"active","ping":72}]},{"server_id":110,"name":"Uncletopia | Frankfurt | 2 | All Maps","name_short":"frk-2","host":"frk-1.de.uncletopia.com","port":27025,"enabled":true,"region":"eu","cc":"de","latitude":50.110924,"longitude":8.682127,"reserved":0,"last_update":"0001-01-01T00:00:00Z","name_a2s":"Uncletopia | Frankfurt | 2 | All Maps","protocol":17,"map":"koth_lakeside_final","folder":"tf","game":"Team Fortress","app_id":440,"player_count":4,"max_players":24,"Bots":0,"server_type":"Dedicated","server_os":"Linux","password":true,"vac":true,"version":"7882260","steam_id":85568392924469990,"keywords":["cp","nocrits","nodmgspread","uncletopia"],"game_id":440,"stv_port":27026,"stv_name":"Uncletopia | Frankfurt | 2 | All Maps | STV","players":[{"user_id":16,"name":"Arkheid","steam_id":76561198063066081,"connected_time":641000000000,"state":"active","ping":55},{"user_id":17,"name":"Werit Fortress","steam_id":76561198397163021,"connected_time":459000000000,"state":"active","ping":144},{"user_id":18,"name":"Dor_atar","steam_id":76561198973980542,"connected_time":445000000000,"state":"active","ping":61},{"user_id":20,"name":"Egor Pomidor","steam_id":76561199175688390,"connected_time":188000000000,"state":"active","ping":66}]},{"server_id":308,"name":"Uncletopia | Frankfurt | 3 | All Maps","name_short":"frk-3","host":"frk-1.de.uncletopia.com","port":27035,"enabled":true,"region":"eu","cc":"de","latitude":50.110924,"longitude":8.682127,"reserved":0,"last_update":"0001-01-01T00:00:00Z","name_a2s":"Uncletopia | Frankfurt | 3 | All Maps","protocol":17,"map":"cp_process_final","folder":"tf","game":"Team Fortress","app_id":440,"player_count":1,"max_players":24,"Bots":0,"server_type":"Dedicated","server_os":"Linux","password":true,"vac":true,"version":"7882260","steam_id":85568392924504274,"keywords":["cp","nocrits","nodmgspread","uncletopia"],"game_id":440,"stv_port":27036,"stv_name":"Uncletopia | Frankfurt | 3 | All Maps | STV","players":[{"user_id":13,"name":"magicznynikt560","steam_id":76561199111248065,"connected_time":84000000000,"state":"active","ping":83}]},{"server_id":309,"name":"Uncletopia | Frankfurt | 4 | All Maps","name_short":"frk-4","host":"frk-1.de.uncletopia.com","port":27045,"enabled":true,"region":"eu","cc":"de","latitude":50.110924,"longitude":8.682127,"reserved":0,"last_update":"0001-01-01T00:00:00Z","name_a2s":"Uncletopia | Frankfurt | 4 | All Maps","protocol":17,"map":"cp_mountainlab","folder":"tf","game":"Team Fortress","app_id":440,"player_count":24,"max_players":24,"Bots":0,"server_type":"Dedicated","server_os":"Linux","password":true,"vac":true,"version":"7882260","steam_id":85568392924504275,"keywords":["cp","nocrits","nodmgspread","uncletopia"],"game_id":440,"stv_port":27046,"stv_name":"Uncletopia | Frankfurt | 4 | All Maps | STV","players":[{"user_id":92,"name":"Xi Floyd","steam_id":76561199008959451,"connected_time":1390000000000,"state":"active","ping":96},{"user_id":124,"name":"travis","steam_id":76561198138119811,"connected_time":297000000000,"state":"active","ping":60},{"user_id":110,"name":"Dunya","steam_id":76561198041371314,"connected_time":1023000000000,"state":"active","ping":119},{"user_id":108,"name":"n-ski","steam_id":76561198020550849,"connected_time":1053000000000,"state":"active","ping":75},{"user_id":94,"name":"applez","steam_id":76561198252942184,"connected_time":1329000000000,"state":"active","ping":108},{"user_id":64,"name":"Eazy-E hbivnm","steam_id":76561197996468677,"connected_time":2634000000000,"state":"active","ping":59},{"user_id":79,"name":"leminsc8","steam_id":76561198825084995,"connected_time":1945000000000,"state":"active","ping":38},{"user_id":119,"name":"Star in a pond","steam_id":76561198205501279,"connected_time":448000000000,"state":"active","ping":90},{"user_id":120,"name":"Grog","steam_id":76561198255390753,"connected_time":435000000000,"state":"active","ping":59},{"user_id":30,"name":"nemelex","steam_id":76561198958005865,"connected_time":4131000000000,"state":"active","ping":59},{"user_id":96,"name":"That Brown Nerd","steam_id":76561198196685086,"connected_time":1298000000000,"state":"active","ping":58},{"user_id":125,"name":"lol","steam_id":76561198104438656,"connected_time":103000000000,"state":"active","ping":73},{"user_id":65,"name":"Kendrick HugeE","steam_id":76561198245495152,"connected_time":2629000000000,"state":"active","ping":71},{"user_id":98,"name":"blurst of times","steam_id":76561197972325640,"connected_time":1228000000000,"state":"active","ping":51},{"user_id":111,"name":"Sir Warock","steam_id":76561198180468693,"connected_time":892000000000,"state":"active","ping":87},{"user_id":114,"name":"Renolox","steam_id":76561198036590182,"connected_time":667000000000,"state":"active","ping":78},{"user_id":70,"name":"Usher Arentrir","steam_id":76561198334126785,"connected_time":2349000000000,"state":"active","ping":74},{"user_id":83,"name":"Jackie Johnny","steam_id":76561198137726995,"connected_time":1656000000000,"state":"active","ping":60},{"user_id":101,"name":"T - Bone","steam_id":76561198107005109,"connected_time":1149000000000,"state":"active","ping":103},{"user_id":126,"name":"nevim","steam_id":76561199120843402,"connected_time":100000000000,"state":"active","ping":48},{"user_id":121,"name":"dongus","steam_id":76561198042774930,"connected_time":404000000000,"state":"active","ping":74},{"user_id":112,"name":"Osek","steam_id":76561197972646003,"connected_time":869000000000,"state":"active","ping":60},{"user_id":122,"name":"Zero (Orbital Gear Mastermind)","steam_id":76561198017416816,"connected_time":390000000000,"state":"active","ping":60},{"user_id":123,"name":"de_nerferno","steam_id":76561198051903037,"connected_time":353000000000,"state":"active","ping":106}]},{"server_id":310,"name":"Uncletopia | Frankfurt | 5 | All Maps","name_short":"frk-5","host":"frk-1.de.uncletopia.com","port":27055,"enabled":true,"region":"eu","cc":"de","latitude":50.110924,"longitude":8.682127,"reserved":0,"last_update":"0001-01-01T00:00:00Z","name_a2s":"Uncletopia | Frankfurt | 5 | All Maps","protocol":17,"map":"pl_thundermountain","folder":"tf","game":"Team Fortress","app_id":440,"player_count":24,"max_players":24,"Bots":0,"server_type":"Dedicated","server_os":"Linux","password":true,"vac":true,"version":"7882260","steam_id":85568392924504277,"keywords":["nocrits","nodmgspread","payload","uncletopia"],"game_id":440,"stv_port":27056,"stv_name":"Uncletopia | Frankfurt | 5 | All Maps | STV","players":[{"user_id":152,"name":"Koekoek","steam_id":76561198057092865,"connected_time":172000000000,"state":"active","ping":69},{"user_id":130,"name":"bonk enjoyer","steam_id":76561198111568728,"connected_time":2014000000000,"state":"active","ping":51},{"user_id":143,"name":"panakid","steam_id":76561198364121077,"connected_time":601000000000,"state":"active","ping":110},{"user_id":142,"name":"TonTon","steam_id":76561198145468895,"connected_time":617000000000,"state":"active","ping":54},{"user_id":153,"name":"easer_punk","steam_id":76561199225555393,"connected_time":140000000000,"state":"active","ping":64},{"user_id":147,"name":"C.H.E.R.E.P.","steam_id":76561198026938595,"connected_time":457000000000,"state":"active","ping":75},{"user_id":137,"name":"k.","steam_id":76561198062330245,"connected_time":984000000000,"state":"active","ping":64},{"user_id":124,"name":"Akkie.","steam_id":76561198017619091,"connected_time":2805000000000,"state":"active","ping":67},{"user_id":125,"name":"Soerlssoelss√∂en","steam_id":76561197993060585,"connected_time":2719000000000,"state":"active","ping":72},{"user_id":148,"name":"‚ú™  Sniperje PL #save tf2","steam_id":76561198147076801,"connected_time":393000000000,"state":"active","ping":89},{"user_id":141,"name":"HwK!","steam_id":76561198287835588,"connected_time":680000000000,"state":"active","ping":85},{"user_id":150,"name":"Shadow","steam_id":76561199128177959,"connected_time":290000000000,"state":"active","ping":68},{"user_id":112,"name":"froglids","steam_id":76561198045466919,"connected_time":4471000000000,"state":"active","ping":61},{"user_id":133,"name":"woop","steam_id":76561198985105074,"connected_time":1599000000000,"state":"active","ping":88},{"user_id":118,"name":"Umbro","steam_id":76561198087930438,"connected_time":3211000000000,"state":"active","ping":77},{"user_id":149,"name":"Sex Man TF2","steam_id":76561198798657045,"connected_time":318000000000,"state":"active","ping":76},{"user_id":145,"name":"ash","steam_id":76561198004728744,"connected_time":554000000000,"state":"active","ping":46},{"user_id":88,"name":"After8","steam_id":76561198090750865,"connected_time":6009000000000,"state":"active","ping":65},{"user_id":135,"name":"Huan Martines üéÉ","steam_id":76561199196245596,"connected_time":1328000000000,"state":"active","ping":83},{"user_id":134,"name":"John","steam_id":76561199012566222,"connected_time":1493000000000,"state":"active","ping":60},{"user_id":146,"name":"Boyarishnik","steam_id":76561198986324207,"connected_time":551000000000,"state":"active","ping":88},{"user_id":123,"name":"Well, off to hang myself","steam_id":76561198053374944,"connected_time":2843000000000,"state":"active","ping":72},{"user_id":151,"name":"The Mask...","steam_id":76561198052402891,"connected_time":231000000000,"state":"active","ping":57},{"user_id":154,"name":"Chopperson_","steam_id":76561198873728497,"connected_time":137000000000,"state":"active","ping":113}]},{"server_id":311,"name":"Uncletopia | Frankfurt | 6 | All Maps","name_short":"frk-6","host":"frk-1.de.uncletopia.com","port":27065,"enabled":true,"region":"eu","cc":"de","latitude":50.110924,"longitude":8.682127,"reserved":0,"last_update":"0001-01-01T00:00:00Z","name_a2s":"Uncletopia | Frankfurt | 6 | All Maps","protocol":17,"map":"pl_borneo","folder":"tf","game":"Team Fortress","app_id":440,"player_count":21,"max_players":24,"Bots":0,"server_type":"Dedicated","server_os":"Linux","password":true,"vac":true,"version":"7882260","steam_id":85568392924504278,"keywords":["nocrits","nodmgspread","payload","uncletopia"],"game_id":440,"stv_port":27066,"stv_name":"Uncletopia | Frankfurt | 6 | All Maps | STV","players":[{"user_id":289,"name":"Zoompee","steam_id":76561198021382249,"connected_time":1233000000000,"state":"active","ping":114},{"user_id":278,"name":"LordFappy","steam_id":76561198070875399,"connected_time":2705000000000,"state":"active","ping":60},{"user_id":252,"name":"Acbh","steam_id":76561198158271672,"connected_time":3840000000000,"state":"active","ping":68},{"user_id":247,"name":"Stefos","steam_id":76561198121601141,"connected_time":3964000000000,"state":"active","ping":80},{"user_id":288,"name":"Butt","steam_id":76561198115496457,"connected_time":1262000000000,"state":"active","ping":52},{"user_id":292,"name":"REN","steam_id":76561198000596385,"connected_time":1210000000000,"state":"active","ping":81},{"user_id":286,"name":"Talkkari","steam_id":76561198025327723,"connected_time":1910000000000,"state":"active","ping":60},{"user_id":274,"name":"FuneralDJ (semen demon)","steam_id":76561198105320071,"connected_time":2791000000000,"state":"active","ping":59},{"user_id":295,"name":"Penis Contortionist","steam_id":76561198073663784,"connected_time":1045000000000,"state":"active","ping":47},{"user_id":272,"name":"rwota","steam_id":76561198385769722,"connected_time":2830000000000,"state":"active","ping":105},{"user_id":296,"name":"i look at gay people","steam_id":76561198078032019,"connected_time":642000000000,"state":"active","ping":74},{"user_id":195,"name":"OreHaX","steam_id":76561198272166623,"connected_time":7496000000000,"state":"active","ping":60},{"user_id":257,"name":"Dolcelatte","steam_id":76561198038501770,"connected_time":3761000000000,"state":"active","ping":57},{"user_id":276,"name":"Friusah","steam_id":76561197971677420,"connected_time":2709000000000,"state":"active","ping":98},{"user_id":300,"name":"Twitch//TrueKing","steam_id":76561198971240136,"connected_time":51000000000,"state":"active","ping":98},{"user_id":294,"name":"daanvanliempt05","steam_id":76561198355398948,"connected_time":1117000000000,"state":"active","ping":53},{"user_id":299,"name":"The Third Degree collector","steam_id":76561199165355017,"connected_time":201000000000,"state":"active","ping":75},{"user_id":262,"name":"RocketBoy08","steam_id":76561198833978944,"connected_time":3511000000000,"state":"active","ping":86},{"user_id":263,"name":"Xiqui","steam_id":76561198818386611,"connected_time":3508000000000,"state":"active","ping":90},{"user_id":232,"name":"Krefa12","steam_id":76561198268375393,"connected_time":5119000000000,"state":"active","ping":77},{"user_id":279,"name":"doctor sex","steam_id":76561197992018795,"connected_time":2667000000000,"state":"active","ping":78}]},{"server_id":23,"name":"Uncletopia | Frankfurt | 7 | Stopwatch Beta","name_short":"frk-7","host":"frk-1.de.uncletopia.com","port":27075,"enabled":true,"region":"eu","cc":"de","latitude":50.110924,"longitude":8.682127,"reserved":0,"last_update":"0001-01-01T00:00:00Z","name_a2s":"Uncletopia | Frankfurt | 7 | Stopwatch Beta","protocol":17,"map":"workshop/koth_clearcut_b15.ugc2107050255","folder":"tf","game":"Team Fortress","app_id":440,"player_count":0,"max_players":24,"Bots":0,"server_type":"Dedicated","server_os":"Linux","password":true,"vac":true,"version":"7882260","steam_id":85568392924742827,"keywords":["cp","nocrits","nodmgspread","uncletopia"],"game_id":440,"stv_port":27076,"stv_name":"Uncletopia | Frankfurt | 7 | Stopwatch Beta | STV","players":null},{"server_id":24,"name":"Uncletopia | Frankfurt | 8 | Community","name_short":"frk-8","host":"frk-1.de.uncletopia.com","port":27085,"enabled":true,"region":"eu","cc":"de","latitude":50.110924,"longitude":8.682127,"reserved":0,"last_update":"0001-01-01T00:00:00Z","name_a2s":"Uncletopia | Frankfurt | 8 | Community","protocol":17,"map":"workshop/cp_hazyfort_rc6.ugc1365963729","folder":"tf","game":"Team Fortress","app_id":440,"player_count":0,"max_players":24,"Bots":0,"server_type":"Dedicated","server_os":"Linux","password":true,"vac":true,"version":"7882260","steam_id":85568392924742828,"keywords":["cp","nocrits","nodmgspread","uncletopia"],"game_id":440,"stv_port":27086,"stv_name":"Uncletopia | Frankfurt | 8 | Community | STV","players":null},{"server_id":202,"name":"Uncletopia | Hong Kong | 1 | All Maps","name_short":"hgk-1","host":"hgk-1.hk.uncletopia.com","port":27015,"enabled":true,"region":"asia","cc":"hk","latitude":22.302711,"longitude":114.177216,"reserved":0,"last_update":"0001-01-01T00:00:00Z","name_a2s":"Uncletopia | Hong Kong | 1 | All Maps","protocol":17,"map":"cp_process_final","folder":"tf","game":"Team Fortress","app_id":440,"player_count":24,"max_players":24,"Bots":0,"server_type":"Dedicated","server_os":"Linux","password":true,"vac":true,"version":"7882260","steam_id":85568392924494504,"keywords":["cp","nocrits","nodmgspread","uncletopia"],"game_id":440,"stv_port":27016,"stv_name":"Uncletopia | Hong Kong | 1 | All Maps | STV","players":[{"user_id":499,"name":"lario","steam_id":76561199146847474,"connected_time":1530000000000,"state":"active","ping":40},{"user_id":457,"name":"TheChainsaw","steam_id":76561198312001455,"connected_time":6170000000000,"state":"active","ping":117},{"user_id":507,"name":"GAMA","steam_id":76561198049755630,"connected_time":1078000000000,"state":"active","ping":112},{"user_id":491,"name":"kkr","steam_id":76561198878176849,"connected_time":2070000000000,"state":"active","ping":98},{"user_id":508,"name":"SEX","steam_id":76561198374545561,"connected_time":1060000000000,"state":"active","ping":98},{"user_id":511,"name":"breast milk connoisseur","steam_id":76561198138187921,"connected_time":967000000000,"state":"active","ping":51},{"user_id":458,"name":"El Blanco","steam_id":76561198100044991,"connected_time":6128000000000,"state":"active","ping":128},{"user_id":476,"name":"r/sinkpissers","steam_id":76561198413116920,"connected_time":3841000000000,"state":"active","ping":75},{"user_id":485,"name":"Momoxhien","steam_id":76561198414997429,"connected_time":2757000000000,"state":"active","ping":61},{"user_id":483,"name":"stupendous sycophant","steam_id":76561198055553140,"connected_time":3134000000000,"state":"active","ping":75},{"user_id":498,"name":"Cornelius Cuntwad","steam_id":76561199122491157,"connected_time":1560000000000,"state":"active","ping":176},{"user_id":426,"name":"erwynmurphy711","steam_id":76561198288311270,"connected_time":9662000000000,"state":"active","ping":120},{"user_id":461,"name":"Azule","steam_id":76561198136804802,"connected_time":5901000000000,"state":"active","ping":126},{"user_id":477,"name":"Piggy","steam_id":76561199293416159,"connected_time":3797000000000,"state":"active","ping":84},{"user_id":482,"name":"IHS","steam_id":76561198048065303,"connected_time":3146000000000,"state":"active","ping":140},{"user_id":509,"name":"booty cheeks xd","steam_id":76561198324008555,"connected_time":1058000000000,"state":"active","ping":56},{"user_id":504,"name":"17","steam_id":76561198241530712,"connected_time":1370000000000,"state":"active","ping":56},{"user_id":427,"name":"TomCat","steam_id":76561198133744053,"connected_time":9649000000000,"state":"active","ping":119},{"user_id":465,"name":"Stupid B","steam_id":76561198131423270,"connected_time":5038000000000,"state":"active","ping":117},{"user_id":471,"name":"TOP 69 Women Beater","steam_id":76561198333809604,"connected_time":4941000000000,"state":"active","ping":75},{"user_id":470,"name":"Milk‚ù§","steam_id":76561198163911560,"connected_time":4958000000000,"state":"active","ping":129},{"user_id":400,"name":"ArcticDolphin","steam_id":76561198203626319,"connected_time":10499000000000,"state":"active","ping":126},{"user_id":423,"name":"Barbet","steam_id":76561199096946793,"connected_time":9987000000000,"state":"active","ping":114},{"user_id":488,"name":"Turbo.RF4 x Platinum","steam_id":76561199061012484,"connected_time":2365000000000,"state":"active","ping":64}]},{"server_id":1,"name":"Uncletopia | Los Angeles | 1 | All Maps","name_short":"lax-1","host":"lax-1.us.uncletopia.com","port":27015,"enabled":true,"region":"us-west","cc":"us","latitude":33.94279,"longitude":-118.41004,"reserved":0,"last_update":"0001-01-01T00:00:00Z","name_a2s":"Uncletopia | Los Angeles | 1 | All Maps","protocol":17,"map":"pl_upward","folder":"tf","game":"Team Fortress","app_id":440,"player_count":0,"max_players":24,"Bots":0,"server_type":"Dedicated","server_os":"Linux","password":true,"vac":true,"version":"7882260","steam_id":85568392924469991,"keywords":["nocrits","nodmgspread","payload","uncletopia"],"game_id":440,"stv_port":27016,"stv_name":"Uncletopia | Los Angeles | 1 | All Maps | STV","players":null},{"server_id":112,"name":"Uncletopia | Los Angeles | 2 | All Maps","name_short":"lax-2","host":"lax-1.us.uncletopia.com","port":27025,"enabled":true,"region":"us-west","cc":"us","latitude":33.94279,"longitude":-118.41004,"reserved":0,"last_update":"0001-01-01T00:00:00Z","name_a2s":"Uncletopia | Los Angeles | 2 | All Maps","protocol":17,"map":"cp_sunshine","folder":"tf","game":"Team Fortress","app_id":440,"player_count":0,"max_players":24,"Bots":0,"server_type":"Dedicated","server_os":"Linux","password":true,"vac":true,"version":"7882260","steam_id":85568392924469992,"keywords":["cp","nocrits","nodmgspread","uncletopia"],"game_id":440,"stv_port":27026,"stv_name":"Uncletopia | Los Angeles | 2 | All Maps | STV","players":null},{"server_id":324,"name":"Uncletopia | Los Angeles | 3 | All Maps","name_short":"lax-3","host":"lax-1.us.uncletopia.com","port":27035,"enabled":true,"region":"us-west","cc":"us","latitude":33.94279,"longitude":-118.41004,"reserved":0,"last_update":"0001-01-01T00:00:00Z","name_a2s":"Uncletopia | Los Angeles | 3 | All Maps","protocol":17,"map":"pl_swiftwater_final1","folder":"tf","game":"Team Fortress","app_id":440,"player_count":0,"max_players":24,"Bots":0,"server_type":"Dedicated","server_os":"Linux","password":true,"vac":true,"version":"7882260","steam_id":85568392924510198,"keywords":["nocrits","nodmgspread","payload","uncletopia"],"game_id":440,"stv_port":27036,"stv_name":"Uncletopia | Los Angeles | 3 | All Maps | STV","players":null},{"server_id":25,"name":"Uncletopia | Los Angeles | 4 | Stopwatch Beta","name_short":"lax-4","host":"lax-1.us.uncletopia.com","port":27045,"enabled":true,"region":"us-west","cc":"us","latitude":33.94279,"longitude":-118.41004,"reserved":0,"last_update":"0001-01-01T00:00:00Z","name_a2s":"Uncletopia | Los Angeles | 4 | Stopwatch Beta","protocol":17,"map":"koth_viaduct","folder":"tf","game":"Team Fortress","app_id":440,"player_count":0,"max_players":24,"Bots":0,"server_type":"Dedicated","server_os":"Linux","password":true,"vac":true,"version":"7882260","steam_id":85568392924510199,"keywords":["cp","nocrits","nodmgspread","uncletopia"],"game_id":440,"stv_port":27046,"stv_name":"Uncletopia | Los Angeles | 4 | Stopwatch Beta | STV","players":null},{"server_id":11,"name":"Uncletopia | London | 1 | All Maps","name_short":"lon-1","host":"lon-1.uk.uncletopia.com","port":27015,"enabled":true,"region":"eu","cc":"gb","latitude":51.509865,"longitude":-0.118092,"reserved":0,"last_update":"0001-01-01T00:00:00Z","name_a2s":"Uncletopia | London | 1 | All Maps","protocol":17,"map":"pl_barnblitz","folder":"tf","game":"Team Fortress","app_id":440,"player_count":24,"max_players":24,"Bots":0,"server_type":"Dedicated","server_os":"Linux","password":true,"vac":true,"version":"7882260","steam_id":85568392924367362,"keywords":["nocrits","nodmgspread","payload","uncletopia"],"game_id":440,"stv_port":27016,"stv_name":"Uncletopia | London | 1 | All Maps | STV","players":[{"user_id":328,"name":"\u003e\u003c\u003e","steam_id":76561198152392309,"connected_time":5461000000000,"state":"active","ping":48},{"user_id":380,"name":"JAZZ COMMANDO","steam_id":76561198031766068,"connected_time":485000000000,"state":"active","ping":55},{"user_id":330,"name":"gexfan3165","steam_id":76561199459414738,"connected_time":5401000000000,"state":"active","ping":81},{"user_id":374,"name":"Anri Okita's Massive Milkers","steam_id":76561199186352720,"connected_time":538000000000,"state":"active","ping":49},{"user_id":373,"name":"ToniGAM3S","steam_id":76561198128605351,"connected_time":771000000000,"state":"active","ping":69},{"user_id":387,"name":"some_doomer_online","steam_id":76561198183978514,"connected_time":213000000000,"state":"active","ping":133},{"user_id":377,"name":"Ohad","steam_id":76561198067989324,"connected_time":505000000000,"state":"active","ping":113},{"user_id":388,"name":"Much_doge_many_wow","steam_id":76561199076791503,"connected_time":52000000000,"state":"spawning","ping":71},{"user_id":368,"name":"something","steam_id":76561198198581615,"connected_time":1172000000000,"state":"active","ping":56},{"user_id":386,"name":"Skinny101","steam_id":76561197985599360,"connected_time":260000000000,"state":"active","ping":59},{"user_id":365,"name":"big poo","steam_id":76561198129157178,"connected_time":1786000000000,"state":"active","ping":96},{"user_id":355,"name":"‚ô•aura‚ô•","steam_id":76561198066258544,"connected_time":2052000000000,"state":"active","ping":62},{"user_id":337,"name":"Grease Huffer","steam_id":76561198982674420,"connected_time":4032000000000,"state":"active","ping":47},{"user_id":353,"name":"nappo","steam_id":76561198060105180,"connected_time":2053000000000,"state":"active","ping":73},{"user_id":376,"name":"flybynyt","steam_id":76561198121747990,"connected_time":515000000000,"state":"active","ping":70},{"user_id":372,"name":"lunaire","steam_id":76561198163344452,"connected_time":792000000000,"state":"active","ping":101},{"user_id":361,"name":"Green","steam_id":76561198183580019,"connected_time":1869000000000,"state":"active","ping":74},{"user_id":378,"name":"Michael","steam_id":76561198003146906,"connected_time":502000000000,"state":"active","ping":41},{"user_id":379,"name":"Pepegi","steam_id":76561198001230113,"connected_time":497000000000,"state":"active","ping":88},{"user_id":389,"name":"The2PLAYZ","steam_id":76561198352720404,"connected_time":0,"state":"connecting","ping":0},{"user_id":382,"name":"Mr_Pulse_","steam_id":76561198095001602,"connected_time":470000000000,"state":"active","ping":101},{"user_id":359,"name":"Bonkie","steam_id":76561198205701441,"connected_time":1899000000000,"state":"active","ping":54},{"user_id":371,"name":"Commit Persona 3","steam_id":76561198060503243,"connected_time":1062000000000,"state":"active","ping":45},{"user_id":385,"name":"Popxpce / trade.tf","steam_id":76561198365405733,"connected_time":318000000000,"state":"active","ping":301}]},{"server_id":114,"name":"Uncletopia | London | 2 | All Maps","name_short":"lon-2","host":"lon-1.uk.uncletopia.com","port":27025,"enabled":true,"region":"eu","cc":"gb","latitude":51.509865,"longitude":-0.118092,"reserved":0,"last_update":"0001-01-01T00:00:00Z","name_a2s":"Uncletopia | London | 2 | All Maps","protocol":17,"map":"koth_highpass","folder":"tf","game":"Team Fortress","app_id":440,"player_count":0,"max_players":24,"Bots":0,"server_type":"Dedicated","server_os":"Linux","password":true,"vac":true,"version":"7882260","steam_id":85568392924470941,"keywords":["cp","nocrits","nodmgspread","uncletopia"],"game_id":440,"stv_port":27026,"stv_name":"Uncletopia | London | 2 | All Maps | STV","players":null},{"server_id":320,"name":"Uncletopia | London | 3 | All Maps","name_short":"lon-3","host":"lon-1.uk.uncletopia.com","port":27035,"enabled":true,"region":"eu","cc":"gb","latitude":51.509865,"longitude":-0.118092,"reserved":0,"last_update":"0001-01-01T00:00:00Z","name_a2s":"Uncletopia | London | 3 | All Maps","protocol":17,"map":"cp_dustbowl","folder":"tf","game":"Team Fortress","app_id":440,"player_count":22,"max_players":24,"Bots":0,"server_type":"Dedicated","server_os":"Linux","password":true,"vac":true,"version":"7882260","steam_id":85568392924510192,"keywords":["cp","nocrits","nodmgspread","uncletopia"],"game_id":440,"stv_port":27036,"stv_name":"Uncletopia | London | 3 | All Maps | STV","players":[{"user_id":262,"name":"WaDIP","steam_id":76561198010270494,"connected_time":1024000000000,"state":"active","ping":79},{"user_id":277,"name":"Miss Bari","steam_id":76561198365286092,"connected_time":364000000000,"state":"active","ping":43},{"user_id":267,"name":"slippy","steam_id":76561198389760428,"connected_time":733000000000,"state":"active","ping":65},{"user_id":281,"name":"The.Real.Genesis","steam_id":76561198999652040,"connected_time":208000000000,"state":"active","ping":45},{"user_id":269,"name":"dig out, dumbnut","steam_id":76561198180684423,"connected_time":711000000000,"state":"active","ping":69},{"user_id":216,"name":"Snake-chan","steam_id":76561199044755854,"connected_time":4090000000000,"state":"active","ping":83},{"user_id":279,"name":"Greenmaker","steam_id":76561198060466591,"connected_time":320000000000,"state":"active","ping":86},{"user_id":263,"name":"the uhhh","steam_id":76561198208045069,"connected_time":1023000000000,"state":"active","ping":48},{"user_id":284,"name":"Your Local Shady Salesman","steam_id":76561199070028098,"connected_time":65000000000,"state":"active","ping":193},{"user_id":234,"name":"Mauve","steam_id":76561198371121377,"connected_time":3104000000000,"state":"active","ping":45},{"user_id":272,"name":"shoklate","steam_id":76561199105796083,"connected_time":673000000000,"state":"active","ping":79},{"user_id":238,"name":"M2rtRa","steam_id":76561198111036466,"connected_time":2988000000000,"state":"active","ping":83},{"user_id":251,"name":"Medieval Doktor","steam_id":76561198075373362,"connected_time":1898000000000,"state":"active","ping":41},{"user_id":273,"name":"antnt","steam_id":76561198112546748,"connected_time":660000000000,"state":"active","ping":49},{"user_id":246,"name":"I am the one who donks","steam_id":76561198419583460,"connected_time":2555000000000,"state":"active","ping":72},{"user_id":259,"name":"Wally","steam_id":76561199383437138,"connected_time":1266000000000,"state":"active","ping":115},{"user_id":280,"name":"Jon","steam_id":76561199380849468,"connected_time":307000000000,"state":"active","ping":59},{"user_id":283,"name":"–∫–µ–∫—Å","steam_id":76561199203525443,"connected_time":193000000000,"state":"active","ping":93},{"user_id":275,"name":"Û†Ä°Û†Ä°","steam_id":76561198399390201,"connected_time":626000000000,"state":"active","ping":92},{"user_id":226,"name":"Sylvanas","steam_id":76561198154904165,"connected_time":3555000000000,"state":"active","ping":104},{"user_id":285,"name":"Amoru","steam_id":76561198798161817,"connected_time":59000000000,"state":"spawning","ping":121},{"user_id":236,"name":"wide appreciator","steam_id":76561198083286511,"connected_time":3087000000000,"state":"active","ping":32}]},{"server_id":321,"name":"Uncletopia | London | 4 | All Maps","name_short":"lon-4","host":"lon-1.uk.uncletopia.com","port":27045,"enabled":true,"region":"eu","cc":"gb","latitude":51.509865,"longitude":-0.118092,"reserved":0,"last_update":"0001-01-01T00:00:00Z","name_a2s":"Uncletopia | London | 4 | All Maps","protocol":17,"map":"pl_upward","folder":"tf","game":"Team Fortress","app_id":440,"player_count":24,"max_players":24,"Bots":0,"server_type":"Dedicated","server_os":"Linux","password":true,"vac":true,"version":"7882260","steam_id":85568392924510193,"keywords":["nocrits","nodmgspread","payload","uncletopia"],"game_id":440,"stv_port":27046,"stv_name":"Uncletopia | London | 4 | All Maps | STV","players":[{"user_id":38,"name":"Balls","steam_id":76561198086400484,"connected_time":1542000000000,"state":"active","ping":67},{"user_id":53,"name":"SpeddyMeddy","steam_id":76561197999693825,"connected_time":994000000000,"state":"active","ping":79},{"user_id":15,"name":"prot√´in","steam_id":76561197998423616,"connected_time":2002000000000,"state":"active","ping":67},{"user_id":59,"name":"Thors","steam_id":76561197968739075,"connected_time":373000000000,"state":"active","ping":44},{"user_id":32,"name":"Grelamass","steam_id":76561199372198864,"connected_time":1620000000000,"state":"active","ping":74},{"user_id":58,"name":"Shay","steam_id":76561198032438746,"connected_time":448000000000,"state":"active","ping":102},{"user_id":20,"name":"SovietZombie‚Ñ¢","steam_id":76561198140093751,"connected_time":1836000000000,"state":"active","ping":41},{"user_id":34,"name":"Utku√á","steam_id":76561198094369071,"connected_time":1567000000000,"state":"active","ping":104},{"user_id":46,"name":"D0kai","steam_id":76561198389271720,"connected_time":1421000000000,"state":"active","ping":53},{"user_id":35,"name":"Loot Rat","steam_id":76561198154304193,"connected_time":1560000000000,"state":"active","ping":90},{"user_id":36,"name":"Sunny","steam_id":76561198125892600,"connected_time":1550000000000,"state":"active","ping":121},{"user_id":50,"name":"Max Power","steam_id":76561198019269089,"connected_time":1291000000000,"state":"active","ping":55},{"user_id":27,"name":"–ë–æ–µ–≤–æ–π –∫–æ–º–∞—Ä","steam_id":76561198796564094,"connected_time":1726000000000,"state":"active","ping":90},{"user_id":48,"name":"kallerannar","steam_id":76561199095701143,"connected_time":1388000000000,"state":"active","ping":85},{"user_id":60,"name":"John","steam_id":76561198903255436,"connected_time":367000000000,"state":"active","ping":44},{"user_id":61,"name":"WebJeb","steam_id":76561198998313621,"connected_time":229000000000,"state":"active","ping":128},{"user_id":64,"name":"Neco-arc Astolfo","steam_id":76561198989682540,"connected_time":98000000000,"state":"active","ping":51},{"user_id":41,"name":"–î–µ–Ω–∏—Å –ë–∞–∑—É–∫–∞","steam_id":76561198835849082,"connected_time":1505000000000,"state":"active","ping":94},{"user_id":55,"name":"BHhhh","steam_id":76561198050077576,"connected_time":931000000000,"state":"active","ping":117},{"user_id":43,"name":"Cannabis Enjoyer","steam_id":76561198051685232,"connected_time":1475000000000,"state":"active","ping":60},{"user_id":51,"name":"S√ú√ú√ú√ú√ú√ú√ú√ú","steam_id":76561198160610368,"connected_time":1141000000000,"state":"active","ping":101},{"user_id":52,"name":"LOBZIK","steam_id":76561198114830120,"connected_time":1028000000000,"state":"active","ping":81},{"user_id":63,"name":"Mads","steam_id":76561198089261782,"connected_time":215000000000,"state":"active","ping":73},{"user_id":56,"name":"bhalazs","steam_id":76561198248831634,"connected_time":891000000000,"state":"active","ping":98}]},{"server_id":21,"name":"Uncletopia | London | 5 | All Maps","name_short":"lon-5","host":"lon-1.uk.uncletopia.com","port":27055,"enabled":true,"region":"eu","cc":"gb","latitude":51.509865,"longitude":-0.118092,"reserved":0,"last_update":"0001-01-01T00:00:00Z","name_a2s":"Uncletopia | London | 5 | All Maps","protocol":17,"map":"koth_viaduct","folder":"tf","game":"Team Fortress","app_id":440,"player_count":0,"max_players":24,"Bots":0,"server_type":"Dedicated","server_os":"Linux","password":true,"vac":true,"version":"7882260","steam_id":85568392924742829,"keywords":["cp","nocrits","nodmgspread","uncletopia"],"game_id":440,"stv_port":27056,"stv_name":"Uncletopia | London | 5 | All Maps | STV","players":null},{"server_id":22,"name":"Uncletopia | London | 6 | All Maps","name_short":"lon-6","host":"lon-1.uk.uncletopia.com","port":27065,"enabled":true,"region":"eu","cc":"gb","latitude":51.509865,"longitude":-0.118092,"reserved":0,"last_update":"0001-01-01T00:00:00Z","name_a2s":"Uncletopia | London | 6 | All Maps","protocol":17,"map":"cp_egypt_final","folder":"tf","game":"Team Fortress","app_id":440,"player_count":23,"max_players":24,"Bots":0,"server_type":"Dedicated","server_os":"Linux","password":true,"vac":true,"version":"7882260","steam_id":85568392924742830,"keywords":["cp","nocrits","nodmgspread","uncletopia"],"game_id":440,"stv_port":27066,"stv_name":"Uncletopia | London | 6 | All Maps | STV","players":[{"user_id":206,"name":"Marvelzombie","steam_id":76561198129951058,"connected_time":13000000000,"state":"active","ping":142},{"user_id":205,"name":"Dzieciol","steam_id":76561198160237556,"connected_time":116000000000,"state":"active","ping":62},{"user_id":198,"name":"Seail_M","steam_id":76561198002405605,"connected_time":779000000000,"state":"active","ping":61},{"user_id":192,"name":"Gardvord","steam_id":76561198120715753,"connected_time":895000000000,"state":"active","ping":70},{"user_id":204,"name":"J.G. Klaus","steam_id":76561198001111196,"connected_time":457000000000,"state":"active","ping":159},{"user_id":178,"name":"Sentry hater","steam_id":76561199269309068,"connected_time":3127000000000,"state":"active","ping":79},{"user_id":200,"name":"jello_hey","steam_id":76561199176327650,"connected_time":705000000000,"state":"active","ping":132},{"user_id":142,"name":"unforeseen consequences","steam_id":76561198377702281,"connected_time":5006000000000,"state":"active","ping":51},{"user_id":143,"name":"StumpKnuckle","steam_id":76561197995325320,"connected_time":4945000000000,"state":"active","ping":50},{"user_id":202,"name":"Metaphysical Conifer Cone","steam_id":76561198272643802,"connected_time":566000000000,"state":"active","ping":88},{"user_id":194,"name":"Tiobio","steam_id":76561198355473473,"connected_time":887000000000,"state":"active","ping":75},{"user_id":195,"name":"TheQueenInChess","steam_id":76561199045410906,"connected_time":887000000000,"state":"active","ping":54},{"user_id":185,"name":"sgt dirtbag","steam_id":76561199064170305,"connected_time":1804000000000,"state":"active","ping":93},{"user_id":196,"name":"MegaKEKER","steam_id":76561199485792353,"connected_time":873000000000,"state":"active","ping":86},{"user_id":207,"name":"Varsk","steam_id":76561198061398890,"connected_time":1000000000,"state":"spawning","ping":68},{"user_id":103,"name":"hmscole09","steam_id":76561198811362788,"connected_time":7741000000000,"state":"active","ping":56},{"user_id":116,"name":"suddenly, a bear","steam_id":76561198195857751,"connected_time":6915000000000,"state":"active","ping":71},{"user_id":149,"name":"Sande","steam_id":76561198275239290,"connected_time":4824000000000,"state":"active","ping":86},{"user_id":179,"name":"Andy","steam_id":76561198046918834,"connected_time":3122000000000,"state":"active","ping":66},{"user_id":160,"name":"Z4p4d","steam_id":76561198011755675,"connected_time":4436000000000,"state":"active","ping":80},{"user_id":187,"name":"Uncle Terry","steam_id":76561198396415736,"connected_time":1198000000000,"state":"active","ping":56},{"user_id":181,"name":"Darfsterman #rustclash","steam_id":76561199004139305,"connected_time":2620000000000,"state":"active","ping":62},{"user_id":203,"name":"James","steam_id":76561198307178691,"connected_time":547000000000,"state":"active","ping":55}]},{"server_id":40,"name":"Uncletopia | London | 7 | No Payload","name_short":"lon-7","host":"lon-1.uk.uncletopia.com","port":27075,"enabled":true,"region":"eu","cc":"gb","latitude":51.509865,"longitude":-0.118092,"reserved":0,"last_update":"0001-01-01T00:00:00Z","name_a2s":"Uncletopia | London | 7 | No Payload","protocol":17,"map":"ctf_turbine","folder":"tf","game":"Team Fortress","app_id":440,"player_count":0,"max_players":24,"Bots":0,"server_type":"Dedicated","server_os":"Linux","password":true,"vac":true,"version":"7882260","steam_id":85568392924964314,"keywords":["ctf","nocrits","nodmgspread","uncletopia"],"game_id":440,"stv_port":27076,"stv_name":"Uncletopia | London | 7 | No Payload | STV","players":null},{"server_id":41,"name":"Uncletopia | London | 8 | Community","name_short":"lon-8","host":"lon-1.uk.uncletopia.com","port":27085,"enabled":true,"region":"eu","cc":"gb","latitude":51.509865,"longitude":-0.118092,"reserved":0,"last_update":"0001-01-01T00:00:00Z","name_a2s":"Uncletopia | London | 8 | Community","protocol":17,"map":"workshop/cp_snowbase_b18.ugc2081770490","folder":"tf","game":"Team Fortress","app_id":440,"player_count":16,"max_players":24,"Bots":0,"server_type":"Dedicated","server_os":"Linux","password":true,"vac":true,"version":"7882260","steam_id":85568392924964315,"keywords":["cp","nocrits","nodmgspread","uncletopia"],"game_id":440,"stv_port":27086,"stv_name":"Uncletopia | London | 8 | Community | STV","players":[{"user_id":183,"name":"I smelled your hair","steam_id":76561198231916584,"connected_time":1328000000000,"state":"active","ping":54},{"user_id":191,"name":"The KlitCommander","steam_id":76561197988387150,"connected_time":778000000000,"state":"active","ping":56},{"user_id":200,"name":"ohma","steam_id":76561198091864790,"connected_time":179000000000,"state":"active","ping":46},{"user_id":135,"name":"Iphy","steam_id":76561198137519489,"connected_time":4541000000000,"state":"active","ping":75},{"user_id":128,"name":"MasterNaglis","steam_id":76561198348834177,"connected_time":4646000000000,"state":"active","ping":74},{"user_id":155,"name":"Tomfool","steam_id":76561197993256481,"connected_time":3187000000000,"state":"active","ping":89},{"user_id":156,"name":"ossop","steam_id":76561198045271499,"connected_time":3187000000000,"state":"active","ping":75},{"user_id":186,"name":"L'espion Fran√ßais","steam_id":76561198148271880,"connected_time":1029000000000,"state":"active","ping":58},{"user_id":175,"name":"|TG| Speaker264","steam_id":76561198056133535,"connected_time":2320000000000,"state":"active","ping":64},{"user_id":129,"name":"Borko","steam_id":76561199097266352,"connected_time":4636000000000,"state":"active","ping":90},{"user_id":176,"name":"¬∞Creamy Gilligan","steam_id":76561198001569384,"connected_time":2313000000000,"state":"active","ping":150},{"user_id":143,"name":"Flare","steam_id":76561198039098320,"connected_time":4204000000000,"state":"active","ping":47},{"user_id":153,"name":"j o n","steam_id":76561199229511741,"connected_time":3398000000000,"state":"active","ping":83},{"user_id":179,"name":"luivul","steam_id":76561197990672410,"connected_time":2216000000000,"state":"active","ping":74},{"user_id":180,"name":"antondstepanenko","steam_id":76561198966147466,"connected_time":2161000000000,"state":"active","ping":88},{"user_id":89,"name":"‚à´cos¬≤(2x)sin(x)dx","steam_id":76561198079937590,"connected_time":6611000000000,"state":"active","ping":63}]},{"server_id":300,"name":"Uncletopia | Montr√©al | 1 | All Maps","name_short":"mtl-1","host":"mtl-1.ca.uncletopia.com","port":27015,"enabled":true,"region":"us-east","cc":"ca","latitude":45.50889,"longitude":-73.56167,"reserved":0,"last_update":"0001-01-01T00:00:00Z","name_a2s":"Uncletopia | Montr√©al | 1 | All Maps","protocol":17,"map":"cp_dustbowl","folder":"tf","game":"Team Fortress","app_id":440,"player_count":0,"max_players":24,"Bots":0,"server_type":"Dedicated","server_os":"Linux","password":true,"vac":true,"version":"7882260","steam_id":85568392924500087,"keywords":["cp","nocrits","nodmgspread","uncletopia"],"game_id":440,"stv_port":27016,"stv_name":"Uncletopia | Montr√©al | 1 | All Maps | STV","players":null},{"server_id":301,"name":"Uncletopia | Montr√©al | 2 | All Maps","name_short":"mtl-2","host":"mtl-1.ca.uncletopia.com","port":27025,"enabled":true,"region":"us-east","cc":"ca","latitude":45.50889,"longitude":-73.56167,"reserved":0,"last_update":"0001-01-01T00:00:00Z","name_a2s":"Uncletopia | Montr√©al | 2 | All Maps","protocol":17,"map":"pl_swiftwater_final1","folder":"tf","game":"Team Fortress","app_id":440,"player_count":0,"max_players":24,"Bots":0,"server_type":"Dedicated","server_os":"Linux","password":true,"vac":true,"version":"7882260","steam_id":85568392924500088,"keywords":["nocrits","nodmgspread","payload","uncletopia"],"game_id":440,"stv_port":27026,"stv_name":"Uncletopia | Montr√©al | 2 | All Maps | STV","players":null},{"server_id":302,"name":"Uncletopia | Montr√©al | 3 | All Maps","name_short":"mtl-3","host":"mtl-1.ca.uncletopia.com","port":27035,"enabled":true,"region":"us-east","cc":"ca","latitude":45.50889,"longitude":-73.56167,"reserved":0,"last_update":"0001-01-01T00:00:00Z","name_a2s":"Uncletopia | Montr√©al | 3 | All Maps","protocol":17,"map":"koth_highpass","folder":"tf","game":"Team Fortress","app_id":440,"player_count":0,"max_players":24,"Bots":0,"server_type":"Dedicated","server_os":"Linux","password":true,"vac":true,"version":"7882260","steam_id":85568392924500089,"keywords":["cp","nocrits","nodmgspread","uncletopia"],"game_id":440,"stv_port":27036,"stv_name":"Uncletopia | Montr√©al | 3 | All Maps | STV","players":null},{"server_id":303,"name":"Uncletopia | Montr√©al | 4 | No Payload","name_short":"mtl-4","host":"mtl-1.ca.uncletopia.com","port":27045,"enabled":true,"region":"us-east","cc":"ca","latitude":45.50889,"longitude":-73.56167,"reserved":0,"last_update":"0001-01-01T00:00:00Z","name_a2s":"Uncletopia | Montr√©al | 4 | No Payload","protocol":17,"map":"koth_highpass","folder":"tf","game":"Team Fortress","app_id":440,"player_count":0,"max_players":24,"Bots":0,"server_type":"Dedicated","server_os":"Linux","password":true,"vac":true,"version":"7882260","steam_id":85568392924500090,"keywords":["cp","nocrits","nodmgspread","uncletopia"],"game_id":440,"stv_port":27046,"stv_name":"Uncletopia | Montr√©al | 4 | No Payload | STV","players":null},{"server_id":13,"name":"Uncletopia | New York City | 1 | All Maps","name_short":"nyc-1","host":"nyc-1.us.uncletopia.com","port":27015,"enabled":true,"region":"us-east","cc":"us","latitude":40.73061,"longitude":-73.93524,"reserved":0,"last_update":"0001-01-01T00:00:00Z","name_a2s":"Uncletopia | New York City | 1 | All Maps","protocol":17,"map":"pl_upward","folder":"tf","game":"Team Fortress","app_id":440,"player_count":24,"max_players":24,"Bots":0,"server_type":"Dedicated","server_os":"Linux","password":true,"vac":true,"version":"7882260","steam_id":85568392924469993,"keywords":["nocrits","nodmgspread","payload","uncletopia"],"game_id":440,"stv_port":27016,"stv_name":"Uncletopia | New York City | 1 | All Maps | STV","players":[{"user_id":5,"name":"Ian","steam_id":76561199078852180,"connected_time":2483000000000,"state":"active","ping":71},{"user_id":6,"name":"Pootis Pie¬Æ","steam_id":76561199058049384,"connected_time":2408000000000,"state":"active","ping":61},{"user_id":7,"name":"zzzPoison","steam_id":76561198302928116,"connected_time":1983000000000,"state":"active","ping":76},{"user_id":8,"name":"Auto_Correct","steam_id":76561198254988078,"connected_time":1977000000000,"state":"active","ping":62},{"user_id":9,"name":"rat eater","steam_id":76561199216874750,"connected_time":1860000000000,"state":"active","ping":78},{"user_id":17,"name":"yes","steam_id":76561197977461320,"connected_time":1235000000000,"state":"active","ping":143},{"user_id":38,"name":"Scorch_","steam_id":76561197977611078,"connected_time":404000000000,"state":"active","ping":60},{"user_id":45,"name":"IceRunner","steam_id":76561198999311013,"connected_time":153000000000,"state":"active","ping":100},{"user_id":15,"name":"the","steam_id":76561198003226288,"connected_time":1314000000000,"state":"active","ping":68},{"user_id":16,"name":"winkie456","steam_id":76561198352628243,"connected_time":1301000000000,"state":"active","ping":56},{"user_id":18,"name":"Blooby","steam_id":76561199013299586,"connected_time":1164000000000,"state":"active","ping":56},{"user_id":19,"name":"Ghostly","steam_id":76561199229629421,"connected_time":1126000000000,"state":"active","ping":103},{"user_id":20,"name":"Equalizer","steam_id":76561199153253208,"connected_time":1113000000000,"state":"active","ping":79},{"user_id":21,"name":"Walmart Employee #10893","steam_id":76561198102045762,"connected_time":1110000000000,"state":"active","ping":69},{"user_id":22,"name":"firstlastmcgee","steam_id":76561198170187989,"connected_time":1075000000000,"state":"active","ping":77},{"user_id":23,"name":"SilentSpykiller","steam_id":76561198094050751,"connected_time":1069000000000,"state":"active","ping":82},{"user_id":39,"name":"rack","steam_id":76561198966980576,"connected_time":387000000000,"state":"active","ping":44},{"user_id":31,"name":"Zhenaj","steam_id":76561199209016136,"connected_time":896000000000,"state":"active","ping":68},{"user_id":47,"name":"Deltaco","steam_id":76561198094572694,"connected_time":66000000000,"state":"active","ping":126},{"user_id":46,"name":"Redninka","steam_id":76561198426721366,"connected_time":89000000000,"state":"active","ping":60},{"user_id":42,"name":"INFINITE","steam_id":76561197971285557,"connected_time":250000000000,"state":"active","ping":51},{"user_id":30,"name":"booty jiggae","steam_id":76561198089026129,"connected_time":983000000000,"state":"active","ping":39},{"user_id":33,"name":"IMM0RTAL","steam_id":76561198013747901,"connected_time":857000000000,"state":"active","ping":72},{"user_id":35,"name":"frank","steam_id":76561198045499333,"connected_time":503000000000,"state":"active","ping":79}]},{"server_id":14,"name":"Uncletopia | New York City | 2 | All Maps","name_short":"nyc-2","host":"nyc-1.us.uncletopia.com","port":27025,"enabled":true,"region":"us-east","cc":"us","latitude":40.73061,"longitude":-73.93524,"reserved":0,"last_update":"0001-01-01T00:00:00Z","name_a2s":"Uncletopia | New York City | 2 | All Maps","protocol":17,"map":"pl_frontier_final","folder":"tf","game":"Team Fortress","app_id":440,"player_count":0,"max_players":24,"Bots":0,"server_type":"Dedicated","server_os":"Linux","password":true,"vac":true,"version":"7882260","steam_id":85568392924469994,"keywords":["nocrits","nodmgspread","payload","uncletopia"],"game_id":440,"stv_port":27026,"stv_name":"Uncletopia | New York City | 2 | All Maps | STV","players":null},{"server_id":15,"name":"Uncletopia | New York City | 3 | Stopwatch Beta","name_short":"nyc-3","host":"nyc-1.us.uncletopia.com","port":27035,"enabled":true,"region":"us-east","cc":"us","latitude":40.73061,"longitude":-73.93524,"reserved":0,"last_update":"0001-01-01T00:00:00Z","name_a2s":"Uncletopia | New York City | 3 | Stopwatch Beta","protocol":17,"map":"pl_borneo","folder":"tf","game":"Team Fortress","app_id":440,"player_count":0,"max_players":24,"Bots":0,"server_type":"Dedicated","server_os":"Linux","password":true,"vac":true,"version":"7882260","steam_id":85568392924742820,"keywords":["nocrits","nodmgspread","payload","uncletopia"],"game_id":440,"stv_port":27036,"stv_name":"Uncletopia | New York City | 3 | Stopwatch Beta | STV","players":null},{"server_id":16,"name":"Uncletopia | New York City | 4 | Community","name_short":"nyc-4","host":"nyc-1.us.uncletopia.com","port":27045,"enabled":true,"region":"us-east","cc":"us","latitude":40.73061,"longitude":-73.93524,"reserved":0,"last_update":"0001-01-01T00:00:00Z","name_a2s":"Uncletopia | New York City | 4 | Community","protocol":17,"map":"cp_altitude","folder":"tf","game":"Team Fortress","app_id":440,"player_count":0,"max_players":24,"Bots":0,"server_type":"Dedicated","server_os":"Linux","password":true,"vac":true,"version":"7882260","steam_id":85568392924742821,"keywords":["cp","nocrits","nodmgspread","uncletopia"],"game_id":440,"stv_port":27046,"stv_name":"Uncletopia | New York City | 4 | Community | STV","players":null},{"server_id":142,"name":"Uncletopia | S√£o Paulo | 1 | All Maps","name_short":"sao-1","host":"sao-1.br.uncletopia.com","port":27015,"enabled":true,"region":"sa","cc":"br","latitude":-23.533773,"longitude":-46.62529,"reserved":0,"last_update":"0001-01-01T00:00:00Z","name_a2s":"Uncletopia | S√£o Paulo | 1 | All Maps","protocol":17,"map":"koth_viaduct","folder":"tf","game":"Team Fortress","app_id":440,"player_count":0,"max_players":24,"Bots":0,"server_type":"Dedicated","server_os":"Linux","password":true,"vac":true,"version":"7882260","steam_id":85568392924469996,"keywords":["cp","nocrits","nodmgspread","uncletopia"],"game_id":440,"stv_port":27016,"stv_name":"Uncletopia | S√£o Paulo | 1 | All Maps | STV","players":null},{"server_id":143,"name":"Uncletopia | S√£o Paulo | 2 | All Maps","name_short":"sao-2","host":"sao-2.br.uncletopia.com","port":27015,"enabled":true,"region":"sa","cc":"br","latitude":-23.533773,"longitude":-46.62529,"reserved":0,"last_update":"0001-01-01T00:00:00Z","name_a2s":"Uncletopia | S√£o Paulo | 2 | All Maps","protocol":17,"map":"cp_process_final","folder":"tf","game":"Team Fortress","app_id":440,"player_count":0,"max_players":24,"Bots":0,"server_type":"Dedicated","server_os":"Linux","password":true,"vac":true,"version":"7882260","steam_id":85568392924485349,"keywords":["cp","nocrits","nodmgspread","uncletopia"],"game_id":440,"stv_port":27016,"stv_name":"Uncletopia | S√£o Paulo | 2 | All Maps | STV","players":null},{"server_id":7,"name":"Uncletopia | Seattle | 1 | All Maps","name_short":"sea-1","host":"sea-1.us.uncletopia.com","port":27015,"enabled":true,"region":"us-west","cc":"us","latitude":47.608013,"longitude":-122.33517,"reserved":0,"last_update":"0001-01-01T00:00:00Z","name_a2s":"Uncletopia | Seattle | 1 | All Maps","protocol":17,"map":"cp_altitude","folder":"tf","game":"Team Fortress","app_id":440,"player_count":0,"max_players":24,"Bots":0,"server_type":"Dedicated","server_os":"Linux","password":true,"vac":true,"version":"7882260","steam_id":85568392924469997,"keywords":["cp","nocrits","nodmgspread","uncletopia"],"game_id":440,"stv_port":27016,"stv_name":"Uncletopia | Seattle | 1 | All Maps | STV","players":null},{"server_id":119,"name":"Uncletopia | Seattle | 2 | All Maps","name_short":"sea-2","host":"sea-1.us.uncletopia.com","port":27025,"enabled":true,"region":"us-west","cc":"us","latitude":47.608013,"longitude":-122.33517,"reserved":0,"last_update":"0001-01-01T00:00:00Z","name_a2s":"Uncletopia | Seattle | 2 | All Maps","protocol":17,"map":"pl_snowycoast","folder":"tf","game":"Team Fortress","app_id":440,"player_count":0,"max_players":24,"Bots":0,"server_type":"Dedicated","server_os":"Linux","password":true,"vac":true,"version":"7882260","steam_id":85568392924469998,"keywords":["nocrits","nodmgspread","payload","uncletopia"],"game_id":440,"stv_port":27026,"stv_name":"Uncletopia | Seattle | 2 | All Maps | STV","players":null},{"server_id":406,"name":"Uncletopia | Seattle | 3 | Stopwatch Beta","name_short":"sea-3","host":"sea-1.us.uncletopia.com","port":27035,"enabled":true,"region":"us-west","cc":"us","latitude":47.608013,"longitude":-122.33517,"reserved":0,"last_update":"0001-01-01T00:00:00Z","name_a2s":"Uncletopia | Seattle | 3 | Stopwatch Beta","protocol":17,"map":"koth_viaduct","folder":"tf","game":"Team Fortress","app_id":440,"player_count":0,"max_players":24,"Bots":0,"server_type":"Dedicated","server_os":"Linux","password":true,"vac":true,"version":"7882260","steam_id":85568392924515217,"keywords":["cp","nocrits","nodmgspread","uncletopia"],"game_id":440,"stv_port":27036,"stv_name":"Uncletopia | Seattle | 3 | Stopwatch Beta | STV","players":null},{"server_id":17,"name":"Uncletopia | San Francisco | 1 | All Maps","name_short":"sfo-1","host":"sfo-1.us.uncletopia.com","port":27015,"enabled":true,"region":"us-west","cc":"us","latitude":37.77397,"longitude":-122.4313,"reserved":0,"last_update":"0001-01-01T00:00:00Z","name_a2s":"Uncletopia | San Francisco | 1 | All Maps","protocol":17,"map":"pl_pier","folder":"tf","game":"Team Fortress","app_id":440,"player_count":0,"max_players":24,"Bots":0,"server_type":"Dedicated","server_os":"Linux","password":true,"vac":true,"version":"7882260","steam_id":85568392924469999,"keywords":["nocrits","nodmgspread","payload","uncletopia"],"game_id":440,"stv_port":27016,"stv_name":"Uncletopia | San Francisco | 1 | All Maps | STV","players":null},{"server_id":18,"name":"Uncletopia | San Francisco | 2 | All Maps","name_short":"sfo-2","host":"sfo-1.us.uncletopia.com","port":27025,"enabled":true,"region":"us-west","cc":"us","latitude":37.77397,"longitude":-122.4313,"reserved":0,"last_update":"0001-01-01T00:00:00Z","name_a2s":"Uncletopia | San Francisco | 2 | All Maps","protocol":17,"map":"pl_pier","folder":"tf","game":"Team Fortress","app_id":440,"player_count":23,"max_players":24,"Bots":0,"server_type":"Dedicated","server_os":"Linux","password":true,"vac":true,"version":"7882260","steam_id":85568392924470000,"keywords":["nocrits","nodmgspread","payload","uncletopia"],"game_id":440,"stv_port":27026,"stv_name":"Uncletopia | San Francisco | 2 | All Maps | STV","players":[{"user_id":51,"name":"TrashCanGaming","steam_id":76561199150746424,"connected_time":886000000000,"state":"active","ping":84},{"user_id":66,"name":"Likeia #Savetf2","steam_id":76561198005214207,"connected_time":545000000000,"state":"active","ping":91},{"user_id":10,"name":"endo","steam_id":76561197995204381,"connected_time":4088000000000,"state":"active","ping":71},{"user_id":52,"name":"Riceguy","steam_id":76561199277204999,"connected_time":863000000000,"state":"active","ping":144},{"user_id":32,"name":"‚ô• thedittofemboy ‚ô•","steam_id":76561199013129784,"connected_time":2642000000000,"state":"active","ping":83},{"user_id":50,"name":"Papillon","steam_id":76561198049725849,"connected_time":1009000000000,"state":"active","ping":129},{"user_id":72,"name":"beans","steam_id":76561199082781884,"connected_time":380000000000,"state":"active","ping":64},{"user_id":55,"name":"PocketTieAMPLFY","steam_id":76561199080485881,"connected_time":782000000000,"state":"active","ping":159},{"user_id":34,"name":"Compress Dong","steam_id":76561198018950826,"connected_time":2099000000000,"state":"active","ping":45},{"user_id":16,"name":"Artyom","steam_id":76561198152149679,"connected_time":3428000000000,"state":"active","ping":59},{"user_id":49,"name":"xLedZeppelinx","steam_id":76561198005427668,"connected_time":1044000000000,"state":"active","ping":59},{"user_id":18,"name":"blossom","steam_id":76561198042735130,"connected_time":3288000000000,"state":"active","ping":75},{"user_id":61,"name":"El Duderino","steam_id":76561199427900685,"connected_time":658000000000,"state":"active","ping":108},{"user_id":40,"name":"M","steam_id":76561198286792807,"connected_time":1830000000000,"state":"active","ping":106},{"user_id":46,"name":"hex","steam_id":76561198099439655,"connected_time":1259000000000,"state":"active","ping":130},{"user_id":25,"name":"I_amgeneric","steam_id":76561198058605649,"connected_time":3065000000000,"state":"active","ping":77},{"user_id":57,"name":"SgtMaj Soggy Titties","steam_id":76561198067732216,"connected_time":775000000000,"state":"active","ping":93},{"user_id":26,"name":"Kontrast","steam_id":76561198822353564,"connected_time":3049000000000,"state":"active","ping":73},{"user_id":73,"name":"Trout","steam_id":76561199021874173,"connected_time":261000000000,"state":"active","ping":100},{"user_id":68,"name":"Terminal Brain Rot","steam_id":76561198112594672,"connected_time":522000000000,"state":"active","ping":110},{"user_id":75,"name":"Rick Astley Is A F2P?","steam_id":76561199258805660,"connected_time":62000000000,"state":"active","ping":110},{"user_id":30,"name":"Callahan","steam_id":76561197976928457,"connected_time":2883000000000,"state":"active","ping":68},{"user_id":31,"name":"Phoenix","steam_id":76561197971265992,"connected_time":2844000000000,"state":"active","ping":69}]},{"server_id":19,"name":"Uncletopia | San Francisco | 3 | Stopwatch Beta","name_short":"sfo-3","host":"sfo-1.us.uncletopia.com","port":27035,"enabled":true,"region":"us-west","cc":"us","latitude":37.77397,"longitude":-122.4313,"reserved":0,"last_update":"0001-01-01T00:00:00Z","name_a2s":"Uncletopia | San Francisco | 3 | Stopwatch Beta","protocol":17,"map":"pl_snowycoast","folder":"tf","game":"Team Fortress","app_id":440,"player_count":0,"max_players":24,"Bots":0,"server_type":"Dedicated","server_os":"Linux","password":true,"vac":true,"version":"7882260","steam_id":85568392924742824,"keywords":["nocrits","nodmgspread","payload","uncletopia"],"game_id":440,"stv_port":27036,"stv_name":"Uncletopia | San Francisco | 3 | Stopwatch Beta | STV","players":null},{"server_id":20,"name":"Uncletopia | San Francisco | 4 | Community","name_short":"sfo-4","host":"sfo-1.us.uncletopia.com","port":27045,"enabled":true,"region":"us-west","cc":"us","latitude":37.77397,"longitude":-122.4313,"reserved":0,"last_update":"0001-01-01T00:00:00Z","name_a2s":"Uncletopia | San Francisco | 4 | Community","protocol":17,"map":"pl_swiftwater_final1","folder":"tf","game":"Team Fortress","app_id":440,"player_count":0,"max_players":24,"Bots":0,"server_type":"Dedicated","server_os":"Linux","password":true,"vac":true,"version":"7882260","steam_id":85568392924742826,"keywords":["nocrits","nodmgspread","payload","uncletopia"],"game_id":440,"stv_port":27046,"stv_name":"Uncletopia | San Francisco | 4 | Community | STV","players":null},{"server_id":141,"name":"Uncletopia | Sydney | 1 | All Maps","name_short":"syd-1","host":"syd-1.au.uncletopia.com","port":27015,"enabled":true,"region":"au","cc":"au","latitude":-33.865143,"longitude":151.2099,"reserved":0,"last_update":"0001-01-01T00:00:00Z","name_a2s":"Uncletopia | Sydney | 1 | All Maps","protocol":17,"map":"pl_swiftwater_final1","folder":"tf","game":"Team Fortress","app_id":440,"player_count":14,"max_players":24,"Bots":0,"server_type":"Dedicated","server_os":"Linux","password":true,"vac":true,"version":"7882260","steam_id":85568392924470001,"keywords":["nocrits","nodmgspread","payload","uncletopia"],"game_id":440,"stv_port":27016,"stv_name":"Uncletopia | Sydney | 1 | All Maps | STV","players":[{"user_id":682,"name":"i.luv.fuzzy.cats","steam_id":76561199403990768,"connected_time":295000000000,"state":"active","ping":309},{"user_id":684,"name":"Jiffy360","steam_id":76561198149550772,"connected_time":65000000000,"state":"active","ping":90},{"user_id":558,"name":"ad","steam_id":76561198061562365,"connected_time":11348000000000,"state":"active","ping":61},{"user_id":678,"name":"Bobby Wilkinson","steam_id":76561198054985347,"connected_time":444000000000,"state":"active","ping":59},{"user_id":685,"name":"wom","steam_id":76561199375834537,"connected_time":58000000000,"state":"active","ping":118},{"user_id":679,"name":"hive","steam_id":76561199099744527,"connected_time":444000000000,"state":"active","ping":49},{"user_id":664,"name":"Mez","steam_id":76561198045841564,"connected_time":2435000000000,"state":"active","ping":102},{"user_id":681,"name":"Rinamiku","steam_id":76561198241017280,"connected_time":440000000000,"state":"active","ping":146},{"user_id":683,"name":"Turret","steam_id":76561198054728921,"connected_time":217000000000,"state":"active","ping":37},{"user_id":647,"name":"broccoli","steam_id":76561198838171912,"connected_time":4515000000000,"state":"active","ping":141},{"user_id":589,"name":"Petrolhead02 Œ∂","steam_id":76561198130702029,"connected_time":9323000000000,"state":"active","ping":98},{"user_id":591,"name":"‡∂û","steam_id":76561199397915047,"connected_time":9315000000000,"state":"active","ping":121},{"user_id":631,"name":"shutterstock camel","steam_id":76561198079345240,"connected_time":6722000000000,"state":"active","ping":55},{"user_id":668,"name":"Mouse Balls","steam_id":76561199037470627,"connected_time":2417000000000,"state":"active","ping":114}]},{"server_id":123,"name":"Uncletopia | Sydney | 2 | All Maps","name_short":"syd-2","host":"syd-1.au.uncletopia.com","port":27025,"enabled":true,"region":"au","cc":"au","latitude":-33.865143,"longitude":151.2099,"reserved":0,"last_update":"0001-01-01T00:00:00Z","name_a2s":"Uncletopia | Sydney | 2 | All Maps","protocol":17,"map":"pl_pier","folder":"tf","game":"Team Fortress","app_id":440,"player_count":0,"max_players":24,"Bots":0,"server_type":"Dedicated","server_os":"Linux","password":true,"vac":true,"version":"7882260","steam_id":85568392924470002,"keywords":["nocrits","nodmgspread","payload","uncletopia"],"game_id":440,"stv_port":27026,"stv_name":"Uncletopia | Sydney | 2 | All Maps | STV","players":null},{"server_id":395,"name":"Uncletopia | Sydney | 3 | All Maps","name_short":"syd-3","host":"syd-1.au.uncletopia.com","port":27035,"enabled":true,"region":"au","cc":"au","latitude":-33.865143,"longitude":151.2099,"reserved":0,"last_update":"0001-01-01T00:00:00Z","name_a2s":"Uncletopia | Sydney | 3 | All Maps","protocol":17,"map":"koth_viaduct","folder":"tf","game":"Team Fortress","app_id":440,"player_count":0,"max_players":24,"Bots":0,"server_type":"Dedicated","server_os":"Linux","password":true,"vac":true,"version":"7882260","steam_id":85568392925194467,"keywords":["cp","nocrits","nodmgspread","uncletopia"],"game_id":440,"stv_port":27036,"stv_name":"Uncletopia | Sydney | 3 | All Maps | STV","players":null},{"server_id":396,"name":"Uncletopia | Sydney | 4 | All Maps","name_short":"syd-4","host":"syd-1.au.uncletopia.com","port":27045,"enabled":true,"region":"au","cc":"au","latitude":-33.865143,"longitude":151.2099,"reserved":0,"last_update":"0001-01-01T00:00:00Z","name_a2s":"Uncletopia | Sydney | 4 | All Maps","protocol":17,"map":"koth_highpass","folder":"tf","game":"Team Fortress","app_id":440,"player_count":0,"max_players":24,"Bots":0,"server_type":"Dedicated","server_os":"Linux","password":true,"vac":true,"version":"7882260","steam_id":85568392925397958,"keywords":["cp","nocrits","nodmgspread","uncletopia"],"game_id":440,"stv_port":27046,"stv_name":"Uncletopia | Sydney | 4 | All Maps | STV","players":null},{"server_id":58,"name":"Uncletopia | Sydney | 5 | Stopwatch Beta","name_short":"syd-5","host":"syd-1.au.uncletopia.com","port":27055,"enabled":true,"region":"au","cc":"au","latitude":-33.865143,"longitude":151.2099,"reserved":0,"last_update":"0001-01-01T00:00:00Z","name_a2s":"Uncletopia | Sydney | 5 | Stopwatch Beta","protocol":17,"map":"workshop/koth_ramjam_rc1.ugc459778887","folder":"tf","game":"Team Fortress","app_id":440,"player_count":0,"max_players":24,"Bots":0,"server_type":"Dedicated","server_os":"Linux","password":true,"vac":true,"version":"7882260","steam_id":85568392925397959,"keywords":["cp","nocrits","nodmgspread","uncletopia"],"game_id":440,"stv_port":27056,"stv_name":"Uncletopia | Sydney | 5 | Stopwatch Beta | STV","players":null},{"server_id":59,"name":"Uncletopia | Sydney | 6 | Community","name_short":"syd-6","host":"syd-1.au.uncletopia.com","port":27065,"enabled":true,"region":"au","cc":"au","latitude":-33.865143,"longitude":151.2099,"reserved":0,"last_update":"0001-01-01T00:00:00Z","name_a2s":"Uncletopia | Sydney | 6 | Community","protocol":17,"map":"workshop/koth_synthetic_rc6a.ugc1549817316","folder":"tf","game":"Team Fortress","app_id":440,"player_count":0,"max_players":24,"Bots":0,"server_type":"Dedicated","server_os":"Linux","password":true,"vac":true,"version":"7882260","steam_id":85568392925397960,"keywords":["cp","nocrits","nodmgspread","uncletopia"],"game_id":440,"stv_port":27066,"stv_name":"Uncletopia | Sydney | 6 | Community | STV","players":null},{"server_id":49,"name":"Uncletopia | Warsaw | 1 | All Maps","name_short":"waw-1","host":"waw-1.pl.uncletopia.com","port":27015,"enabled":true,"region":"eu","cc":"pl","latitude":52.2297,"longitude":21.017532,"reserved":0,"last_update":"0001-01-01T00:00:00Z","name_a2s":"","protocol":0,"map":"","folder":"","game":"","app_id":0,"player_count":0,"max_players":0,"Bots":0,"server_type":"","server_os":"","password":false,"vac":false,"version":"","steam_id":0,"keywords":null,"game_id":0,"stv_port":0,"stv_name":"","players":null},{"server_id":50,"name":"Uncletopia | Warsaw | 2 | All Maps","name_short":"waw-2","host":"waw-1.pl.uncletopia.com","port":27025,"enabled":true,"region":"eu","cc":"pl","latitude":52.2297,"longitude":21.017532,"reserved":0,"last_update":"0001-01-01T00:00:00Z","name_a2s":"Uncletopia | Warsaw | 2 | All Maps","protocol":17,"map":"koth_viaduct","folder":"tf","game":"Team Fortress","app_id":440,"player_count":0,"max_players":24,"Bots":0,"server_type":"Dedicated","server_os":"Linux","password":true,"vac":true,"version":"7882260","steam_id":85568392925397851,"keywords":["cp","nocrits","nodmgspread","uncletopia"],"game_id":440,"stv_port":27026,"stv_name":"Uncletopia | Warsaw | 2 | All Maps | STV","players":null},{"server_id":51,"name":"Uncletopia | Warsaw | 3 | All Maps","name_short":"waw-3","host":"waw-1.pl.uncletopia.com","port":27035,"enabled":true,"region":"eu","cc":"pl","latitude":52.2297,"longitude":21.017532,"reserved":0,"last_update":"0001-01-01T00:00:00Z","name_a2s":"Uncletopia | Warsaw | 3 | All Maps","protocol":17,"map":"pl_swiftwater_final1","folder":"tf","game":"Team Fortress","app_id":440,"player_count":0,"max_players":24,"Bots":0,"server_type":"Dedicated","server_os":"Linux","password":true,"vac":true,"version":"7882260","steam_id":85568392925397852,"keywords":["nocrits","nodmgspread","payload","uncletopia"],"game_id":440,"stv_port":27036,"stv_name":"Uncletopia | Warsaw | 3 | All Maps | STV","players":null},{"server_id":52,"name":"Uncletopia | Warsaw | 4 | All Maps","name_short":"waw-4","host":"waw-1.pl.uncletopia.com","port":27045,"enabled":true,"region":"eu","cc":"pl","latitude":52.2297,"longitude":21.017532,"reserved":0,"last_update":"0001-01-01T00:00:00Z","name_a2s":"Uncletopia | Warsaw | 4 | All Maps","protocol":17,"map":"koth_cascade","folder":"tf","game":"Team Fortress","app_id":440,"player_count":0,"max_players":24,"Bots":0,"server_type":"Dedicated","server_os":"Linux","password":true,"vac":true,"version":"7882260","steam_id":85568392925397853,"keywords":["cp","nocrits","nodmgspread","uncletopia"],"game_id":440,"stv_port":27046,"stv_name":"Uncletopia | Warsaw | 4 | All Maps | STV","players":null},{"server_id":53,"name":"Uncletopia | Warsaw | 5 | Stopwatch Beta","name_short":"waw-5","host":"waw-1.pl.uncletopia.com","port":27055,"enabled":true,"region":"eu","cc":"pl","latitude":52.2297,"longitude":21.017532,"reserved":0,"last_update":"0001-01-01T00:00:00Z","name_a2s":"Uncletopia | Warsaw | 5 | Stopwatch Beta","protocol":17,"map":"cp_dustbowl","folder":"tf","game":"Team Fortress","app_id":440,"player_count":0,"max_players":24,"Bots":0,"server_type":"Dedicated","server_os":"Linux","password":true,"vac":true,"version":"7882260","steam_id":85568392925397854,"keywords":["cp","nocrits","nodmgspread","uncletopia"],"game_id":440,"stv_port":27056,"stv_name":"Uncletopia | Warsaw | 5 | Stopwatch Beta | STV","players":null},{"server_id":54,"name":"Uncletopia | Warsaw | 6 | Community","name_short":"waw-6","host":"waw-1.pl.uncletopia.com","port":27065,"enabled":true,"region":"eu","cc":"pl","latitude":52.2297,"longitude":21.017532,"reserved":0,"last_update":"0001-01-01T00:00:00Z","name_a2s":"Uncletopia | Warsaw | 6 | Community","protocol":17,"map":"workshop/koth_bagel_rc6.ugc2514036946","folder":"tf","game":"Team Fortress","app_id":440,"player_count":1,"max_players":24,"Bots":0,"server_type":"Dedicated","server_os":"Linux","password":true,"vac":true,"version":"7882260","steam_id":85568392925397856,"keywords":["cp","nocrits","nodmgspread","uncletopia"],"game_id":440,"stv_port":27066,"stv_name":"Uncletopia | Warsaw | 6 | Community | STV","players":[{"user_id":6,"name":"The mmiipster","steam_id":76561199275491725,"connected_time":8000000000,"state":"spawning","ping":91}]}]}