{"status":true,"message":"","result":[{"server_id":9,"name":"Uncletopia | Atlanta | 1 | All Maps","name_short":"atl-1","host":"atl-1.us.uncletopia.com","port":27015,"enabled":true,"region":"us-east","cc":"us","latitude":33.753746,"longitude":-84.38633,"reserved":0,"last_update":"0001-01-01T00:00:00Z","name_a2s":"Uncletopia | Atlanta | 1 | All Maps","protocol":17,"map":"cp_sunshine","folder":"tf","game":"Team Fortress","app_id":440,"player_count":24,"max_players":24,"Bots":0,"server_type":"Dedicated","server_os":"Linux","password":true,"vac":true,"version":"7757534","steam_id":85568392924469982,"keywords":["cp","nocrits","nodmgspread","uncletopia"],"game_id":440,"stv_port":27016,"stv_name":"Uncletopia | Atlanta | 1 | All Maps | STV","players":[{"user_id":585,"name":"G_Bob","steam_id":76561198098133233,"connected_time":1822000000000,"state":"active","ping":58},{"user_id":566,"name":"BLU1 | cola","steam_id":76561198374390458,"connected_time":4541000000000,"state":"active","ping":51},{"user_id":573,"name":"Tue","steam_id":76561198181668501,"connected_time":2888000000000,"state":"active","ping":64},{"user_id":494,"name":"scrambledeggs3","steam_id":76561198066112579,"connected_time":13237000000000,"state":"active","ping":83},{"user_id":582,"name":"Saber","steam_id":76561198012624420,"connected_time":2167000000000,"state":"active","ping":118},{"user_id":466,"name":"lil hog","steam_id":76561199230929836,"connected_time":16296000000000,"state":"active","ping":94},{"user_id":588,"name":"BIG HOG","steam_id":76561198079923652,"connected_time":974000000000,"state":"active","ping":73},{"user_id":599,"name":"billy","steam_id":76561198891031643,"connected_time":377000000000,"state":"active","ping":69},{"user_id":594,"name":"john trevolta","steam_id":76561197998867160,"connected_time":764000000000,"state":"active","ping":88},{"user_id":518,"name":"RED1 | Le4n!!!","steam_id":76561198045522596,"connected_time":11808000000000,"state":"active","ping":73},{"user_id":597,"name":"Short Tail","steam_id":76561198048459843,"connected_time":456000000000,"state":"active","ping":48},{"user_id":568,"name":"BLU1 Save your wifi","steam_id":76561198286147372,"connected_time":4487000000000,"state":"active","ping":58},{"user_id":570,"name":"RED1 | icyy","steam_id":76561198968001329,"connected_time":2926000000000,"state":"active","ping":49},{"user_id":558,"name":"stink","steam_id":76561198099318923,"connected_time":5804000000000,"state":"active","ping":76},{"user_id":552,"name":"ATL1 | Kramer","steam_id":76561198083595936,"connected_time":6934000000000,"state":"active","ping":74},{"user_id":586,"name":"hey beautiful!","steam_id":76561198224614084,"connected_time":1648000000000,"state":"active","ping":67},{"user_id":589,"name":"Laura Palmer Gaming","steam_id":76561198282965733,"connected_time":963000000000,"state":"active","ping":60},{"user_id":561,"name":"sansa musa","steam_id":76561198163723555,"connected_time":5105000000000,"state":"active","ping":63},{"user_id":590,"name":"Mr. Bixby","steam_id":76561198868839264,"connected_time":959000000000,"state":"active","ping":73},{"user_id":576,"name":"Tiktaalik","steam_id":76561198856050653,"connected_time":2841000000000,"state":"active","ping":94},{"user_id":564,"name":"melancholy","steam_id":76561198024301465,"connected_time":4553000000000,"state":"active","ping":45},{"user_id":596,"name":"Soris","steam_id":76561198103635251,"connected_time":749000000000,"state":"active","ping":60},{"user_id":510,"name":"RED1 | eish","steam_id":76561198089463603,"connected_time":11911000000000,"state":"active","ping":119},{"user_id":577,"name":"Oddball","steam_id":76561198040440984,"connected_time":2841000000000,"state":"active","ping":87}]},{"server_id":400,"name":"Uncletopia | Atlanta | 3 | Stopwatch Beta","name_short":"atl-3","host":"atl-1.us.uncletopia.com","port":27035,"enabled":true,"region":"us-east","cc":"us","latitude":33.753746,"longitude":-84.38633,"reserved":0,"last_update":"0001-01-01T00:00:00Z","name_a2s":"Uncletopia | Atlanta | 3 | Stopwatch Beta","protocol":17,"map":"workshop/pl_barnblitz_pro7.ugc582280235","folder":"tf","game":"Team Fortress","app_id":440,"player_count":0,"max_players":24,"Bots":0,"server_type":"Dedicated","server_os":"Linux","password":true,"vac":true,"version":"7757534","steam_id":85568392924515187,"keywords":["nocrits","nodmgspread","payload","uncletopia"],"game_id":440,"stv_port":27036,"stv_name":"Uncletopia | Atlanta | 3 | Stopwatch Beta | STV","players":null},{"server_id":401,"name":"Uncletopia | Atlanta | 4 | No Payload","name_short":"atl-4","host":"atl-1.us.uncletopia.com","port":27045,"enabled":true,"region":"us-east","cc":"us","latitude":33.753746,"longitude":-84.38633,"reserved":0,"last_update":"0001-01-01T00:00:00Z","name_a2s":"Uncletopia | Atlanta | 4 | No Payload","protocol":17,"map":"pl_pier","folder":"tf","game":"Team Fortress","app_id":440,"player_count":0,"max_players":24,"Bots":0,"server_type":"Dedicated","server_os":"Linux","password":true,"vac":true,"version":"7723704","steam_id":85568392924515188,"keywords":["nocrits","nodmgspread","payload","uncletopia"],"game_id":440,"stv_port":27046,"stv_name":"Uncletopia | Atlanta | 4 | No Payload | STV","players":null},{"server_id":2,"name":"Uncletopia | Chicago | 1 | All Maps","name_short":"chi-1","host":"chi-1.us.uncletopia.com","port":27015,"enabled":true,"region":"us-central","cc":"us","latitude":41.881832,"longitude":-87.62318,"reserved":0,"last_update":"0001-01-01T00:00:00Z","name_a2s":"Uncletopia | Chicago | 1 | All Maps","protocol":17,"map":"cp_process_final","folder":"tf","game":"Team Fortress","app_id":440,"player_count":16,"max_players":24,"Bots":0,"server_type":"Dedicated","server_os":"Linux","password":true,"vac":true,"version":"7757534","steam_id":85568392924469984,"keywords":["cp","nocrits","nodmgspread","uncletopia"],"game_id":440,"stv_port":27016,"stv_name":"Uncletopia | Chicago | 1 | All Maps | STV","players":[{"user_id":559,"name":"tree","steam_id":76561198116885731,"connected_time":4177000000000,"state":"active","ping":47},{"user_id":601,"name":"JumboJuice25 #FreeJumbo","steam_id":76561199075777687,"connected_time":1769000000000,"state":"active","ping":98},{"user_id":711,"name":"WannaSeeA","steam_id":76561198097701042,"connected_time":54000000000,"state":"active","ping":62},{"user_id":659,"name":"tim-","steam_id":76561199119101315,"connected_time":1061000000000,"state":"active","ping":68},{"user_id":713,"name":"James","steam_id":76561198041578404,"connected_time":37000000000,"state":"active","ping":75},{"user_id":522,"name":"Fu Qian Qian","steam_id":76561199081837220,"connected_time":7841000000000,"state":"active","ping":73},{"user_id":715,"name":"WACKY JIM","steam_id":76561198961641122,"connected_time":4000000000,"state":"spawning","ping":83},{"user_id":561,"name":"EmeraldCola","steam_id":76561198066663687,"connected_time":4172000000000,"state":"active","ping":61},{"user_id":599,"name":"Legion","steam_id":76561199036242643,"connected_time":2003000000000,"state":"active","ping":66},{"user_id":714,"name":"DJFunnyBone","steam_id":76561198892528359,"connected_time":31000000000,"state":"active","ping":41},{"user_id":593,"name":"Baka!⑨⑨⑨⑨","steam_id":76561198152948254,"connected_time":2346000000000,"state":"active","ping":57},{"user_id":577,"name":"Crayfry","steam_id":76561198146525237,"connected_time":3729000000000,"state":"active","ping":35},{"user_id":658,"name":"gettysburg","steam_id":76561198016157051,"connected_time":1084000000000,"state":"active","ping":68},{"user_id":566,"name":"Droz misses shots","steam_id":76561198072555204,"connected_time":4130000000000,"state":"active","ping":52},{"user_id":712,"name":"Malex","steam_id":76561198012216805,"connected_time":52000000000,"state":"active","ping":59},{"user_id":690,"name":"Zubats |TAOZ|","steam_id":76561198041819445,"connected_time":510000000000,"state":"active","ping":46}]},{"server_id":106,"name":"Uncletopia | Chicago | 2 | All Maps","name_short":"chi-2","host":"chi-1.us.uncletopia.com","port":27025,"enabled":true,"region":"us-central","cc":"us","latitude":41.881832,"longitude":-87.62318,"reserved":0,"last_update":"0001-01-01T00:00:00Z","name_a2s":"Uncletopia | Chicago | 2 | All Maps","protocol":17,"map":"cp_dustbowl","folder":"tf","game":"Team Fortress","app_id":440,"player_count":24,"max_players":24,"Bots":0,"server_type":"Dedicated","server_os":"Linux","password":true,"vac":true,"version":"7757534","steam_id":85568392924469985,"keywords":["cp","nocrits","nodmgspread","uncletopia"],"game_id":440,"stv_port":27026,"stv_name":"Uncletopia | Chicago | 2 | All Maps | STV","players":[{"user_id":748,"name":"Mervous Thrifty","steam_id":76561198063250819,"connected_time":169000000000,"state":"active","ping":45},{"user_id":734,"name":"merge without looking","steam_id":76561198056702628,"connected_time":2017000000000,"state":"active","ping":60},{"user_id":696,"name":"gosh","steam_id":76561198025681784,"connected_time":4665000000000,"state":"active","ping":66},{"user_id":671,"name":"hej","steam_id":76561197996366940,"connected_time":6837000000000,"state":"active","ping":62},{"user_id":737,"name":"Cad","steam_id":76561198312145232,"connected_time":1702000000000,"state":"active","ping":105},{"user_id":749,"name":"ElBentz","steam_id":76561199059582221,"connected_time":166000000000,"state":"active","ping":99},{"user_id":705,"name":"mepng","steam_id":76561199018758598,"connected_time":4597000000000,"state":"active","ping":100},{"user_id":681,"name":"Snarkel","steam_id":76561198070688550,"connected_time":6440000000000,"state":"active","ping":54},{"user_id":731,"name":"mcdoubble","steam_id":76561198089126832,"connected_time":2378000000000,"state":"active","ping":86},{"user_id":693,"name":"MedRed™ #IATAH","steam_id":76561198002962970,"connected_time":5390000000000,"state":"active","ping":103},{"user_id":722,"name":"Copter_Boy","steam_id":76561198322921312,"connected_time":2564000000000,"state":"active","ping":69},{"user_id":726,"name":"MrPoopy","steam_id":76561199456009540,"connected_time":2454000000000,"state":"active","ping":88},{"user_id":719,"name":"JPMockMan","steam_id":76561198071370876,"connected_time":2760000000000,"state":"active","ping":91},{"user_id":730,"name":"Swshbcklr","steam_id":76561197969421355,"connected_time":2412000000000,"state":"active","ping":60},{"user_id":739,"name":"trans rat gaming","steam_id":76561198964321336,"connected_time":1695000000000,"state":"active","ping":82},{"user_id":699,"name":"Doc Brown","steam_id":76561198015030118,"connected_time":4659000000000,"state":"active","ping":71},{"user_id":740,"name":"Spazz","steam_id":76561198036167494,"connected_time":1627000000000,"state":"active","ping":42},{"user_id":735,"name":"HanakoToast","steam_id":76561198045233131,"connected_time":1759000000000,"state":"active","ping":102},{"user_id":728,"name":"EyeShooter","steam_id":76561199467210147,"connected_time":2445000000000,"state":"active","ping":90},{"user_id":747,"name":"Toottoot","steam_id":76561197992404836,"connected_time":245000000000,"state":"active","ping":46},{"user_id":714,"name":"4+1MyriadFuturesCosMo@BousouFC","steam_id":76561198181929019,"connected_time":3399000000000,"state":"active","ping":52},{"user_id":745,"name":"Tony Bologna","steam_id":76561198147454271,"connected_time":558000000000,"state":"active","ping":78},{"user_id":744,"name":"Pawn Cushman","steam_id":76561198221635676,"connected_time":819000000000,"state":"active","ping":70},{"user_id":729,"name":"Syle","steam_id":76561198059986090,"connected_time":2434000000000,"state":"active","ping":99}]},{"server_id":402,"name":"Uncletopia | Chicago | 3 | All Maps","name_short":"chi-3","host":"chi-1.us.uncletopia.com","port":27035,"enabled":true,"region":"us-central","cc":"us","latitude":41.881832,"longitude":-87.62318,"reserved":0,"last_update":"0001-01-01T00:00:00Z","name_a2s":"Uncletopia | Chicago | 3 | All Maps","protocol":17,"map":"cp_mountainlab","folder":"tf","game":"Team Fortress","app_id":440,"player_count":21,"max_players":24,"Bots":0,"server_type":"Dedicated","server_os":"Linux","password":true,"vac":true,"version":"7757534","steam_id":85568392924515191,"keywords":["cp","nocrits","nodmgspread","uncletopia"],"game_id":440,"stv_port":27036,"stv_name":"Uncletopia | Chicago | 3 | All Maps | STV","players":[{"user_id":557,"name":"girlboss","steam_id":76561197989019617,"connected_time":3722000000000,"state":"active","ping":45},{"user_id":567,"name":"Not_Douglas","steam_id":76561199024184136,"connected_time":2264000000000,"state":"active","ping":59},{"user_id":589,"name":"Scum Knight","steam_id":76561198282444763,"connected_time":107000000000,"state":"active","ping":57},{"user_id":584,"name":"HE’S IN THE GODDAMN WALLS","steam_id":76561198363267009,"connected_time":354000000000,"state":"active","ping":62},{"user_id":559,"name":"luser","steam_id":76561199186893169,"connected_time":3464000000000,"state":"active","ping":74},{"user_id":586,"name":"Summer","steam_id":76561198121692871,"connected_time":123000000000,"state":"active","ping":62},{"user_id":565,"name":"META.exe","steam_id":76561199067098696,"connected_time":2288000000000,"state":"active","ping":98},{"user_id":587,"name":"finn (he/him)","steam_id":76561198257531708,"connected_time":123000000000,"state":"active","ping":58},{"user_id":588,"name":"KingSteve42","steam_id":76561198409455888,"connected_time":122000000000,"state":"active","ping":101},{"user_id":581,"name":"skullburner","steam_id":76561198086953456,"connected_time":1001000000000,"state":"active","ping":96},{"user_id":582,"name":"lil bro","steam_id":76561198031675881,"connected_time":966000000000,"state":"active","ping":68},{"user_id":593,"name":"3 fortnite vbucks","steam_id":76561198246007884,"connected_time":38000000000,"state":"active","ping":70},{"user_id":594,"name":"Dr. Safety","steam_id":76561198085327188,"connected_time":22000000000,"state":"spawning","ping":63},{"user_id":591,"name":"phone","steam_id":76561198029268743,"connected_time":90000000000,"state":"active","ping":60},{"user_id":595,"name":"Turtlin'","steam_id":76561198885096042,"connected_time":18000000000,"state":"active","ping":472},{"user_id":592,"name":"NOLSEY","steam_id":76561198108959504,"connected_time":83000000000,"state":"active","ping":47},{"user_id":577,"name":"KFC☭","steam_id":76561199206815320,"connected_time":1839000000000,"state":"active","ping":100},{"user_id":596,"name":"SomeScuffedKid","steam_id":76561198086113234,"connected_time":6000000000,"state":"spawning","ping":53},{"user_id":552,"name":"Totally","steam_id":76561198126511227,"connected_time":3793000000000,"state":"active","ping":53},{"user_id":554,"name":"Sprucelass","steam_id":76561197998391724,"connected_time":3775000000000,"state":"active","ping":50},{"user_id":555,"name":"Jane Notwoodman","steam_id":76561199227269239,"connected_time":3775000000000,"state":"active","ping":71}]},{"server_id":403,"name":"Uncletopia | Chicago | 4 | All Maps","name_short":"chi-4","host":"chi-1.us.uncletopia.com","port":27045,"enabled":true,"region":"us-central","cc":"us","latitude":41.881832,"longitude":-87.62318,"reserved":0,"last_update":"0001-01-01T00:00:00Z","name_a2s":"Uncletopia | Chicago | 4 | All Maps","protocol":17,"map":"cp_dustbowl","folder":"tf","game":"Team Fortress","app_id":440,"player_count":24,"max_players":24,"Bots":0,"server_type":"Dedicated","server_os":"Linux","password":true,"vac":true,"version":"7757534","steam_id":85568392924515193,"keywords":["cp","nocrits","nodmgspread","uncletopia"],"game_id":440,"stv_port":27046,"stv_name":"Uncletopia | Chicago | 4 | All Maps | STV","players":[{"user_id":583,"name":"R4wb33fG4m1ng73","steam_id":76561198121372198,"connected_time":814000000000,"state":"active","ping":81},{"user_id":526,"name":"worlds dumbest himbo","steam_id":76561199143725014,"connected_time":3964000000000,"state":"active","ping":75},{"user_id":550,"name":"Ġ1 ♦ Synth","steam_id":76561198058660228,"connected_time":2747000000000,"state":"active","ping":57},{"user_id":565,"name":"Michaelpc1","steam_id":76561198088365519,"connected_time":1729000000000,"state":"active","ping":83},{"user_id":575,"name":"Chibbles","steam_id":76561198036193149,"connected_time":1045000000000,"state":"active","ping":59},{"user_id":524,"name":"Morgster","steam_id":76561198131697761,"connected_time":4318000000000,"state":"active","ping":85},{"user_id":570,"name":"Hell's Reindeer","steam_id":76561198065310364,"connected_time":1323000000000,"state":"active","ping":50},{"user_id":576,"name":"Varveer","steam_id":76561198218897383,"connected_time":1040000000000,"state":"active","ping":75},{"user_id":581,"name":"Fobby #Savetf2","steam_id":76561198047681469,"connected_time":854000000000,"state":"active","ping":80},{"user_id":586,"name":"anal fiend","steam_id":76561198026844952,"connected_time":678000000000,"state":"active","ping":104},{"user_id":587,"name":"cooltool21","steam_id":76561197996817585,"connected_time":347000000000,"state":"active","ping":85},{"user_id":569,"name":"「iam3nigma」","steam_id":76561198081580177,"connected_time":1343000000000,"state":"active","ping":62},{"user_id":557,"name":"wheresgeorge","steam_id":76561198986281248,"connected_time":1983000000000,"state":"active","ping":84},{"user_id":558,"name":"PrinceOf314","steam_id":76561198110930450,"connected_time":1975000000000,"state":"active","ping":83},{"user_id":577,"name":"MichaelMac6072","steam_id":76561198121038333,"connected_time":1035000000000,"state":"active","ping":70},{"user_id":549,"name":"DeletedTaters","steam_id":76561198040773153,"connected_time":2753000000000,"state":"active","ping":60},{"user_id":588,"name":"Tripp","steam_id":76561198033705006,"connected_time":37000000000,"state":"active","ping":104},{"user_id":573,"name":"stakehater11","steam_id":76561198079501615,"connected_time":1111000000000,"state":"active","ping":68},{"user_id":579,"name":"majorbobfunction","steam_id":76561198042464632,"connected_time":1011000000000,"state":"active","ping":47},{"user_id":582,"name":"gabagool","steam_id":76561198012131766,"connected_time":851000000000,"state":"active","ping":55},{"user_id":580,"name":"Huntpk","steam_id":76561198340591674,"connected_time":1006000000000,"state":"active","ping":36},{"user_id":563,"name":"fuckterry","steam_id":76561198271957738,"connected_time":1815000000000,"state":"active","ping":74},{"user_id":529,"name":"ClericsRose","steam_id":76561198011013806,"connected_time":3499000000000,"state":"active","ping":79},{"user_id":585,"name":"stevemarshall","steam_id":76561198405982285,"connected_time":795000000000,"state":"active","ping":45}]},{"server_id":36,"name":"Uncletopia | Chicago | 5 | All Maps","name_short":"chi-5","host":"chi-2.us.uncletopia.com","port":27015,"enabled":true,"region":"us-central","cc":"us","latitude":41.881832,"longitude":-87.62318,"reserved":0,"last_update":"0001-01-01T00:00:00Z","name_a2s":"Uncletopia | Chicago | 5 | All Maps","protocol":17,"map":"pl_frontier_final","folder":"tf","game":"Team Fortress","app_id":440,"player_count":24,"max_players":24,"Bots":0,"server_type":"Dedicated","server_os":"Linux","password":true,"vac":true,"version":"7757534","steam_id":85568392924866362,"keywords":["nocrits","nodmgspread","payload","uncletopia"],"game_id":440,"stv_port":27016,"stv_name":"Uncletopia | Chicago | 5 | All Maps | STV","players":[{"user_id":191,"name":"nut","steam_id":76561198395577807,"connected_time":1535000000000,"state":"active","ping":56},{"user_id":202,"name":"LJ PRODUCTIONS","steam_id":76561198061697475,"connected_time":458000000000,"state":"active","ping":75},{"user_id":201,"name":"GreekGoat_Coffee","steam_id":76561198129331088,"connected_time":510000000000,"state":"active","ping":46},{"user_id":181,"name":"Theodore Roosevelt","steam_id":76561197993295656,"connected_time":1952000000000,"state":"active","ping":45},{"user_id":168,"name":"ナズナ","steam_id":76561198078395002,"connected_time":3303000000000,"state":"active","ping":64},{"user_id":177,"name":"vvichael","steam_id":76561198238148528,"connected_time":2365000000000,"state":"active","ping":71},{"user_id":197,"name":"exx","steam_id":76561198041421969,"connected_time":819000000000,"state":"active","ping":93},{"user_id":196,"name":"Max_Attack","steam_id":76561198944028607,"connected_time":1180000000000,"state":"active","ping":86},{"user_id":178,"name":"Silverio","steam_id":76561197999425381,"connected_time":2300000000000,"state":"active","ping":74},{"user_id":190,"name":"Wso1123","steam_id":76561198048040111,"connected_time":1562000000000,"state":"active","ping":65},{"user_id":52,"name":"Phil Collins","steam_id":76561198068868644,"connected_time":11805000000000,"state":"active","ping":107},{"user_id":176,"name":"c64guy","steam_id":76561198023022744,"connected_time":2406000000000,"state":"active","ping":73},{"user_id":198,"name":"ej","steam_id":76561198059281026,"connected_time":572000000000,"state":"active","ping":99},{"user_id":189,"name":"deadpixel","steam_id":76561198150249843,"connected_time":1652000000000,"state":"active","ping":48},{"user_id":187,"name":"melon soda","steam_id":76561198066748230,"connected_time":1842000000000,"state":"active","ping":70},{"user_id":195,"name":"Snonepe","steam_id":76561197985776620,"connected_time":1190000000000,"state":"active","ping":75},{"user_id":175,"name":"蓝光版乔污垢","steam_id":76561199088154401,"connected_time":2453000000000,"state":"active","ping":69},{"user_id":200,"name":"snow","steam_id":76561198018184698,"connected_time":512000000000,"state":"active","ping":73},{"user_id":155,"name":"❤ Ashley ❤","steam_id":76561198056428303,"connected_time":4927000000000,"state":"active","ping":104},{"user_id":159,"name":"self sufficient kitten","steam_id":76561197960592612,"connected_time":4184000000000,"state":"active","ping":105},{"user_id":105,"name":"ApricotOcelot","steam_id":76561198128393362,"connected_time":8035000000000,"state":"active","ping":71},{"user_id":164,"name":"Wasabi Bobby","steam_id":76561198024347999,"connected_time":4046000000000,"state":"active","ping":92},{"user_id":179,"name":"Tibs","steam_id":76561198024348261,"connected_time":2137000000000,"state":"active","ping":85},{"user_id":203,"name":"e","steam_id":76561198131245396,"connected_time":438000000000,"state":"active","ping":54}]},{"server_id":37,"name":"Uncletopia | Chicago | 6 | All Maps","name_short":"chi-6","host":"chi-2.us.uncletopia.com","port":27025,"enabled":true,"region":"us-central","cc":"us","latitude":41.881832,"longitude":-87.62318,"reserved":0,"last_update":"0001-01-01T00:00:00Z","name_a2s":"Uncletopia | Chicago | 6 | All Maps","protocol":17,"map":"pl_goldrush","folder":"tf","game":"Team Fortress","app_id":440,"player_count":24,"max_players":24,"Bots":0,"server_type":"Dedicated","server_os":"Linux","password":true,"vac":true,"version":"7757534","steam_id":85568392924866363,"keywords":["nocrits","nodmgspread","payload","uncletopia"],"game_id":440,"stv_port":27026,"stv_name":"Uncletopia | Chicago | 6 | All Maps | STV","players":[{"user_id":278,"name":"Fresh0c0","steam_id":76561198271933283,"connected_time":3229000000000,"state":"active","ping":61},{"user_id":313,"name":"Jon Snuh","steam_id":76561198075298635,"connected_time":810000000000,"state":"active","ping":77},{"user_id":317,"name":"XinPing","steam_id":76561198174498174,"connected_time":366000000000,"state":"active","ping":98},{"user_id":299,"name":"SilentFootba11","steam_id":76561199006570947,"connected_time":1322000000000,"state":"active","ping":72},{"user_id":308,"name":"azucar ❤","steam_id":76561199038054603,"connected_time":1149000000000,"state":"active","ping":106},{"user_id":316,"name":"Bloodrayne","steam_id":76561198116808497,"connected_time":409000000000,"state":"active","ping":78},{"user_id":124,"name":"Jeromius","steam_id":76561198051865275,"connected_time":15763000000000,"state":"active","ping":77},{"user_id":310,"name":"M0T0BREATH  \\TG/","steam_id":76561197961205221,"connected_time":1008000000000,"state":"active","ping":71},{"user_id":243,"name":"ToughGuy311","steam_id":76561198131458027,"connected_time":6336000000000,"state":"active","ping":71},{"user_id":274,"name":"Dr.KombatPhD.ttv","steam_id":76561198263847667,"connected_time":3279000000000,"state":"active","ping":70},{"user_id":314,"name":"Patisserie","steam_id":76561198239169752,"connected_time":741000000000,"state":"active","ping":56},{"user_id":273,"name":"Soap Man","steam_id":76561198000490235,"connected_time":3440000000000,"state":"active","ping":114},{"user_id":292,"name":"HollowMan","steam_id":76561198967266827,"connected_time":2579000000000,"state":"active","ping":99},{"user_id":280,"name":"Weak","steam_id":76561198857135096,"connected_time":3205000000000,"state":"active","ping":67},{"user_id":303,"name":"thecal","steam_id":76561198307893384,"connected_time":1242000000000,"state":"active","ping":55},{"user_id":315,"name":"caption cool","steam_id":76561197990612056,"connected_time":718000000000,"state":"active","ping":51},{"user_id":305,"name":"Snoopy","steam_id":76561198273735974,"connected_time":1228000000000,"state":"active","ping":88},{"user_id":312,"name":"Democracy Demon","steam_id":76561198027817971,"connected_time":1004000000000,"state":"active","ping":61},{"user_id":293,"name":"Frontier Psychiatrist","steam_id":76561198038689088,"connected_time":2002000000000,"state":"active","ping":91},{"user_id":297,"name":"John Taxenfraud","steam_id":76561199011358805,"connected_time":1392000000000,"state":"active","ping":84},{"user_id":307,"name":"The Announcer's Feet","steam_id":76561199443456893,"connected_time":1210000000000,"state":"active","ping":78},{"user_id":246,"name":"Miner2495","steam_id":76561198445904523,"connected_time":6331000000000,"state":"active","ping":70},{"user_id":287,"name":"Mr. Snatched Yo Nutsack","steam_id":76561199075873174,"connected_time":2975000000000,"state":"active","ping":71},{"user_id":262,"name":"Shagbark","steam_id":76561198173447342,"connected_time":5169000000000,"state":"active","ping":87}]},{"server_id":38,"name":"Uncletopia | Chicago | 7 | Stopwatch Beta","name_short":"chi-7","host":"chi-2.us.uncletopia.com","port":27035,"enabled":true,"region":"us-central","cc":"us","latitude":41.881832,"longitude":-87.62318,"reserved":0,"last_update":"0001-01-01T00:00:00Z","name_a2s":"Uncletopia | Chicago | 7 | Stopwatch Beta","protocol":17,"map":"workshop/koth_ramjam_rc1.ugc459778887","folder":"tf","game":"Team Fortress","app_id":440,"player_count":0,"max_players":24,"Bots":0,"server_type":"Dedicated","server_os":"Linux","password":true,"vac":true,"version":"7757534","steam_id":85568392924866364,"keywords":["cp","nocrits","nodmgspread","uncletopia"],"game_id":440,"stv_port":27036,"stv_name":"Uncletopia | Chicago | 7 | Stopwatch Beta | STV","players":null},{"server_id":39,"name":"Uncletopia | Chicago | 8 | Community","name_short":"chi-8","host":"chi-2.us.uncletopia.com","port":27045,"enabled":true,"region":"us-central","cc":"us","latitude":41.881832,"longitude":-87.62318,"reserved":0,"last_update":"0001-01-01T00:00:00Z","name_a2s":"Uncletopia | Chicago | 8 | Community","protocol":17,"map":"workshop/koth_bagel_rc5.ugc2514036946","folder":"tf","game":"Team Fortress","app_id":440,"player_count":0,"max_players":24,"Bots":0,"server_type":"Dedicated","server_os":"Linux","password":true,"vac":true,"version":"7757534","steam_id":85568392924866365,"keywords":["cp","nocrits","nodmgspread","uncletopia"],"game_id":440,"stv_port":27046,"stv_name":"Uncletopia | Chicago | 8 | Community | STV","players":null},{"server_id":8,"name":"Uncletopia | Dallas | 1 | All Maps","name_short":"dal-1","host":"dal-1.us.uncletopia.com","port":27015,"enabled":true,"region":"us-central","cc":"us","latitude":32.779167,"longitude":-96.80889,"reserved":0,"last_update":"0001-01-01T00:00:00Z","name_a2s":"Uncletopia | Dallas | 1 | All Maps","protocol":17,"map":"pl_barnblitz","folder":"tf","game":"Team Fortress","app_id":440,"player_count":24,"max_players":24,"Bots":0,"server_type":"Dedicated","server_os":"Linux","password":true,"vac":true,"version":"7757534","steam_id":85568392924469986,"keywords":["nocrits","nodmgspread","payload","uncletopia"],"game_id":440,"stv_port":27016,"stv_name":"Uncletopia | Dallas | 1 | All Maps | STV","players":[{"user_id":604,"name":"BernardBull","steam_id":76561198036138813,"connected_time":2572000000000,"state":"active","ping":70},{"user_id":600,"name":"Toa of Time","steam_id":76561198086867556,"connected_time":2841000000000,"state":"active","ping":74},{"user_id":602,"name":"Spankage","steam_id":76561198042094920,"connected_time":2744000000000,"state":"active","ping":79},{"user_id":622,"name":"Karate","steam_id":76561198352187445,"connected_time":468000000000,"state":"active","ping":83},{"user_id":565,"name":"The Robot Menace","steam_id":76561198043390413,"connected_time":3643000000000,"state":"active","ping":52},{"user_id":619,"name":"Lamy","steam_id":76561198348354629,"connected_time":1168000000000,"state":"active","ping":81},{"user_id":568,"name":"Mitty","steam_id":76561198014177684,"connected_time":3496000000000,"state":"active","ping":84},{"user_id":582,"name":"SneakySneak","steam_id":76561198064847921,"connected_time":3105000000000,"state":"active","ping":89},{"user_id":607,"name":"StarStrucked0","steam_id":76561198956028893,"connected_time":2477000000000,"state":"active","ping":57},{"user_id":623,"name":"TheTruthOfTheCessationOfDukkha","steam_id":76561198214370515,"connected_time":226000000000,"state":"active","ping":74},{"user_id":624,"name":"Asolator0","steam_id":76561198095809798,"connected_time":199000000000,"state":"active","ping":72},{"user_id":566,"name":"Grinski","steam_id":76561198054787727,"connected_time":3635000000000,"state":"active","ping":102},{"user_id":576,"name":"Soulfunseeker","steam_id":76561198162849530,"connected_time":3316000000000,"state":"active","ping":69},{"user_id":560,"name":"Tribute","steam_id":76561198081594043,"connected_time":4296000000000,"state":"active","ping":60},{"user_id":625,"name":"Pal","steam_id":76561198004363431,"connected_time":192000000000,"state":"active","ping":100},{"user_id":628,"name":"Dreamy Sweat from 2hu","steam_id":76561198094602446,"connected_time":21000000000,"state":"active","ping":90},{"user_id":575,"name":"Agent Bowtie","steam_id":76561198175839279,"connected_time":3351000000000,"state":"active","ping":59},{"user_id":577,"name":"Chowdahh","steam_id":76561198314533856,"connected_time":3307000000000,"state":"active","ping":90},{"user_id":578,"name":"Redguardowen","steam_id":76561198176957862,"connected_time":3303000000000,"state":"active","ping":59},{"user_id":616,"name":"Stock Medic","steam_id":76561198065479730,"connected_time":1325000000000,"state":"active","ping":69},{"user_id":626,"name":"K.A.R.M.A.","steam_id":76561198240750142,"connected_time":189000000000,"state":"active","ping":76},{"user_id":610,"name":"Bubba cleet","steam_id":76561198867319323,"connected_time":2182000000000,"state":"active","ping":89},{"user_id":627,"name":"7upStar","steam_id":76561199417907044,"connected_time":43000000000,"state":"active","ping":73},{"user_id":569,"name":"「Jimbo Reference」","steam_id":76561198016078541,"connected_time":3482000000000,"state":"active","ping":85}]},{"server_id":108,"name":"Uncletopia | Dallas | 2 | All Maps","name_short":"dal-2","host":"dal-1.us.uncletopia.com","port":27025,"enabled":true,"region":"us-central","cc":"us","latitude":32.779167,"longitude":-96.80889,"reserved":0,"last_update":"0001-01-01T00:00:00Z","name_a2s":"Uncletopia | Dallas | 2 | All Maps","protocol":17,"map":"cp_mountainlab","folder":"tf","game":"Team Fortress","app_id":440,"player_count":23,"max_players":24,"Bots":0,"server_type":"Dedicated","server_os":"Linux","password":true,"vac":true,"version":"7757534","steam_id":85568392924469988,"keywords":["cp","nocrits","nodmgspread","uncletopia"],"game_id":440,"stv_port":27026,"stv_name":"Uncletopia | Dallas | 2 | All Maps | STV","players":[{"user_id":504,"name":"SirBagettue","steam_id":76561199010270588,"connected_time":1331000000000,"state":"active","ping":71},{"user_id":527,"name":"John;Titor","steam_id":76561198266404287,"connected_time":134000000000,"state":"active","ping":125},{"user_id":445,"name":"FG7","steam_id":76561198381197197,"connected_time":6729000000000,"state":"active","ping":96},{"user_id":512,"name":"Rat Bastard","steam_id":76561198967368119,"connected_time":670000000000,"state":"active","ping":93},{"user_id":462,"name":"||:♩♩♩♪:|| Opplydead","steam_id":76561198028630334,"connected_time":3934000000000,"state":"active","ping":74},{"user_id":531,"name":".BL14","steam_id":76561198374604922,"connected_time":2000000000,"state":"spawning","ping":37},{"user_id":490,"name":"trobort","steam_id":76561198027150357,"connected_time":1930000000000,"state":"active","ping":54},{"user_id":516,"name":"GlitchGame","steam_id":76561198935134697,"connected_time":313000000000,"state":"active","ping":61},{"user_id":528,"name":"MonkeyOnBread","steam_id":76561198027949908,"connected_time":112000000000,"state":"active","ping":117},{"user_id":452,"name":"survivalist keeda","steam_id":76561198277979851,"connected_time":5524000000000,"state":"active","ping":86},{"user_id":530,"name":"★ ✲ ✳ ✴ ✶ ✷ ✸ ✹","steam_id":76561198056330171,"connected_time":16000000000,"state":"spawning","ping":67},{"user_id":525,"name":"Demonic Cipher","steam_id":76561198066082088,"connected_time":186000000000,"state":"active","ping":76},{"user_id":492,"name":"honked off the bobo","steam_id":76561198123287268,"connected_time":1915000000000,"state":"active","ping":75},{"user_id":498,"name":"Matches_                       ","steam_id":76561198048925904,"connected_time":1831000000000,"state":"active","ping":89},{"user_id":468,"name":"Shortbane","steam_id":76561198247166584,"connected_time":3774000000000,"state":"active","ping":60},{"user_id":508,"name":"Happytoe","steam_id":76561198001295503,"connected_time":1137000000000,"state":"active","ping":99},{"user_id":503,"name":"Marshall","steam_id":76561198042570322,"connected_time":1524000000000,"state":"active","ping":77},{"user_id":519,"name":"SuttBhitter56","steam_id":76561199012795690,"connected_time":282000000000,"state":"active","ping":94},{"user_id":526,"name":"Prof. Abedul","steam_id":76561198146171581,"connected_time":177000000000,"state":"active","ping":137},{"user_id":520,"name":"Dragonsofdra","steam_id":76561198253369292,"connected_time":281000000000,"state":"active","ping":60},{"user_id":521,"name":"sithreis","steam_id":76561198000564263,"connected_time":279000000000,"state":"active","ping":63},{"user_id":522,"name":"King","steam_id":76561198010019214,"connected_time":266000000000,"state":"active","ping":58},{"user_id":523,"name":"lanoc","steam_id":76561198055415367,"connected_time":261000000000,"state":"active","ping":58}]},{"server_id":5,"name":"Uncletopia | Frankfurt | 1 | All Maps","name_short":"frk-1","host":"frk-1.de.uncletopia.com","port":27015,"enabled":true,"region":"eu","cc":"de","latitude":50.110924,"longitude":8.682127,"reserved":0,"last_update":"0001-01-01T00:00:00Z","name_a2s":"Uncletopia | Frankfurt | 1 | All Maps","protocol":17,"map":"pl_pier","folder":"tf","game":"Team Fortress","app_id":440,"player_count":0,"max_players":24,"Bots":0,"server_type":"Dedicated","server_os":"Linux","password":true,"vac":true,"version":"7757534","steam_id":85568392924469989,"keywords":["nocrits","nodmgspread","payload","uncletopia"],"game_id":440,"stv_port":27016,"stv_name":"Uncletopia | Frankfurt | 1 | All Maps | STV","players":null},{"server_id":110,"name":"Uncletopia | Frankfurt | 2 | All Maps","name_short":"frk-2","host":"frk-1.de.uncletopia.com","port":27025,"enabled":true,"region":"eu","cc":"de","latitude":50.110924,"longitude":8.682127,"reserved":0,"last_update":"0001-01-01T00:00:00Z","name_a2s":"Uncletopia | Frankfurt | 2 | All Maps","protocol":17,"map":"cp_altitude","folder":"tf","game":"Team Fortress","app_id":440,"player_count":0,"max_players":24,"Bots":0,"server_type":"Dedicated","server_os":"Linux","password":true,"vac":true,"version":"7757534","steam_id":85568392924469990,"keywords":["cp","nocrits","nodmgspread","uncletopia"],"game_id":440,"stv_port":27026,"stv_name":"Uncletopia | Frankfurt | 2 | All Maps | STV","players":null},{"server_id":308,"name":"Uncletopia | Frankfurt | 3 | All Maps","name_short":"frk-3","host":"frk-1.de.uncletopia.com","port":27035,"enabled":true,"region":"eu","cc":"de","latitude":50.110924,"longitude":8.682127,"reserved":0,"last_update":"0001-01-01T00:00:00Z","name_a2s":"Uncletopia | Frankfurt | 3 | All Maps","protocol":17,"map":"pl_barnblitz","folder":"tf","game":"Team Fortress","app_id":440,"player_count":0,"max_players":24,"Bots":0,"server_type":"Dedicated","server_os":"Linux","password":true,"vac":true,"version":"7757534","steam_id":85568392924504274,"keywords":["nocrits","nodmgspread","payload","uncletopia"],"game_id":440,"stv_port":27036,"stv_name":"Uncletopia | Frankfurt | 3 | All Maps | STV","players":null},{"server_id":309,"name":"Uncletopia | Frankfurt | 4 | All Maps","name_short":"frk-4","host":"frk-1.de.uncletopia.com","port":27045,"enabled":true,"region":"eu","cc":"de","latitude":50.110924,"longitude":8.682127,"reserved":0,"last_update":"0001-01-01T00:00:00Z","name_a2s":"Uncletopia | Frankfurt | 4 | All Maps","protocol":17,"map":"pl_snowycoast","folder":"tf","game":"Team Fortress","app_id":440,"player_count":0,"max_players":24,"Bots":0,"server_type":"Dedicated","server_os":"Linux","password":true,"vac":true,"version":"7757534","steam_id":85568392924504275,"keywords":["nocrits","nodmgspread","payload","uncletopia"],"game_id":440,"stv_port":27046,"stv_name":"Uncletopia | Frankfurt | 4 | All Maps | STV","players":null},{"server_id":310,"name":"Uncletopia | Frankfurt | 5 | All Maps","name_short":"frk-5","host":"frk-1.de.uncletopia.com","port":27055,"enabled":true,"region":"eu","cc":"de","latitude":50.110924,"longitude":8.682127,"reserved":0,"last_update":"0001-01-01T00:00:00Z","name_a2s":"Uncletopia | Frankfurt | 5 | All Maps","protocol":17,"map":"cp_altitude","folder":"tf","game":"Team Fortress","app_id":440,"player_count":0,"max_players":24,"Bots":0,"server_type":"Dedicated","server_os":"Linux","password":true,"vac":true,"version":"7757534","steam_id":85568392924504277,"keywords":["cp","nocrits","nodmgspread","uncletopia"],"game_id":440,"stv_port":27056,"stv_name":"Uncletopia | Frankfurt | 5 | All Maps | STV","players":null},{"server_id":311,"name":"Uncletopia | Frankfurt | 6 | All Maps","name_short":"frk-6","host":"frk-1.de.uncletopia.com","port":27065,"enabled":true,"region":"eu","cc":"de","latitude":50.110924,"longitude":8.682127,"reserved":0,"last_update":"0001-01-01T00:00:00Z","name_a2s":"Uncletopia | Frankfurt | 6 | All Maps","protocol":17,"map":"koth_highpass","folder":"tf","game":"Team Fortress","app_id":440,"player_count":0,"max_players":24,"Bots":0,"server_type":"Dedicated","server_os":"Linux","password":true,"vac":true,"version":"7757534","steam_id":85568392924504278,"keywords":["cp","nocrits","nodmgspread","uncletopia"],"game_id":440,"stv_port":27066,"stv_name":"Uncletopia | Frankfurt | 6 | All Maps | STV","players":null},{"server_id":23,"name":"Uncletopia | Frankfurt | 7 | Stopwatch Beta","name_short":"frk-7","host":"frk-1.de.uncletopia.com","port":27075,"enabled":true,"region":"eu","cc":"de","latitude":50.110924,"longitude":8.682127,"reserved":0,"last_update":"0001-01-01T00:00:00Z","name_a2s":"Uncletopia | Frankfurt | 7 | Stopwatch Beta","protocol":17,"map":"pl_borneo","folder":"tf","game":"Team Fortress","app_id":440,"player_count":0,"max_players":24,"Bots":0,"server_type":"Dedicated","server_os":"Linux","password":true,"vac":true,"version":"7757534","steam_id":85568392924742827,"keywords":["nocrits","nodmgspread","payload","uncletopia"],"game_id":440,"stv_port":27076,"stv_name":"Uncletopia | Frankfurt | 7 | Stopwatch Beta | STV","players":null},{"server_id":24,"name":"Uncletopia | Frankfurt | 8 | Community","name_short":"frk-8","host":"frk-1.de.uncletopia.com","port":27085,"enabled":true,"region":"eu","cc":"de","latitude":50.110924,"longitude":8.682127,"reserved":0,"last_update":"0001-01-01T00:00:00Z","name_a2s":"Uncletopia | Frankfurt | 8 | Community","protocol":17,"map":"koth_cascade","folder":"tf","game":"Team Fortress","app_id":440,"player_count":0,"max_players":24,"Bots":0,"server_type":"Dedicated","server_os":"Linux","password":true,"vac":true,"version":"7757534","steam_id":85568392924742828,"keywords":["cp","nocrits","nodmgspread","uncletopia"],"game_id":440,"stv_port":27086,"stv_name":"Uncletopia | Frankfurt | 8 | Community | STV","players":null},{"server_id":202,"name":"Uncletopia | Hong Kong | 1 | All Maps","name_short":"hgk-1","host":"hgk-1.hk.uncletopia.com","port":27015,"enabled":true,"region":"asia","cc":"hk","latitude":22.302711,"longitude":114.177216,"reserved":0,"last_update":"0001-01-01T00:00:00Z","name_a2s":"Uncletopia | Hong Kong | 1 | All Maps","protocol":17,"map":"pl_frontier_final","folder":"tf","game":"Team Fortress","app_id":440,"player_count":19,"max_players":24,"Bots":0,"server_type":"Dedicated","server_os":"Linux","password":true,"vac":true,"version":"7757534","steam_id":85568392924494504,"keywords":["nocrits","nodmgspread","payload","uncletopia"],"game_id":440,"stv_port":27016,"stv_name":"Uncletopia | Hong Kong | 1 | All Maps | STV","players":[{"user_id":152,"name":"East","steam_id":76561198857299051,"connected_time":270000000000,"state":"active","ping":86},{"user_id":148,"name":"Puddin","steam_id":76561198140052918,"connected_time":301000000000,"state":"active","ping":95},{"user_id":124,"name":"Bertengkar","steam_id":76561198213031155,"connected_time":2028000000000,"state":"active","ping":98},{"user_id":115,"name":"qb","steam_id":76561198412329672,"connected_time":2533000000000,"state":"active","ping":94},{"user_id":154,"name":"Dropoutクマ","steam_id":76561199092455646,"connected_time":266000000000,"state":"active","ping":70},{"user_id":151,"name":"Mysterious_Network","steam_id":76561199445957166,"connected_time":278000000000,"state":"active","ping":66},{"user_id":155,"name":"koolaidkiller47","steam_id":76561198413116920,"connected_time":218000000000,"state":"active","ping":74},{"user_id":82,"name":"P","steam_id":76561198304514505,"connected_time":4086000000000,"state":"active","ping":109},{"user_id":143,"name":"GODBB","steam_id":76561197989937449,"connected_time":743000000000,"state":"active","ping":50},{"user_id":159,"name":"talkoo","steam_id":76561198160004007,"connected_time":18000000000,"state":"active","ping":122},{"user_id":144,"name":"screaming sniper","steam_id":76561199085568674,"connected_time":742000000000,"state":"active","ping":73},{"user_id":150,"name":"Mori","steam_id":76561198430817360,"connected_time":296000000000,"state":"active","ping":39},{"user_id":125,"name":":)","steam_id":76561198437941450,"connected_time":1365000000000,"state":"active","ping":87},{"user_id":145,"name":"master glu eater","steam_id":76561198069402937,"connected_time":728000000000,"state":"active","ping":133},{"user_id":100,"name":"TomProPlayer","steam_id":76561199223292521,"connected_time":3610000000000,"state":"active","ping":76},{"user_id":120,"name":"irylfaith","steam_id":76561199071455481,"connected_time":2440000000000,"state":"active","ping":90},{"user_id":98,"name":"煙海 | Enkai","steam_id":76561198050460825,"connected_time":3731000000000,"state":"active","ping":75},{"user_id":128,"name":"uptriste","steam_id":76561198158666692,"connected_time":1224000000000,"state":"active","ping":40},{"user_id":130,"name":"Urotsuki","steam_id":76561198074339034,"connected_time":1159000000000,"state":"active","ping":76}]},{"server_id":1,"name":"Uncletopia | Los Angeles | 1 | All Maps","name_short":"lax-1","host":"lax-1.us.uncletopia.com","port":27015,"enabled":true,"region":"us-west","cc":"us","latitude":33.94279,"longitude":-118.41004,"reserved":0,"last_update":"0001-01-01T00:00:00Z","name_a2s":"Uncletopia | Los Angeles | 1 | All Maps","protocol":17,"map":"pl_wutville_event","folder":"tf","game":"Team Fortress","app_id":440,"player_count":23,"max_players":24,"Bots":0,"server_type":"Dedicated","server_os":"Linux","password":true,"vac":true,"version":"7757534","steam_id":85568392924469991,"keywords":["nocrits","nodmgspread","payload","uncletopia"],"game_id":440,"stv_port":27016,"stv_name":"Uncletopia | Los Angeles | 1 | All Maps | STV","players":[{"user_id":400,"name":"Macro","steam_id":76561199442846226,"connected_time":4560000000000,"state":"active","ping":116},{"user_id":466,"name":"ASCII | kymeira!","steam_id":76561198340743816,"connected_time":1166000000000,"state":"active","ping":51},{"user_id":407,"name":"Altruisticailuridae","steam_id":76561198335295596,"connected_time":4075000000000,"state":"active","ping":57},{"user_id":473,"name":"HiddenEgg","steam_id":76561199045105518,"connected_time":504000000000,"state":"active","ping":58},{"user_id":453,"name":"Sacrificial Wormy","steam_id":76561198054539200,"connected_time":1589000000000,"state":"active","ping":75},{"user_id":471,"name":"Lord Aben","steam_id":76561198135266770,"connected_time":589000000000,"state":"active","ping":48},{"user_id":431,"name":"Mothma","steam_id":76561198353789504,"connected_time":2686000000000,"state":"active","ping":64},{"user_id":355,"name":"Amogous Supreme","steam_id":76561198025476774,"connected_time":6874000000000,"state":"active","ping":65},{"user_id":454,"name":"Broccoli Rob","steam_id":76561198026250024,"connected_time":1573000000000,"state":"active","ping":113},{"user_id":432,"name":"Chalupa Jones","steam_id":76561198335855588,"connected_time":2629000000000,"state":"active","ping":45},{"user_id":409,"name":"DocDankDandy","steam_id":76561197999440195,"connected_time":4052000000000,"state":"active","ping":31},{"user_id":457,"name":"samuel","steam_id":76561198074200225,"connected_time":1505000000000,"state":"active","ping":113},{"user_id":410,"name":"SanitysEdge","steam_id":76561198130732813,"connected_time":3993000000000,"state":"active","ping":78},{"user_id":455,"name":"Blizzard","steam_id":76561198052643541,"connected_time":1573000000000,"state":"active","ping":99},{"user_id":472,"name":"TheBrocklobster","steam_id":76561198039682984,"connected_time":514000000000,"state":"active","ping":61},{"user_id":442,"name":"The Clown","steam_id":76561199085524751,"connected_time":2334000000000,"state":"active","ping":40},{"user_id":458,"name":"Sulong","steam_id":76561198798244209,"connected_time":1495000000000,"state":"active","ping":96},{"user_id":474,"name":"abolish the federal reserve","steam_id":76561198047796437,"connected_time":367000000000,"state":"active","ping":74},{"user_id":468,"name":"Phillip Jeffries","steam_id":76561198064052174,"connected_time":765000000000,"state":"active","ping":117},{"user_id":459,"name":"dP | I'm in a Wookie Suit","steam_id":76561198083307644,"connected_time":1477000000000,"state":"active","ping":83},{"user_id":456,"name":"sciz","steam_id":76561198065303402,"connected_time":1567000000000,"state":"active","ping":108},{"user_id":464,"name":"sammie.tebo","steam_id":76561199212495985,"connected_time":1311000000000,"state":"active","ping":116},{"user_id":415,"name":"rey","steam_id":76561198021883683,"connected_time":3907000000000,"state":"active","ping":98}]},{"server_id":112,"name":"Uncletopia | Los Angeles | 2 | All Maps","name_short":"lax-2","host":"lax-1.us.uncletopia.com","port":27025,"enabled":true,"region":"us-west","cc":"us","latitude":33.94279,"longitude":-118.41004,"reserved":0,"last_update":"0001-01-01T00:00:00Z","name_a2s":"Uncletopia | Los Angeles | 2 | All Maps","protocol":17,"map":"pl_upward","folder":"tf","game":"Team Fortress","app_id":440,"player_count":24,"max_players":24,"Bots":0,"server_type":"Dedicated","server_os":"Linux","password":true,"vac":true,"version":"7757534","steam_id":85568392924469992,"keywords":["nocrits","nodmgspread","payload","uncletopia"],"game_id":440,"stv_port":27026,"stv_name":"Uncletopia | Los Angeles | 2 | All Maps | STV","players":[{"user_id":125,"name":"ٴCondones Reutilizables","steam_id":76561199088864128,"connected_time":461000000000,"state":"active","ping":88},{"user_id":105,"name":"[S]Mr. X [No Monitor]","steam_id":76561197963746035,"connected_time":2102000000000,"state":"active","ping":100},{"user_id":75,"name":"Jokergamma","steam_id":76561198807984541,"connected_time":3965000000000,"state":"active","ping":81},{"user_id":114,"name":"ShredMaan","steam_id":76561198429982138,"connected_time":1654000000000,"state":"active","ping":55},{"user_id":117,"name":"unnamed","steam_id":76561198240590320,"connected_time":1428000000000,"state":"active","ping":45},{"user_id":93,"name":"jwaller2007","steam_id":76561199470020355,"connected_time":2441000000000,"state":"active","ping":112},{"user_id":111,"name":"Ballista","steam_id":76561197983182562,"connected_time":1786000000000,"state":"active","ping":75},{"user_id":94,"name":"President Ballsack O'Chungus","steam_id":76561198236109724,"connected_time":2420000000000,"state":"active","ping":59},{"user_id":126,"name":"Wise Mystical Tree","steam_id":76561198377835843,"connected_time":460000000000,"state":"active","ping":100},{"user_id":118,"name":"thnkinhh","steam_id":76561198185991946,"connected_time":1265000000000,"state":"active","ping":90},{"user_id":127,"name":"Gnome Chompski","steam_id":76561198003130703,"connected_time":307000000000,"state":"active","ping":100},{"user_id":124,"name":"Can You Feel It Mr.Krabs","steam_id":76561198128302414,"connected_time":562000000000,"state":"active","ping":47},{"user_id":69,"name":"Dragons\u003eEverything","steam_id":76561199140784635,"connected_time":4881000000000,"state":"active","ping":72},{"user_id":98,"name":"wallgreens pharmaceutical","steam_id":76561199006886644,"connected_time":2402000000000,"state":"active","ping":61},{"user_id":96,"name":"Hey Kid","steam_id":76561198087089023,"connected_time":2413000000000,"state":"active","ping":99},{"user_id":72,"name":"brobtlcehc","steam_id":76561198043558709,"connected_time":4449000000000,"state":"active","ping":76},{"user_id":122,"name":"Livin' Like Larry","steam_id":76561198313360974,"connected_time":810000000000,"state":"active","ping":48},{"user_id":121,"name":"drool","steam_id":76561199045901994,"connected_time":850000000000,"state":"active","ping":51},{"user_id":103,"name":"rorywashere ฅ^•ﻌ•^ฅ","steam_id":76561198065825165,"connected_time":2233000000000,"state":"active","ping":105},{"user_id":101,"name":"walrooos","steam_id":76561198024521839,"connected_time":2335000000000,"state":"active","ping":50},{"user_id":116,"name":"horse plinko","steam_id":76561198433345421,"connected_time":1519000000000,"state":"active","ping":51},{"user_id":109,"name":"Jarate Jihadi","steam_id":76561197999837455,"connected_time":1844000000000,"state":"active","ping":95},{"user_id":48,"name":"YourWishes","steam_id":76561198154414336,"connected_time":7387000000000,"state":"active","ping":50},{"user_id":89,"name":"p9 jorts","steam_id":76561199041179985,"connected_time":2659000000000,"state":"active","ping":85}]},{"server_id":324,"name":"Uncletopia | Los Angeles | 3 | All Maps","name_short":"lax-3","host":"lax-1.us.uncletopia.com","port":27035,"enabled":true,"region":"us-west","cc":"us","latitude":33.94279,"longitude":-118.41004,"reserved":0,"last_update":"0001-01-01T00:00:00Z","name_a2s":"Uncletopia | Los Angeles | 3 | All Maps","protocol":17,"map":"koth_lazarus","folder":"tf","game":"Team Fortress","app_id":440,"player_count":21,"max_players":24,"Bots":0,"server_type":"Dedicated","server_os":"Linux","password":true,"vac":true,"version":"7757534","steam_id":85568392924510198,"keywords":["cp","nocrits","nodmgspread","uncletopia"],"game_id":440,"stv_port":27036,"stv_name":"Uncletopia | Los Angeles | 3 | All Maps | STV","players":[{"user_id":22,"name":"Hideki Tojo","steam_id":76561198046226516,"connected_time":2268000000000,"state":"active","ping":64},{"user_id":23,"name":"rysworld","steam_id":76561198015372065,"connected_time":2226000000000,"state":"active","ping":50},{"user_id":51,"name":"Cthuflu","steam_id":76561198010893799,"connected_time":773000000000,"state":"active","ping":108},{"user_id":25,"name":"Knock on the sky and listen","steam_id":76561198077597130,"connected_time":1617000000000,"state":"active","ping":57},{"user_id":26,"name":"CasualCakeEater","steam_id":76561199406096223,"connected_time":1556000000000,"state":"active","ping":65},{"user_id":56,"name":"cedar","steam_id":76561199114675299,"connected_time":456000000000,"state":"spawning","ping":338},{"user_id":29,"name":"yeyoi","steam_id":76561198069821885,"connected_time":1500000000000,"state":"active","ping":67},{"user_id":39,"name":"Jerma enthusiast","steam_id":76561198359466264,"connected_time":1070000000000,"state":"active","ping":130},{"user_id":60,"name":"Cute Gatito","steam_id":76561198351147780,"connected_time":284000000000,"state":"active","ping":50},{"user_id":33,"name":"A 7/10","steam_id":76561198075814864,"connected_time":1352000000000,"state":"active","ping":108},{"user_id":34,"name":"Tummy Sunday","steam_id":76561198031336957,"connected_time":1319000000000,"state":"active","ping":89},{"user_id":35,"name":"dandy","steam_id":76561197967362217,"connected_time":1284000000000,"state":"active","ping":45},{"user_id":36,"name":"Oliver Klozoff","steam_id":76561198024788419,"connected_time":1234000000000,"state":"active","ping":95},{"user_id":54,"name":"vanilain","steam_id":76561198058617608,"connected_time":590000000000,"state":"active","ping":57},{"user_id":40,"name":"Bobbo","steam_id":76561198055689771,"connected_time":1066000000000,"state":"active","ping":76},{"user_id":57,"name":"oil","steam_id":76561198099980149,"connected_time":439000000000,"state":"active","ping":46},{"user_id":43,"name":"RGB","steam_id":76561198323638210,"connected_time":1028000000000,"state":"active","ping":63},{"user_id":62,"name":"Dwayne “Rock Hard” Johnson","steam_id":76561198134001235,"connected_time":145000000000,"state":"active","ping":53},{"user_id":59,"name":"John Wick's puppy","steam_id":76561198064662875,"connected_time":405000000000,"state":"active","ping":49},{"user_id":50,"name":"Fiblit","steam_id":76561198130877949,"connected_time":815000000000,"state":"active","ping":113},{"user_id":53,"name":"XxRuby.Gloom.Fan_2009xX","steam_id":76561198256886614,"connected_time":651000000000,"state":"active","ping":82}]},{"server_id":25,"name":"Uncletopia | Los Angeles | 4 | Stopwatch Beta","name_short":"lax-4","host":"lax-1.us.uncletopia.com","port":27045,"enabled":true,"region":"us-west","cc":"us","latitude":33.94279,"longitude":-118.41004,"reserved":0,"last_update":"0001-01-01T00:00:00Z","name_a2s":"Uncletopia | Los Angeles | 4 | Stopwatch Beta","protocol":17,"map":"koth_viaduct","folder":"tf","game":"Team Fortress","app_id":440,"player_count":0,"max_players":24,"Bots":0,"server_type":"Dedicated","server_os":"Linux","password":true,"vac":true,"version":"7757534","steam_id":85568392924510199,"keywords":["cp","nocrits","nodmgspread","uncletopia"],"game_id":440,"stv_port":27046,"stv_name":"Uncletopia | Los Angeles | 4 | Stopwatch Beta | STV","players":null},{"server_id":11,"name":"Uncletopia | London | 1 | All Maps","name_short":"lon-1","host":"lon-1.uk.uncletopia.com","port":27015,"enabled":true,"region":"eu","cc":"gb","latitude":51.509865,"longitude":-0.118092,"reserved":0,"last_update":"0001-01-01T00:00:00Z","name_a2s":"Uncletopia | London | 1 | All Maps","protocol":17,"map":"koth_viaduct","folder":"tf","game":"Team Fortress","app_id":440,"player_count":0,"max_players":24,"Bots":0,"server_type":"Dedicated","server_os":"Linux","password":true,"vac":true,"version":"7757534","steam_id":85568392924367362,"keywords":["cp","nocrits","nodmgspread","uncletopia"],"game_id":440,"stv_port":27016,"stv_name":"Uncletopia | London | 1 | All Maps | STV","players":null},{"server_id":114,"name":"Uncletopia | London | 2 | All Maps","name_short":"lon-2","host":"lon-1.uk.uncletopia.com","port":27025,"enabled":true,"region":"eu","cc":"gb","latitude":51.509865,"longitude":-0.118092,"reserved":0,"last_update":"0001-01-01T00:00:00Z","name_a2s":"Uncletopia | London | 2 | All Maps","protocol":17,"map":"cp_sunshine","folder":"tf","game":"Team Fortress","app_id":440,"player_count":24,"max_players":24,"Bots":0,"server_type":"Dedicated","server_os":"Linux","password":true,"vac":true,"version":"7757534","steam_id":85568392924470941,"keywords":["cp","nocrits","nodmgspread","uncletopia"],"game_id":440,"stv_port":27026,"stv_name":"Uncletopia | London | 2 | All Maps | STV","players":[{"user_id":1107,"name":"Weakest Sniper Enjoyer","steam_id":76561198133597860,"connected_time":194000000000,"state":"active","ping":86},{"user_id":1098,"name":"[PDR] Kuma 🐻","steam_id":76561198006445078,"connected_time":1214000000000,"state":"active","ping":60},{"user_id":1108,"name":"Dude Time","steam_id":76561198092991160,"connected_time":163000000000,"state":"active","ping":164},{"user_id":1087,"name":"podcast","steam_id":76561198531978435,"connected_time":2241000000000,"state":"active","ping":63},{"user_id":1103,"name":"K.V. #RemoveRandomCrits","steam_id":76561197994832993,"connected_time":837000000000,"state":"active","ping":83},{"user_id":1088,"name":"Kraken","steam_id":76561198043106780,"connected_time":2090000000000,"state":"active","ping":58},{"user_id":1080,"name":"Talent","steam_id":76561198153880354,"connected_time":2473000000000,"state":"active","ping":44},{"user_id":1109,"name":"eli","steam_id":76561198802155838,"connected_time":163000000000,"state":"active","ping":136},{"user_id":1071,"name":"I Stole Santa's Chair","steam_id":76561198095139434,"connected_time":2598000000000,"state":"active","ping":131},{"user_id":1106,"name":"Il y a","steam_id":76561198100943482,"connected_time":202000000000,"state":"active","ping":67},{"user_id":1113,"name":"Alley_YAMBO","steam_id":76561198055651850,"connected_time":26000000000,"state":"active","ping":166},{"user_id":1092,"name":"cherry","steam_id":76561199006915718,"connected_time":1835000000000,"state":"active","ping":64},{"user_id":1095,"name":"R8N - Obismal","steam_id":76561198007482714,"connected_time":1304000000000,"state":"active","ping":78},{"user_id":1105,"name":"Dreadnawght","steam_id":76561198000973506,"connected_time":207000000000,"state":"active","ping":56},{"user_id":1111,"name":"×🐷xл🐖пi†еқ","steam_id":76561199277727142,"connected_time":140000000000,"state":"spawning","ping":123},{"user_id":1102,"name":"brkc_love","steam_id":76561198090152271,"connected_time":966000000000,"state":"active","ping":46},{"user_id":1100,"name":"pip boy","steam_id":76561197960530280,"connected_time":1124000000000,"state":"active","ping":75},{"user_id":1075,"name":"olf","steam_id":76561198095487438,"connected_time":2518000000000,"state":"active","ping":84},{"user_id":1101,"name":"Bupster","steam_id":76561199077027065,"connected_time":1040000000000,"state":"active","ping":78},{"user_id":1085,"name":"Murzik","steam_id":76561198078882528,"connected_time":2282000000000,"state":"active","ping":104},{"user_id":1079,"name":"glyph","steam_id":76561197980736364,"connected_time":2481000000000,"state":"active","ping":88},{"user_id":1082,"name":"r0la","steam_id":76561198128315340,"connected_time":2444000000000,"state":"active","ping":79},{"user_id":1112,"name":"Johnny Cockroach","steam_id":76561198049648277,"connected_time":88000000000,"state":"active","ping":100},{"user_id":1084,"name":"Cumbustible Punda #SaveTF2","steam_id":76561197974274677,"connected_time":2403000000000,"state":"active","ping":59}]},{"server_id":320,"name":"Uncletopia | London | 3 | All Maps","name_short":"lon-3","host":"lon-1.uk.uncletopia.com","port":27035,"enabled":true,"region":"eu","cc":"gb","latitude":51.509865,"longitude":-0.118092,"reserved":0,"last_update":"0001-01-01T00:00:00Z","name_a2s":"Uncletopia | London | 3 | All Maps","protocol":17,"map":"cp_sunshine","folder":"tf","game":"Team Fortress","app_id":440,"player_count":0,"max_players":24,"Bots":0,"server_type":"Dedicated","server_os":"Linux","password":true,"vac":true,"version":"7757534","steam_id":85568392924510192,"keywords":["cp","nocrits","nodmgspread","uncletopia"],"game_id":440,"stv_port":27036,"stv_name":"Uncletopia | London | 3 | All Maps | STV","players":null},{"server_id":321,"name":"Uncletopia | London | 4 | All Maps","name_short":"lon-4","host":"lon-1.uk.uncletopia.com","port":27045,"enabled":true,"region":"eu","cc":"gb","latitude":51.509865,"longitude":-0.118092,"reserved":0,"last_update":"0001-01-01T00:00:00Z","name_a2s":"Uncletopia | London | 4 | All Maps","protocol":17,"map":"pl_swiftwater_final1","folder":"tf","game":"Team Fortress","app_id":440,"player_count":0,"max_players":24,"Bots":0,"server_type":"Dedicated","server_os":"Linux","password":true,"vac":true,"version":"7757534","steam_id":85568392924510193,"keywords":["nocrits","nodmgspread","payload","uncletopia"],"game_id":440,"stv_port":27046,"stv_name":"Uncletopia | London | 4 | All Maps | STV","players":null},{"server_id":21,"name":"Uncletopia | London | 5 | All Maps","name_short":"lon-5","host":"lon-1.uk.uncletopia.com","port":27055,"enabled":true,"region":"eu","cc":"gb","latitude":51.509865,"longitude":-0.118092,"reserved":0,"last_update":"0001-01-01T00:00:00Z","name_a2s":"Uncletopia | London | 5 | All Maps","protocol":17,"map":"koth_highpass","folder":"tf","game":"Team Fortress","app_id":440,"player_count":22,"max_players":24,"Bots":0,"server_type":"Dedicated","server_os":"Linux","password":true,"vac":true,"version":"7757534","steam_id":85568392924742829,"keywords":["cp","nocrits","nodmgspread","uncletopia"],"game_id":440,"stv_port":27056,"stv_name":"Uncletopia | London | 5 | All Maps | STV","players":[{"user_id":704,"name":"b","steam_id":76561198074160877,"connected_time":6196000000000,"state":"active","ping":59},{"user_id":705,"name":"Hawkhatter","steam_id":76561198320746290,"connected_time":6184000000000,"state":"active","ping":138},{"user_id":753,"name":"subway vergil","steam_id":76561199110064166,"connected_time":691000000000,"state":"active","ping":61},{"user_id":760,"name":"Pepsiman","steam_id":76561198436946165,"connected_time":589000000000,"state":"active","ping":134},{"user_id":757,"name":"hasansaeedifar","steam_id":76561198974563618,"connected_time":649000000000,"state":"active","ping":163},{"user_id":706,"name":"Dae Lune","steam_id":76561198009723453,"connected_time":6175000000000,"state":"active","ping":54},{"user_id":744,"name":"gagalak","steam_id":76561198089979108,"connected_time":2455000000000,"state":"active","ping":105},{"user_id":745,"name":"Rezzarezz","steam_id":76561198092020043,"connected_time":2454000000000,"state":"active","ping":74},{"user_id":754,"name":"dx_xb","steam_id":76561198064878900,"connected_time":683000000000,"state":"active","ping":62},{"user_id":724,"name":"Tazerann","steam_id":76561198043743881,"connected_time":5175000000000,"state":"active","ping":45},{"user_id":730,"name":"ExodusMega","steam_id":76561199040286919,"connected_time":4647000000000,"state":"active","ping":166},{"user_id":731,"name":"Beezlebub","steam_id":76561198446379339,"connected_time":4635000000000,"state":"active","ping":139},{"user_id":759,"name":"BuzzBees ❤","steam_id":76561198101502273,"connected_time":597000000000,"state":"active","ping":45},{"user_id":734,"name":"dorak","steam_id":76561198818037965,"connected_time":4223000000000,"state":"active","ping":105},{"user_id":752,"name":"upisfree","steam_id":76561198064037857,"connected_time":713000000000,"state":"active","ping":129},{"user_id":756,"name":"Ross","steam_id":76561198419076879,"connected_time":674000000000,"state":"active","ping":49},{"user_id":761,"name":"Laki1403","steam_id":76561198296762400,"connected_time":553000000000,"state":"active","ping":70},{"user_id":764,"name":"Ebaklak","steam_id":76561198016102699,"connected_time":96000000000,"state":"active","ping":83},{"user_id":763,"name":"Mr. Bigweld","steam_id":76561198093689301,"connected_time":214000000000,"state":"active","ping":50},{"user_id":716,"name":"DeDMeeT (Femboy Coffee)","steam_id":76561198135686475,"connected_time":5638000000000,"state":"active","ping":35},{"user_id":762,"name":"Shaky","steam_id":76561198104606714,"connected_time":503000000000,"state":"active","ping":128},{"user_id":747,"name":"SuntanPikachu","steam_id":76561198121242476,"connected_time":2439000000000,"state":"active","ping":54}]},{"server_id":22,"name":"Uncletopia | London | 6 | All Maps","name_short":"lon-6","host":"lon-1.uk.uncletopia.com","port":27065,"enabled":true,"region":"eu","cc":"gb","latitude":51.509865,"longitude":-0.118092,"reserved":0,"last_update":"0001-01-01T00:00:00Z","name_a2s":"Uncletopia | London | 6 | All Maps","protocol":17,"map":"koth_viaduct","folder":"tf","game":"Team Fortress","app_id":440,"player_count":6,"max_players":24,"Bots":0,"server_type":"Dedicated","server_os":"Linux","password":true,"vac":true,"version":"7757534","steam_id":85568392924742830,"keywords":["cp","nocrits","nodmgspread","uncletopia"],"game_id":440,"stv_port":27066,"stv_name":"Uncletopia | London | 6 | All Maps | STV","players":[{"user_id":477,"name":"Гетьман","steam_id":76561198999588679,"connected_time":3435000000000,"state":"active","ping":202},{"user_id":478,"name":"CanadianBroskii","steam_id":76561198999116493,"connected_time":3414000000000,"state":"active","ping":211},{"user_id":479,"name":"built_based","steam_id":76561198371801412,"connected_time":3413000000000,"state":"active","ping":210},{"user_id":485,"name":"que movida","steam_id":76561197966125354,"connected_time":855000000000,"state":"active","ping":68},{"user_id":484,"name":"f-f-fly","steam_id":76561198160847375,"connected_time":1617000000000,"state":"active","ping":64},{"user_id":487,"name":"KAMIKAZE","steam_id":76561198308276700,"connected_time":714000000000,"state":"active","ping":55}]},{"server_id":40,"name":"Uncletopia | London | 7 | No Payload","name_short":"lon-7","host":"lon-1.uk.uncletopia.com","port":27075,"enabled":true,"region":"eu","cc":"gb","latitude":51.509865,"longitude":-0.118092,"reserved":0,"last_update":"0001-01-01T00:00:00Z","name_a2s":"Uncletopia | London | 7 | No Payload","protocol":17,"map":"koth_suijin","folder":"tf","game":"Team Fortress","app_id":440,"player_count":0,"max_players":24,"Bots":0,"server_type":"Dedicated","server_os":"Linux","password":true,"vac":true,"version":"7757534","steam_id":85568392924964314,"keywords":["cp","nocrits","nodmgspread","uncletopia"],"game_id":440,"stv_port":27076,"stv_name":"Uncletopia | London | 7 | No Payload | STV","players":null},{"server_id":41,"name":"Uncletopia | London | 8 | Community","name_short":"lon-8","host":"lon-1.uk.uncletopia.com","port":27085,"enabled":true,"region":"eu","cc":"gb","latitude":51.509865,"longitude":-0.118092,"reserved":0,"last_update":"0001-01-01T00:00:00Z","name_a2s":"Uncletopia | London | 8 | Community","protocol":17,"map":"workshop/pl_vigil_rc9.ugc1266210012","folder":"tf","game":"Team Fortress","app_id":440,"player_count":0,"max_players":24,"Bots":0,"server_type":"Dedicated","server_os":"Linux","password":true,"vac":true,"version":"7757534","steam_id":85568392924964315,"keywords":["nocrits","nodmgspread","payload","uncletopia"],"game_id":440,"stv_port":27086,"stv_name":"Uncletopia | London | 8 | Community | STV","players":null},{"server_id":300,"name":"Uncletopia | Montréal | 1 | All Maps","name_short":"mtl-1","host":"mtl-1.ca.uncletopia.com","port":27015,"enabled":true,"region":"us-east","cc":"ca","latitude":45.50889,"longitude":-73.56167,"reserved":0,"last_update":"0001-01-01T00:00:00Z","name_a2s":"Uncletopia | Montréal | 1 | All Maps","protocol":17,"map":"pl_upward","folder":"tf","game":"Team Fortress","app_id":440,"player_count":24,"max_players":24,"Bots":0,"server_type":"Dedicated","server_os":"Linux","password":true,"vac":true,"version":"7757534","steam_id":85568392924500087,"keywords":["nocrits","nodmgspread","payload","uncletopia"],"game_id":440,"stv_port":27016,"stv_name":"Uncletopia | Montréal | 1 | All Maps | STV","players":[{"user_id":93,"name":"Juri Han","steam_id":76561198041678517,"connected_time":2474000000000,"state":"active","ping":119},{"user_id":51,"name":"My OC, Jean Snow","steam_id":76561198028362871,"connected_time":4551000000000,"state":"active","ping":60},{"user_id":94,"name":"garrowisawsom","steam_id":76561198855107415,"connected_time":2366000000000,"state":"active","ping":100},{"user_id":125,"name":"Nicoarn121","steam_id":76561198156297440,"connected_time":539000000000,"state":"active","ping":47},{"user_id":120,"name":"Rudy","steam_id":76561198013456828,"connected_time":1310000000000,"state":"active","ping":58},{"user_id":102,"name":"Benroads","steam_id":76561198040399924,"connected_time":2090000000000,"state":"active","ping":49},{"user_id":133,"name":"rlty","steam_id":76561198009395055,"connected_time":32000000000,"state":"active","ping":59},{"user_id":75,"name":"MrrPickle","steam_id":76561198122046514,"connected_time":3578000000000,"state":"active","ping":61},{"user_id":129,"name":"AquaEclipse","steam_id":76561198225964744,"connected_time":371000000000,"state":"active","ping":79},{"user_id":57,"name":"unfunnytool","steam_id":76561198060560359,"connected_time":4424000000000,"state":"active","ping":67},{"user_id":58,"name":"Crack Fiend","steam_id":76561198149124786,"connected_time":4393000000000,"state":"active","ping":86},{"user_id":100,"name":"DarthRevan","steam_id":76561198164492361,"connected_time":2270000000000,"state":"active","ping":68},{"user_id":105,"name":"matcha ^_^ \u003c3","steam_id":76561198832230598,"connected_time":2065000000000,"state":"active","ping":54},{"user_id":121,"name":"axfty","steam_id":76561198000359738,"connected_time":699000000000,"state":"active","ping":115},{"user_id":106,"name":"Dr. Anime07","steam_id":76561199285435663,"connected_time":2051000000000,"state":"active","ping":77},{"user_id":107,"name":"dosimeter","steam_id":76561198039608940,"connected_time":2030000000000,"state":"active","ping":133},{"user_id":110,"name":"Bandit","steam_id":76561199121320640,"connected_time":2008000000000,"state":"active","ping":83},{"user_id":76,"name":"SweetieCandy","steam_id":76561198137756392,"connected_time":3445000000000,"state":"active","ping":54},{"user_id":86,"name":"cornshot","steam_id":76561198043496387,"connected_time":3234000000000,"state":"active","ping":96},{"user_id":123,"name":"Sheev Palpatine","steam_id":76561198252332430,"connected_time":665000000000,"state":"active","ping":98},{"user_id":69,"name":"FISHNA","steam_id":76561198231288072,"connected_time":4097000000000,"state":"active","ping":87},{"user_id":132,"name":"hauntaholic","steam_id":76561198095051652,"connected_time":268000000000,"state":"active","ping":88},{"user_id":113,"name":"A Terrible Shot","steam_id":76561198045523833,"connected_time":1909000000000,"state":"active","ping":85},{"user_id":126,"name":"Menlymen","steam_id":76561198046508051,"connected_time":480000000000,"state":"active","ping":91}]},{"server_id":301,"name":"Uncletopia | Montréal | 2 | All Maps","name_short":"mtl-2","host":"mtl-1.ca.uncletopia.com","port":27025,"enabled":true,"region":"us-east","cc":"ca","latitude":45.50889,"longitude":-73.56167,"reserved":0,"last_update":"0001-01-01T00:00:00Z","name_a2s":"Uncletopia | Montréal | 2 | All Maps","protocol":17,"map":"pl_borneo","folder":"tf","game":"Team Fortress","app_id":440,"player_count":0,"max_players":24,"Bots":0,"server_type":"Dedicated","server_os":"Linux","password":true,"vac":true,"version":"7757534","steam_id":85568392924500088,"keywords":["nocrits","nodmgspread","payload","uncletopia"],"game_id":440,"stv_port":27026,"stv_name":"Uncletopia | Montréal | 2 | All Maps | STV","players":null},{"server_id":302,"name":"Uncletopia | Montréal | 3 | All Maps","name_short":"mtl-3","host":"mtl-1.ca.uncletopia.com","port":27035,"enabled":true,"region":"us-east","cc":"ca","latitude":45.50889,"longitude":-73.56167,"reserved":0,"last_update":"0001-01-01T00:00:00Z","name_a2s":"Uncletopia | Montréal | 3 | All Maps","protocol":17,"map":"koth_cascade","folder":"tf","game":"Team Fortress","app_id":440,"player_count":0,"max_players":24,"Bots":0,"server_type":"Dedicated","server_os":"Linux","password":true,"vac":true,"version":"7757534","steam_id":85568392924500089,"keywords":["cp","nocrits","nodmgspread","uncletopia"],"game_id":440,"stv_port":27036,"stv_name":"Uncletopia | Montréal | 3 | All Maps | STV","players":null},{"server_id":303,"name":"Uncletopia | Montréal | 4 | No Payload","name_short":"mtl-4","host":"mtl-1.ca.uncletopia.com","port":27045,"enabled":true,"region":"us-east","cc":"ca","latitude":45.50889,"longitude":-73.56167,"reserved":0,"last_update":"0001-01-01T00:00:00Z","name_a2s":"Uncletopia | Montréal | 4 | No Payload","protocol":17,"map":"koth_lakeside_final","folder":"tf","game":"Team Fortress","app_id":440,"player_count":0,"max_players":24,"Bots":0,"server_type":"Dedicated","server_os":"Linux","password":true,"vac":true,"version":"7757534","steam_id":85568392924500090,"keywords":["cp","nocrits","nodmgspread","uncletopia"],"game_id":440,"stv_port":27046,"stv_name":"Uncletopia | Montréal | 4 | No Payload | STV","players":null},{"server_id":13,"name":"Uncletopia | New York City | 1 | All Maps","name_short":"nyc-1","host":"nyc-1.us.uncletopia.com","port":27015,"enabled":true,"region":"us-east","cc":"us","latitude":40.73061,"longitude":-73.93524,"reserved":0,"last_update":"0001-01-01T00:00:00Z","name_a2s":"Uncletopia | New York City | 1 | All Maps","protocol":17,"map":"pl_snowycoast","folder":"tf","game":"Team Fortress","app_id":440,"player_count":24,"max_players":24,"Bots":0,"server_type":"Dedicated","server_os":"Linux","password":true,"vac":true,"version":"7757534","steam_id":85568392924469993,"keywords":["nocrits","nodmgspread","payload","uncletopia"],"game_id":440,"stv_port":27016,"stv_name":"Uncletopia | New York City | 1 | All Maps | STV","players":[{"user_id":524,"name":"i wore a minions shirt to prom","steam_id":76561198045010282,"connected_time":3694000000000,"state":"active","ping":57},{"user_id":554,"name":"Deeg","steam_id":76561198175970806,"connected_time":2238000000000,"state":"active","ping":55},{"user_id":570,"name":"Sapphireblitz","steam_id":76561198272635379,"connected_time":356000000000,"state":"active","ping":67},{"user_id":572,"name":"Goretron","steam_id":76561198001320198,"connected_time":76000000000,"state":"active","ping":111},{"user_id":560,"name":"Devlyn77","steam_id":76561198108965341,"connected_time":1751000000000,"state":"active","ping":76},{"user_id":566,"name":"Rhutebeer","steam_id":76561198018302761,"connected_time":953000000000,"state":"active","ping":101},{"user_id":543,"name":"woman respecter","steam_id":76561198083225542,"connected_time":2463000000000,"state":"active","ping":65},{"user_id":563,"name":"ʕ•ᴥ•ʔ the bear","steam_id":76561197989591976,"connected_time":994000000000,"state":"active","ping":61},{"user_id":571,"name":"Daksuki","steam_id":76561198084127751,"connected_time":202000000000,"state":"active","ping":92},{"user_id":564,"name":"Aristotle Voulton","steam_id":76561198100174923,"connected_time":968000000000,"state":"active","ping":90},{"user_id":441,"name":"drooskie","steam_id":76561198036083886,"connected_time":9663000000000,"state":"active","ping":72},{"user_id":545,"name":"amablehughes","steam_id":76561199007131236,"connected_time":2424000000000,"state":"active","ping":72},{"user_id":569,"name":"blademiss","steam_id":76561198062083019,"connected_time":412000000000,"state":"active","ping":113},{"user_id":568,"name":"sweaterfan","steam_id":76561199389567214,"connected_time":872000000000,"state":"active","ping":70},{"user_id":500,"name":"flappyflap2","steam_id":76561198285048973,"connected_time":5458000000000,"state":"active","ping":45},{"user_id":539,"name":"Queen Frau the Round","steam_id":76561197999942134,"connected_time":2522000000000,"state":"active","ping":61},{"user_id":557,"name":"Wilhelmktx","steam_id":76561198158102295,"connected_time":1851000000000,"state":"active","ping":71},{"user_id":553,"name":"A Puppy","steam_id":76561198828184456,"connected_time":2250000000000,"state":"active","ping":47},{"user_id":490,"name":"Warzard","steam_id":76561199154051413,"connected_time":6185000000000,"state":"active","ping":100},{"user_id":558,"name":"Razz","steam_id":76561198158027533,"connected_time":1849000000000,"state":"active","ping":58},{"user_id":561,"name":"Bread Bug","steam_id":76561198044872804,"connected_time":1500000000000,"state":"active","ping":50},{"user_id":549,"name":"Vagabond","steam_id":76561198191189053,"connected_time":2341000000000,"state":"active","ping":49},{"user_id":506,"name":"avaeragebonkenjoyer","steam_id":76561198313518948,"connected_time":5262000000000,"state":"active","ping":82},{"user_id":550,"name":"rude boi","steam_id":76561198006783260,"connected_time":2320000000000,"state":"active","ping":56}]},{"server_id":14,"name":"Uncletopia | New York City | 2 | All Maps","name_short":"nyc-2","host":"nyc-1.us.uncletopia.com","port":27025,"enabled":true,"region":"us-east","cc":"us","latitude":40.73061,"longitude":-73.93524,"reserved":0,"last_update":"0001-01-01T00:00:00Z","name_a2s":"Uncletopia | New York City | 2 | All Maps","protocol":17,"map":"pl_borneo","folder":"tf","game":"Team Fortress","app_id":440,"player_count":24,"max_players":24,"Bots":0,"server_type":"Dedicated","server_os":"Linux","password":true,"vac":true,"version":"7757534","steam_id":85568392924469994,"keywords":["nocrits","nodmgspread","payload","uncletopia"],"game_id":440,"stv_port":27026,"stv_name":"Uncletopia | New York City | 2 | All Maps | STV","players":[{"user_id":488,"name":"Iron","steam_id":76561198247918478,"connected_time":32000000000,"state":"active","ping":77},{"user_id":486,"name":"merty","steam_id":76561198067874268,"connected_time":53000000000,"state":"active","ping":60},{"user_id":484,"name":"Dill","steam_id":76561197985091914,"connected_time":149000000000,"state":"active","ping":51},{"user_id":456,"name":"Poverty's Finest","steam_id":76561198127704044,"connected_time":2207000000000,"state":"active","ping":52},{"user_id":476,"name":"p0rps","steam_id":76561198000014631,"connected_time":473000000000,"state":"active","ping":76},{"user_id":444,"name":"Uhonlapjontetzika","steam_id":76561199431280503,"connected_time":3006000000000,"state":"active","ping":64},{"user_id":473,"name":"Javaris Jamar Javarison-Lamar","steam_id":76561198146951387,"connected_time":763000000000,"state":"active","ping":51},{"user_id":483,"name":"Sveniven","steam_id":76561198118864411,"connected_time":168000000000,"state":"active","ping":92},{"user_id":460,"name":"Doctor Sex","steam_id":76561198119503652,"connected_time":2053000000000,"state":"active","ping":82},{"user_id":479,"name":"potateking","steam_id":76561198066579830,"connected_time":443000000000,"state":"active","ping":148},{"user_id":435,"name":"Sone","steam_id":76561198069601032,"connected_time":3912000000000,"state":"active","ping":58},{"user_id":436,"name":"Owen","steam_id":76561198025446908,"connected_time":3907000000000,"state":"active","ping":44},{"user_id":441,"name":"WhoIsFrosty","steam_id":76561198880588117,"connected_time":3393000000000,"state":"active","ping":72},{"user_id":477,"name":"David De Bergerac","steam_id":76561198010306294,"connected_time":457000000000,"state":"active","ping":81},{"user_id":471,"name":"bingle","steam_id":76561198359413453,"connected_time":1157000000000,"state":"active","ping":67},{"user_id":478,"name":"THE CUM WIZARD","steam_id":76561198131532406,"connected_time":451000000000,"state":"active","ping":103},{"user_id":443,"name":"Acid-talon","steam_id":76561198039545578,"connected_time":3117000000000,"state":"active","ping":58},{"user_id":470,"name":"nav","steam_id":76561198872608266,"connected_time":1221000000000,"state":"active","ping":78},{"user_id":485,"name":"Uncle Darnell","steam_id":76561198211473307,"connected_time":74000000000,"state":"active","ping":81},{"user_id":454,"name":"Dylanxp300","steam_id":76561198271974937,"connected_time":2408000000000,"state":"active","ping":66},{"user_id":438,"name":"Irwin Dracula","steam_id":76561198045903539,"connected_time":3881000000000,"state":"active","ping":64},{"user_id":474,"name":"Murrdogg","steam_id":76561198210491188,"connected_time":523000000000,"state":"active","ping":81},{"user_id":480,"name":"Authentic Human Programming","steam_id":76561198028090486,"connected_time":429000000000,"state":"active","ping":86},{"user_id":487,"name":"Giantbob","steam_id":76561199043760220,"connected_time":52000000000,"state":"active","ping":137}]},{"server_id":15,"name":"Uncletopia | New York City | 3 | Stopwatch Beta","name_short":"nyc-3","host":"nyc-1.us.uncletopia.com","port":27035,"enabled":true,"region":"us-east","cc":"us","latitude":40.73061,"longitude":-73.93524,"reserved":0,"last_update":"0001-01-01T00:00:00Z","name_a2s":"Uncletopia | New York City | 3 | Stopwatch Beta","protocol":17,"map":"workshop/koth_clearcut_b15.ugc2107050255","folder":"tf","game":"Team Fortress","app_id":440,"player_count":0,"max_players":24,"Bots":0,"server_type":"Dedicated","server_os":"Linux","password":true,"vac":true,"version":"7757534","steam_id":85568392924742820,"keywords":["cp","nocrits","nodmgspread","uncletopia"],"game_id":440,"stv_port":27036,"stv_name":"Uncletopia | New York City | 3 | Stopwatch Beta | STV","players":null},{"server_id":16,"name":"Uncletopia | New York City | 4 | Community","name_short":"nyc-4","host":"nyc-1.us.uncletopia.com","port":27045,"enabled":true,"region":"us-east","cc":"us","latitude":40.73061,"longitude":-73.93524,"reserved":0,"last_update":"0001-01-01T00:00:00Z","name_a2s":"Uncletopia | New York City | 4 | Community","protocol":17,"map":"workshop/koth_synthetic_rc6a.ugc1549817316","folder":"tf","game":"Team Fortress","app_id":440,"player_count":20,"max_players":24,"Bots":0,"server_type":"Dedicated","server_os":"Linux","password":true,"vac":true,"version":"7757534","steam_id":85568392924742821,"keywords":["cp","nocrits","nodmgspread","uncletopia"],"game_id":440,"stv_port":27046,"stv_name":"Uncletopia | New York City | 4 | Community | STV","players":[{"user_id":347,"name":"Obama F. Kennedy","steam_id":76561198282499318,"connected_time":1465000000000,"state":"active","ping":54},{"user_id":344,"name":"summerof69","steam_id":76561198069049410,"connected_time":2058000000000,"state":"active","ping":58},{"user_id":283,"name":"SodaKid_7","steam_id":76561198079419485,"connected_time":5995000000000,"state":"active","ping":96},{"user_id":349,"name":"big tank","steam_id":76561198285264050,"connected_time":614000000000,"state":"active","ping":71},{"user_id":308,"name":"dicksouls26","steam_id":76561198838196266,"connected_time":3800000000000,"state":"active","ping":78},{"user_id":286,"name":"carrion goat she/it","steam_id":76561198262064871,"connected_time":5584000000000,"state":"active","ping":45},{"user_id":346,"name":"Bandit","steam_id":76561199087543553,"connected_time":1629000000000,"state":"active","ping":127},{"user_id":348,"name":"Patton","steam_id":76561198087871688,"connected_time":1122000000000,"state":"active","ping":77},{"user_id":310,"name":"Chrysalis","steam_id":76561198028576126,"connected_time":3755000000000,"state":"active","ping":82},{"user_id":360,"name":"Riko","steam_id":76561198028097118,"connected_time":150000000000,"state":"active","ping":72},{"user_id":357,"name":"cereaI","steam_id":76561198066929519,"connected_time":364000000000,"state":"active","ping":71},{"user_id":331,"name":"Peepster","steam_id":76561198297854733,"connected_time":2584000000000,"state":"active","ping":84},{"user_id":338,"name":"The Wrong Trousers","steam_id":76561198797647275,"connected_time":2290000000000,"state":"active","ping":56},{"user_id":229,"name":"Candy Sparkles","steam_id":76561198126871264,"connected_time":10389000000000,"state":"active","ping":79},{"user_id":243,"name":"Evan","steam_id":76561198081165364,"connected_time":9572000000000,"state":"active","ping":55},{"user_id":361,"name":"Cube","steam_id":76561199021614213,"connected_time":94000000000,"state":"active","ping":190},{"user_id":362,"name":"evolNapper","steam_id":76561197976889812,"connected_time":19000000000,"state":"spawning","ping":187},{"user_id":333,"name":"DusterDad3","steam_id":76561198055802794,"connected_time":2466000000000,"state":"active","ping":60},{"user_id":358,"name":"walterfishing_17","steam_id":76561198976904099,"connected_time":342000000000,"state":"active","ping":78},{"user_id":342,"name":"Nair lube handjob","steam_id":76561198179888142,"connected_time":2261000000000,"state":"active","ping":70}]},{"server_id":142,"name":"Uncletopia | São Paulo | 1 | All Maps","name_short":"sao-1","host":"sao-1.br.uncletopia.com","port":27015,"enabled":true,"region":"sa","cc":"br","latitude":-23.533773,"longitude":-46.62529,"reserved":0,"last_update":"0001-01-01T00:00:00Z","name_a2s":"Uncletopia | São Paulo | 1 | All Maps","protocol":17,"map":"plr_pipeline","folder":"tf","game":"Team Fortress","app_id":440,"player_count":0,"max_players":24,"Bots":0,"server_type":"Dedicated","server_os":"Linux","password":true,"vac":true,"version":"7757534","steam_id":85568392924469996,"keywords":["nocrits","nodmgspread","payload","uncletopia"],"game_id":440,"stv_port":27016,"stv_name":"Uncletopia | São Paulo | 1 | All Maps | STV","players":null},{"server_id":143,"name":"Uncletopia | São Paulo | 2 | All Maps","name_short":"sao-2","host":"sao-2.br.uncletopia.com","port":27015,"enabled":true,"region":"sa","cc":"br","latitude":-23.533773,"longitude":-46.62529,"reserved":0,"last_update":"0001-01-01T00:00:00Z","name_a2s":"Uncletopia | São Paulo | 2 | All Maps","protocol":17,"map":"koth_cascade","folder":"tf","game":"Team Fortress","app_id":440,"player_count":0,"max_players":24,"Bots":0,"server_type":"Dedicated","server_os":"Linux","password":true,"vac":true,"version":"7757534","steam_id":85568392924485349,"keywords":["cp","nocrits","nodmgspread","uncletopia"],"game_id":440,"stv_port":27016,"stv_name":"Uncletopia | São Paulo | 2 | All Maps | STV","players":null},{"server_id":7,"name":"Uncletopia | Seattle | 1 | All Maps","name_short":"sea-1","host":"sea-1.us.uncletopia.com","port":27015,"enabled":true,"region":"us-west","cc":"us","latitude":47.608013,"longitude":-122.33517,"reserved":0,"last_update":"0001-01-01T00:00:00Z","name_a2s":"Uncletopia | Seattle | 1 | All Maps","protocol":17,"map":"cp_sunshine","folder":"tf","game":"Team Fortress","app_id":440,"player_count":24,"max_players":24,"Bots":0,"server_type":"Dedicated","server_os":"Linux","password":true,"vac":true,"version":"7757534","steam_id":85568392924469997,"keywords":["cp","nocrits","nodmgspread","uncletopia"],"game_id":440,"stv_port":27016,"stv_name":"Uncletopia | Seattle | 1 | All Maps | STV","players":[{"user_id":754,"name":"Fh","steam_id":76561198000903511,"connected_time":1571000000000,"state":"active","ping":62},{"user_id":739,"name":"the them","steam_id":76561198082922382,"connected_time":2807000000000,"state":"active","ping":77},{"user_id":670,"name":"Skaði","steam_id":76561198063949642,"connected_time":8073000000000,"state":"active","ping":43},{"user_id":743,"name":"Elias","steam_id":76561198031295139,"connected_time":2375000000000,"state":"active","ping":54},{"user_id":761,"name":"Robert E.T.","steam_id":76561197986439371,"connected_time":94000000000,"state":"active","ping":52},{"user_id":647,"name":"rat gets the cheese","steam_id":76561198031234032,"connected_time":9747000000000,"state":"active","ping":93},{"user_id":755,"name":"mac_cheese","steam_id":76561198071334162,"connected_time":1321000000000,"state":"active","ping":45},{"user_id":757,"name":"spenca","steam_id":76561198025371154,"connected_time":959000000000,"state":"active","ping":75},{"user_id":758,"name":"R5-D4","steam_id":76561198025196439,"connected_time":709000000000,"state":"active","ping":47},{"user_id":702,"name":"Mignyanne :3","steam_id":76561198048754056,"connected_time":5510000000000,"state":"active","ping":76},{"user_id":752,"name":"Villchip","steam_id":76561198198599982,"connected_time":1640000000000,"state":"active","ping":56},{"user_id":732,"name":"Munchie","steam_id":76561198169751371,"connected_time":3256000000000,"state":"active","ping":48},{"user_id":666,"name":"C U Next Tuesday","steam_id":76561198058493492,"connected_time":8391000000000,"state":"active","ping":51},{"user_id":720,"name":"homefrog","steam_id":76561197988528639,"connected_time":4082000000000,"state":"active","ping":131},{"user_id":746,"name":"El Gato Paranoico","steam_id":76561198116567116,"connected_time":2273000000000,"state":"active","ping":119},{"user_id":747,"name":"Stoned Cold Killer","steam_id":76561199026914199,"connected_time":2189000000000,"state":"active","ping":90},{"user_id":728,"name":"Lt. Cmdr. Data","steam_id":76561198022366823,"connected_time":3578000000000,"state":"active","ping":98},{"user_id":696,"name":"William P. Ennis","steam_id":76561198073464877,"connected_time":5530000000000,"state":"active","ping":90},{"user_id":662,"name":"Level 99 Mudcrab","steam_id":76561198077452771,"connected_time":8937000000000,"state":"active","ping":60},{"user_id":726,"name":"Cyberbreeze","steam_id":76561198148654069,"connected_time":3983000000000,"state":"active","ping":56},{"user_id":727,"name":"Whiplash9000","steam_id":76561198282551734,"connected_time":3843000000000,"state":"active","ping":96},{"user_id":730,"name":"Whapper","steam_id":76561198044029606,"connected_time":3345000000000,"state":"active","ping":71},{"user_id":756,"name":"Tom Skirrett","steam_id":76561198014600788,"connected_time":975000000000,"state":"active","ping":68},{"user_id":760,"name":"scarfhero","steam_id":76561198257541502,"connected_time":208000000000,"state":"active","ping":71}]},{"server_id":119,"name":"Uncletopia | Seattle | 2 | All Maps","name_short":"sea-2","host":"sea-1.us.uncletopia.com","port":27025,"enabled":true,"region":"us-west","cc":"us","latitude":47.608013,"longitude":-122.33517,"reserved":0,"last_update":"0001-01-01T00:00:00Z","name_a2s":"Uncletopia | Seattle | 2 | All Maps","protocol":17,"map":"pl_upward","folder":"tf","game":"Team Fortress","app_id":440,"player_count":24,"max_players":24,"Bots":0,"server_type":"Dedicated","server_os":"Linux","password":true,"vac":true,"version":"7757534","steam_id":85568392924469998,"keywords":["nocrits","nodmgspread","payload","uncletopia"],"game_id":440,"stv_port":27026,"stv_name":"Uncletopia | Seattle | 2 | All Maps | STV","players":[{"user_id":228,"name":"obamaconsumespancakes","steam_id":76561199283740228,"connected_time":8248000000000,"state":"active","ping":62},{"user_id":327,"name":"Big Gazza","steam_id":76561199030963367,"connected_time":1912000000000,"state":"active","ping":59},{"user_id":326,"name":"Clemont007","steam_id":76561198030935625,"connected_time":1999000000000,"state":"active","ping":70},{"user_id":295,"name":"Lemon Luke","steam_id":76561199141696546,"connected_time":5404000000000,"state":"active","ping":116},{"user_id":320,"name":"Murgatroyd","steam_id":76561198077350331,"connected_time":2734000000000,"state":"active","ping":82},{"user_id":329,"name":"WayPastMeh","steam_id":76561198440277329,"connected_time":1907000000000,"state":"active","ping":60},{"user_id":343,"name":"IntravenusDeMilo","steam_id":76561197970629020,"connected_time":626000000000,"state":"active","ping":45},{"user_id":340,"name":"Greed","steam_id":76561198041628318,"connected_time":993000000000,"state":"active","ping":83},{"user_id":293,"name":"Jamendithas","steam_id":76561198119537716,"connected_time":5483000000000,"state":"active","ping":114},{"user_id":344,"name":"SlimeHead47","steam_id":76561198116107566,"connected_time":468000000000,"state":"active","ping":46},{"user_id":333,"name":"Sly Marbo","steam_id":76561198135271741,"connected_time":1552000000000,"state":"active","ping":55},{"user_id":341,"name":"chompmastr","steam_id":76561199121805899,"connected_time":988000000000,"state":"active","ping":61},{"user_id":314,"name":"Joseph Stalin","steam_id":76561198126234142,"connected_time":4291000000000,"state":"active","ping":73},{"user_id":335,"name":"General Fisticuffs","steam_id":76561198255721392,"connected_time":1417000000000,"state":"active","ping":111},{"user_id":337,"name":"NeoN","steam_id":76561198117608366,"connected_time":1242000000000,"state":"active","ping":35},{"user_id":338,"name":"MyMonkeyBaby","steam_id":76561198046896670,"connected_time":1217000000000,"state":"active","ping":60},{"user_id":299,"name":"yup","steam_id":76561199190800520,"connected_time":5105000000000,"state":"active","ping":43},{"user_id":317,"name":"king piccolo gaming","steam_id":76561198000744865,"connected_time":4215000000000,"state":"active","ping":50},{"user_id":332,"name":"p9 squash","steam_id":76561198150281353,"connected_time":1888000000000,"state":"active","ping":55},{"user_id":334,"name":"fragadelphia","steam_id":76561198066116363,"connected_time":1421000000000,"state":"active","ping":46},{"user_id":281,"name":"flishko","steam_id":76561198326489802,"connected_time":6476000000000,"state":"active","ping":60},{"user_id":347,"name":"International Mann of Mystery","steam_id":76561198149369302,"connected_time":280000000000,"state":"active","ping":114},{"user_id":318,"name":"Pigeon","steam_id":76561198047426548,"connected_time":3400000000000,"state":"active","ping":92},{"user_id":348,"name":"Chamomile","steam_id":76561198063516307,"connected_time":276000000000,"state":"active","ping":64}]},{"server_id":406,"name":"Uncletopia | Seattle | 3 | Stopwatch Beta","name_short":"sea-3","host":"sea-1.us.uncletopia.com","port":27035,"enabled":true,"region":"us-west","cc":"us","latitude":47.608013,"longitude":-122.33517,"reserved":0,"last_update":"0001-01-01T00:00:00Z","name_a2s":"Uncletopia | Seattle | 3 | Stopwatch Beta","protocol":17,"map":"pl_upward","folder":"tf","game":"Team Fortress","app_id":440,"player_count":0,"max_players":24,"Bots":0,"server_type":"Dedicated","server_os":"Linux","password":true,"vac":true,"version":"7757534","steam_id":85568392924515217,"keywords":["nocrits","nodmgspread","payload","uncletopia"],"game_id":440,"stv_port":27036,"stv_name":"Uncletopia | Seattle | 3 | Stopwatch Beta | STV","players":null},{"server_id":17,"name":"Uncletopia | San Francisco | 1 | All Maps","name_short":"sfo-1","host":"sfo-1.us.uncletopia.com","port":27015,"enabled":true,"region":"us-west","cc":"us","latitude":37.77397,"longitude":-122.4313,"reserved":0,"last_update":"0001-01-01T00:00:00Z","name_a2s":"Uncletopia | San Francisco | 1 | All Maps","protocol":17,"map":"koth_cascade","folder":"tf","game":"Team Fortress","app_id":440,"player_count":3,"max_players":24,"Bots":0,"server_type":"Dedicated","server_os":"Linux","password":true,"vac":true,"version":"7757534","steam_id":85568392924469999,"keywords":["cp","nocrits","nodmgspread","uncletopia"],"game_id":440,"stv_port":27016,"stv_name":"Uncletopia | San Francisco | 1 | All Maps | STV","players":[{"user_id":24,"name":"TheSapphirePig","steam_id":76561199115310738,"connected_time":523000000000,"state":"active","ping":68},{"user_id":27,"name":"Monkeboi","steam_id":76561199365388554,"connected_time":144000000000,"state":"active","ping":71},{"user_id":26,"name":"Idontknow","steam_id":76561199207044048,"connected_time":172000000000,"state":"active","ping":59}]},{"server_id":18,"name":"Uncletopia | San Francisco | 2 | All Maps","name_short":"sfo-2","host":"sfo-1.us.uncletopia.com","port":27025,"enabled":true,"region":"us-west","cc":"us","latitude":37.77397,"longitude":-122.4313,"reserved":0,"last_update":"0001-01-01T00:00:00Z","name_a2s":"Uncletopia | San Francisco | 2 | All Maps","protocol":17,"map":"cp_dustbowl","folder":"tf","game":"Team Fortress","app_id":440,"player_count":24,"max_players":24,"Bots":0,"server_type":"Dedicated","server_os":"Linux","password":true,"vac":true,"version":"7757534","steam_id":85568392924470000,"keywords":["cp","nocrits","nodmgspread","uncletopia"],"game_id":440,"stv_port":27026,"stv_name":"Uncletopia | San Francisco | 2 | All Maps | STV","players":[{"user_id":101,"name":"Jack Splatter","steam_id":76561197985936933,"connected_time":805000000000,"state":"active","ping":170},{"user_id":103,"name":"TAMBERSPACE","steam_id":76561198248665352,"connected_time":756000000000,"state":"active","ping":51},{"user_id":91,"name":"Delimeat","steam_id":76561198043824595,"connected_time":1520000000000,"state":"active","ping":59},{"user_id":116,"name":"Your Uncle named  Rick","steam_id":76561199396787833,"connected_time":374000000000,"state":"active","ping":76},{"user_id":106,"name":"DAMM BRO","steam_id":76561198984762462,"connected_time":709000000000,"state":"active","ping":50},{"user_id":98,"name":"MarshallMellows","steam_id":76561198231561020,"connected_time":961000000000,"state":"active","ping":74},{"user_id":109,"name":"Sivinus","steam_id":76561198025589541,"connected_time":615000000000,"state":"active","ping":74},{"user_id":49,"name":"the man behind the slaughter","steam_id":76561198861436861,"connected_time":6005000000000,"state":"active","ping":45},{"user_id":105,"name":"May may :)","steam_id":76561198816778484,"connected_time":749000000000,"state":"active","ping":118},{"user_id":110,"name":"MagicSooup","steam_id":76561198988280325,"connected_time":606000000000,"state":"active","ping":79},{"user_id":112,"name":"scarecrow (evil)","steam_id":76561198082979347,"connected_time":530000000000,"state":"active","ping":124},{"user_id":92,"name":"Frazzer","steam_id":76561198088679707,"connected_time":1512000000000,"state":"active","ping":55},{"user_id":121,"name":"Bubba","steam_id":76561198852552714,"connected_time":86000000000,"state":"active","ping":66},{"user_id":62,"name":"LazyDoll","steam_id":76561198053186338,"connected_time":4624000000000,"state":"active","ping":79},{"user_id":100,"name":"Ironboy","steam_id":76561198421623862,"connected_time":848000000000,"state":"active","ping":89},{"user_id":85,"name":"NotAWeeb","steam_id":76561198165530739,"connected_time":2044000000000,"state":"active","ping":45},{"user_id":114,"name":"Spybusters","steam_id":76561198951505681,"connected_time":480000000000,"state":"active","ping":43},{"user_id":72,"name":"carpet","steam_id":76561199059705224,"connected_time":3547000000000,"state":"active","ping":74},{"user_id":118,"name":"securitron","steam_id":76561197992320727,"connected_time":353000000000,"state":"active","ping":98},{"user_id":96,"name":"SuaveFrenchman","steam_id":76561198043762683,"connected_time":1068000000000,"state":"active","ping":46},{"user_id":119,"name":"Gameonator108","steam_id":76561199089224205,"connected_time":351000000000,"state":"active","ping":81},{"user_id":94,"name":"⌞pizzaguy⌝","steam_id":76561197963710485,"connected_time":1211000000000,"state":"active","ping":72},{"user_id":57,"name":"Super Noob","steam_id":76561199179611350,"connected_time":5029000000000,"state":"active","ping":115},{"user_id":120,"name":"Ok then","steam_id":76561198891914787,"connected_time":349000000000,"state":"active","ping":66}]},{"server_id":19,"name":"Uncletopia | San Francisco | 3 | Stopwatch Beta","name_short":"sfo-3","host":"sfo-1.us.uncletopia.com","port":27035,"enabled":true,"region":"us-west","cc":"us","latitude":37.77397,"longitude":-122.4313,"reserved":0,"last_update":"0001-01-01T00:00:00Z","name_a2s":"Uncletopia | San Francisco | 3 | Stopwatch Beta","protocol":17,"map":"koth_viaduct","folder":"tf","game":"Team Fortress","app_id":440,"player_count":0,"max_players":24,"Bots":0,"server_type":"Dedicated","server_os":"Linux","password":true,"vac":true,"version":"7757534","steam_id":85568392924742824,"keywords":["cp","nocrits","nodmgspread","uncletopia"],"game_id":440,"stv_port":27036,"stv_name":"Uncletopia | San Francisco | 3 | Stopwatch Beta | STV","players":null},{"server_id":20,"name":"Uncletopia | San Francisco | 4 | Community","name_short":"sfo-4","host":"sfo-1.us.uncletopia.com","port":27045,"enabled":true,"region":"us-west","cc":"us","latitude":37.77397,"longitude":-122.4313,"reserved":0,"last_update":"0001-01-01T00:00:00Z","name_a2s":"Uncletopia | San Francisco | 4 | Community","protocol":17,"map":"workshop/pl_vigil_rc9.ugc1266210012","folder":"tf","game":"Team Fortress","app_id":440,"player_count":0,"max_players":24,"Bots":0,"server_type":"Dedicated","server_os":"Linux","password":true,"vac":true,"version":"7757534","steam_id":85568392924742826,"keywords":["nocrits","nodmgspread","payload","uncletopia"],"game_id":440,"stv_port":27046,"stv_name":"Uncletopia | San Francisco | 4 | Community | STV","players":null},{"server_id":141,"name":"Uncletopia | Sydney | 1 | All Maps","name_short":"syd-1","host":"syd-1.au.uncletopia.com","port":27015,"enabled":true,"region":"au","cc":"au","latitude":-33.865143,"longitude":151.2099,"reserved":0,"last_update":"0001-01-01T00:00:00Z","name_a2s":"Uncletopia | Sydney | 1 | All Maps","protocol":17,"map":"pl_wutville_event","folder":"tf","game":"Team Fortress","app_id":440,"player_count":20,"max_players":24,"Bots":0,"server_type":"Dedicated","server_os":"Linux","password":true,"vac":true,"version":"7757534","steam_id":85568392924470001,"keywords":["nocrits","nodmgspread","payload","uncletopia"],"game_id":440,"stv_port":27016,"stv_name":"Uncletopia | Sydney | 1 | All Maps | STV","players":[{"user_id":73,"name":"iplayforfun","steam_id":76561198861979482,"connected_time":422000000000,"state":"active","ping":59},{"user_id":75,"name":"Reddaye","steam_id":76561198025232124,"connected_time":89000000000,"state":"active","ping":39},{"user_id":68,"name":"limpchimpin","steam_id":76561198042773083,"connected_time":1074000000000,"state":"active","ping":96},{"user_id":54,"name":"Fuzz","steam_id":76561198063077180,"connected_time":1899000000000,"state":"active","ping":45},{"user_id":15,"name":"dingo","steam_id":76561198315774295,"connected_time":3454000000000,"state":"active","ping":59},{"user_id":14,"name":"Morgenstern","steam_id":76561198253080474,"connected_time":3464000000000,"state":"active","ping":62},{"user_id":16,"name":"Averg","steam_id":76561199116359172,"connected_time":3453000000000,"state":"active","ping":53},{"user_id":17,"name":"Socially_Odd","steam_id":76561198866376352,"connected_time":3451000000000,"state":"active","ping":86},{"user_id":18,"name":"laughsalot05","steam_id":76561198985540548,"connected_time":3449000000000,"state":"active","ping":61},{"user_id":72,"name":"Fireflame","steam_id":76561199163486788,"connected_time":629000000000,"state":"active","ping":81},{"user_id":64,"name":"Editor_Billy","steam_id":76561199165608946,"connected_time":1356000000000,"state":"active","ping":57},{"user_id":76,"name":"[DuD] Happy \u003e8D","steam_id":76561197963421062,"connected_time":8000000000,"state":"active","ping":92},{"user_id":22,"name":"Aster (Morgy's Medic Girlfriend","steam_id":76561199245122695,"connected_time":3359000000000,"state":"active","ping":88},{"user_id":69,"name":"Itsyaboy_Jeff","steam_id":76561198420887009,"connected_time":1069000000000,"state":"active","ping":57},{"user_id":56,"name":"wallace the menace","steam_id":76561199015946981,"connected_time":1781000000000,"state":"active","ping":46},{"user_id":65,"name":"The Bisoneer TF2","steam_id":76561199446773766,"connected_time":1256000000000,"state":"active","ping":96},{"user_id":36,"name":"[DuD] Bazzil Brush","steam_id":76561197963381565,"connected_time":2608000000000,"state":"active","ping":70},{"user_id":44,"name":"FyreFeat","steam_id":76561198068428930,"connected_time":2291000000000,"state":"active","ping":54},{"user_id":46,"name":"Iggy","steam_id":76561198801469956,"connected_time":2253000000000,"state":"active","ping":74},{"user_id":51,"name":"Cris.p bacon","steam_id":76561199230423491,"connected_time":2146000000000,"state":"active","ping":111}]},{"server_id":123,"name":"Uncletopia | Sydney | 2 | All Maps","name_short":"syd-2","host":"syd-1.au.uncletopia.com","port":27025,"enabled":true,"region":"au","cc":"au","latitude":-33.865143,"longitude":151.2099,"reserved":0,"last_update":"0001-01-01T00:00:00Z","name_a2s":"Uncletopia | Sydney | 2 | All Maps","protocol":17,"map":"pl_badwater","folder":"tf","game":"Team Fortress","app_id":440,"player_count":25,"max_players":24,"Bots":0,"server_type":"Dedicated","server_os":"Linux","password":true,"vac":true,"version":"7757534","steam_id":85568392924470002,"keywords":["nocrits","nodmgspread","payload","uncletopia"],"game_id":440,"stv_port":27026,"stv_name":"Uncletopia | Sydney | 2 | All Maps | STV","players":[{"user_id":320,"name":"samm","steam_id":76561198190525662,"connected_time":1256000000000,"state":"active","ping":59},{"user_id":293,"name":"thrax","steam_id":76561197992385270,"connected_time":3361000000000,"state":"active","ping":53},{"user_id":291,"name":"Bobby Bigman","steam_id":76561198044679656,"connected_time":3663000000000,"state":"active","ping":60},{"user_id":303,"name":"DAsh ツ","steam_id":76561198073070676,"connected_time":2672000000000,"state":"active","ping":56},{"user_id":296,"name":"Balsamic Vinegar","steam_id":76561198260148888,"connected_time":3233000000000,"state":"active","ping":93},{"user_id":315,"name":"Hugh Mungus","steam_id":76561198126605733,"connected_time":1535000000000,"state":"active","ping":107},{"user_id":321,"name":"Mentos","steam_id":76561197980750976,"connected_time":1170000000000,"state":"active","ping":42},{"user_id":244,"name":"fuck you pussy","steam_id":76561198836003115,"connected_time":6576000000000,"state":"active","ping":65},{"user_id":328,"name":"cunning chris","steam_id":76561197972510204,"connected_time":824000000000,"state":"active","ping":59},{"user_id":283,"name":"Ok Mate","steam_id":76561198254922035,"connected_time":4223000000000,"state":"active","ping":57},{"user_id":332,"name":"Oysenberry","steam_id":76561198125443335,"connected_time":2000000000,"state":"spawning","ping":39},{"user_id":326,"name":"TheMonsterUnderUrBed","steam_id":76561198119143250,"connected_time":969000000000,"state":"active","ping":69},{"user_id":306,"name":"Consolidated Fart","steam_id":76561198924101909,"connected_time":2123000000000,"state":"active","ping":66},{"user_id":322,"name":"drunkspy22","steam_id":76561198042198744,"connected_time":1094000000000,"state":"active","ping":46},{"user_id":129,"name":"until yawn","steam_id":76561198170693338,"connected_time":13344000000000,"state":"active","ping":83},{"user_id":327,"name":"o p t i v e","steam_id":76561198131756192,"connected_time":923000000000,"state":"active","ping":75},{"user_id":329,"name":"old chunk of coal","steam_id":76561197990537324,"connected_time":655000000000,"state":"active","ping":105},{"user_id":331,"name":"doctor morbin' (real)","steam_id":76561199365241695,"connected_time":234000000000,"state":"active","ping":115},{"user_id":279,"name":"wombraider","steam_id":76561199375834537,"connected_time":4506000000000,"state":"active","ping":122},{"user_id":257,"name":"Raven","steam_id":76561198428025966,"connected_time":5673000000000,"state":"active","ping":66},{"user_id":333,"name":"james16","steam_id":76561198362678073,"connected_time":2000000000,"state":"spawning","ping":36},{"user_id":266,"name":"lofty","steam_id":76561198380588357,"connected_time":5040000000000,"state":"active","ping":66},{"user_id":288,"name":"Piklz","steam_id":76561198043384139,"connected_time":3869000000000,"state":"active","ping":56},{"user_id":281,"name":"Zeal","steam_id":76561198060829393,"connected_time":4393000000000,"state":"active","ping":67},{"user_id":305,"name":"boostless mobiler","steam_id":76561198200510138,"connected_time":2550000000000,"state":"active","ping":75}]},{"server_id":395,"name":"Uncletopia | Sydney | 3 | All Maps","name_short":"syd-3","host":"syd-1.au.uncletopia.com","port":27035,"enabled":true,"region":"au","cc":"au","latitude":-33.865143,"longitude":151.2099,"reserved":0,"last_update":"0001-01-01T00:00:00Z","name_a2s":"Uncletopia | Sydney | 3 | All Maps","protocol":17,"map":"pl_borneo","folder":"tf","game":"Team Fortress","app_id":440,"player_count":1,"max_players":24,"Bots":0,"server_type":"Dedicated","server_os":"Linux","password":true,"vac":true,"version":"7757534","steam_id":85568392925194467,"keywords":["nocrits","nodmgspread","payload","uncletopia"],"game_id":440,"stv_port":27036,"stv_name":"Uncletopia | Sydney | 3 | All Maps | STV","players":[{"user_id":44,"name":"GremlinsGold","steam_id":76561199194708108,"connected_time":67000000000,"state":"active","ping":59}]},{"server_id":396,"name":"Uncletopia | Sydney | 4 | All Maps","name_short":"syd-4","host":"syd-1.au.uncletopia.com","port":27045,"enabled":true,"region":"au","cc":"au","latitude":-33.865143,"longitude":151.2099,"reserved":0,"last_update":"0001-01-01T00:00:00Z","name_a2s":"Uncletopia | Sydney | 4 | All Maps","protocol":17,"map":"koth_highpass","folder":"tf","game":"Team Fortress","app_id":440,"player_count":2,"max_players":24,"Bots":0,"server_type":"Dedicated","server_os":"Linux","password":true,"vac":true,"version":"7757534","steam_id":85568392925397958,"keywords":["cp","nocrits","nodmgspread","uncletopia"],"game_id":440,"stv_port":27046,"stv_name":"Uncletopia | Sydney | 4 | All Maps | STV","players":[{"user_id":26,"name":"jchthm12","steam_id":76561199376385352,"connected_time":498000000000,"state":"active","ping":60},{"user_id":27,"name":"GregoryCool2007","steam_id":76561199028542666,"connected_time":374000000000,"state":"active","ping":36}]},{"server_id":58,"name":"Uncletopia | Sydney | 5 | Stopwatch Beta","name_short":"syd-5","host":"syd-1.au.uncletopia.com","port":27055,"enabled":true,"region":"au","cc":"au","latitude":-33.865143,"longitude":151.2099,"reserved":0,"last_update":"0001-01-01T00:00:00Z","name_a2s":"Uncletopia | Sydney | 5 | Stopwatch Beta","protocol":17,"map":"pl_barnblitz","folder":"tf","game":"Team Fortress","app_id":440,"player_count":0,"max_players":24,"Bots":0,"server_type":"Dedicated","server_os":"Linux","password":true,"vac":true,"version":"7757534","steam_id":85568392925397959,"keywords":["nocrits","nodmgspread","payload","uncletopia"],"game_id":440,"stv_port":27056,"stv_name":"Uncletopia | Sydney | 5 | Stopwatch Beta | STV","players":null},{"server_id":59,"name":"Uncletopia | Sydney | 6 | Community","name_short":"syd-6","host":"syd-1.au.uncletopia.com","port":27065,"enabled":true,"region":"au","cc":"au","latitude":-33.865143,"longitude":151.2099,"reserved":0,"last_update":"0001-01-01T00:00:00Z","name_a2s":"Uncletopia | Sydney | 6 | Community","protocol":17,"map":"workshop/koth_synthetic_rc6a.ugc1549817316","folder":"tf","game":"Team Fortress","app_id":440,"player_count":0,"max_players":24,"Bots":0,"server_type":"Dedicated","server_os":"Linux","password":true,"vac":true,"version":"7757534","steam_id":85568392925397960,"keywords":["cp","nocrits","nodmgspread","uncletopia"],"game_id":440,"stv_port":27066,"stv_name":"Uncletopia | Sydney | 6 | Community | STV","players":null},{"server_id":49,"name":"Uncletopia | Warsaw | 1 | All Maps","name_short":"waw-1","host":"waw-1.pl.uncletopia.com","port":27015,"enabled":true,"region":"eu","cc":"pl","latitude":52.2297,"longitude":21.017532,"reserved":0,"last_update":"0001-01-01T00:00:00Z","name_a2s":"","protocol":0,"map":"","folder":"","game":"","app_id":0,"player_count":0,"max_players":0,"Bots":0,"server_type":"","server_os":"","password":false,"vac":false,"version":"","steam_id":0,"keywords":null,"game_id":0,"stv_port":0,"stv_name":"","players":null},{"server_id":50,"name":"Uncletopia | Warsaw | 2 | All Maps","name_short":"waw-2","host":"waw-1.pl.uncletopia.com","port":27025,"enabled":true,"region":"eu","cc":"pl","latitude":52.2297,"longitude":21.017532,"reserved":0,"last_update":"0001-01-01T00:00:00Z","name_a2s":"Uncletopia | Warsaw | 2 | All Maps","protocol":17,"map":"koth_cascade","folder":"tf","game":"Team Fortress","app_id":440,"player_count":0,"max_players":24,"Bots":0,"server_type":"Dedicated","server_os":"Linux","password":true,"vac":true,"version":"7757534","steam_id":85568392925397851,"keywords":["cp","nocrits","nodmgspread","uncletopia"],"game_id":440,"stv_port":27026,"stv_name":"Uncletopia | Warsaw | 2 | All Maps | STV","players":null},{"server_id":51,"name":"Uncletopia | Warsaw | 3 | All Maps","name_short":"waw-3","host":"waw-1.pl.uncletopia.com","port":27035,"enabled":true,"region":"eu","cc":"pl","latitude":52.2297,"longitude":21.017532,"reserved":0,"last_update":"0001-01-01T00:00:00Z","name_a2s":"Uncletopia | Warsaw | 3 | All Maps","protocol":17,"map":"koth_harvest_final","folder":"tf","game":"Team Fortress","app_id":440,"player_count":0,"max_players":24,"Bots":0,"server_type":"Dedicated","server_os":"Linux","password":true,"vac":true,"version":"7757534","steam_id":85568392925397852,"keywords":["cp","nocrits","nodmgspread","uncletopia"],"game_id":440,"stv_port":27036,"stv_name":"Uncletopia | Warsaw | 3 | All Maps | STV","players":null},{"server_id":52,"name":"Uncletopia | Warsaw | 4 | All Maps","name_short":"waw-4","host":"waw-1.pl.uncletopia.com","port":27045,"enabled":true,"region":"eu","cc":"pl","latitude":52.2297,"longitude":21.017532,"reserved":0,"last_update":"0001-01-01T00:00:00Z","name_a2s":"Uncletopia | Warsaw | 4 | All Maps","protocol":17,"map":"koth_highpass","folder":"tf","game":"Team Fortress","app_id":440,"player_count":0,"max_players":24,"Bots":0,"server_type":"Dedicated","server_os":"Linux","password":true,"vac":true,"version":"7757534","steam_id":85568392925397853,"keywords":["cp","nocrits","nodmgspread","uncletopia"],"game_id":440,"stv_port":27046,"stv_name":"Uncletopia | Warsaw | 4 | All Maps | STV","players":null},{"server_id":53,"name":"Uncletopia | Warsaw | 5 | Stopwatch Beta","name_short":"waw-5","host":"waw-1.pl.uncletopia.com","port":27055,"enabled":true,"region":"eu","cc":"pl","latitude":52.2297,"longitude":21.017532,"reserved":0,"last_update":"0001-01-01T00:00:00Z","name_a2s":"Uncletopia | Warsaw | 5 | Stopwatch Beta","protocol":17,"map":"workshop/koth_product_final.ugc454272353","folder":"tf","game":"Team Fortress","app_id":440,"player_count":0,"max_players":24,"Bots":0,"server_type":"Dedicated","server_os":"Linux","password":true,"vac":true,"version":"7757534","steam_id":85568392925397854,"keywords":["cp","nocrits","nodmgspread","uncletopia"],"game_id":440,"stv_port":27056,"stv_name":"Uncletopia | Warsaw | 5 | Stopwatch Beta | STV","players":null},{"server_id":54,"name":"Uncletopia | Warsaw | 6 | Community","name_short":"waw-6","host":"waw-1.pl.uncletopia.com","port":27065,"enabled":true,"region":"eu","cc":"pl","latitude":52.2297,"longitude":21.017532,"reserved":0,"last_update":"0001-01-01T00:00:00Z","name_a2s":"Uncletopia | Warsaw | 6 | Community","protocol":17,"map":"workshop/cp_logjam_rc12.ugc454812035","folder":"tf","game":"Team Fortress","app_id":440,"player_count":0,"max_players":24,"Bots":0,"server_type":"Dedicated","server_os":"Linux","password":true,"vac":true,"version":"7757534","steam_id":85568392925397856,"keywords":["cp","nocrits","nodmgspread","uncletopia"],"game_id":440,"stv_port":27066,"stv_name":"Uncletopia | Warsaw | 6 | Community | STV","players":null}]}