{"status":true,"message":"","result":[{"server_id":9,"name":"Uncletopia | Atlanta | 1 | All Maps","name_short":"atl-1","host":"atl-1.us.uncletopia.com","port":27015,"enabled":true,"region":"us-east","cc":"us","latitude":33.753746,"longitude":-84.38633,"reserved":0,"last_update":"0001-01-01T00:00:00Z","name_a2s":"Uncletopia | Atlanta | 1 | All Maps","protocol":17,"map":"koth_highpass","folder":"tf","game":"Team Fortress","app_id":440,"player_count":0,"max_players":24,"Bots":0,"server_type":"Dedicated","server_os":"Linux","password":true,"vac":true,"version":"7961495","steam_id":85568392924469982,"keywords":["cp","nocrits","nodmgspread","uncletopia"],"game_id":440,"stv_port":27016,"stv_name":"Uncletopia | Atlanta | 1 | All Maps | STV","players":null},{"server_id":104,"name":"Uncletopia | Atlanta | 2 | All Maps","name_short":"atl-2","host":"atl-1.us.uncletopia.com","port":27025,"enabled":true,"region":"us-east","cc":"us","latitude":33.753746,"longitude":-84.38633,"reserved":0,"last_update":"0001-01-01T00:00:00Z","name_a2s":"Uncletopia | Atlanta | 2 | All Maps","protocol":17,"map":"koth_cascade","folder":"tf","game":"Team Fortress","app_id":440,"player_count":0,"max_players":24,"Bots":0,"server_type":"Dedicated","server_os":"Linux","password":true,"vac":true,"version":"7961495","steam_id":85568392924469983,"keywords":["cp","nocrits","nodmgspread","uncletopia"],"game_id":440,"stv_port":27026,"stv_name":"Uncletopia | Atlanta | 2 | All Maps | STV","players":null},{"server_id":400,"name":"Uncletopia | Atlanta | 3 | Stopwatch","name_short":"atl-3","host":"atl-1.us.uncletopia.com","port":27035,"enabled":true,"region":"us-east","cc":"us","latitude":33.753746,"longitude":-84.38633,"reserved":0,"last_update":"0001-01-01T00:00:00Z","name_a2s":"Uncletopia | Atlanta | 3 | Stopwatch","protocol":17,"map":"pl_upward","folder":"tf","game":"Team Fortress","app_id":440,"player_count":0,"max_players":24,"Bots":0,"server_type":"Dedicated","server_os":"Linux","password":true,"vac":true,"version":"7961495","steam_id":85568392924515187,"keywords":["nocrits","nodmgspread","payload","uncletopia"],"game_id":440,"stv_port":27036,"stv_name":"Uncletopia | Atlanta | 3 | Stopwatch | STV","players":null},{"server_id":401,"name":"Uncletopia | Atlanta | 4 | Community","name_short":"atl-4","host":"atl-1.us.uncletopia.com","port":27045,"enabled":true,"region":"us-east","cc":"us","latitude":33.753746,"longitude":-84.38633,"reserved":0,"last_update":"0001-01-01T00:00:00Z","name_a2s":"Uncletopia | Atlanta | 4 | Community","protocol":17,"map":"workshop/koth_product_final.ugc454272353","folder":"tf","game":"Team Fortress","app_id":440,"player_count":0,"max_players":24,"Bots":0,"server_type":"Dedicated","server_os":"Linux","password":true,"vac":true,"version":"7961495","steam_id":85568392924515188,"keywords":["cp","nocrits","nodmgspread","uncletopia"],"game_id":440,"stv_port":27046,"stv_name":"Uncletopia | Atlanta | 4 | Community | STV","players":null},{"server_id":2,"name":"Uncletopia | Chicago | 1 | All Maps","name_short":"chi-1","host":"chi-1.us.uncletopia.com","port":27015,"enabled":true,"region":"us-central","cc":"us","latitude":41.881832,"longitude":-87.62318,"reserved":0,"last_update":"0001-01-01T00:00:00Z","name_a2s":"Uncletopia | Chicago | 1 | All Maps","protocol":17,"map":"pl_swiftwater_final1","folder":"tf","game":"Team Fortress","app_id":440,"player_count":24,"max_players":24,"Bots":0,"server_type":"Dedicated","server_os":"Linux","password":true,"vac":true,"version":"7961495","steam_id":85568392924469984,"keywords":["nocrits","nodmgspread","payload","uncletopia"],"game_id":440,"stv_port":27016,"stv_name":"Uncletopia | Chicago | 1 | All Maps | STV","players":[{"user_id":134,"name":"Ras","steam_id":76561198123546775,"connected_time":2138000000000,"state":"active","ping":57},{"user_id":143,"name":"im from tha mud","steam_id":76561198142756572,"connected_time":1526000000000,"state":"active","ping":59},{"user_id":80,"name":"Waffle Wannabe","steam_id":76561198064510650,"connected_time":6830000000000,"state":"active","ping":61},{"user_id":88,"name":"Your Local Queer Librarian","steam_id":76561198013077080,"connected_time":5990000000000,"state":"active","ping":57},{"user_id":128,"name":"some oak tree","steam_id":76561198119689085,"connected_time":2224000000000,"state":"active","ping":166},{"user_id":148,"name":"YourFriendJessie","steam_id":76561198176883097,"connected_time":1019000000000,"state":"active","ping":65},{"user_id":150,"name":"Pango","steam_id":76561198069811545,"connected_time":651000000000,"state":"active","ping":70},{"user_id":121,"name":"rattlin' bog","steam_id":76561198224551028,"connected_time":3330000000000,"state":"active","ping":72},{"user_id":139,"name":"The Washer of Dishes","steam_id":76561198028157625,"connected_time":2106000000000,"state":"active","ping":86},{"user_id":118,"name":"Sunny D+","steam_id":76561197999371052,"connected_time":3728000000000,"state":"active","ping":60},{"user_id":145,"name":"Blanc","steam_id":76561197988243546,"connected_time":1481000000000,"state":"active","ping":89},{"user_id":102,"name":"Walrusto","steam_id":76561198829644616,"connected_time":4991000000000,"state":"active","ping":78},{"user_id":152,"name":"gooch_masta","steam_id":76561198151578423,"connected_time":438000000000,"state":"active","ping":60},{"user_id":119,"name":"The Doc K","steam_id":76561198035695029,"connected_time":3367000000000,"state":"active","ping":104},{"user_id":141,"name":"Warhead","steam_id":76561198067746049,"connected_time":1652000000000,"state":"active","ping":116},{"user_id":131,"name":"Coke Himmy","steam_id":76561198397459211,"connected_time":2208000000000,"state":"active","ping":85},{"user_id":153,"name":"Cosmic Torgue","steam_id":76561198828724945,"connected_time":426000000000,"state":"active","ping":82},{"user_id":154,"name":"robotino9090","steam_id":76561198871369508,"connected_time":391000000000,"state":"active","ping":70},{"user_id":157,"name":"TheKyleB","steam_id":76561198202515104,"connected_time":39000000000,"state":"active","ping":46},{"user_id":73,"name":"pea ttv/peabeanz","steam_id":76561198119551968,"connected_time":7096000000000,"state":"active","ping":81},{"user_id":122,"name":"Comfy!","steam_id":76561198008818346,"connected_time":3329000000000,"state":"active","ping":74},{"user_id":156,"name":"laxy","steam_id":76561198141469778,"connected_time":270000000000,"state":"active","ping":95},{"user_id":133,"name":"Melk","steam_id":76561199076979946,"connected_time":2188000000000,"state":"active","ping":74}]},{"server_id":106,"name":"Uncletopia | Chicago | 2 | All Maps","name_short":"chi-2","host":"chi-1.us.uncletopia.com","port":27025,"enabled":true,"region":"us-central","cc":"us","latitude":41.881832,"longitude":-87.62318,"reserved":0,"last_update":"0001-01-01T00:00:00Z","name_a2s":"Uncletopia | Chicago | 2 | All Maps","protocol":17,"map":"pl_upward","folder":"tf","game":"Team Fortress","app_id":440,"player_count":24,"max_players":24,"Bots":0,"server_type":"Dedicated","server_os":"Linux","password":true,"vac":true,"version":"7961495","steam_id":85568392924469985,"keywords":["nocrits","nodmgspread","payload","uncletopia"],"game_id":440,"stv_port":27026,"stv_name":"Uncletopia | Chicago | 2 | All Maps | STV","players":[{"user_id":38,"name":"duke8714","steam_id":76561199229982201,"connected_time":513000000000,"state":"active","ping":60},{"user_id":4,"name":"lazer pikachu","steam_id":76561198217650076,"connected_time":2309000000000,"state":"active","ping":67},{"user_id":5,"name":"Mr.President","steam_id":76561198971144834,"connected_time":2130000000000,"state":"active","ping":57},{"user_id":16,"name":"THORNFIELDGAMER","steam_id":76561199087167473,"connected_time":1301000000000,"state":"active","ping":85},{"user_id":11,"name":"CyborgHexapus4","steam_id":76561198160335724,"connected_time":1581000000000,"state":"active","ping":95},{"user_id":9,"name":"DivineBanana","steam_id":76561198026529731,"connected_time":1731000000000,"state":"active","ping":87},{"user_id":12,"name":"Sanshi","steam_id":76561198145823543,"connected_time":1555000000000,"state":"active","ping":151},{"user_id":17,"name":"Luxembird","steam_id":76561198079992107,"connected_time":1183000000000,"state":"active","ping":86},{"user_id":31,"name":"Rornir","steam_id":76561198081829615,"connected_time":657000000000,"state":"active","ping":42},{"user_id":18,"name":"Bogg","steam_id":76561198111417325,"connected_time":1078000000000,"state":"active","ping":51},{"user_id":19,"name":"sansa musa","steam_id":76561198163723555,"connected_time":1077000000000,"state":"active","ping":74},{"user_id":42,"name":"That Darned Imp","steam_id":76561198854501307,"connected_time":267000000000,"state":"active","ping":59},{"user_id":22,"name":"6 million bees","steam_id":76561198400438007,"connected_time":977000000000,"state":"active","ping":45},{"user_id":23,"name":"bleach65","steam_id":76561198115270571,"connected_time":940000000000,"state":"active","ping":86},{"user_id":24,"name":"pHsHy","steam_id":76561198013195018,"connected_time":934000000000,"state":"active","ping":74},{"user_id":40,"name":"dree","steam_id":76561198079178866,"connected_time":347000000000,"state":"active","ping":72},{"user_id":26,"name":"Jojo","steam_id":76561199066653753,"connected_time":815000000000,"state":"active","ping":78},{"user_id":27,"name":"YummerBummer","steam_id":76561198094773987,"connected_time":731000000000,"state":"active","ping":71},{"user_id":41,"name":"Sage","steam_id":76561198143101697,"connected_time":302000000000,"state":"active","ping":103},{"user_id":29,"name":"Sunny","steam_id":76561198125892600,"connected_time":713000000000,"state":"active","ping":65},{"user_id":32,"name":"mike penis","steam_id":76561198159339442,"connected_time":646000000000,"state":"active","ping":72},{"user_id":39,"name":"1920","steam_id":76561198111669774,"connected_time":512000000000,"state":"active","ping":48},{"user_id":35,"name":"the12xu","steam_id":76561198197086561,"connected_time":596000000000,"state":"active","ping":75},{"user_id":36,"name":"loot","steam_id":76561198069954956,"connected_time":570000000000,"state":"active","ping":69}]},{"server_id":402,"name":"Uncletopia | Chicago | 3 | All Maps","name_short":"chi-3","host":"chi-1.us.uncletopia.com","port":27035,"enabled":true,"region":"us-central","cc":"us","latitude":41.881832,"longitude":-87.62318,"reserved":0,"last_update":"0001-01-01T00:00:00Z","name_a2s":"Uncletopia | Chicago | 3 | All Maps","protocol":17,"map":"cp_process_final","folder":"tf","game":"Team Fortress","app_id":440,"player_count":0,"max_players":24,"Bots":0,"server_type":"Dedicated","server_os":"Linux","password":true,"vac":true,"version":"7961495","steam_id":85568392924515191,"keywords":["cp","nocrits","nodmgspread","uncletopia"],"game_id":440,"stv_port":27036,"stv_name":"Uncletopia | Chicago | 3 | All Maps | STV","players":null},{"server_id":403,"name":"Uncletopia | Chicago | 4 | All Maps","name_short":"chi-4","host":"chi-1.us.uncletopia.com","port":27045,"enabled":true,"region":"us-central","cc":"us","latitude":41.881832,"longitude":-87.62318,"reserved":0,"last_update":"0001-01-01T00:00:00Z","name_a2s":"Uncletopia | Chicago | 4 | All Maps","protocol":17,"map":"koth_cascade","folder":"tf","game":"Team Fortress","app_id":440,"player_count":0,"max_players":24,"Bots":0,"server_type":"Dedicated","server_os":"Linux","password":true,"vac":true,"version":"7961495","steam_id":85568392924515193,"keywords":["cp","nocrits","nodmgspread","uncletopia"],"game_id":440,"stv_port":27046,"stv_name":"Uncletopia | Chicago | 4 | All Maps | STV","players":null},{"server_id":36,"name":"Uncletopia | Chicago | 5 | All Maps","name_short":"chi-5","host":"chi-2.us.uncletopia.com","port":27015,"enabled":true,"region":"us-central","cc":"us","latitude":41.881832,"longitude":-87.62318,"reserved":0,"last_update":"0001-01-01T00:00:00Z","name_a2s":"Uncletopia | Chicago | 5 | All Maps","protocol":17,"map":"koth_viaduct","folder":"tf","game":"Team Fortress","app_id":440,"player_count":0,"max_players":24,"Bots":0,"server_type":"Dedicated","server_os":"Linux","password":true,"vac":true,"version":"7961495","steam_id":85568392924866362,"keywords":["cp","nocrits","nodmgspread","uncletopia"],"game_id":440,"stv_port":27016,"stv_name":"Uncletopia | Chicago | 5 | All Maps | STV","players":null},{"server_id":37,"name":"Uncletopia | Chicago | 6 | All Maps","name_short":"chi-6","host":"chi-2.us.uncletopia.com","port":27025,"enabled":true,"region":"us-central","cc":"us","latitude":41.881832,"longitude":-87.62318,"reserved":0,"last_update":"0001-01-01T00:00:00Z","name_a2s":"Uncletopia | Chicago | 6 | All Maps","protocol":17,"map":"pl_frontier_final","folder":"tf","game":"Team Fortress","app_id":440,"player_count":0,"max_players":24,"Bots":0,"server_type":"Dedicated","server_os":"Linux","password":true,"vac":true,"version":"7961495","steam_id":85568392924866363,"keywords":["nocrits","nodmgspread","payload","uncletopia"],"game_id":440,"stv_port":27026,"stv_name":"Uncletopia | Chicago | 6 | All Maps | STV","players":null},{"server_id":38,"name":"Uncletopia | Chicago | 7 | Stopwatch","name_short":"chi-7","host":"chi-2.us.uncletopia.com","port":27035,"enabled":true,"region":"us-central","cc":"us","latitude":41.881832,"longitude":-87.62318,"reserved":0,"last_update":"0001-01-01T00:00:00Z","name_a2s":"Uncletopia | Chicago | 7 | Stopwatch","protocol":17,"map":"pl_badwater","folder":"tf","game":"Team Fortress","app_id":440,"player_count":0,"max_players":24,"Bots":0,"server_type":"Dedicated","server_os":"Linux","password":true,"vac":true,"version":"7961495","steam_id":85568392924866364,"keywords":["nocrits","nodmgspread","payload","uncletopia"],"game_id":440,"stv_port":27036,"stv_name":"Uncletopia | Chicago | 7 | Stopwatch | STV","players":null},{"server_id":39,"name":"Uncletopia | Chicago | 8 | Community","name_short":"chi-8","host":"chi-2.us.uncletopia.com","port":27045,"enabled":true,"region":"us-central","cc":"us","latitude":41.881832,"longitude":-87.62318,"reserved":0,"last_update":"0001-01-01T00:00:00Z","name_a2s":"Uncletopia | Chicago | 8 | Community","protocol":17,"map":"pl_pier","folder":"tf","game":"Team Fortress","app_id":440,"player_count":0,"max_players":24,"Bots":0,"server_type":"Dedicated","server_os":"Linux","password":true,"vac":true,"version":"7961495","steam_id":85568392924866365,"keywords":["nocrits","nodmgspread","payload","uncletopia"],"game_id":440,"stv_port":27046,"stv_name":"Uncletopia | Chicago | 8 | Community | STV","players":null},{"server_id":8,"name":"Uncletopia | Dallas | 1 | All Maps","name_short":"dal-1","host":"dal-1.us.uncletopia.com","port":27015,"enabled":true,"region":"us-central","cc":"us","latitude":32.779167,"longitude":-96.80889,"reserved":0,"last_update":"0001-01-01T00:00:00Z","name_a2s":"Uncletopia | Dallas | 1 | All Maps","protocol":17,"map":"koth_highpass","folder":"tf","game":"Team Fortress","app_id":440,"player_count":2,"max_players":24,"Bots":0,"server_type":"Dedicated","server_os":"Linux","password":true,"vac":true,"version":"7961495","steam_id":85568392924469986,"keywords":["cp","nocrits","nodmgspread","uncletopia"],"game_id":440,"stv_port":27016,"stv_name":"Uncletopia | Dallas | 1 | All Maps | STV","players":[{"user_id":8,"name":"Pug Shaker Central","steam_id":76561197979090955,"connected_time":164000000000,"state":"active","ping":63},{"user_id":9,"name":"Breakaway","steam_id":76561198089308523,"connected_time":24000000000,"state":"active","ping":92}]},{"server_id":108,"name":"Uncletopia | Dallas | 2 | All Maps","name_short":"dal-2","host":"dal-1.us.uncletopia.com","port":27025,"enabled":true,"region":"us-central","cc":"us","latitude":32.779167,"longitude":-96.80889,"reserved":0,"last_update":"0001-01-01T00:00:00Z","name_a2s":"Uncletopia | Dallas | 2 | All Maps","protocol":17,"map":"pl_pier","folder":"tf","game":"Team Fortress","app_id":440,"player_count":24,"max_players":24,"Bots":0,"server_type":"Dedicated","server_os":"Linux","password":true,"vac":true,"version":"7961495","steam_id":85568392924469988,"keywords":["nocrits","nodmgspread","payload","uncletopia"],"game_id":440,"stv_port":27026,"stv_name":"Uncletopia | Dallas | 2 | All Maps | STV","players":[{"user_id":302,"name":"allahsdroptop (Bag/Chaser)","steam_id":76561198133195238,"connected_time":218000000000,"state":"active","ping":97},{"user_id":301,"name":"Psychosis","steam_id":76561198078659070,"connected_time":337000000000,"state":"active","ping":88},{"user_id":285,"name":"GreySweaterCat","steam_id":76561198351860293,"connected_time":2034000000000,"state":"active","ping":73},{"user_id":219,"name":"Shitty Pilot","steam_id":76561198042723469,"connected_time":7355000000000,"state":"active","ping":64},{"user_id":264,"name":"DualiTea","steam_id":76561198081733870,"connected_time":3081000000000,"state":"active","ping":66},{"user_id":291,"name":"The Caretaker","steam_id":76561198125241411,"connected_time":1246000000000,"state":"active","ping":80},{"user_id":265,"name":"I'm bad I know thx \u003c3","steam_id":76561198058840477,"connected_time":3006000000000,"state":"active","ping":126},{"user_id":296,"name":"Dr. Ludwig","steam_id":76561198110246392,"connected_time":947000000000,"state":"active","ping":66},{"user_id":288,"name":"D(b) Hell","steam_id":76561198067869016,"connected_time":1865000000000,"state":"active","ping":75},{"user_id":266,"name":"DiviningWizard","steam_id":76561199101096245,"connected_time":2969000000000,"state":"active","ping":74},{"user_id":300,"name":"Shang","steam_id":76561198298637817,"connected_time":641000000000,"state":"active","ping":77},{"user_id":273,"name":"Payakan Gaming","steam_id":76561198860669379,"connected_time":2640000000000,"state":"active","ping":55},{"user_id":289,"name":"twitch.tv/rustyorion","steam_id":76561198439186347,"connected_time":1677000000000,"state":"active","ping":112},{"user_id":290,"name":"walrus","steam_id":76561198057853319,"connected_time":1492000000000,"state":"active","ping":89},{"user_id":276,"name":"mambo","steam_id":76561198811561721,"connected_time":2608000000000,"state":"active","ping":74},{"user_id":279,"name":"Elias","steam_id":76561198106431732,"connected_time":2441000000000,"state":"active","ping":66},{"user_id":281,"name":"napstagbo","steam_id":76561198119378766,"connected_time":2264000000000,"state":"active","ping":165},{"user_id":278,"name":"Lucas","steam_id":76561198399704604,"connected_time":2543000000000,"state":"active","ping":100},{"user_id":299,"name":"smokecloud","steam_id":76561198136296903,"connected_time":711000000000,"state":"active","ping":102},{"user_id":286,"name":"my name jeff","steam_id":76561198179816898,"connected_time":2027000000000,"state":"active","ping":105},{"user_id":298,"name":"Lefty [Gentlemen of Leisure]","steam_id":76561197980825914,"connected_time":791000000000,"state":"active","ping":76},{"user_id":284,"name":"Window Licker #pride","steam_id":76561198386717007,"connected_time":2082000000000,"state":"active","ping":78},{"user_id":277,"name":"The jesus guy (FRNK)","steam_id":76561198237997622,"connected_time":2566000000000,"state":"active","ping":185},{"user_id":297,"name":"Estrogenizing Burger King Burge","steam_id":76561198083882597,"connected_time":886000000000,"state":"active","ping":54}]},{"server_id":404,"name":"Uncletopia | Dallas | 3 | All Maps","name_short":"dal-3","host":"dal-1.us.uncletopia.com","port":27035,"enabled":true,"region":"us-central","cc":"us","latitude":32.779167,"longitude":-96.80889,"reserved":0,"last_update":"0001-01-01T00:00:00Z","name_a2s":"Uncletopia | Dallas | 3 | All Maps","protocol":17,"map":"pl_barnblitz","folder":"tf","game":"Team Fortress","app_id":440,"player_count":0,"max_players":24,"Bots":0,"server_type":"Dedicated","server_os":"Linux","password":true,"vac":true,"version":"7961495","steam_id":85568392924515219,"keywords":["nocrits","nodmgspread","payload","uncletopia"],"game_id":440,"stv_port":27036,"stv_name":"Uncletopia | Dallas | 3 | All Maps | STV","players":null},{"server_id":405,"name":"Uncletopia | Dallas | 4 | Community","name_short":"dal-4","host":"dal-1.us.uncletopia.com","port":27045,"enabled":true,"region":"us-central","cc":"us","latitude":32.779167,"longitude":-96.80889,"reserved":0,"last_update":"0001-01-01T00:00:00Z","name_a2s":"Uncletopia | Dallas | 4 | Community","protocol":17,"map":"pl_pier","folder":"tf","game":"Team Fortress","app_id":440,"player_count":0,"max_players":24,"Bots":0,"server_type":"Dedicated","server_os":"Linux","password":true,"vac":true,"version":"7961495","steam_id":85568392924515220,"keywords":["nocrits","nodmgspread","payload","uncletopia"],"game_id":440,"stv_port":27046,"stv_name":"Uncletopia | Dallas | 4 | Community | STV","players":null},{"server_id":5,"name":"Uncletopia | Frankfurt | 1 | All Maps","name_short":"frk-1","host":"frk-1.de.uncletopia.com","port":27015,"enabled":true,"region":"eu","cc":"de","latitude":50.110924,"longitude":8.682127,"reserved":0,"last_update":"0001-01-01T00:00:00Z","name_a2s":"Uncletopia | Frankfurt | 1 | All Maps","protocol":17,"map":"pl_upward","folder":"tf","game":"Team Fortress","app_id":440,"player_count":24,"max_players":24,"Bots":0,"server_type":"Dedicated","server_os":"Linux","password":true,"vac":true,"version":"7961495","steam_id":85568392924469989,"keywords":["nocrits","nodmgspread","payload","uncletopia"],"game_id":440,"stv_port":27016,"stv_name":"Uncletopia | Frankfurt | 1 | All Maps | STV","players":[{"user_id":278,"name":"Alegz","steam_id":76561198287810139,"connected_time":3259000000000,"state":"active","ping":51},{"user_id":306,"name":"Toasty5050","steam_id":76561198073540881,"connected_time":51000000000,"state":"spawning","ping":79},{"user_id":260,"name":"Random","steam_id":76561198291681674,"connected_time":4193000000000,"state":"active","ping":57},{"user_id":292,"name":"Swift","steam_id":76561197998799889,"connected_time":1744000000000,"state":"active","ping":60},{"user_id":230,"name":"Akio","steam_id":76561198197606282,"connected_time":5933000000000,"state":"active","ping":58},{"user_id":274,"name":"Relic","steam_id":76561199499093258,"connected_time":3369000000000,"state":"active","ping":59},{"user_id":275,"name":"ShadowTwin","steam_id":76561198046658200,"connected_time":3327000000000,"state":"active","ping":71},{"user_id":283,"name":"Jussukka","steam_id":76561198122894683,"connected_time":2605000000000,"state":"active","ping":101},{"user_id":298,"name":"[AXG] PK Blizzard","steam_id":76561198039836567,"connected_time":996000000000,"state":"active","ping":60},{"user_id":281,"name":"Wattseyy","steam_id":76561198248567360,"connected_time":2628000000000,"state":"active","ping":54},{"user_id":300,"name":"flave","steam_id":76561198056372101,"connected_time":771000000000,"state":"active","ping":68},{"user_id":289,"name":"happyjohnny102","steam_id":76561198798803845,"connected_time":2363000000000,"state":"active","ping":45},{"user_id":272,"name":"I sell exotic parrots","steam_id":76561199192434258,"connected_time":3399000000000,"state":"active","ping":84},{"user_id":296,"name":"Schro","steam_id":76561198963378933,"connected_time":1061000000000,"state":"active","ping":53},{"user_id":240,"name":"Jergu","steam_id":76561198023457541,"connected_time":5486000000000,"state":"active","ping":86},{"user_id":290,"name":"Dot","steam_id":76561198047299145,"connected_time":2361000000000,"state":"active","ping":85},{"user_id":304,"name":"Keroz1n","steam_id":76561197998681491,"connected_time":381000000000,"state":"active","ping":65},{"user_id":291,"name":"Tynnyri","steam_id":76561198075516541,"connected_time":2277000000000,"state":"active","ping":114},{"user_id":305,"name":"PashaVerti","steam_id":76561199013963024,"connected_time":205000000000,"state":"active","ping":81},{"user_id":295,"name":"Lantrax","steam_id":76561198281941835,"connected_time":1304000000000,"state":"active","ping":84},{"user_id":211,"name":"Der ewige Boomer","steam_id":76561198254812703,"connected_time":7012000000000,"state":"active","ping":70},{"user_id":302,"name":"$t@lker_Tim","steam_id":76561198963658042,"connected_time":727000000000,"state":"active","ping":111},{"user_id":255,"name":"josef.friztl.1934","steam_id":76561198371317553,"connected_time":4451000000000,"state":"active","ping":85},{"user_id":214,"name":"mick","steam_id":76561199473954060,"connected_time":6883000000000,"state":"active","ping":92}]},{"server_id":110,"name":"Uncletopia | Frankfurt | 2 | All Maps","name_short":"frk-2","host":"frk-1.de.uncletopia.com","port":27025,"enabled":true,"region":"eu","cc":"de","latitude":50.110924,"longitude":8.682127,"reserved":0,"last_update":"0001-01-01T00:00:00Z","name_a2s":"Uncletopia | Frankfurt | 2 | All Maps","protocol":17,"map":"cp_altitude","folder":"tf","game":"Team Fortress","app_id":440,"player_count":24,"max_players":24,"Bots":0,"server_type":"Dedicated","server_os":"Linux","password":true,"vac":true,"version":"7961495","steam_id":85568392924469990,"keywords":["cp","nocrits","nodmgspread","uncletopia"],"game_id":440,"stv_port":27026,"stv_name":"Uncletopia | Frankfurt | 2 | All Maps | STV","players":[{"user_id":138,"name":"–ë–ª–∏–Ω—á–∏–∫–∏","steam_id":76561199078449903,"connected_time":1281000000000,"state":"active","ping":153},{"user_id":159,"name":"Mr. Mundy","steam_id":76561198132008918,"connected_time":386000000000,"state":"active","ping":85},{"user_id":129,"name":"Plushy Freeman","steam_id":76561198004935560,"connected_time":1836000000000,"state":"active","ping":68},{"user_id":152,"name":"Hexagon","steam_id":76561198151205758,"connected_time":786000000000,"state":"active","ping":45},{"user_id":158,"name":"Milk","steam_id":76561198125876588,"connected_time":416000000000,"state":"active","ping":50},{"user_id":104,"name":"Testicular torsion","steam_id":76561198119547399,"connected_time":3073000000000,"state":"active","ping":52},{"user_id":154,"name":"lore","steam_id":76561198120984188,"connected_time":726000000000,"state":"active","ping":53},{"user_id":147,"name":"Welder","steam_id":76561198355300561,"connected_time":964000000000,"state":"active","ping":64},{"user_id":44,"name":"Strief","steam_id":76561198056579338,"connected_time":7467000000000,"state":"active","ping":64},{"user_id":65,"name":"–ó–∞–∫–∞–º—Å–∫–∏–π –∫–≤–∞—Å","steam_id":76561198873091083,"connected_time":6656000000000,"state":"active","ping":96},{"user_id":148,"name":"GMsU | Rebikas","steam_id":76561198077053764,"connected_time":940000000000,"state":"active","ping":42},{"user_id":149,"name":"Richard_HUN","steam_id":76561198299050967,"connected_time":893000000000,"state":"active","ping":82},{"user_id":118,"name":"Dotsya","steam_id":76561198091553935,"connected_time":2224000000000,"state":"active","ping":115},{"user_id":150,"name":"kossu possu05","steam_id":76561199023074000,"connected_time":889000000000,"state":"active","ping":84},{"user_id":155,"name":"GMsU | Smiley","steam_id":76561198121494414,"connected_time":680000000000,"state":"active","ping":79},{"user_id":122,"name":"painting4","steam_id":76561198067554256,"connected_time":2181000000000,"state":"active","ping":67},{"user_id":73,"name":"s a i","steam_id":76561197970379754,"connected_time":5953000000000,"state":"active","ping":53},{"user_id":94,"name":"average manicotti enjoyer","steam_id":76561198059535856,"connected_time":3892000000000,"state":"active","ping":149},{"user_id":64,"name":"iShockwave","steam_id":76561198404037424,"connected_time":6724000000000,"state":"active","ping":90},{"user_id":137,"name":"Senator Steven Armstrong","steam_id":76561199173599142,"connected_time":1389000000000,"state":"active","ping":122},{"user_id":105,"name":"frosty","steam_id":76561198094560834,"connected_time":2906000000000,"state":"active","ping":59},{"user_id":140,"name":"JaneDoe","steam_id":76561198067081506,"connected_time":1215000000000,"state":"active","ping":93},{"user_id":109,"name":"Zamorocian","steam_id":76561198076604017,"connected_time":2696000000000,"state":"active","ping":55},{"user_id":157,"name":"hasky","steam_id":76561197986052798,"connected_time":577000000000,"state":"active","ping":85}]},{"server_id":308,"name":"Uncletopia | Frankfurt | 3 | All Maps","name_short":"frk-3","host":"frk-1.de.uncletopia.com","port":27035,"enabled":true,"region":"eu","cc":"de","latitude":50.110924,"longitude":8.682127,"reserved":0,"last_update":"0001-01-01T00:00:00Z","name_a2s":"Uncletopia | Frankfurt | 3 | All Maps","protocol":17,"map":"pl_borneo","folder":"tf","game":"Team Fortress","app_id":440,"player_count":24,"max_players":24,"Bots":0,"server_type":"Dedicated","server_os":"Linux","password":true,"vac":true,"version":"7961495","steam_id":85568392924504274,"keywords":["nocrits","nodmgspread","payload","uncletopia"],"game_id":440,"stv_port":27036,"stv_name":"Uncletopia | Frankfurt | 3 | All Maps | STV","players":[{"user_id":201,"name":"Naty","steam_id":76561198083488307,"connected_time":1646000000000,"state":"active","ping":75},{"user_id":209,"name":"Trollkos789","steam_id":76561198212154264,"connected_time":199000000000,"state":"active","ping":88},{"user_id":183,"name":"Techm32","steam_id":76561198317134994,"connected_time":3029000000000,"state":"active","ping":66},{"user_id":182,"name":"Artemis","steam_id":76561198199091801,"connected_time":3053000000000,"state":"active","ping":45},{"user_id":202,"name":"Daaf","steam_id":76561199121373789,"connected_time":1566000000000,"state":"active","ping":70},{"user_id":176,"name":"Bende","steam_id":76561198856560898,"connected_time":3667000000000,"state":"active","ping":87},{"user_id":208,"name":"VictoriaFae (She/Her)","steam_id":76561198093221218,"connected_time":403000000000,"state":"active","ping":75},{"user_id":121,"name":"dfcv rftgvb ghtb","steam_id":76561198397764042,"connected_time":5702000000000,"state":"active","ping":103},{"user_id":195,"name":"Carney","steam_id":76561198064078751,"connected_time":1953000000000,"state":"active","ping":79},{"user_id":194,"name":"Brisket \u003c3","steam_id":76561198047291354,"connected_time":1960000000000,"state":"active","ping":136},{"user_id":203,"name":"Narvhal√∏","steam_id":76561198147495474,"connected_time":1563000000000,"state":"active","ping":45},{"user_id":198,"name":"Dozer","steam_id":76561197998742338,"connected_time":1919000000000,"state":"active","ping":69},{"user_id":204,"name":"hermano de batalla","steam_id":76561198093073758,"connected_time":1556000000000,"state":"active","ping":72},{"user_id":104,"name":"sloppy transgirl toppy","steam_id":76561198057092208,"connected_time":7780000000000,"state":"active","ping":62},{"user_id":171,"name":"Bulyto","steam_id":76561198043205202,"connected_time":3721000000000,"state":"active","ping":70},{"user_id":188,"name":"Neko","steam_id":76561198075690128,"connected_time":2934000000000,"state":"active","ping":59},{"user_id":191,"name":"Kosu","steam_id":76561198018280306,"connected_time":2766000000000,"state":"active","ping":74},{"user_id":180,"name":"El Gato Volador","steam_id":76561198021296882,"connected_time":3096000000000,"state":"active","ping":82},{"user_id":210,"name":"Appll","steam_id":76561198115766056,"connected_time":81000000000,"state":"active","ping":58},{"user_id":207,"name":"14yo talent Don Giovani","steam_id":76561199473632982,"connected_time":932000000000,"state":"active","ping":86},{"user_id":200,"name":"M7MD3BD0","steam_id":76561199072750769,"connected_time":1716000000000,"state":"active","ping":102},{"user_id":175,"name":"Syd","steam_id":76561198020515027,"connected_time":3695000000000,"state":"active","ping":94},{"user_id":199,"name":"üóªüé¥Hadrian Maloneüé¥üóª","steam_id":76561198036151103,"connected_time":1881000000000,"state":"active","ping":65},{"user_id":144,"name":"Tuosan","steam_id":76561198062611429,"connected_time":5130000000000,"state":"active","ping":74}]},{"server_id":309,"name":"Uncletopia | Frankfurt | 4 | All Maps","name_short":"frk-4","host":"frk-1.de.uncletopia.com","port":27045,"enabled":true,"region":"eu","cc":"de","latitude":50.110924,"longitude":8.682127,"reserved":0,"last_update":"0001-01-01T00:00:00Z","name_a2s":"Uncletopia | Frankfurt | 4 | All Maps","protocol":17,"map":"cp_gullywash_final1","folder":"tf","game":"Team Fortress","app_id":440,"player_count":24,"max_players":24,"Bots":0,"server_type":"Dedicated","server_os":"Linux","password":true,"vac":true,"version":"7961495","steam_id":85568392924504275,"keywords":["cp","nocrits","nodmgspread","uncletopia"],"game_id":440,"stv_port":27046,"stv_name":"Uncletopia | Frankfurt | 4 | All Maps | STV","players":[{"user_id":346,"name":"WildesTier","steam_id":76561198132133702,"connected_time":1828000000000,"state":"active","ping":43},{"user_id":374,"name":"Borger Dog (real)","steam_id":76561199232839385,"connected_time":497000000000,"state":"active","ping":88},{"user_id":364,"name":"Veltek","steam_id":76561198112681438,"connected_time":818000000000,"state":"active","ping":72},{"user_id":381,"name":"Dark","steam_id":76561199162752036,"connected_time":132000000000,"state":"active","ping":75},{"user_id":366,"name":"Birchly","steam_id":76561198140011785,"connected_time":783000000000,"state":"active","ping":61},{"user_id":377,"name":"kpopbob","steam_id":76561198963599425,"connected_time":366000000000,"state":"active","ping":45},{"user_id":324,"name":"WomenBeardLike","steam_id":76561198390184314,"connected_time":3130000000000,"state":"active","ping":60},{"user_id":379,"name":"LordTrap.exe","steam_id":76561198318089716,"connected_time":183000000000,"state":"active","ping":64},{"user_id":367,"name":"Larry Penus","steam_id":76561198207546233,"connected_time":713000000000,"state":"active","ping":59},{"user_id":368,"name":"Aleknat","steam_id":76561198055379857,"connected_time":709000000000,"state":"active","ping":63},{"user_id":335,"name":"Admiral Ackbar","steam_id":76561198131881705,"connected_time":2327000000000,"state":"active","ping":83},{"user_id":352,"name":"mhib","steam_id":76561198048037379,"connected_time":1653000000000,"state":"active","ping":89},{"user_id":354,"name":"Yelowchy","steam_id":76561198199416121,"connected_time":1606000000000,"state":"active","ping":60},{"user_id":319,"name":"hyvakii705","steam_id":76561198086630552,"connected_time":3346000000000,"state":"active","ping":105},{"user_id":376,"name":"I Love Filtered Water","steam_id":76561198016042113,"connected_time":458000000000,"state":"active","ping":78},{"user_id":355,"name":"Zerfesh","steam_id":76561198117534358,"connected_time":1592000000000,"state":"active","ping":84},{"user_id":373,"name":"dolo","steam_id":76561198206672297,"connected_time":531000000000,"state":"active","ping":52},{"user_id":383,"name":"lil ramen","steam_id":76561199258887253,"connected_time":111000000000,"state":"active","ping":99},{"user_id":375,"name":"evil \u003e:)","steam_id":76561198349648942,"connected_time":492000000000,"state":"active","ping":88},{"user_id":358,"name":"GrzMik","steam_id":76561198061951968,"connected_time":1501000000000,"state":"active","ping":83},{"user_id":305,"name":"JGblkshot","steam_id":76561198402792127,"connected_time":3977000000000,"state":"active","ping":190},{"user_id":330,"name":"krokodil addict","steam_id":76561198314853430,"connected_time":2737000000000,"state":"active","ping":70},{"user_id":359,"name":"Cream","steam_id":76561198204266952,"connected_time":1494000000000,"state":"active","ping":105},{"user_id":380,"name":"Carry Krypl","steam_id":76561198136938121,"connected_time":140000000000,"state":"active","ping":59}]},{"server_id":310,"name":"Uncletopia | Frankfurt | 5 | All Maps","name_short":"frk-5","host":"frk-1.de.uncletopia.com","port":27055,"enabled":true,"region":"eu","cc":"de","latitude":50.110924,"longitude":8.682127,"reserved":0,"last_update":"0001-01-01T00:00:00Z","name_a2s":"Uncletopia | Frankfurt | 5 | All Maps","protocol":17,"map":"pl_upward","folder":"tf","game":"Team Fortress","app_id":440,"player_count":24,"max_players":24,"Bots":0,"server_type":"Dedicated","server_os":"Linux","password":true,"vac":true,"version":"7961495","steam_id":85568392924504277,"keywords":["nocrits","nodmgspread","payload","uncletopia"],"game_id":440,"stv_port":27056,"stv_name":"Uncletopia | Frankfurt | 5 | All Maps | STV","players":[{"user_id":493,"name":"Valke","steam_id":76561198152898538,"connected_time":600000000000,"state":"active","ping":60},{"user_id":494,"name":"HoboGrill","steam_id":76561198070744037,"connected_time":564000000000,"state":"active","ping":75},{"user_id":492,"name":"Mirror","steam_id":76561199094011291,"connected_time":870000000000,"state":"active","ping":78},{"user_id":516,"name":"YuraGreek","steam_id":76561198050182252,"connected_time":62000000000,"state":"active","ping":71},{"user_id":489,"name":"SolidShade","steam_id":76561198219790681,"connected_time":1028000000000,"state":"active","ping":99},{"user_id":483,"name":"Dozy","steam_id":76561199351171531,"connected_time":1686000000000,"state":"active","ping":51},{"user_id":488,"name":"Hugh","steam_id":76561198976348754,"connected_time":1176000000000,"state":"active","ping":52},{"user_id":515,"name":"Woman (Real)","steam_id":76561199151823932,"connected_time":75000000000,"state":"active","ping":69},{"user_id":502,"name":"chrisuu","steam_id":76561198994948011,"connected_time":334000000000,"state":"active","ping":75},{"user_id":503,"name":"Ry4saur","steam_id":76561199501574261,"connected_time":320000000000,"state":"active","ping":80},{"user_id":500,"name":"640x480","steam_id":76561198304515309,"connected_time":438000000000,"state":"active","ping":85},{"user_id":501,"name":"Sunshine Moon","steam_id":76561198022604491,"connected_time":404000000000,"state":"active","ping":62},{"user_id":504,"name":"ediheelo","steam_id":76561198363615045,"connected_time":301000000000,"state":"active","ping":64},{"user_id":518,"name":"mr.gaslight","steam_id":76561198056900528,"connected_time":26000000000,"state":"active","ping":78},{"user_id":517,"name":"Silver","steam_id":76561198175238807,"connected_time":52000000000,"state":"active","ping":75},{"user_id":417,"name":"fifrok","steam_id":76561198799267621,"connected_time":7101000000000,"state":"active","ping":66},{"user_id":508,"name":"Flak","steam_id":76561198353259508,"connected_time":255000000000,"state":"active","ping":73},{"user_id":509,"name":"Mr_Draegoth","steam_id":76561198045226420,"connected_time":249000000000,"state":"active","ping":59},{"user_id":510,"name":"Kol Engigfikod","steam_id":76561199115261187,"connected_time":243000000000,"state":"active","ping":95},{"user_id":475,"name":"Jojczak","steam_id":76561198134750964,"connected_time":2225000000000,"state":"active","ping":81},{"user_id":511,"name":"Captain Puddleboat","steam_id":76561198053913970,"connected_time":242000000000,"state":"active","ping":70},{"user_id":512,"name":"Kitten","steam_id":76561198019027657,"connected_time":222000000000,"state":"active","ping":71},{"user_id":513,"name":"Adam","steam_id":76561198259467867,"connected_time":220000000000,"state":"active","ping":90},{"user_id":514,"name":"XavierSweet","steam_id":76561198091781913,"connected_time":217000000000,"state":"active","ping":57}]},{"server_id":311,"name":"Uncletopia | Frankfurt | 6 | All Maps","name_short":"frk-6","host":"frk-1.de.uncletopia.com","port":27065,"enabled":true,"region":"eu","cc":"de","latitude":50.110924,"longitude":8.682127,"reserved":0,"last_update":"0001-01-01T00:00:00Z","name_a2s":"Uncletopia | Frankfurt | 6 | All Maps","protocol":17,"map":"cp_process_final","folder":"tf","game":"Team Fortress","app_id":440,"player_count":23,"max_players":24,"Bots":0,"server_type":"Dedicated","server_os":"Linux","password":true,"vac":true,"version":"7961495","steam_id":85568392924504278,"keywords":["cp","nocrits","nodmgspread","uncletopia"],"game_id":440,"stv_port":27066,"stv_name":"Uncletopia | Frankfurt | 6 | All Maps | STV","players":[{"user_id":87,"name":"Keijo","steam_id":76561198010255870,"connected_time":2614000000000,"state":"active","ping":90},{"user_id":110,"name":"itchy balls","steam_id":76561198364466446,"connected_time":1478000000000,"state":"active","ping":64},{"user_id":129,"name":"Zodaick","steam_id":76561198083662129,"connected_time":93000000000,"state":"active","ping":55},{"user_id":126,"name":"Sodsboy","steam_id":76561198030482006,"connected_time":188000000000,"state":"active","ping":53},{"user_id":120,"name":"Elsuedi","steam_id":76561198074722832,"connected_time":783000000000,"state":"active","ping":60},{"user_id":125,"name":"kluri","steam_id":76561198084518962,"connected_time":274000000000,"state":"active","ping":71},{"user_id":130,"name":"Juss","steam_id":76561198298722637,"connected_time":52000000000,"state":"active","ping":76},{"user_id":97,"name":"jeezo","steam_id":76561198123592400,"connected_time":2206000000000,"state":"active","ping":205},{"user_id":114,"name":"night.s","steam_id":76561198326287823,"connected_time":1210000000000,"state":"active","ping":75},{"user_id":84,"name":"JustACoomer","steam_id":76561198151433181,"connected_time":2689000000000,"state":"active","ping":56},{"user_id":85,"name":"N1xD4","steam_id":76561199047686063,"connected_time":2674000000000,"state":"active","ping":69},{"user_id":104,"name":"Tomato","steam_id":76561199124472513,"connected_time":2032000000000,"state":"active","ping":125},{"user_id":124,"name":"BJ","steam_id":76561198146229582,"connected_time":315000000000,"state":"active","ping":67},{"user_id":116,"name":"God is serb","steam_id":76561198966246028,"connected_time":1072000000000,"state":"active","ping":85},{"user_id":117,"name":"\u003e\u003c\u003e","steam_id":76561198152392309,"connected_time":914000000000,"state":"active","ping":45},{"user_id":118,"name":"m8","steam_id":76561198004717254,"connected_time":912000000000,"state":"active","ping":67},{"user_id":131,"name":"j","steam_id":76561198299474630,"connected_time":17000000000,"state":"active","ping":45},{"user_id":46,"name":"goblin","steam_id":76561198170334258,"connected_time":5164000000000,"state":"active","ping":88},{"user_id":119,"name":"stankboxers #savetf2","steam_id":76561198058609582,"connected_time":840000000000,"state":"active","ping":146},{"user_id":94,"name":"confusion","steam_id":76561199199499453,"connected_time":2374000000000,"state":"active","ping":69},{"user_id":123,"name":"skeleton_archer_1","steam_id":76561198407636430,"connected_time":457000000000,"state":"active","ping":96},{"user_id":106,"name":"tensh1","steam_id":76561198282471866,"connected_time":2017000000000,"state":"active","ping":105},{"user_id":52,"name":"Quartermistress","steam_id":76561198140199123,"connected_time":5037000000000,"state":"active","ping":63}]},{"server_id":23,"name":"Uncletopia | Frankfurt | 7 | Stopwatch","name_short":"frk-7","host":"frk-1.de.uncletopia.com","port":27075,"enabled":true,"region":"eu","cc":"de","latitude":50.110924,"longitude":8.682127,"reserved":0,"last_update":"0001-01-01T00:00:00Z","name_a2s":"Uncletopia | Frankfurt | 7 | Stopwatch","protocol":17,"map":"workshop/koth_bagel_rc6.ugc2514036946","folder":"tf","game":"Team Fortress","app_id":440,"player_count":4,"max_players":24,"Bots":0,"server_type":"Dedicated","server_os":"Linux","password":true,"vac":true,"version":"7961495","steam_id":85568392924742827,"keywords":["cp","nocrits","nodmgspread","uncletopia"],"game_id":440,"stv_port":27076,"stv_name":"Uncletopia | Frankfurt | 7 | Stopwatch | STV","players":[{"user_id":11,"name":"G√º√ßl√ºAYraNsAƒû","steam_id":76561199184988396,"connected_time":4327000000000,"state":"active","ping":111},{"user_id":19,"name":"Piesel","steam_id":76561198985453063,"connected_time":2253000000000,"state":"active","ping":67},{"user_id":21,"name":"–ì—Ä–∏–±–Ω–∏–∫","steam_id":76561199135906334,"connected_time":1744000000000,"state":"active","ping":75},{"user_id":26,"name":"pantaloni imputiti","steam_id":76561198985889265,"connected_time":62000000000,"state":"active","ping":69}]},{"server_id":24,"name":"Uncletopia | Frankfurt | 8 | Community","name_short":"frk-8","host":"frk-1.de.uncletopia.com","port":27085,"enabled":true,"region":"eu","cc":"de","latitude":50.110924,"longitude":8.682127,"reserved":0,"last_update":"0001-01-01T00:00:00Z","name_a2s":"Uncletopia | Frankfurt | 8 | Community","protocol":17,"map":"cp_mountainlab","folder":"tf","game":"Team Fortress","app_id":440,"player_count":0,"max_players":24,"Bots":0,"server_type":"Dedicated","server_os":"Linux","password":true,"vac":true,"version":"7961495","steam_id":85568392924742828,"keywords":["cp","nocrits","nodmgspread","uncletopia"],"game_id":440,"stv_port":27086,"stv_name":"Uncletopia | Frankfurt | 8 | Community | STV","players":null},{"server_id":202,"name":"Uncletopia | Hong Kong | 1 | All Maps","name_short":"hgk-1","host":"hgk-1.hk.uncletopia.com","port":27015,"enabled":true,"region":"asia","cc":"hk","latitude":22.302711,"longitude":114.177216,"reserved":0,"last_update":"0001-01-01T00:00:00Z","name_a2s":"Uncletopia | Hong Kong | 1 | All Maps","protocol":17,"map":"koth_lakeside_final","folder":"tf","game":"Team Fortress","app_id":440,"player_count":0,"max_players":24,"Bots":0,"server_type":"Dedicated","server_os":"Linux","password":true,"vac":true,"version":"7961495","steam_id":85568392924494504,"keywords":["cp","nocrits","nodmgspread","uncletopia"],"game_id":440,"stv_port":27016,"stv_name":"Uncletopia | Hong Kong | 1 | All Maps | STV","players":null},{"server_id":1,"name":"Uncletopia | Los Angeles | 1 | All Maps","name_short":"lax-1","host":"lax-1.us.uncletopia.com","port":27015,"enabled":true,"region":"us-west","cc":"us","latitude":33.94279,"longitude":-118.41004,"reserved":0,"last_update":"0001-01-01T00:00:00Z","name_a2s":"Uncletopia | Los Angeles | 1 | All Maps","protocol":17,"map":"pl_snowycoast","folder":"tf","game":"Team Fortress","app_id":440,"player_count":0,"max_players":24,"Bots":0,"server_type":"Dedicated","server_os":"Linux","password":true,"vac":true,"version":"7961495","steam_id":85568392924469991,"keywords":["nocrits","nodmgspread","payload","uncletopia"],"game_id":440,"stv_port":27016,"stv_name":"Uncletopia | Los Angeles | 1 | All Maps | STV","players":null},{"server_id":112,"name":"Uncletopia | Los Angeles | 2 | All Maps","name_short":"lax-2","host":"lax-1.us.uncletopia.com","port":27025,"enabled":true,"region":"us-west","cc":"us","latitude":33.94279,"longitude":-118.41004,"reserved":0,"last_update":"0001-01-01T00:00:00Z","name_a2s":"Uncletopia | Los Angeles | 2 | All Maps","protocol":17,"map":"plr_bananabay","folder":"tf","game":"Team Fortress","app_id":440,"player_count":21,"max_players":24,"Bots":0,"server_type":"Dedicated","server_os":"Linux","password":true,"vac":true,"version":"7961495","steam_id":85568392924469992,"keywords":["nocrits","nodmgspread","payload","uncletopia"],"game_id":440,"stv_port":27026,"stv_name":"Uncletopia | Los Angeles | 2 | All Maps | STV","players":[{"user_id":65,"name":"Cinquefoil","steam_id":76561198166967060,"connected_time":1028000000000,"state":"active","ping":64},{"user_id":75,"name":"Ellis","steam_id":76561198102094705,"connected_time":337000000000,"state":"active","ping":49},{"user_id":69,"name":"Krouton","steam_id":76561198037514022,"connected_time":684000000000,"state":"active","ping":91},{"user_id":66,"name":"Boxcars","steam_id":76561198120978767,"connected_time":1001000000000,"state":"active","ping":48},{"user_id":67,"name":"Hound_","steam_id":76561199389781834,"connected_time":875000000000,"state":"active","ping":57},{"user_id":77,"name":"imng","steam_id":76561198014988031,"connected_time":42000000000,"state":"active","ping":97},{"user_id":35,"name":"bridgerald","steam_id":76561198104372033,"connected_time":2865000000000,"state":"active","ping":89},{"user_id":68,"name":"Firedust19","steam_id":76561198153238631,"connected_time":830000000000,"state":"active","ping":63},{"user_id":58,"name":"GH578","steam_id":76561199493262585,"connected_time":1656000000000,"state":"active","ping":58},{"user_id":32,"name":"Geesemans","steam_id":76561199478892816,"connected_time":2943000000000,"state":"active","ping":131},{"user_id":70,"name":"name420","steam_id":76561198129374525,"connected_time":634000000000,"state":"active","ping":93},{"user_id":71,"name":"Johnora","steam_id":76561198220495936,"connected_time":477000000000,"state":"active","ping":87},{"user_id":22,"name":"Weerk","steam_id":76561199209543551,"connected_time":3553000000000,"state":"active","ping":113},{"user_id":23,"name":"TheGreythreat","steam_id":76561198021995538,"connected_time":3455000000000,"state":"active","ping":104},{"user_id":25,"name":"Satori Komeiji","steam_id":76561198158211423,"connected_time":3416000000000,"state":"active","ping":48},{"user_id":76,"name":"floppy muppet","steam_id":76561198003076261,"connected_time":154000000000,"state":"active","ping":109},{"user_id":46,"name":"the big shitter","steam_id":76561198396326793,"connected_time":2322000000000,"state":"active","ping":98},{"user_id":78,"name":"KlassicLoL","steam_id":76561198081815303,"connected_time":37000000000,"state":"active","ping":45},{"user_id":79,"name":"Gary Budussy","steam_id":76561197969793969,"connected_time":15000000000,"state":"active","ping":80},{"user_id":80,"name":"suger1316","steam_id":76561199079999423,"connected_time":13000000000,"state":"spawning","ping":149},{"user_id":45,"name":"bobbymcbobington","steam_id":76561199089411172,"connected_time":2385000000000,"state":"active","ping":147}]},{"server_id":324,"name":"Uncletopia | Los Angeles | 3 | All Maps","name_short":"lax-3","host":"lax-1.us.uncletopia.com","port":27035,"enabled":true,"region":"us-west","cc":"us","latitude":33.94279,"longitude":-118.41004,"reserved":0,"last_update":"0001-01-01T00:00:00Z","name_a2s":"Uncletopia | Los Angeles | 3 | All Maps","protocol":17,"map":"pl_frontier_final","folder":"tf","game":"Team Fortress","app_id":440,"player_count":0,"max_players":24,"Bots":0,"server_type":"Dedicated","server_os":"Linux","password":true,"vac":true,"version":"7961495","steam_id":85568392924510198,"keywords":["nocrits","nodmgspread","payload","uncletopia"],"game_id":440,"stv_port":27036,"stv_name":"Uncletopia | Los Angeles | 3 | All Maps | STV","players":null},{"server_id":25,"name":"Uncletopia | Los Angeles | 4 | Stopwatch","name_short":"lax-4","host":"lax-1.us.uncletopia.com","port":27045,"enabled":true,"region":"us-west","cc":"us","latitude":33.94279,"longitude":-118.41004,"reserved":0,"last_update":"0001-01-01T00:00:00Z","name_a2s":"Uncletopia | Los Angeles | 4 | Stopwatch","protocol":17,"map":"pl_barnblitz","folder":"tf","game":"Team Fortress","app_id":440,"player_count":0,"max_players":24,"Bots":0,"server_type":"Dedicated","server_os":"Linux","password":true,"vac":true,"version":"7961495","steam_id":85568392924510199,"keywords":["nocrits","nodmgspread","payload","uncletopia"],"game_id":440,"stv_port":27046,"stv_name":"Uncletopia | Los Angeles | 4 | Stopwatch | STV","players":null},{"server_id":11,"name":"Uncletopia | London | 1 | All Maps","name_short":"lon-1","host":"lon-1.uk.uncletopia.com","port":27015,"enabled":true,"region":"eu","cc":"gb","latitude":51.509865,"longitude":-0.118092,"reserved":0,"last_update":"0001-01-01T00:00:00Z","name_a2s":"Uncletopia | London | 1 | All Maps","protocol":17,"map":"cp_dustbowl","folder":"tf","game":"Team Fortress","app_id":440,"player_count":24,"max_players":24,"Bots":0,"server_type":"Dedicated","server_os":"Linux","password":true,"vac":true,"version":"7961495","steam_id":85568392924367362,"keywords":["cp","nocrits","nodmgspread","uncletopia"],"game_id":440,"stv_port":27016,"stv_name":"Uncletopia | London | 1 | All Maps | STV","players":[{"user_id":465,"name":"‚∏∏aura‚∏∏","steam_id":76561198066258544,"connected_time":2456000000000,"state":"active","ping":55},{"user_id":478,"name":"Olu","steam_id":76561198057135574,"connected_time":1823000000000,"state":"active","ping":93},{"user_id":464,"name":"Czechmated","steam_id":76561198075648001,"connected_time":2762000000000,"state":"active","ping":63},{"user_id":502,"name":"Uzakta","steam_id":76561198061717026,"connected_time":339000000000,"state":"active","ping":46},{"user_id":490,"name":"hbivnm","steam_id":76561197996468677,"connected_time":565000000000,"state":"active","ping":60},{"user_id":416,"name":"Canpenbook64","steam_id":76561199195471984,"connected_time":5563000000000,"state":"active","ping":64},{"user_id":486,"name":"the keebler","steam_id":76561199486326945,"connected_time":1070000000000,"state":"active","ping":148},{"user_id":494,"name":"senko","steam_id":76561198002990168,"connected_time":521000000000,"state":"active","ping":51},{"user_id":483,"name":"Jonno","steam_id":76561198023443744,"connected_time":1469000000000,"state":"active","ping":54},{"user_id":450,"name":"Finem Belli","steam_id":76561198227177976,"connected_time":3556000000000,"state":"active","ping":47},{"user_id":463,"name":"shooer!","steam_id":76561198110531281,"connected_time":2860000000000,"state":"active","ping":69},{"user_id":489,"name":"MSM","steam_id":76561198310095220,"connected_time":814000000000,"state":"active","ping":34},{"user_id":471,"name":"nappo","steam_id":76561198060105180,"connected_time":2355000000000,"state":"active","ping":72},{"user_id":417,"name":"impossible whopper eater","steam_id":76561198058641805,"connected_time":5292000000000,"state":"active","ping":49},{"user_id":480,"name":"Croy","steam_id":76561197972552579,"connected_time":1804000000000,"state":"active","ping":45},{"user_id":500,"name":"Elix","steam_id":76561199072306920,"connected_time":436000000000,"state":"active","ping":101},{"user_id":482,"name":"Jrock","steam_id":76561198045715996,"connected_time":1553000000000,"state":"active","ping":150},{"user_id":498,"name":"Wyzis","steam_id":76561198972794977,"connected_time":462000000000,"state":"active","ping":73},{"user_id":477,"name":"Kiste262","steam_id":76561198056825021,"connected_time":1829000000000,"state":"active","ping":75},{"user_id":485,"name":"Topia","steam_id":76561198163571788,"connected_time":1175000000000,"state":"active","ping":90},{"user_id":501,"name":"stroyo","steam_id":76561198409592046,"connected_time":374000000000,"state":"active","ping":45},{"user_id":504,"name":"engineer gaming","steam_id":76561199482886946,"connected_time":327000000000,"state":"active","ping":64},{"user_id":510,"name":"cow_2","steam_id":76561198064115286,"connected_time":101000000000,"state":"active","ping":75},{"user_id":475,"name":"ExotiiC ‚òØ","steam_id":76561198046149866,"connected_time":1875000000000,"state":"active","ping":79}]},{"server_id":114,"name":"Uncletopia | London | 2 | All Maps","name_short":"lon-2","host":"lon-1.uk.uncletopia.com","port":27025,"enabled":true,"region":"eu","cc":"gb","latitude":51.509865,"longitude":-0.118092,"reserved":0,"last_update":"0001-01-01T00:00:00Z","name_a2s":"Uncletopia | London | 2 | All Maps","protocol":17,"map":"ctf_2fort","folder":"tf","game":"Team Fortress","app_id":440,"player_count":23,"max_players":24,"Bots":0,"server_type":"Dedicated","server_os":"Linux","password":true,"vac":true,"version":"7961495","steam_id":85568392924470941,"keywords":["ctf","nocrits","nodmgspread","uncletopia"],"game_id":440,"stv_port":27026,"stv_name":"Uncletopia | London | 2 | All Maps | STV","players":[{"user_id":366,"name":"Crimson","steam_id":76561197987552332,"connected_time":3774000000000,"state":"active","ping":48},{"user_id":437,"name":"A Table","steam_id":76561198130963095,"connected_time":32000000000,"state":"active","ping":62},{"user_id":341,"name":"Luigi","steam_id":76561199194954220,"connected_time":4787000000000,"state":"active","ping":61},{"user_id":385,"name":"Pvt. Pepper","steam_id":76561198851157897,"connected_time":2804000000000,"state":"active","ping":59},{"user_id":402,"name":"Roboolet","steam_id":76561198107353953,"connected_time":2288000000000,"state":"active","ping":50},{"user_id":424,"name":"SCooler27","steam_id":76561199200454579,"connected_time":1171000000000,"state":"active","ping":79},{"user_id":438,"name":"Lensy","steam_id":76561198124442128,"connected_time":1000000000,"state":"spawning","ping":40},{"user_id":412,"name":"KGiorgios_Bully","steam_id":76561198825392728,"connected_time":1884000000000,"state":"active","ping":105},{"user_id":419,"name":"Gle_Dusse","steam_id":76561198344645844,"connected_time":1455000000000,"state":"active","ping":110},{"user_id":392,"name":"Greencoffee","steam_id":76561198842090589,"connected_time":2604000000000,"state":"active","ping":70},{"user_id":408,"name":"_Context_","steam_id":76561199163359312,"connected_time":2087000000000,"state":"active","ping":63},{"user_id":430,"name":"Speguda","steam_id":76561198104481543,"connected_time":734000000000,"state":"active","ping":104},{"user_id":418,"name":"NotExactlyAName","steam_id":76561199131759230,"connected_time":1490000000000,"state":"active","ping":88},{"user_id":436,"name":"Blat","steam_id":76561199013233409,"connected_time":306000000000,"state":"active","ping":70},{"user_id":432,"name":"OOF","steam_id":76561199486823632,"connected_time":565000000000,"state":"active","ping":65},{"user_id":411,"name":"Nikt Wa≈ºny (F2P)","steam_id":76561199273293257,"connected_time":1963000000000,"state":"active","ping":122},{"user_id":427,"name":"POWER","steam_id":76561198073814518,"connected_time":968000000000,"state":"active","ping":54},{"user_id":422,"name":"ursus ludens","steam_id":76561198337150763,"connected_time":1379000000000,"state":"active","ping":53},{"user_id":434,"name":"kurage","steam_id":76561198021221288,"connected_time":425000000000,"state":"active","ping":67},{"user_id":415,"name":"ONI","steam_id":76561199038860035,"connected_time":1664000000000,"state":"active","ping":64},{"user_id":435,"name":"Cheese Goblin","steam_id":76561198102366281,"connected_time":409000000000,"state":"active","ping":76},{"user_id":335,"name":"Amandus","steam_id":76561198036281079,"connected_time":5188000000000,"state":"active","ping":60},{"user_id":372,"name":"Flying Squirrel","steam_id":76561198005202791,"connected_time":3658000000000,"state":"active","ping":79}]},{"server_id":320,"name":"Uncletopia | London | 3 | All Maps","name_short":"lon-3","host":"lon-1.uk.uncletopia.com","port":27035,"enabled":true,"region":"eu","cc":"gb","latitude":51.509865,"longitude":-0.118092,"reserved":0,"last_update":"0001-01-01T00:00:00Z","name_a2s":"Uncletopia | London | 3 | All Maps","protocol":17,"map":"cp_process_final","folder":"tf","game":"Team Fortress","app_id":440,"player_count":20,"max_players":24,"Bots":0,"server_type":"Dedicated","server_os":"Linux","password":true,"vac":true,"version":"7961495","steam_id":85568392924510192,"keywords":["cp","nocrits","nodmgspread","uncletopia"],"game_id":440,"stv_port":27036,"stv_name":"Uncletopia | London | 3 | All Maps | STV","players":[{"user_id":248,"name":"R8N - Obismal","steam_id":76561198007482714,"connected_time":2574000000000,"state":"active","ping":75},{"user_id":129,"name":"Dr. Sus","steam_id":76561198344435644,"connected_time":9422000000000,"state":"active","ping":70},{"user_id":249,"name":"Caruzon - Obismal","steam_id":76561198036211170,"connected_time":2566000000000,"state":"active","ping":88},{"user_id":286,"name":"rubn","steam_id":76561198119586410,"connected_time":44000000000,"state":"active","ping":61},{"user_id":258,"name":"Mafew","steam_id":76561198119993886,"connected_time":2005000000000,"state":"active","ping":57},{"user_id":287,"name":"Armolitskiy","steam_id":76561198443646513,"connected_time":13000000000,"state":"spawning","ping":126},{"user_id":200,"name":"Baiterz","steam_id":76561198030815786,"connected_time":5287000000000,"state":"active","ping":74},{"user_id":288,"name":"Jellis","steam_id":76561198058849897,"connected_time":7000000000,"state":"spawning","ping":32},{"user_id":280,"name":"Fatmagic Mukbang ASMR","steam_id":76561198063492110,"connected_time":511000000000,"state":"active","ping":82},{"user_id":275,"name":"Lyell","steam_id":76561198350329389,"connected_time":1049000000000,"state":"active","ping":82},{"user_id":282,"name":"Mr. Hunts","steam_id":76561197981910397,"connected_time":370000000000,"state":"active","ping":68},{"user_id":238,"name":"Deluxe Roast Beef Sandwich","steam_id":76561198277045662,"connected_time":2982000000000,"state":"active","ping":46},{"user_id":276,"name":"zek","steam_id":76561198862763731,"connected_time":1035000000000,"state":"active","ping":62},{"user_id":279,"name":"DHD - Obismal","steam_id":76561198000356530,"connected_time":602000000000,"state":"active","ping":75},{"user_id":281,"name":"gamerkiddo","steam_id":76561198047380360,"connected_time":448000000000,"state":"active","ping":45},{"user_id":217,"name":"Jordon","steam_id":76561198006097890,"connected_time":4751000000000,"state":"active","ping":47},{"user_id":198,"name":"Moses","steam_id":76561198257652671,"connected_time":5404000000000,"state":"active","ping":66},{"user_id":216,"name":"hellscream","steam_id":76561199163884827,"connected_time":4768000000000,"state":"active","ping":96},{"user_id":274,"name":"bitkomet","steam_id":76561198058232147,"connected_time":1104000000000,"state":"active","ping":75},{"user_id":259,"name":"Oak","steam_id":76561198067315672,"connected_time":1867000000000,"state":"active","ping":45}]},{"server_id":321,"name":"Uncletopia | London | 4 | All Maps","name_short":"lon-4","host":"lon-1.uk.uncletopia.com","port":27045,"enabled":true,"region":"eu","cc":"gb","latitude":51.509865,"longitude":-0.118092,"reserved":0,"last_update":"0001-01-01T00:00:00Z","name_a2s":"Uncletopia | London | 4 | All Maps","protocol":17,"map":"pl_borneo","folder":"tf","game":"Team Fortress","app_id":440,"player_count":24,"max_players":24,"Bots":0,"server_type":"Dedicated","server_os":"Linux","password":true,"vac":true,"version":"7961495","steam_id":85568392924510193,"keywords":["nocrits","nodmgspread","payload","uncletopia"],"game_id":440,"stv_port":27046,"stv_name":"Uncletopia | London | 4 | All Maps | STV","players":[{"user_id":94,"name":"Jeune\u0026J√©nial","steam_id":76561198150060767,"connected_time":707000000000,"state":"active","ping":46},{"user_id":31,"name":"Deemask√©","steam_id":76561199225833593,"connected_time":4713000000000,"state":"active","ping":55},{"user_id":77,"name":"Joejee","steam_id":76561199122423976,"connected_time":1954000000000,"state":"active","ping":64},{"user_id":34,"name":"Ixsus\u003c3","steam_id":76561198094756869,"connected_time":4409000000000,"state":"active","ping":62},{"user_id":93,"name":"elsever08","steam_id":76561199256856581,"connected_time":774000000000,"state":"active","ping":170},{"user_id":86,"name":"TheRocketKnight","steam_id":76561199139597566,"connected_time":1467000000000,"state":"active","ping":85},{"user_id":96,"name":"brtaba","steam_id":76561198796334790,"connected_time":531000000000,"state":"active","ping":72},{"user_id":67,"name":"You Don't Nomi.","steam_id":76561197969137836,"connected_time":2301000000000,"state":"active","ping":127},{"user_id":92,"name":"Lux","steam_id":76561198060417740,"connected_time":974000000000,"state":"active","ping":46},{"user_id":78,"name":"Repa24","steam_id":76561198033016390,"connected_time":1928000000000,"state":"active","ping":83},{"user_id":44,"name":"Jam","steam_id":76561198266842303,"connected_time":2984000000000,"state":"active","ping":54},{"user_id":84,"name":"BUCKET:\\soldier\\Desktop\\","steam_id":76561199047240319,"connected_time":1680000000000,"state":"active","ping":135},{"user_id":87,"name":"Rui","steam_id":76561198263735498,"connected_time":1446000000000,"state":"active","ping":92},{"user_id":49,"name":"BoolletAttack","steam_id":76561198137210631,"connected_time":2822000000000,"state":"active","ping":60},{"user_id":91,"name":"shenanigan","steam_id":76561198043452925,"connected_time":1206000000000,"state":"active","ping":99},{"user_id":97,"name":"Sir.JJ","steam_id":76561198020681204,"connected_time":255000000000,"state":"active","ping":68},{"user_id":52,"name":"Weeb exterminator","steam_id":76561198078964973,"connected_time":2788000000000,"state":"active","ping":74},{"user_id":53,"name":"Drunkenkidney","steam_id":76561197995116708,"connected_time":2780000000000,"state":"active","ping":77},{"user_id":55,"name":"- Indigo -","steam_id":76561198380193071,"connected_time":2765000000000,"state":"active","ping":75},{"user_id":98,"name":"birb","steam_id":76561198084891833,"connected_time":43000000000,"state":"active","ping":71},{"user_id":99,"name":"f l —è n","steam_id":76561198079595755,"connected_time":20000000000,"state":"active","ping":49},{"user_id":61,"name":"Fran","steam_id":76561199070516960,"connected_time":2684000000000,"state":"active","ping":75},{"user_id":89,"name":"mr gaming","steam_id":76561198110103308,"connected_time":1425000000000,"state":"active","ping":48},{"user_id":80,"name":"asa004","steam_id":76561198160323444,"connected_time":1892000000000,"state":"active","ping":81}]},{"server_id":21,"name":"Uncletopia | London | 5 | All Maps","name_short":"lon-5","host":"lon-1.uk.uncletopia.com","port":27055,"enabled":true,"region":"eu","cc":"gb","latitude":51.509865,"longitude":-0.118092,"reserved":0,"last_update":"0001-01-01T00:00:00Z","name_a2s":"Uncletopia | London | 5 | All Maps","protocol":17,"map":"koth_lakeside_final","folder":"tf","game":"Team Fortress","app_id":440,"player_count":0,"max_players":24,"Bots":0,"server_type":"Dedicated","server_os":"Linux","password":true,"vac":true,"version":"7961495","steam_id":85568392924742829,"keywords":["cp","nocrits","nodmgspread","uncletopia"],"game_id":440,"stv_port":27056,"stv_name":"Uncletopia | London | 5 | All Maps | STV","players":null},{"server_id":22,"name":"Uncletopia | London | 6 | All Maps","name_short":"lon-6","host":"lon-1.uk.uncletopia.com","port":27065,"enabled":true,"region":"eu","cc":"gb","latitude":51.509865,"longitude":-0.118092,"reserved":0,"last_update":"0001-01-01T00:00:00Z","name_a2s":"Uncletopia | London | 6 | All Maps","protocol":17,"map":"pl_pier","folder":"tf","game":"Team Fortress","app_id":440,"player_count":24,"max_players":24,"Bots":0,"server_type":"Dedicated","server_os":"Linux","password":true,"vac":true,"version":"7961495","steam_id":85568392924742830,"keywords":["nocrits","nodmgspread","payload","uncletopia"],"game_id":440,"stv_port":27066,"stv_name":"Uncletopia | London | 6 | All Maps | STV","players":[{"user_id":147,"name":"SKY_","steam_id":76561198080980508,"connected_time":3943000000000,"state":"active","ping":68},{"user_id":189,"name":"Locke","steam_id":76561198339408300,"connected_time":923000000000,"state":"active","ping":44},{"user_id":191,"name":"MrSoy","steam_id":76561198082960634,"connected_time":709000000000,"state":"active","ping":58},{"user_id":194,"name":"xx","steam_id":76561198095560087,"connected_time":597000000000,"state":"active","ping":77},{"user_id":161,"name":"TomNoSocks","steam_id":76561198114071046,"connected_time":3300000000000,"state":"active","ping":63},{"user_id":110,"name":"AndrewToasterr #SaveTF2","steam_id":76561198107159512,"connected_time":7007000000000,"state":"active","ping":75},{"user_id":152,"name":"Evilton","steam_id":76561198844263922,"connected_time":3497000000000,"state":"active","ping":82},{"user_id":172,"name":"willus212","steam_id":76561199182615246,"connected_time":1752000000000,"state":"active","ping":90},{"user_id":192,"name":"wheelie bin","steam_id":76561198040040328,"connected_time":689000000000,"state":"active","ping":45},{"user_id":182,"name":"Femboy Thighs","steam_id":76561198115496457,"connected_time":1231000000000,"state":"active","ping":41},{"user_id":163,"name":"Space Raccoon","steam_id":76561198038399662,"connected_time":2257000000000,"state":"active","ping":88},{"user_id":167,"name":"FurFox","steam_id":76561198807347164,"connected_time":1992000000000,"state":"active","ping":67},{"user_id":151,"name":"Just Navlis","steam_id":76561198090479609,"connected_time":3703000000000,"state":"active","ping":60},{"user_id":149,"name":"Reimu","steam_id":76561198101532240,"connected_time":3772000000000,"state":"active","ping":56},{"user_id":183,"name":"Ozzak","steam_id":76561198353664262,"connected_time":1206000000000,"state":"active","ping":60},{"user_id":173,"name":"A Shoelace","steam_id":76561198126726364,"connected_time":1751000000000,"state":"active","ping":63},{"user_id":184,"name":"JujuBalu","steam_id":76561198207253071,"connected_time":1188000000000,"state":"active","ping":32},{"user_id":174,"name":"Gio'sMonkey","steam_id":76561198892432223,"connected_time":1438000000000,"state":"active","ping":70},{"user_id":185,"name":"SirDirtbag","steam_id":76561198091890855,"connected_time":1184000000000,"state":"active","ping":76},{"user_id":195,"name":"Oblivion","steam_id":76561198352683491,"connected_time":83000000000,"state":"active","ping":36},{"user_id":124,"name":"GazerBazer","steam_id":76561198879107565,"connected_time":6185000000000,"state":"active","ping":53},{"user_id":186,"name":"LOBZIK","steam_id":76561198114830120,"connected_time":1100000000000,"state":"active","ping":78},{"user_id":190,"name":"Otakuwolf","steam_id":76561198023092381,"connected_time":860000000000,"state":"active","ping":73},{"user_id":196,"name":"Doughy","steam_id":76561198044084210,"connected_time":61000000000,"state":"active","ping":90}]},{"server_id":40,"name":"Uncletopia | London | 7 | Stopwatch","name_short":"lon-7","host":"lon-1.uk.uncletopia.com","port":27075,"enabled":true,"region":"eu","cc":"gb","latitude":51.509865,"longitude":-0.118092,"reserved":0,"last_update":"0001-01-01T00:00:00Z","name_a2s":"Uncletopia | London | 7 | Stopwatch","protocol":17,"map":"workshop/pl_summercoast_rc8e.ugc1761528829","folder":"tf","game":"Team Fortress","app_id":440,"player_count":0,"max_players":24,"Bots":0,"server_type":"Dedicated","server_os":"Linux","password":true,"vac":true,"version":"7961495","steam_id":85568392924964314,"keywords":["nocrits","nodmgspread","payload","uncletopia"],"game_id":440,"stv_port":27076,"stv_name":"Uncletopia | London | 7 | Stopwatch | STV","players":null},{"server_id":41,"name":"Uncletopia | London | 8 | Community","name_short":"lon-8","host":"lon-1.uk.uncletopia.com","port":27085,"enabled":true,"region":"eu","cc":"gb","latitude":51.509865,"longitude":-0.118092,"reserved":0,"last_update":"0001-01-01T00:00:00Z","name_a2s":"Uncletopia | London | 8 | Community","protocol":17,"map":"workshop/koth_product_final.ugc454272353","folder":"tf","game":"Team Fortress","app_id":440,"player_count":0,"max_players":24,"Bots":0,"server_type":"Dedicated","server_os":"Linux","password":true,"vac":true,"version":"7961495","steam_id":85568392924964315,"keywords":["cp","nocrits","nodmgspread","uncletopia"],"game_id":440,"stv_port":27086,"stv_name":"Uncletopia | London | 8 | Community | STV","players":null},{"server_id":300,"name":"Uncletopia | Montr√©al | 1 | One Thousand Uncles","name_short":"mtl-1","host":"mtl-1.ca.uncletopia.com","port":27015,"enabled":true,"region":"us-east","cc":"ca","latitude":45.50889,"longitude":-73.56167,"reserved":0,"last_update":"0001-01-01T00:00:00Z","name_a2s":"","protocol":0,"map":"","folder":"","game":"","app_id":0,"player_count":0,"max_players":0,"Bots":0,"server_type":"","server_os":"","password":false,"vac":false,"version":"","steam_id":0,"keywords":null,"game_id":0,"stv_port":0,"stv_name":"","players":null},{"server_id":301,"name":"Uncletopia | Montr√©al | 2 | One Thousand Uncles","name_short":"mtl-2","host":"mtl-1.ca.uncletopia.com","port":27025,"enabled":true,"region":"us-east","cc":"ca","latitude":45.50889,"longitude":-73.56167,"reserved":0,"last_update":"0001-01-01T00:00:00Z","name_a2s":"","protocol":0,"map":"","folder":"","game":"","app_id":0,"player_count":0,"max_players":0,"Bots":0,"server_type":"","server_os":"","password":false,"vac":false,"version":"","steam_id":0,"keywords":null,"game_id":0,"stv_port":0,"stv_name":"","players":null},{"server_id":302,"name":"Uncletopia | Montr√©al | 3 | One Thousand Uncles","name_short":"mtl-3","host":"mtl-1.ca.uncletopia.com","port":27035,"enabled":true,"region":"us-east","cc":"ca","latitude":45.50889,"longitude":-73.56167,"reserved":0,"last_update":"0001-01-01T00:00:00Z","name_a2s":"","protocol":0,"map":"","folder":"","game":"","app_id":0,"player_count":0,"max_players":0,"Bots":0,"server_type":"","server_os":"","password":false,"vac":false,"version":"","steam_id":0,"keywords":null,"game_id":0,"stv_port":0,"stv_name":"","players":null},{"server_id":13,"name":"Uncletopia | New York City | 1 | All Maps","name_short":"nyc-1","host":"nyc-1.us.uncletopia.com","port":27015,"enabled":true,"region":"us-east","cc":"us","latitude":40.73061,"longitude":-73.93524,"reserved":0,"last_update":"0001-01-01T00:00:00Z","name_a2s":"Uncletopia | New York City | 1 | All Maps","protocol":17,"map":"koth_suijin","folder":"tf","game":"Team Fortress","app_id":440,"player_count":22,"max_players":24,"Bots":0,"server_type":"Dedicated","server_os":"Linux","password":true,"vac":true,"version":"7961495","steam_id":85568392924469993,"keywords":["cp","nocrits","nodmgspread","uncletopia"],"game_id":440,"stv_port":27016,"stv_name":"Uncletopia | New York City | 1 | All Maps | STV","players":[{"user_id":102,"name":"Kaede Akamatsu","steam_id":76561198095322760,"connected_time":387000000000,"state":"connecting","ping":168},{"user_id":86,"name":"GigaSpin","steam_id":76561198083478846,"connected_time":1072000000000,"state":"connecting","ping":78},{"user_id":89,"name":"MeatShield 2000","steam_id":76561199375192850,"connected_time":1001000000000,"state":"connecting","ping":128},{"user_id":48,"name":"Gameing","steam_id":76561198199687607,"connected_time":4637000000000,"state":"connecting","ping":141},{"user_id":41,"name":"[NAME-REDACTED]","steam_id":76561198035682975,"connected_time":5059000000000,"state":"connecting","ping":51},{"user_id":44,"name":"DYGIILYIAHSPJTOS (She/Her)","steam_id":76561198042177809,"connected_time":4727000000000,"state":"connecting","ping":95},{"user_id":93,"name":"Missing Minus","steam_id":76561198120822928,"connected_time":838000000000,"state":"connecting","ping":86},{"user_id":97,"name":"Starlitcokey","steam_id":76561198057412230,"connected_time":558000000000,"state":"connecting","ping":135},{"user_id":69,"name":"Shapeshiftertrue","steam_id":76561198440835095,"connected_time":3093000000000,"state":"connecting","ping":71},{"user_id":13,"name":"Lifial","steam_id":76561198271885819,"connected_time":6174000000000,"state":"connecting","ping":74},{"user_id":83,"name":"hamilton","steam_id":76561198034096096,"connected_time":1102000000000,"state":"connecting","ping":57},{"user_id":51,"name":"ÏÖÄÎ†àÎÇòÍ≥†Î©îÏ¶à","steam_id":76561197964720294,"connected_time":4590000000000,"state":"connecting","ping":53},{"user_id":36,"name":"Sentry Gun Main Man","steam_id":76561198327938247,"connected_time":5581000000000,"state":"connecting","ping":93},{"user_id":88,"name":"GummybearKillr","steam_id":76561198031235750,"connected_time":1039000000000,"state":"connecting","ping":51},{"user_id":94,"name":"I eat kids","steam_id":76561199195104977,"connected_time":826000000000,"state":"connecting","ping":82},{"user_id":78,"name":"WolfintheWires","steam_id":76561197998385084,"connected_time":1912000000000,"state":"connecting","ping":75},{"user_id":101,"name":"Owl","steam_id":76561198108128837,"connected_time":419000000000,"state":"connecting","ping":151},{"user_id":68,"name":"Brawns","steam_id":76561198045190199,"connected_time":3105000000000,"state":"connecting","ping":64},{"user_id":80,"name":"Thog","steam_id":76561198093699060,"connected_time":1670000000000,"state":"connecting","ping":53},{"user_id":34,"name":"NinjaLau95","steam_id":76561198001069938,"connected_time":5634000000000,"state":"connecting","ping":75}]},{"server_id":14,"name":"Uncletopia | New York City | 2 | All Maps","name_short":"nyc-2","host":"nyc-1.us.uncletopia.com","port":27025,"enabled":true,"region":"us-east","cc":"us","latitude":40.73061,"longitude":-73.93524,"reserved":0,"last_update":"0001-01-01T00:00:00Z","name_a2s":"Uncletopia | New York City | 2 | All Maps","protocol":17,"map":"pl_snowycoast","folder":"tf","game":"Team Fortress","app_id":440,"player_count":0,"max_players":24,"Bots":0,"server_type":"Dedicated","server_os":"Linux","password":true,"vac":true,"version":"7961495","steam_id":85568392924469994,"keywords":["nocrits","nodmgspread","payload","uncletopia"],"game_id":440,"stv_port":27026,"stv_name":"Uncletopia | New York City | 2 | All Maps | STV","players":null},{"server_id":15,"name":"Uncletopia | New York City | 3 | Stopwatch","name_short":"nyc-3","host":"nyc-1.us.uncletopia.com","port":27035,"enabled":true,"region":"us-east","cc":"us","latitude":40.73061,"longitude":-73.93524,"reserved":0,"last_update":"0001-01-01T00:00:00Z","name_a2s":"Uncletopia | New York City | 3 | Stopwatch","protocol":17,"map":"workshop/pl_barnblitz_pro7.ugc582280235","folder":"tf","game":"Team Fortress","app_id":440,"player_count":0,"max_players":24,"Bots":0,"server_type":"Dedicated","server_os":"Linux","password":true,"vac":true,"version":"7961495","steam_id":85568392924742820,"keywords":["nocrits","nodmgspread","payload","uncletopia"],"game_id":440,"stv_port":27036,"stv_name":"Uncletopia | New York City | 3 | Stopwatch | STV","players":null},{"server_id":16,"name":"Uncletopia | New York City | 4 | Community","name_short":"nyc-4","host":"nyc-1.us.uncletopia.com","port":27045,"enabled":true,"region":"us-east","cc":"us","latitude":40.73061,"longitude":-73.93524,"reserved":0,"last_update":"0001-01-01T00:00:00Z","name_a2s":"Uncletopia | New York City | 4 | Community","protocol":17,"map":"cp_altitude","folder":"tf","game":"Team Fortress","app_id":440,"player_count":0,"max_players":24,"Bots":0,"server_type":"Dedicated","server_os":"Linux","password":true,"vac":true,"version":"7961495","steam_id":85568392924742821,"keywords":["cp","nocrits","nodmgspread","uncletopia"],"game_id":440,"stv_port":27046,"stv_name":"Uncletopia | New York City | 4 | Community | STV","players":null},{"server_id":142,"name":"Uncletopia | S√£o Paulo | 1 | All Maps","name_short":"sao-1","host":"sao-1.br.uncletopia.com","port":27015,"enabled":true,"region":"sa","cc":"br","latitude":-23.533773,"longitude":-46.62529,"reserved":0,"last_update":"0001-01-01T00:00:00Z","name_a2s":"Uncletopia | S√£o Paulo | 1 | All Maps","protocol":17,"map":"pl_frontier_final","folder":"tf","game":"Team Fortress","app_id":440,"player_count":0,"max_players":24,"Bots":0,"server_type":"Dedicated","server_os":"Linux","password":true,"vac":true,"version":"7961495","steam_id":85568392924469996,"keywords":["nocrits","nodmgspread","payload","uncletopia"],"game_id":440,"stv_port":27016,"stv_name":"Uncletopia | S√£o Paulo | 1 | All Maps | STV","players":null},{"server_id":143,"name":"Uncletopia | S√£o Paulo | 2 | Community","name_short":"sao-2","host":"sao-2.br.uncletopia.com","port":27015,"enabled":true,"region":"sa","cc":"br","latitude":-23.533773,"longitude":-46.62529,"reserved":0,"last_update":"0001-01-01T00:00:00Z","name_a2s":"Uncletopia | S√£o Paulo | 2 | Community","protocol":17,"map":"workshop/pl_divulgence_b4b.ugc2884808746","folder":"tf","game":"Team Fortress","app_id":440,"player_count":0,"max_players":24,"Bots":0,"server_type":"Dedicated","server_os":"Linux","password":true,"vac":true,"version":"7961495","steam_id":85568392924485349,"keywords":["nocrits","nodmgspread","payload","uncletopia"],"game_id":440,"stv_port":27016,"stv_name":"Uncletopia | S√£o Paulo | 2 | Community | STV","players":null},{"server_id":7,"name":"Uncletopia | Seattle | 1 | All Maps","name_short":"sea-1","host":"sea-1.us.uncletopia.com","port":27015,"enabled":true,"region":"us-west","cc":"us","latitude":47.608013,"longitude":-122.33517,"reserved":0,"last_update":"0001-01-01T00:00:00Z","name_a2s":"Uncletopia | Seattle | 1 | All Maps","protocol":17,"map":"cp_snakewater_final1","folder":"tf","game":"Team Fortress","app_id":440,"player_count":0,"max_players":24,"Bots":0,"server_type":"Dedicated","server_os":"Linux","password":true,"vac":true,"version":"7961495","steam_id":85568392924469997,"keywords":["cp","nocrits","nodmgspread","uncletopia"],"game_id":440,"stv_port":27016,"stv_name":"Uncletopia | Seattle | 1 | All Maps | STV","players":null},{"server_id":119,"name":"Uncletopia | Seattle | 2 | All Maps","name_short":"sea-2","host":"sea-1.us.uncletopia.com","port":27025,"enabled":true,"region":"us-west","cc":"us","latitude":47.608013,"longitude":-122.33517,"reserved":0,"last_update":"0001-01-01T00:00:00Z","name_a2s":"Uncletopia | Seattle | 2 | All Maps","protocol":17,"map":"pl_frontier_final","folder":"tf","game":"Team Fortress","app_id":440,"player_count":0,"max_players":24,"Bots":0,"server_type":"Dedicated","server_os":"Linux","password":true,"vac":true,"version":"7961495","steam_id":85568392924469998,"keywords":["nocrits","nodmgspread","payload","uncletopia"],"game_id":440,"stv_port":27026,"stv_name":"Uncletopia | Seattle | 2 | All Maps | STV","players":null},{"server_id":406,"name":"Uncletopia | Seattle | 3 | Stopwatch","name_short":"sea-3","host":"sea-1.us.uncletopia.com","port":27035,"enabled":true,"region":"us-west","cc":"us","latitude":47.608013,"longitude":-122.33517,"reserved":0,"last_update":"0001-01-01T00:00:00Z","name_a2s":"Uncletopia | Seattle | 3 | Stopwatch","protocol":17,"map":"pl_pier","folder":"tf","game":"Team Fortress","app_id":440,"player_count":0,"max_players":24,"Bots":0,"server_type":"Dedicated","server_os":"Linux","password":true,"vac":true,"version":"7961495","steam_id":85568392924515217,"keywords":["nocrits","nodmgspread","payload","uncletopia"],"game_id":440,"stv_port":27036,"stv_name":"Uncletopia | Seattle | 3 | Stopwatch | STV","players":null},{"server_id":17,"name":"Uncletopia | San Francisco | 1 | All Maps","name_short":"sfo-1","host":"sfo-1.us.uncletopia.com","port":27015,"enabled":true,"region":"us-west","cc":"us","latitude":37.77397,"longitude":-122.4313,"reserved":0,"last_update":"0001-01-01T00:00:00Z","name_a2s":"Uncletopia | San Francisco | 1 | All Maps","protocol":17,"map":"koth_cascade","folder":"tf","game":"Team Fortress","app_id":440,"player_count":0,"max_players":24,"Bots":0,"server_type":"Dedicated","server_os":"Linux","password":true,"vac":true,"version":"7961495","steam_id":85568392924469999,"keywords":["cp","nocrits","nodmgspread","uncletopia"],"game_id":440,"stv_port":27016,"stv_name":"Uncletopia | San Francisco | 1 | All Maps | STV","players":null},{"server_id":18,"name":"Uncletopia | San Francisco | 2 | All Maps","name_short":"sfo-2","host":"sfo-1.us.uncletopia.com","port":27025,"enabled":true,"region":"us-west","cc":"us","latitude":37.77397,"longitude":-122.4313,"reserved":0,"last_update":"0001-01-01T00:00:00Z","name_a2s":"Uncletopia | San Francisco | 2 | All Maps","protocol":17,"map":"pl_frontier_final","folder":"tf","game":"Team Fortress","app_id":440,"player_count":0,"max_players":24,"Bots":0,"server_type":"Dedicated","server_os":"Linux","password":true,"vac":true,"version":"7961495","steam_id":85568392924470000,"keywords":["nocrits","nodmgspread","payload","uncletopia"],"game_id":440,"stv_port":27026,"stv_name":"Uncletopia | San Francisco | 2 | All Maps | STV","players":null},{"server_id":19,"name":"Uncletopia | San Francisco | 3 | Stopwatch","name_short":"sfo-3","host":"sfo-1.us.uncletopia.com","port":27035,"enabled":true,"region":"us-west","cc":"us","latitude":37.77397,"longitude":-122.4313,"reserved":0,"last_update":"0001-01-01T00:00:00Z","name_a2s":"Uncletopia | San Francisco | 3 | Stopwatch","protocol":17,"map":"pl_pier","folder":"tf","game":"Team Fortress","app_id":440,"player_count":0,"max_players":24,"Bots":0,"server_type":"Dedicated","server_os":"Linux","password":true,"vac":true,"version":"7961495","steam_id":85568392924742824,"keywords":["nocrits","nodmgspread","payload","uncletopia"],"game_id":440,"stv_port":27036,"stv_name":"Uncletopia | San Francisco | 3 | Stopwatch | STV","players":null},{"server_id":20,"name":"Uncletopia | San Francisco | 4 | Community","name_short":"sfo-4","host":"sfo-1.us.uncletopia.com","port":27045,"enabled":true,"region":"us-west","cc":"us","latitude":37.77397,"longitude":-122.4313,"reserved":0,"last_update":"0001-01-01T00:00:00Z","name_a2s":"Uncletopia | San Francisco | 4 | Community","protocol":17,"map":"pl_pier","folder":"tf","game":"Team Fortress","app_id":440,"player_count":0,"max_players":24,"Bots":0,"server_type":"Dedicated","server_os":"Linux","password":true,"vac":true,"version":"7961495","steam_id":85568392924742826,"keywords":["nocrits","nodmgspread","payload","uncletopia"],"game_id":440,"stv_port":27046,"stv_name":"Uncletopia | San Francisco | 4 | Community | STV","players":null},{"server_id":141,"name":"Uncletopia | Sydney | 1 | All Maps","name_short":"syd-1","host":"syd-1.au.uncletopia.com","port":27015,"enabled":true,"region":"au","cc":"au","latitude":-33.865143,"longitude":151.2099,"reserved":0,"last_update":"0001-01-01T00:00:00Z","name_a2s":"Uncletopia | Sydney | 1 | All Maps","protocol":17,"map":"pl_pier","folder":"tf","game":"Team Fortress","app_id":440,"player_count":0,"max_players":24,"Bots":0,"server_type":"Dedicated","server_os":"Linux","password":true,"vac":true,"version":"7961495","steam_id":85568392924470001,"keywords":["nocrits","nodmgspread","payload","uncletopia"],"game_id":440,"stv_port":27016,"stv_name":"Uncletopia | Sydney | 1 | All Maps | STV","players":null},{"server_id":123,"name":"Uncletopia | Sydney | 2 | All Maps","name_short":"syd-2","host":"syd-1.au.uncletopia.com","port":27025,"enabled":true,"region":"au","cc":"au","latitude":-33.865143,"longitude":151.2099,"reserved":0,"last_update":"0001-01-01T00:00:00Z","name_a2s":"Uncletopia | Sydney | 2 | All Maps","protocol":17,"map":"pl_pier","folder":"tf","game":"Team Fortress","app_id":440,"player_count":0,"max_players":24,"Bots":0,"server_type":"Dedicated","server_os":"Linux","password":true,"vac":true,"version":"7961495","steam_id":85568392924470002,"keywords":["nocrits","nodmgspread","payload","uncletopia"],"game_id":440,"stv_port":27026,"stv_name":"Uncletopia | Sydney | 2 | All Maps | STV","players":null},{"server_id":395,"name":"Uncletopia | Sydney | 3 | All Maps","name_short":"syd-3","host":"syd-1.au.uncletopia.com","port":27035,"enabled":true,"region":"au","cc":"au","latitude":-33.865143,"longitude":151.2099,"reserved":0,"last_update":"0001-01-01T00:00:00Z","name_a2s":"Uncletopia | Sydney | 3 | All Maps","protocol":17,"map":"cp_process_final","folder":"tf","game":"Team Fortress","app_id":440,"player_count":0,"max_players":24,"Bots":0,"server_type":"Dedicated","server_os":"Linux","password":true,"vac":true,"version":"7961495","steam_id":85568392925194467,"keywords":["cp","nocrits","nodmgspread","uncletopia"],"game_id":440,"stv_port":27036,"stv_name":"Uncletopia | Sydney | 3 | All Maps | STV","players":null},{"server_id":396,"name":"Uncletopia | Sydney | 4 | All Maps","name_short":"syd-4","host":"syd-1.au.uncletopia.com","port":27045,"enabled":true,"region":"au","cc":"au","latitude":-33.865143,"longitude":151.2099,"reserved":0,"last_update":"0001-01-01T00:00:00Z","name_a2s":"Uncletopia | Sydney | 4 | All Maps","protocol":17,"map":"cp_altitude","folder":"tf","game":"Team Fortress","app_id":440,"player_count":0,"max_players":24,"Bots":0,"server_type":"Dedicated","server_os":"Linux","password":true,"vac":true,"version":"7961495","steam_id":85568392925397958,"keywords":["cp","nocrits","nodmgspread","uncletopia"],"game_id":440,"stv_port":27046,"stv_name":"Uncletopia | Sydney | 4 | All Maps | STV","players":null},{"server_id":58,"name":"Uncletopia | Sydney | 5 | Stopwatch","name_short":"syd-5","host":"syd-1.au.uncletopia.com","port":27055,"enabled":true,"region":"au","cc":"au","latitude":-33.865143,"longitude":151.2099,"reserved":0,"last_update":"0001-01-01T00:00:00Z","name_a2s":"Uncletopia | Sydney | 5 | Stopwatch","protocol":17,"map":"cp_gullywash_final1","folder":"tf","game":"Team Fortress","app_id":440,"player_count":0,"max_players":24,"Bots":0,"server_type":"Dedicated","server_os":"Linux","password":true,"vac":true,"version":"7961495","steam_id":85568392925397959,"keywords":["cp","nocrits","nodmgspread","uncletopia"],"game_id":440,"stv_port":27056,"stv_name":"Uncletopia | Sydney | 5 | Stopwatch | STV","players":null},{"server_id":59,"name":"Uncletopia | Sydney | 6 | Community","name_short":"syd-6","host":"syd-1.au.uncletopia.com","port":27065,"enabled":true,"region":"au","cc":"au","latitude":-33.865143,"longitude":151.2099,"reserved":0,"last_update":"0001-01-01T00:00:00Z","name_a2s":"Uncletopia | Sydney | 6 | Community","protocol":17,"map":"cp_sunshine","folder":"tf","game":"Team Fortress","app_id":440,"player_count":0,"max_players":24,"Bots":0,"server_type":"Dedicated","server_os":"Linux","password":true,"vac":true,"version":"7961495","steam_id":85568392925397960,"keywords":["cp","nocrits","nodmgspread","uncletopia"],"game_id":440,"stv_port":27066,"stv_name":"Uncletopia | Sydney | 6 | Community | STV","players":null},{"server_id":49,"name":"Uncletopia | Warsaw | 1 | One Thousand Uncles","name_short":"waw-1","host":"waw-1.pl.uncletopia.com","port":27015,"enabled":true,"region":"eu","cc":"pl","latitude":52.2297,"longitude":21.017532,"reserved":0,"last_update":"0001-01-01T00:00:00Z","name_a2s":"Uncletopia | Warsaw | 1 | One Thousand Uncles","protocol":17,"map":"cp_mossrock","folder":"tf","game":"Team Fortress","app_id":440,"player_count":0,"max_players":32,"Bots":0,"server_type":"Dedicated","server_os":"Linux","password":true,"vac":true,"version":"7961495","steam_id":85568392925397850,"keywords":["alltalk","cp","danepve","increased_maxplayers","nocrits","norespawntime","uncletopia"],"game_id":440,"stv_port":0,"stv_name":"","players":null},{"server_id":50,"name":"Uncletopia | Warsaw | 2 | One Thousand Uncles","name_short":"waw-2","host":"waw-1.pl.uncletopia.com","port":27025,"enabled":true,"region":"eu","cc":"pl","latitude":52.2297,"longitude":21.017532,"reserved":0,"last_update":"0001-01-01T00:00:00Z","name_a2s":"Uncletopia | Warsaw | 2 | One Thousand Uncles","protocol":17,"map":"cp_egypt_final","folder":"tf","game":"Team Fortress","app_id":440,"player_count":32,"max_players":32,"Bots":16,"server_type":"Dedicated","server_os":"Linux","password":true,"vac":true,"version":"7961495","steam_id":85568392925397851,"keywords":["alltalk","bots","cp","danepve","increased_maxplayers","nocrits","norespawntime","uncletopia"],"game_id":440,"stv_port":0,"stv_name":"","players":[{"user_id":465,"name":"Pixar Cars on the PS2","steam_id":76561198079386295,"connected_time":987000000000,"state":"active","ping":67},{"user_id":411,"name":"dank pank","steam_id":76561198995052713,"connected_time":3241000000000,"state":"active","ping":81},{"user_id":389,"name":"Nuq","steam_id":76561198067257865,"connected_time":4935000000000,"state":"active","ping":35},{"user_id":396,"name":"puffy","steam_id":76561198411347037,"connected_time":4451000000000,"state":"active","ping":156},{"user_id":467,"name":"who_dis?","steam_id":76561199156798560,"connected_time":828000000000,"state":"active","ping":165},{"user_id":468,"name":"The Troglodyte","steam_id":76561199119744358,"connected_time":785000000000,"state":"active","ping":78},{"user_id":479,"name":"A Red Brick","steam_id":76561198317522580,"connected_time":123000000000,"state":"active","ping":103},{"user_id":481,"name":"caramel‚ù§","steam_id":76561198819353867,"connected_time":34000000000,"state":"active","ping":70},{"user_id":435,"name":"Kotlet schabowy","steam_id":76561198048983509,"connected_time":2650000000000,"state":"active","ping":44},{"user_id":477,"name":"Loo32","steam_id":76561199094568704,"connected_time":188000000000,"state":"active","ping":70},{"user_id":442,"name":"ruffeeh","steam_id":76561197995517185,"connected_time":1371000000000,"state":"active","ping":59},{"user_id":471,"name":"failed poet","steam_id":76561198987041283,"connected_time":488000000000,"state":"active","ping":70},{"user_id":449,"name":"Knaifu","steam_id":76561199153871657,"connected_time":1111000000000,"state":"active","ping":164},{"user_id":439,"name":"Major Suchodolski","steam_id":76561198088919990,"connected_time":1599000000000,"state":"active","ping":42},{"user_id":480,"name":"Tispy","steam_id":76561199207410049,"connected_time":40000000000,"state":"active","ping":83},{"user_id":476,"name":"Sharque","steam_id":76561198979021760,"connected_time":233000000000,"state":"active","ping":60}]},{"server_id":51,"name":"Uncletopia | Warsaw | 3 | All Maps","name_short":"waw-3","host":"waw-1.pl.uncletopia.com","port":27035,"enabled":true,"region":"eu","cc":"pl","latitude":52.2297,"longitude":21.017532,"reserved":0,"last_update":"0001-01-01T00:00:00Z","name_a2s":"Uncletopia | Warsaw | 3 | All Maps","protocol":17,"map":"plr_pipeline","folder":"tf","game":"Team Fortress","app_id":440,"player_count":0,"max_players":24,"Bots":0,"server_type":"Dedicated","server_os":"Linux","password":true,"vac":true,"version":"7961495","steam_id":85568392925397852,"keywords":["nocrits","nodmgspread","payload","uncletopia"],"game_id":440,"stv_port":27036,"stv_name":"Uncletopia | Warsaw | 3 | All Maps | STV","players":null},{"server_id":52,"name":"Uncletopia | Warsaw | 4 | All Maps","name_short":"waw-4","host":"waw-1.pl.uncletopia.com","port":27045,"enabled":true,"region":"eu","cc":"pl","latitude":52.2297,"longitude":21.017532,"reserved":0,"last_update":"0001-01-01T00:00:00Z","name_a2s":"Uncletopia | Warsaw | 4 | All Maps","protocol":17,"map":"koth_highpass","folder":"tf","game":"Team Fortress","app_id":440,"player_count":3,"max_players":24,"Bots":0,"server_type":"Dedicated","server_os":"Linux","password":true,"vac":true,"version":"7961495","steam_id":85568392925397853,"keywords":["cp","nocrits","nodmgspread","uncletopia"],"game_id":440,"stv_port":27046,"stv_name":"Uncletopia | Warsaw | 4 | All Maps | STV","players":[{"user_id":9,"name":"Victor The Idiot","steam_id":76561199153803483,"connected_time":3005000000000,"state":"active","ping":38},{"user_id":10,"name":"Jakub","steam_id":76561199135511094,"connected_time":2927000000000,"state":"active","ping":39},{"user_id":11,"name":"ZharMeny","steam_id":76561199086841610,"connected_time":2876000000000,"state":"active","ping":101}]},{"server_id":53,"name":"Uncletopia | Warsaw | 5 | Stopwatch","name_short":"waw-5","host":"waw-1.pl.uncletopia.com","port":27055,"enabled":true,"region":"eu","cc":"pl","latitude":52.2297,"longitude":21.017532,"reserved":0,"last_update":"0001-01-01T00:00:00Z","name_a2s":"Uncletopia | Warsaw | 5 | Stopwatch","protocol":17,"map":"workshop/koth_ramjam_rc1.ugc459778887","folder":"tf","game":"Team Fortress","app_id":440,"player_count":0,"max_players":24,"Bots":0,"server_type":"Dedicated","server_os":"Linux","password":true,"vac":true,"version":"7961495","steam_id":85568392925397854,"keywords":["cp","nocrits","nodmgspread","uncletopia"],"game_id":440,"stv_port":27056,"stv_name":"Uncletopia | Warsaw | 5 | Stopwatch | STV","players":null},{"server_id":54,"name":"Uncletopia | Warsaw | 6 | Community","name_short":"waw-6","host":"waw-1.pl.uncletopia.com","port":27065,"enabled":true,"region":"eu","cc":"pl","latitude":52.2297,"longitude":21.017532,"reserved":0,"last_update":"0001-01-01T00:00:00Z","name_a2s":"Uncletopia | Warsaw | 6 | Community","protocol":17,"map":"workshop/pl_badwater_pro_v12.ugc2142942074","folder":"tf","game":"Team Fortress","app_id":440,"player_count":0,"max_players":24,"Bots":0,"server_type":"Dedicated","server_os":"Linux","password":true,"vac":true,"version":"7961495","steam_id":85568392925397856,"keywords":["nocrits","nodmgspread","payload","uncletopia"],"game_id":440,"stv_port":27066,"stv_name":"Uncletopia | Warsaw | 6 | Community | STV","players":null}]}