{"status":true,"message":"","result":[{"server_id":9,"name":"Uncletopia | Atlanta | 1 | All Maps","name_short":"atl-1","host":"atl-1.us.uncletopia.com","port":27015,"enabled":true,"region":"us-east","cc":"us","latitude":33.753746,"longitude":-84.38633,"reserved":0,"last_update":"0001-01-01T00:00:00Z","name_a2s":"Uncletopia | Atlanta | 1 | All Maps","protocol":17,"map":"koth_cascade","folder":"tf","game":"Team Fortress","app_id":440,"player_count":0,"max_players":24,"Bots":0,"server_type":"Dedicated","server_os":"Linux","password":true,"vac":true,"version":"7723704","steam_id":85568392924469982,"keywords":["cp","nocrits","nodmgspread","uncletopia"],"game_id":440,"stv_port":27016,"stv_name":"Uncletopia | Atlanta | 1 | All Maps | STV","players":null},{"server_id":400,"name":"Uncletopia | Atlanta | 3 | All Maps","name_short":"atl-3","host":"atl-1.us.uncletopia.com","port":27035,"enabled":true,"region":"us-east","cc":"us","latitude":33.753746,"longitude":-84.38633,"reserved":0,"last_update":"0001-01-01T00:00:00Z","name_a2s":"Uncletopia | Atlanta | 3 | All Maps","protocol":17,"map":"cp_sunshine","folder":"tf","game":"Team Fortress","app_id":440,"player_count":0,"max_players":24,"Bots":0,"server_type":"Dedicated","server_os":"Linux","password":true,"vac":true,"version":"7723704","steam_id":85568392924515187,"keywords":["cp","nocrits","nodmgspread","uncletopia"],"game_id":440,"stv_port":27036,"stv_name":"Uncletopia | Atlanta | 3 | All Maps | STV","players":null},{"server_id":401,"name":"Uncletopia | Atlanta | 4 | No Payload","name_short":"atl-4","host":"atl-1.us.uncletopia.com","port":27045,"enabled":true,"region":"us-east","cc":"us","latitude":33.753746,"longitude":-84.38633,"reserved":0,"last_update":"0001-01-01T00:00:00Z","name_a2s":"Uncletopia | Atlanta | 4 | No Payload","protocol":17,"map":"cp_mercenarypark","folder":"tf","game":"Team Fortress","app_id":440,"player_count":0,"max_players":24,"Bots":0,"server_type":"Dedicated","server_os":"Linux","password":true,"vac":true,"version":"7723704","steam_id":85568392924515188,"keywords":["cp","nocrits","nodmgspread","uncletopia"],"game_id":440,"stv_port":27046,"stv_name":"Uncletopia | Atlanta | 4 | No Payload | STV","players":null},{"server_id":2,"name":"Uncletopia | Chicago | 1 | All Maps","name_short":"chi-1","host":"chi-1.us.uncletopia.com","port":27015,"enabled":true,"region":"us-central","cc":"us","latitude":41.881832,"longitude":-87.62318,"reserved":0,"last_update":"0001-01-01T00:00:00Z","name_a2s":"Uncletopia | Chicago | 1 | All Maps","protocol":17,"map":"cp_gorge","folder":"tf","game":"Team Fortress","app_id":440,"player_count":24,"max_players":24,"Bots":0,"server_type":"Dedicated","server_os":"Linux","password":true,"vac":true,"version":"7723704","steam_id":85568392924469984,"keywords":["cp","nocrits","nodmgspread","uncletopia"],"game_id":440,"stv_port":27016,"stv_name":"Uncletopia | Chicago | 1 | All Maps | STV","players":[{"user_id":3,"name":"√íw√ì","steam_id":76561197997304387,"connected_time":13627000000000,"state":"active","ping":67},{"user_id":153,"name":"femboy beats","steam_id":76561199245717718,"connected_time":873000000000,"state":"active","ping":52},{"user_id":127,"name":"Sir Loincloth","steam_id":76561198033073991,"connected_time":3073000000000,"state":"active","ping":75},{"user_id":160,"name":"Catbread","steam_id":76561198145023711,"connected_time":689000000000,"state":"active","ping":55},{"user_id":92,"name":"smeasly","steam_id":76561198028718812,"connected_time":5513000000000,"state":"active","ping":75},{"user_id":133,"name":"Publo","steam_id":76561198161777140,"connected_time":2512000000000,"state":"active","ping":74},{"user_id":163,"name":"Spoof059","steam_id":76561198356116829,"connected_time":84000000000,"state":"active","ping":160},{"user_id":162,"name":"riley","steam_id":76561198133142520,"connected_time":316000000000,"state":"active","ping":92},{"user_id":155,"name":"ButterScotch","steam_id":76561199389314894,"connected_time":860000000000,"state":"active","ping":78},{"user_id":156,"name":"IRAcide","steam_id":76561198236149504,"connected_time":839000000000,"state":"active","ping":97},{"user_id":157,"name":"Dr. WAH","steam_id":76561198297778149,"connected_time":830000000000,"state":"active","ping":180},{"user_id":149,"name":"Le","steam_id":76561198817754233,"connected_time":1279000000000,"state":"active","ping":62},{"user_id":131,"name":"sunrisebanana","steam_id":76561198038764622,"connected_time":2588000000000,"state":"active","ping":54},{"user_id":148,"name":"Dave5744","steam_id":76561198117207566,"connected_time":1662000000000,"state":"active","ping":56},{"user_id":146,"name":"UWBW","steam_id":76561198007524241,"connected_time":1743000000000,"state":"active","ping":61},{"user_id":138,"name":"natedorg","steam_id":76561198036035069,"connected_time":2381000000000,"state":"active","ping":68},{"user_id":114,"name":"King Col","steam_id":76561198033384990,"connected_time":3963000000000,"state":"active","ping":55},{"user_id":161,"name":"Oak","steam_id":76561198092135570,"connected_time":633000000000,"state":"active","ping":60},{"user_id":116,"name":"Five","steam_id":76561198026640473,"connected_time":3911000000000,"state":"active","ping":65},{"user_id":77,"name":"Spinch","steam_id":76561198296224166,"connected_time":7185000000000,"state":"active","ping":93},{"user_id":147,"name":"Squatchamo","steam_id":76561198012968239,"connected_time":1733000000000,"state":"active","ping":75},{"user_id":120,"name":"Quansen","steam_id":76561198151594550,"connected_time":3736000000000,"state":"active","ping":54},{"user_id":154,"name":"bushy","steam_id":76561198138088830,"connected_time":872000000000,"state":"active","ping":76},{"user_id":164,"name":"Drachma","steam_id":76561198007310514,"connected_time":72000000000,"state":"active","ping":52}]},{"server_id":106,"name":"Uncletopia | Chicago | 2 | All Maps","name_short":"chi-2","host":"chi-1.us.uncletopia.com","port":27025,"enabled":true,"region":"us-central","cc":"us","latitude":41.881832,"longitude":-87.62318,"reserved":0,"last_update":"0001-01-01T00:00:00Z","name_a2s":"Uncletopia | Chicago | 2 | All Maps","protocol":17,"map":"cp_mountainlab","folder":"tf","game":"Team Fortress","app_id":440,"player_count":0,"max_players":24,"Bots":0,"server_type":"Dedicated","server_os":"Linux","password":true,"vac":true,"version":"7723704","steam_id":85568392924469985,"keywords":["cp","nocrits","nodmgspread","uncletopia"],"game_id":440,"stv_port":27026,"stv_name":"Uncletopia | Chicago | 2 | All Maps | STV","players":null},{"server_id":402,"name":"Uncletopia | Chicago | 3 | All Maps","name_short":"chi-3","host":"chi-1.us.uncletopia.com","port":27035,"enabled":true,"region":"us-central","cc":"us","latitude":41.881832,"longitude":-87.62318,"reserved":0,"last_update":"0001-01-01T00:00:00Z","name_a2s":"Uncletopia | Chicago | 3 | All Maps","protocol":17,"map":"pl_swiftwater_final1","folder":"tf","game":"Team Fortress","app_id":440,"player_count":5,"max_players":24,"Bots":0,"server_type":"Dedicated","server_os":"Linux","password":true,"vac":true,"version":"7723704","steam_id":85568392924515191,"keywords":["nocrits","nodmgspread","payload","uncletopia"],"game_id":440,"stv_port":27036,"stv_name":"Uncletopia | Chicago | 3 | All Maps | STV","players":[{"user_id":6,"name":"Holeintheroof","steam_id":76561198121778217,"connected_time":1730000000000,"state":"active","ping":49},{"user_id":7,"name":"forg","steam_id":76561198090733157,"connected_time":1708000000000,"state":"active","ping":91},{"user_id":8,"name":"Alexsuperfly","steam_id":76561198012542009,"connected_time":1699000000000,"state":"active","ping":70},{"user_id":9,"name":"Tele Co","steam_id":76561198041909269,"connected_time":1245000000000,"state":"active","ping":89},{"user_id":13,"name":"the hungry","steam_id":76561197979090955,"connected_time":427000000000,"state":"active","ping":89}]},{"server_id":403,"name":"Uncletopia | Chicago | 4 | All Maps","name_short":"chi-4","host":"chi-1.us.uncletopia.com","port":27045,"enabled":true,"region":"us-central","cc":"us","latitude":41.881832,"longitude":-87.62318,"reserved":0,"last_update":"0001-01-01T00:00:00Z","name_a2s":"Uncletopia | Chicago | 4 | All Maps","protocol":17,"map":"cp_mossrock","folder":"tf","game":"Team Fortress","app_id":440,"player_count":24,"max_players":24,"Bots":0,"server_type":"Dedicated","server_os":"Linux","password":true,"vac":true,"version":"7723704","steam_id":85568392924515193,"keywords":["cp","nocrits","nodmgspread","uncletopia"],"game_id":440,"stv_port":27046,"stv_name":"Uncletopia | Chicago | 4 | All Maps | STV","players":[{"user_id":218,"name":"Tactical Glizzy","steam_id":76561198153297302,"connected_time":1684000000000,"state":"active","ping":45},{"user_id":212,"name":"kiwiichie ‚Çç·ê¢·ê¢‚Çé","steam_id":76561198315449521,"connected_time":2057000000000,"state":"active","ping":81},{"user_id":219,"name":"WiDam","steam_id":76561198005976631,"connected_time":1620000000000,"state":"active","ping":76},{"user_id":235,"name":"Harrkilla","steam_id":76561198262710944,"connected_time":593000000000,"state":"active","ping":72},{"user_id":233,"name":"kolbeinnskagfjord","steam_id":76561199270894004,"connected_time":685000000000,"state":"active","ping":168},{"user_id":240,"name":"A Fruit","steam_id":76561198951830050,"connected_time":485000000000,"state":"active","ping":60},{"user_id":236,"name":"Hindmost","steam_id":76561199081837220,"connected_time":575000000000,"state":"active","ping":115},{"user_id":237,"name":"Dusenedezi","steam_id":76561198167133541,"connected_time":571000000000,"state":"active","ping":181},{"user_id":216,"name":"CHI CHI","steam_id":76561198210322871,"connected_time":1904000000000,"state":"active","ping":105},{"user_id":213,"name":"smugdoug","steam_id":76561198021381678,"connected_time":2019000000000,"state":"active","ping":66},{"user_id":165,"name":"Strangetamer","steam_id":76561197996716051,"connected_time":5185000000000,"state":"active","ping":78},{"user_id":238,"name":"Sqiddwr","steam_id":76561197998071622,"connected_time":548000000000,"state":"active","ping":85},{"user_id":217,"name":"nolife","steam_id":76561198414300607,"connected_time":1787000000000,"state":"active","ping":97},{"user_id":242,"name":"Uncle Majic the Hip Hop Magicia","steam_id":76561198107924303,"connected_time":22000000000,"state":"active","ping":50},{"user_id":221,"name":"BioWeapons","steam_id":76561199038566105,"connected_time":1575000000000,"state":"active","ping":122},{"user_id":211,"name":"EPICAlbert777","steam_id":76561198093718909,"connected_time":2148000000000,"state":"active","ping":83},{"user_id":231,"name":"Billosky Time Lord","steam_id":76561199159626560,"connected_time":730000000000,"state":"active","ping":156},{"user_id":230,"name":"footoftheday","steam_id":76561198052712449,"connected_time":754000000000,"state":"active","ping":66},{"user_id":200,"name":"Carson","steam_id":76561198076771071,"connected_time":3357000000000,"state":"active","ping":48},{"user_id":223,"name":"‡πá","steam_id":76561199372405984,"connected_time":1552000000000,"state":"active","ping":98},{"user_id":197,"name":"SMT III Gaming","steam_id":76561198120536505,"connected_time":3670000000000,"state":"active","ping":61},{"user_id":241,"name":"Rear Admiral Crunch","steam_id":76561198020007558,"connected_time":479000000000,"state":"active","ping":69},{"user_id":224,"name":"Teidan","steam_id":76561198391486271,"connected_time":1538000000000,"state":"active","ping":76},{"user_id":205,"name":"katryna","steam_id":76561198023440304,"connected_time":2824000000000,"state":"active","ping":55}]},{"server_id":36,"name":"Uncletopia | Chicago | 5 | All Maps","name_short":"chi-5","host":"chi-2.us.uncletopia.com","port":27015,"enabled":true,"region":"us-central","cc":"us","latitude":41.881832,"longitude":-87.62318,"reserved":0,"last_update":"0001-01-01T00:00:00Z","name_a2s":"Uncletopia | Chicago | 5 | All Maps","protocol":17,"map":"koth_cascade","folder":"tf","game":"Team Fortress","app_id":440,"player_count":0,"max_players":24,"Bots":0,"server_type":"Dedicated","server_os":"Linux","password":true,"vac":true,"version":"7723704","steam_id":85568392924866362,"keywords":["cp","nocrits","nodmgspread","uncletopia"],"game_id":440,"stv_port":27016,"stv_name":"Uncletopia | Chicago | 5 | All Maps | STV","players":null},{"server_id":37,"name":"Uncletopia | Chicago | 6 | All Maps","name_short":"chi-6","host":"chi-2.us.uncletopia.com","port":27025,"enabled":true,"region":"us-central","cc":"us","latitude":41.881832,"longitude":-87.62318,"reserved":0,"last_update":"0001-01-01T00:00:00Z","name_a2s":"Uncletopia | Chicago | 6 | All Maps","protocol":17,"map":"cp_altitude","folder":"tf","game":"Team Fortress","app_id":440,"player_count":0,"max_players":24,"Bots":0,"server_type":"Dedicated","server_os":"Linux","password":true,"vac":true,"version":"7723704","steam_id":85568392924866363,"keywords":["cp","nocrits","nodmgspread","uncletopia"],"game_id":440,"stv_port":27026,"stv_name":"Uncletopia | Chicago | 6 | All Maps | STV","players":null},{"server_id":38,"name":"Uncletopia | Chicago | 7 | Stopwatch (test)","name_short":"chi-7","host":"chi-2.us.uncletopia.com","port":27035,"enabled":true,"region":"us-central","cc":"us","latitude":41.881832,"longitude":-87.62318,"reserved":0,"last_update":"0001-01-01T00:00:00Z","name_a2s":"Uncletopia | Chicago | 7 | Stopwatch (test)","protocol":17,"map":"pl_upward","folder":"tf","game":"Team Fortress","app_id":440,"player_count":0,"max_players":24,"Bots":0,"server_type":"Dedicated","server_os":"Linux","password":true,"vac":true,"version":"7723704","steam_id":85568392924866364,"keywords":["nocrits","nodmgspread","payload","uncletopia"],"game_id":440,"stv_port":27036,"stv_name":"Uncletopia | Chicago | 7 | Stopwatch (test) | STV","players":null},{"server_id":39,"name":"Uncletopia | Chicago | 8 | Community","name_short":"chi-8","host":"chi-2.us.uncletopia.com","port":27045,"enabled":true,"region":"us-central","cc":"us","latitude":41.881832,"longitude":-87.62318,"reserved":0,"last_update":"0001-01-01T00:00:00Z","name_a2s":"Uncletopia | Chicago | 8 | Community","protocol":17,"map":"pl_frontier_final","folder":"tf","game":"Team Fortress","app_id":440,"player_count":0,"max_players":24,"Bots":0,"server_type":"Dedicated","server_os":"Linux","password":true,"vac":true,"version":"7723704","steam_id":85568392924866365,"keywords":["nocrits","nodmgspread","payload","uncletopia"],"game_id":440,"stv_port":27046,"stv_name":"Uncletopia | Chicago | 8 | Community | STV","players":null},{"server_id":8,"name":"Uncletopia | Dallas | 1 | All Maps","name_short":"dal-1","host":"dal-1.us.uncletopia.com","port":27015,"enabled":true,"region":"us-central","cc":"us","latitude":32.779167,"longitude":-96.80889,"reserved":0,"last_update":"0001-01-01T00:00:00Z","name_a2s":"Uncletopia | Dallas | 1 | All Maps","protocol":17,"map":"cp_mountainlab","folder":"tf","game":"Team Fortress","app_id":440,"player_count":24,"max_players":24,"Bots":0,"server_type":"Dedicated","server_os":"Linux","password":true,"vac":true,"version":"7723704","steam_id":85568392924469986,"keywords":["cp","nocrits","nodmgspread","uncletopia"],"game_id":440,"stv_port":27016,"stv_name":"Uncletopia | Dallas | 1 | All Maps | STV","players":[{"user_id":42,"name":"IdiotSamich","steam_id":76561198888722251,"connected_time":4047000000000,"state":"active","ping":45},{"user_id":80,"name":"zinnk","steam_id":76561198092081825,"connected_time":741000000000,"state":"active","ping":91},{"user_id":67,"name":"Yengozi","steam_id":76561198448764748,"connected_time":2014000000000,"state":"active","ping":81},{"user_id":78,"name":"ccog","steam_id":76561198009314845,"connected_time":1044000000000,"state":"active","ping":95},{"user_id":72,"name":"Bunny Hop","steam_id":76561199009743936,"connected_time":1588000000000,"state":"active","ping":116},{"user_id":61,"name":"meat beat mania","steam_id":76561198202273263,"connected_time":2902000000000,"state":"active","ping":61},{"user_id":87,"name":"deno_","steam_id":76561198316520968,"connected_time":171000000000,"state":"active","ping":167},{"user_id":71,"name":"Daft Tigers","steam_id":76561198081871942,"connected_time":1590000000000,"state":"active","ping":130},{"user_id":86,"name":"Raxputin","steam_id":76561198353395519,"connected_time":286000000000,"state":"active","ping":181},{"user_id":79,"name":"Turnups","steam_id":76561199078299198,"connected_time":748000000000,"state":"active","ping":100},{"user_id":20,"name":"Grassman (Cc)","steam_id":76561198026488532,"connected_time":4981000000000,"state":"active","ping":85},{"user_id":26,"name":"Phos","steam_id":76561198122339506,"connected_time":4548000000000,"state":"active","ping":65},{"user_id":62,"name":"Eightyy  Fourr","steam_id":76561197960374225,"connected_time":2697000000000,"state":"active","ping":47},{"user_id":85,"name":"Vestuvian","steam_id":76561199007823355,"connected_time":317000000000,"state":"active","ping":74},{"user_id":83,"name":"AceofSpadesCard","steam_id":76561197992403458,"connected_time":393000000000,"state":"active","ping":71},{"user_id":53,"name":"Phosu","steam_id":76561198180162801,"connected_time":3574000000000,"state":"active","ping":67},{"user_id":82,"name":"General French","steam_id":76561198321617148,"connected_time":555000000000,"state":"active","ping":78},{"user_id":90,"name":"swat aaa","steam_id":76561199099843307,"connected_time":118000000000,"state":"active","ping":59},{"user_id":54,"name":"Mythical Lag","steam_id":76561198347031281,"connected_time":3545000000000,"state":"active","ping":46},{"user_id":55,"name":"ÊºÇ‰∫ÆÂ§©","steam_id":76561198098455330,"connected_time":3544000000000,"state":"active","ping":79},{"user_id":56,"name":"Kile9459‚Ñ¢,Certified Rock Eate","steam_id":76561198059010618,"connected_time":3533000000000,"state":"active","ping":100},{"user_id":57,"name":"Marx Mead Weber Durkheim du Boi","steam_id":76561198075131413,"connected_time":3524000000000,"state":"active","ping":65},{"user_id":75,"name":"Django","steam_id":76561197971158403,"connected_time":1535000000000,"state":"active","ping":89},{"user_id":89,"name":"Dispenser Diff","steam_id":76561198070380404,"connected_time":151000000000,"state":"active","ping":157}]},{"server_id":108,"name":"Uncletopia | Dallas | 2 | All Maps","name_short":"dal-2","host":"dal-1.us.uncletopia.com","port":27025,"enabled":true,"region":"us-central","cc":"us","latitude":32.779167,"longitude":-96.80889,"reserved":0,"last_update":"0001-01-01T00:00:00Z","name_a2s":"Uncletopia | Dallas | 2 | All Maps","protocol":17,"map":"cp_snakewater_final1","folder":"tf","game":"Team Fortress","app_id":440,"player_count":0,"max_players":24,"Bots":0,"server_type":"Dedicated","server_os":"Linux","password":true,"vac":true,"version":"7723704","steam_id":85568392924469988,"keywords":["cp","nocrits","nodmgspread","uncletopia"],"game_id":440,"stv_port":27026,"stv_name":"Uncletopia | Dallas | 2 | All Maps | STV","players":null},{"server_id":5,"name":"Uncletopia | Frankfurt | 1 | All Maps","name_short":"frk-1","host":"frk-1.de.uncletopia.com","port":27015,"enabled":true,"region":"eu","cc":"de","latitude":50.110924,"longitude":8.682127,"reserved":0,"last_update":"0001-01-01T00:00:00Z","name_a2s":"Uncletopia | Frankfurt | 1 | All Maps","protocol":17,"map":"pl_frontier_final","folder":"tf","game":"Team Fortress","app_id":440,"player_count":23,"max_players":24,"Bots":0,"server_type":"Dedicated","server_os":"Linux","password":true,"vac":true,"version":"7723704","steam_id":85568392924469989,"keywords":["nocrits","nodmgspread","payload","uncletopia"],"game_id":440,"stv_port":27016,"stv_name":"Uncletopia | Frankfurt | 1 | All Maps | STV","players":[{"user_id":182,"name":"bigwish | bmod.tf","steam_id":76561197997859723,"connected_time":1985000000000,"state":"active","ping":66},{"user_id":186,"name":"Ged","steam_id":76561198079288943,"connected_time":1677000000000,"state":"active","ping":112},{"user_id":197,"name":"Packet","steam_id":76561199173195875,"connected_time":1286000000000,"state":"active","ping":94},{"user_id":205,"name":"EnderActually","steam_id":76561199227287180,"connected_time":594000000000,"state":"active","ping":143},{"user_id":204,"name":"Harmes","steam_id":76561197982651301,"connected_time":676000000000,"state":"active","ping":87},{"user_id":107,"name":"Ôº≤ ÔºØ Ôº¢ Ôº¢ Ôº• Ôº≤ Ôº¥","steam_id":76561198134404830,"connected_time":6835000000000,"state":"active","ping":127},{"user_id":199,"name":"Carlo vuvulong","steam_id":76561198097201922,"connected_time":1260000000000,"state":"active","ping":65},{"user_id":206,"name":"pano","steam_id":76561198157446722,"connected_time":476000000000,"state":"active","ping":65},{"user_id":184,"name":"MaximusTheFish","steam_id":76561199025652089,"connected_time":1734000000000,"state":"active","ping":59},{"user_id":189,"name":"JeanCorben","steam_id":76561197965133561,"connected_time":1636000000000,"state":"active","ping":45},{"user_id":207,"name":"Videogamer","steam_id":76561198106012909,"connected_time":467000000000,"state":"active","ping":60},{"user_id":202,"name":"Nuuskis","steam_id":76561198084042012,"connected_time":1086000000000,"state":"active","ping":73},{"user_id":176,"name":"Cippo95","steam_id":76561198255311582,"connected_time":3032000000000,"state":"active","ping":81},{"user_id":122,"name":"Nick","steam_id":76561198036109469,"connected_time":6161000000000,"state":"active","ping":93},{"user_id":156,"name":"Leibeigener","steam_id":76561199275478305,"connected_time":4615000000000,"state":"active","ping":44},{"user_id":196,"name":"where is my egg?","steam_id":76561198172542535,"connected_time":1309000000000,"state":"active","ping":68},{"user_id":192,"name":"Artock","steam_id":76561198808599713,"connected_time":1628000000000,"state":"active","ping":85},{"user_id":203,"name":"Thors","steam_id":76561197968739075,"connected_time":846000000000,"state":"active","ping":50},{"user_id":208,"name":"GodOfGobboz","steam_id":76561198154677956,"connected_time":464000000000,"state":"active","ping":66},{"user_id":209,"name":"The brown part of the banana","steam_id":76561198323425034,"connected_time":446000000000,"state":"active","ping":78},{"user_id":193,"name":"toe eater","steam_id":76561199272782484,"connected_time":1590000000000,"state":"active","ping":61},{"user_id":201,"name":"Acucutl","steam_id":76561198133867096,"connected_time":1174000000000,"state":"active","ping":83},{"user_id":174,"name":"fogings","steam_id":76561198044165284,"connected_time":3203000000000,"state":"active","ping":45}]},{"server_id":110,"name":"Uncletopia | Frankfurt | 2 | All Maps","name_short":"frk-2","host":"frk-1.de.uncletopia.com","port":27025,"enabled":true,"region":"eu","cc":"de","latitude":50.110924,"longitude":8.682127,"reserved":0,"last_update":"0001-01-01T00:00:00Z","name_a2s":"Uncletopia | Frankfurt | 2 | All Maps","protocol":17,"map":"pl_badwater","folder":"tf","game":"Team Fortress","app_id":440,"player_count":24,"max_players":24,"Bots":0,"server_type":"Dedicated","server_os":"Linux","password":true,"vac":true,"version":"7723704","steam_id":85568392924469990,"keywords":["nocrits","nodmgspread","payload","uncletopia"],"game_id":440,"stv_port":27026,"stv_name":"Uncletopia | Frankfurt | 2 | All Maps | STV","players":[{"user_id":420,"name":"Villain from Madagascar 3","steam_id":76561198031573426,"connected_time":914000000000,"state":"active","ping":67},{"user_id":437,"name":"Vince","steam_id":76561199103000131,"connected_time":173000000000,"state":"active","ping":60},{"user_id":331,"name":"rmz.ssj","steam_id":76561198329613930,"connected_time":5283000000000,"state":"active","ping":63},{"user_id":429,"name":"Baconcat","steam_id":76561198079354676,"connected_time":756000000000,"state":"active","ping":103},{"user_id":435,"name":"washed up","steam_id":76561198275742101,"connected_time":282000000000,"state":"active","ping":59},{"user_id":392,"name":"Tryrn","steam_id":76561198075487436,"connected_time":2543000000000,"state":"active","ping":97},{"user_id":321,"name":"r06u3","steam_id":76561198254099253,"connected_time":6113000000000,"state":"active","ping":179},{"user_id":332,"name":"YILK","steam_id":76561198077913307,"connected_time":4984000000000,"state":"active","ping":48},{"user_id":422,"name":"lukethepumpkin","steam_id":76561198204158335,"connected_time":896000000000,"state":"active","ping":137},{"user_id":286,"name":"huge monster cock","steam_id":76561197994492154,"connected_time":7241000000000,"state":"active","ping":73},{"user_id":427,"name":"Umberto Bossi","steam_id":76561198136150267,"connected_time":792000000000,"state":"active","ping":54},{"user_id":411,"name":"Him","steam_id":76561198086400484,"connected_time":1689000000000,"state":"active","ping":73},{"user_id":393,"name":"Teffg","steam_id":76561198274386094,"connected_time":2518000000000,"state":"active","ping":88},{"user_id":424,"name":"Dolcelatte","steam_id":76561198038501770,"connected_time":837000000000,"state":"active","ping":47},{"user_id":425,"name":"Cillian","steam_id":76561199046965320,"connected_time":832000000000,"state":"active","ping":90},{"user_id":426,"name":"cazador","steam_id":76561198123096922,"connected_time":825000000000,"state":"active","ping":105},{"user_id":428,"name":"Littlepip","steam_id":76561199072201806,"connected_time":785000000000,"state":"active","ping":122},{"user_id":439,"name":"Alfred2.2","steam_id":76561198339314744,"connected_time":64000000000,"state":"active","ping":53},{"user_id":390,"name":"ViktorYoshi","steam_id":76561199157555246,"connected_time":2635000000000,"state":"active","ping":60},{"user_id":413,"name":"ReDsinat0r","steam_id":76561198365973345,"connected_time":1666000000000,"state":"active","ping":81},{"user_id":438,"name":"Combat Wombat","steam_id":76561197994720068,"connected_time":146000000000,"state":"active","ping":66},{"user_id":432,"name":"kanekape","steam_id":76561198202266905,"connected_time":637000000000,"state":"active","ping":90},{"user_id":326,"name":"nedilya","steam_id":76561198039692077,"connected_time":5605000000000,"state":"active","ping":55},{"user_id":434,"name":"don kulfon","steam_id":76561198004234801,"connected_time":506000000000,"state":"active","ping":63}]},{"server_id":308,"name":"Uncletopia | Frankfurt | 3 | All Maps","name_short":"frk-3","host":"frk-1.de.uncletopia.com","port":27035,"enabled":true,"region":"eu","cc":"de","latitude":50.110924,"longitude":8.682127,"reserved":0,"last_update":"0001-01-01T00:00:00Z","name_a2s":"Uncletopia | Frankfurt | 3 | All Maps","protocol":17,"map":"pl_barnblitz","folder":"tf","game":"Team Fortress","app_id":440,"player_count":24,"max_players":24,"Bots":0,"server_type":"Dedicated","server_os":"Linux","password":true,"vac":true,"version":"7723704","steam_id":85568392924504274,"keywords":["nocrits","nodmgspread","payload","uncletopia"],"game_id":440,"stv_port":27036,"stv_name":"Uncletopia | Frankfurt | 3 | All Maps | STV","players":[{"user_id":226,"name":"_Snail","steam_id":76561198155992030,"connected_time":6893000000000,"state":"active","ping":66},{"user_id":333,"name":"Jedi Knight","steam_id":76561198039030709,"connected_time":149000000000,"state":"active","ping":52},{"user_id":315,"name":"Ixsus\u003c3","steam_id":76561198094756869,"connected_time":781000000000,"state":"active","ping":54},{"user_id":334,"name":"swueuws","steam_id":76561198020716743,"connected_time":103000000000,"state":"active","ping":49},{"user_id":317,"name":"Opium","steam_id":76561198173520841,"connected_time":755000000000,"state":"active","ping":110},{"user_id":318,"name":"UNDERLAMA","steam_id":76561198215439991,"connected_time":735000000000,"state":"active","ping":108},{"user_id":295,"name":"ùìë :)","steam_id":76561198072809789,"connected_time":2196000000000,"state":"active","ping":61},{"user_id":273,"name":"Toad | Mario Kart Double Dash","steam_id":76561198374881425,"connected_time":3047000000000,"state":"active","ping":72},{"user_id":335,"name":"spejs","steam_id":76561198000513793,"connected_time":93000000000,"state":"active","ping":69},{"user_id":299,"name":"David Penus","steam_id":76561198091245948,"connected_time":1903000000000,"state":"active","ping":55},{"user_id":298,"name":"Larry Penus","steam_id":76561198207546233,"connected_time":2159000000000,"state":"active","ping":58},{"user_id":320,"name":"kalikzek","steam_id":76561198204351320,"connected_time":720000000000,"state":"active","ping":109},{"user_id":276,"name":"kbbq","steam_id":76561198346638308,"connected_time":3029000000000,"state":"active","ping":64},{"user_id":307,"name":"dont mad","steam_id":76561198313244930,"connected_time":1157000000000,"state":"active","ping":58},{"user_id":325,"name":"my ass itches","steam_id":76561199081695697,"connected_time":608000000000,"state":"active","ping":71},{"user_id":322,"name":"0","steam_id":76561198148642872,"connected_time":710000000000,"state":"active","ping":89},{"user_id":303,"name":"tallen","steam_id":76561198061708595,"connected_time":1435000000000,"state":"active","ping":81},{"user_id":323,"name":"Celty nii‚Äìchan","steam_id":76561199001431715,"connected_time":691000000000,"state":"active","ping":76},{"user_id":306,"name":"Itai","steam_id":76561198804555329,"connected_time":1219000000000,"state":"active","ping":114},{"user_id":296,"name":"Eing","steam_id":76561198253125820,"connected_time":2172000000000,"state":"active","ping":80},{"user_id":324,"name":"Espa√±aa","steam_id":76561198879587832,"connected_time":683000000000,"state":"active","ping":86},{"user_id":332,"name":"ColdFun","steam_id":76561198818029816,"connected_time":435000000000,"state":"active","ping":110},{"user_id":300,"name":"F1-M","steam_id":76561198198409875,"connected_time":1563000000000,"state":"active","ping":130},{"user_id":312,"name":"INKA","steam_id":76561197998410913,"connected_time":1027000000000,"state":"active","ping":87}]},{"server_id":309,"name":"Uncletopia | Frankfurt | 4 | All Maps","name_short":"frk-4","host":"frk-1.de.uncletopia.com","port":27045,"enabled":true,"region":"eu","cc":"de","latitude":50.110924,"longitude":8.682127,"reserved":0,"last_update":"0001-01-01T00:00:00Z","name_a2s":"Uncletopia | Frankfurt | 4 | All Maps","protocol":17,"map":"cp_altitude","folder":"tf","game":"Team Fortress","app_id":440,"player_count":9,"max_players":24,"Bots":0,"server_type":"Dedicated","server_os":"Linux","password":true,"vac":true,"version":"7723704","steam_id":85568392924504275,"keywords":["cp","nocrits","nodmgspread","uncletopia"],"game_id":440,"stv_port":27046,"stv_name":"Uncletopia | Frankfurt | 4 | All Maps | STV","players":[{"user_id":14,"name":"Sir.Heart","steam_id":76561198098318962,"connected_time":445000000000,"state":"active","ping":58},{"user_id":8,"name":"LordTrap.exe","steam_id":76561198318089716,"connected_time":980000000000,"state":"active","ping":59},{"user_id":11,"name":"your_local_penguin","steam_id":76561199224954346,"connected_time":594000000000,"state":"active","ping":81},{"user_id":12,"name":"Jovy Kujoh","steam_id":76561198410598772,"connected_time":527000000000,"state":"active","ping":44},{"user_id":19,"name":"fas2roger","steam_id":76561198199226627,"connected_time":46000000000,"state":"active","ping":79},{"user_id":15,"name":"Sochin","steam_id":76561198967412865,"connected_time":294000000000,"state":"active","ping":58},{"user_id":16,"name":"Alfiine","steam_id":76561198206082887,"connected_time":290000000000,"state":"active","ping":59},{"user_id":20,"name":"Fdhou‚ò≠","steam_id":76561198881020399,"connected_time":35000000000,"state":"active","ping":359},{"user_id":18,"name":"FliggerFlitt","steam_id":76561198147711035,"connected_time":152000000000,"state":"active","ping":61}]},{"server_id":310,"name":"Uncletopia | Frankfurt | 5 | All Maps","name_short":"frk-5","host":"frk-1.de.uncletopia.com","port":27055,"enabled":true,"region":"eu","cc":"de","latitude":50.110924,"longitude":8.682127,"reserved":0,"last_update":"0001-01-01T00:00:00Z","name_a2s":"Uncletopia | Frankfurt | 5 | All Maps","protocol":17,"map":"pl_pier","folder":"tf","game":"Team Fortress","app_id":440,"player_count":24,"max_players":24,"Bots":0,"server_type":"Dedicated","server_os":"Linux","password":true,"vac":true,"version":"7723704","steam_id":85568392924504277,"keywords":["nocrits","nodmgspread","payload","uncletopia"],"game_id":440,"stv_port":27056,"stv_name":"Uncletopia | Frankfurt | 5 | All Maps | STV","players":[{"user_id":222,"name":"Yelowchy","steam_id":76561198199416121,"connected_time":944000000000,"state":"active","ping":110},{"user_id":191,"name":"Wujek Cacek","steam_id":76561198010267943,"connected_time":2807000000000,"state":"active","ping":68},{"user_id":216,"name":"lettuce at 58p","steam_id":76561199401283123,"connected_time":1687000000000,"state":"active","ping":55},{"user_id":185,"name":"Izzermann","steam_id":76561199100131945,"connected_time":3701000000000,"state":"active","ping":52},{"user_id":207,"name":"Milosz52","steam_id":76561199060940204,"connected_time":2044000000000,"state":"active","ping":76},{"user_id":197,"name":":)","steam_id":76561198103988618,"connected_time":2626000000000,"state":"active","ping":74},{"user_id":218,"name":".EXE","steam_id":76561198197246753,"connected_time":1231000000000,"state":"active","ping":83},{"user_id":221,"name":"Princess Fuzz","steam_id":76561198025783000,"connected_time":1013000000000,"state":"active","ping":59},{"user_id":211,"name":"Senshi","steam_id":76561198074463902,"connected_time":1989000000000,"state":"active","ping":106},{"user_id":219,"name":"Use The Finger","steam_id":76561198050203563,"connected_time":1155000000000,"state":"active","ping":73},{"user_id":201,"name":"Maxmen","steam_id":76561198188541510,"connected_time":2364000000000,"state":"active","ping":135},{"user_id":215,"name":"Sylbar","steam_id":76561198065379590,"connected_time":1869000000000,"state":"active","ping":66},{"user_id":163,"name":"Tanza -","steam_id":76561197961335217,"connected_time":5293000000000,"state":"active","ping":62},{"user_id":161,"name":"KAZAM | Tervez","steam_id":76561198045459068,"connected_time":5428000000000,"state":"active","ping":90},{"user_id":217,"name":"The 4th Doctor","steam_id":76561198191516706,"connected_time":1528000000000,"state":"active","ping":61},{"user_id":205,"name":"bind m1 \"+attack;kill\"","steam_id":76561198093290934,"connected_time":2139000000000,"state":"active","ping":59},{"user_id":206,"name":"Rohlc","steam_id":76561199056443047,"connected_time":2097000000000,"state":"active","ping":42},{"user_id":223,"name":"Wolffy","steam_id":76561198307263273,"connected_time":919000000000,"state":"active","ping":71},{"user_id":224,"name":"Bones","steam_id":76561198065081225,"connected_time":699000000000,"state":"active","ping":56},{"user_id":213,"name":"Such XD","steam_id":76561198129454909,"connected_time":1979000000000,"state":"active","ping":72},{"user_id":214,"name":"jt7","steam_id":76561198073655162,"connected_time":1976000000000,"state":"active","ping":68},{"user_id":204,"name":"gatherer","steam_id":76561198378235611,"connected_time":2218000000000,"state":"active","ping":67},{"user_id":202,"name":"MiGGo","steam_id":76561198041645362,"connected_time":2347000000000,"state":"active","ping":86},{"user_id":228,"name":"xristosblin","steam_id":76561199043074852,"connected_time":524000000000,"state":"active","ping":84}]},{"server_id":311,"name":"Uncletopia | Frankfurt | 6 | All Maps","name_short":"frk-6","host":"frk-1.de.uncletopia.com","port":27065,"enabled":true,"region":"eu","cc":"de","latitude":50.110924,"longitude":8.682127,"reserved":0,"last_update":"0001-01-01T00:00:00Z","name_a2s":"Uncletopia | Frankfurt | 6 | All Maps","protocol":17,"map":"pl_borneo","folder":"tf","game":"Team Fortress","app_id":440,"player_count":24,"max_players":24,"Bots":0,"server_type":"Dedicated","server_os":"Linux","password":true,"vac":true,"version":"7723704","steam_id":85568392924504278,"keywords":["nocrits","nodmgspread","payload","uncletopia"],"game_id":440,"stv_port":27066,"stv_name":"Uncletopia | Frankfurt | 6 | All Maps | STV","players":[{"user_id":110,"name":"Qwynt","steam_id":76561198365883029,"connected_time":628000000000,"state":"active","ping":63},{"user_id":116,"name":"QuantumRange","steam_id":76561198435576260,"connected_time":460000000000,"state":"active","ping":51},{"user_id":109,"name":"Nyanzey","steam_id":76561198872362188,"connected_time":639000000000,"state":"active","ping":47},{"user_id":75,"name":"Vezage","steam_id":76561198064916164,"connected_time":3539000000000,"state":"active","ping":81},{"user_id":111,"name":"sharkmax12312","steam_id":76561198996008569,"connected_time":621000000000,"state":"active","ping":71},{"user_id":112,"name":"Redmailbox","steam_id":76561198042930322,"connected_time":588000000000,"state":"active","ping":63},{"user_id":37,"name":"Nix (they/them)","steam_id":76561198150006573,"connected_time":5033000000000,"state":"active","ping":71},{"user_id":121,"name":"advanced polish lifeform","steam_id":76561198062107879,"connected_time":217000000000,"state":"active","ping":82},{"user_id":108,"name":"G6 sherlock","steam_id":76561198802967796,"connected_time":864000000000,"state":"active","ping":121},{"user_id":39,"name":"1 month Big Earner challenge","steam_id":76561198799097492,"connected_time":4999000000000,"state":"active","ping":45},{"user_id":106,"name":"heisenballs","steam_id":76561198846784757,"connected_time":1046000000000,"state":"active","ping":66},{"user_id":113,"name":"Chloride","steam_id":76561198321197597,"connected_time":574000000000,"state":"active","ping":41},{"user_id":83,"name":"Oak","steam_id":76561198248567360,"connected_time":2936000000000,"state":"active","ping":50},{"user_id":122,"name":"LasagnaLarry22","steam_id":76561198089478290,"connected_time":196000000000,"state":"active","ping":56},{"user_id":95,"name":"Luke SpyWalker","steam_id":76561198008643276,"connected_time":1570000000000,"state":"active","ping":60},{"user_id":114,"name":"gamer man","steam_id":76561198436817109,"connected_time":561000000000,"state":"active","ping":73},{"user_id":96,"name":"Ciaguta_rolex","steam_id":76561198046709588,"connected_time":1462000000000,"state":"active","ping":68},{"user_id":123,"name":"david.klemen","steam_id":76561198382246222,"connected_time":16000000000,"state":"spawning","ping":71},{"user_id":103,"name":"Femboy Lilli","steam_id":76561198090146457,"connected_time":1295000000000,"state":"active","ping":53},{"user_id":94,"name":"it just ain't fair","steam_id":76561198418538887,"connected_time":1624000000000,"state":"active","ping":94},{"user_id":60,"name":"üÉî Nugg1t(sme/lly)","steam_id":76561198065652251,"connected_time":4348000000000,"state":"active","ping":44},{"user_id":80,"name":"Brainlet","steam_id":76561198862617163,"connected_time":3430000000000,"state":"active","ping":64},{"user_id":99,"name":"lulu","steam_id":76561199147764133,"connected_time":1373000000000,"state":"active","ping":61},{"user_id":115,"name":"superatonto123","steam_id":76561198424363858,"connected_time":554000000000,"state":"active","ping":84}]},{"server_id":23,"name":"Uncletopia | Frankfurt | 7 | No Payload","name_short":"frk-7","host":"frk-1.de.uncletopia.com","port":27075,"enabled":true,"region":"eu","cc":"de","latitude":50.110924,"longitude":8.682127,"reserved":0,"last_update":"0001-01-01T00:00:00Z","name_a2s":"Uncletopia | Frankfurt | 7 | No Payload","protocol":17,"map":"cp_mountainlab","folder":"tf","game":"Team Fortress","app_id":440,"player_count":0,"max_players":24,"Bots":0,"server_type":"Dedicated","server_os":"Linux","password":true,"vac":true,"version":"7723704","steam_id":85568392924742827,"keywords":["cp","nocrits","nodmgspread","uncletopia"],"game_id":440,"stv_port":27076,"stv_name":"Uncletopia | Frankfurt | 7 | No Payload | STV","players":null},{"server_id":24,"name":"Uncletopia | Frankfurt | 8 | Community","name_short":"frk-8","host":"frk-1.de.uncletopia.com","port":27085,"enabled":true,"region":"eu","cc":"de","latitude":50.110924,"longitude":8.682127,"reserved":0,"last_update":"0001-01-01T00:00:00Z","name_a2s":"Uncletopia | Frankfurt | 8 | Community","protocol":17,"map":"workshop/koth_slaughter_rc1.ugc1712845210","folder":"tf","game":"Team Fortress","app_id":440,"player_count":0,"max_players":24,"Bots":0,"server_type":"Dedicated","server_os":"Linux","password":true,"vac":true,"version":"7723704","steam_id":85568392924742828,"keywords":["cp","nocrits","nodmgspread","uncletopia"],"game_id":440,"stv_port":27086,"stv_name":"Uncletopia | Frankfurt | 8 | Community | STV","players":null},{"server_id":202,"name":"Uncletopia | Hong Kong | 1 | All Maps","name_short":"hgk-1","host":"hgk-1.hk.uncletopia.com","port":27015,"enabled":true,"region":"asia","cc":"hk","latitude":22.302711,"longitude":114.177216,"reserved":0,"last_update":"0001-01-01T00:00:00Z","name_a2s":"Uncletopia | Hong Kong | 1 | All Maps","protocol":17,"map":"koth_highpass","folder":"tf","game":"Team Fortress","app_id":440,"player_count":0,"max_players":24,"Bots":0,"server_type":"Dedicated","server_os":"Linux","password":true,"vac":true,"version":"7723704","steam_id":85568392924494504,"keywords":["cp","nocrits","nodmgspread","uncletopia"],"game_id":440,"stv_port":27016,"stv_name":"Uncletopia | Hong Kong | 1 | All Maps | STV","players":null},{"server_id":1,"name":"Uncletopia | Los Angeles | 1 | All Maps","name_short":"lax-1","host":"lax-1.us.uncletopia.com","port":27015,"enabled":true,"region":"us-west","cc":"us","latitude":33.94279,"longitude":-118.41004,"reserved":0,"last_update":"0001-01-01T00:00:00Z","name_a2s":"Uncletopia | Los Angeles | 1 | All Maps","protocol":17,"map":"pl_borneo","folder":"tf","game":"Team Fortress","app_id":440,"player_count":0,"max_players":24,"Bots":0,"server_type":"Dedicated","server_os":"Linux","password":true,"vac":true,"version":"7723704","steam_id":85568392924469991,"keywords":["nocrits","nodmgspread","payload","uncletopia"],"game_id":440,"stv_port":27016,"stv_name":"Uncletopia | Los Angeles | 1 | All Maps | STV","players":null},{"server_id":112,"name":"Uncletopia | Los Angeles | 2 | All Maps","name_short":"lax-2","host":"lax-1.us.uncletopia.com","port":27025,"enabled":true,"region":"us-west","cc":"us","latitude":33.94279,"longitude":-118.41004,"reserved":0,"last_update":"0001-01-01T00:00:00Z","name_a2s":"Uncletopia | Los Angeles | 2 | All Maps","protocol":17,"map":"pl_pier","folder":"tf","game":"Team Fortress","app_id":440,"player_count":0,"max_players":24,"Bots":0,"server_type":"Dedicated","server_os":"Linux","password":true,"vac":true,"version":"7723704","steam_id":85568392924469992,"keywords":["nocrits","nodmgspread","payload","uncletopia"],"game_id":440,"stv_port":27026,"stv_name":"Uncletopia | Los Angeles | 2 | All Maps | STV","players":null},{"server_id":324,"name":"Uncletopia | Los Angeles | 3 | All Maps","name_short":"lax-3","host":"lax-1.us.uncletopia.com","port":27035,"enabled":true,"region":"us-west","cc":"us","latitude":33.94279,"longitude":-118.41004,"reserved":0,"last_update":"0001-01-01T00:00:00Z","name_a2s":"Uncletopia | Los Angeles | 3 | All Maps","protocol":17,"map":"koth_highpass","folder":"tf","game":"Team Fortress","app_id":440,"player_count":0,"max_players":24,"Bots":0,"server_type":"Dedicated","server_os":"Linux","password":true,"vac":true,"version":"7723704","steam_id":85568392924510198,"keywords":["cp","nocrits","nodmgspread","uncletopia"],"game_id":440,"stv_port":27036,"stv_name":"Uncletopia | Los Angeles | 3 | All Maps | STV","players":null},{"server_id":25,"name":"Uncletopia | Los Angeles | 4 | No Payload","name_short":"lax-4","host":"lax-1.us.uncletopia.com","port":27045,"enabled":true,"region":"us-west","cc":"us","latitude":33.94279,"longitude":-118.41004,"reserved":0,"last_update":"0001-01-01T00:00:00Z","name_a2s":"Uncletopia | Los Angeles | 4 | No Payload","protocol":17,"map":"cp_mountainlab","folder":"tf","game":"Team Fortress","app_id":440,"player_count":0,"max_players":24,"Bots":0,"server_type":"Dedicated","server_os":"Linux","password":true,"vac":true,"version":"7723704","steam_id":85568392924510199,"keywords":["cp","nocrits","nodmgspread","uncletopia"],"game_id":440,"stv_port":27046,"stv_name":"Uncletopia | Los Angeles | 4 | No Payload | STV","players":null},{"server_id":11,"name":"Uncletopia | London | 1 | All Maps","name_short":"lon-1","host":"lon-1.uk.uncletopia.com","port":27015,"enabled":true,"region":"eu","cc":"gb","latitude":51.509865,"longitude":-0.118092,"reserved":0,"last_update":"0001-01-01T00:00:00Z","name_a2s":"Uncletopia | London | 1 | All Maps","protocol":17,"map":"pl_swiftwater_final1","folder":"tf","game":"Team Fortress","app_id":440,"player_count":24,"max_players":24,"Bots":0,"server_type":"Dedicated","server_os":"Linux","password":true,"vac":true,"version":"7723704","steam_id":85568392924367362,"keywords":["nocrits","nodmgspread","payload","uncletopia"],"game_id":440,"stv_port":27016,"stv_name":"Uncletopia | London | 1 | All Maps | STV","players":[{"user_id":192,"name":"Bobo","steam_id":76561198052308399,"connected_time":827000000000,"state":"active","ping":62},{"user_id":196,"name":"Vasko –ñ–∞–±–∞—Ç–∞","steam_id":76561198205475839,"connected_time":670000000000,"state":"active","ping":88},{"user_id":129,"name":"Suspicious Cabin","steam_id":76561198083261198,"connected_time":6820000000000,"state":"active","ping":49},{"user_id":164,"name":"waffle toaster","steam_id":76561198799089628,"connected_time":3134000000000,"state":"active","ping":36},{"user_id":107,"name":"lvl. 50 honkler","steam_id":76561198061688660,"connected_time":8953000000000,"state":"active","ping":110},{"user_id":194,"name":"Bell","steam_id":76561199413517335,"connected_time":738000000000,"state":"active","ping":121},{"user_id":167,"name":"t.tv/sjerruf","steam_id":76561198078434681,"connected_time":3108000000000,"state":"active","ping":53},{"user_id":66,"name":"Hermitcrack","steam_id":76561198149216441,"connected_time":11936000000000,"state":"active","ping":74},{"user_id":189,"name":"SaltyPig","steam_id":76561198213643013,"connected_time":862000000000,"state":"active","ping":56},{"user_id":202,"name":"Zoran Snajper","steam_id":76561198312564061,"connected_time":518000000000,"state":"active","ping":72},{"user_id":186,"name":"Linus Mudrocket","steam_id":76561197979606110,"connected_time":1699000000000,"state":"active","ping":48},{"user_id":199,"name":"Lyle","steam_id":76561198145166845,"connected_time":650000000000,"state":"active","ping":158},{"user_id":183,"name":"nudjura","steam_id":76561198281986139,"connected_time":1978000000000,"state":"active","ping":33},{"user_id":170,"name":"teddy","steam_id":76561198007436837,"connected_time":3102000000000,"state":"active","ping":32},{"user_id":200,"name":"H3O","steam_id":76561198274433723,"connected_time":640000000000,"state":"active","ping":54},{"user_id":147,"name":"kryhu","steam_id":76561198293327713,"connected_time":4374000000000,"state":"active","ping":76},{"user_id":181,"name":"enzo","steam_id":76561198402342561,"connected_time":2084000000000,"state":"active","ping":68},{"user_id":160,"name":"Pau≈Ç√≥","steam_id":76561198286747891,"connected_time":3295000000000,"state":"active","ping":76},{"user_id":171,"name":"Syd","steam_id":76561198020515027,"connected_time":3090000000000,"state":"active","ping":95},{"user_id":188,"name":"sumweeb","steam_id":76561198311624395,"connected_time":1077000000000,"state":"active","ping":42},{"user_id":178,"name":"Medieval Doktor","steam_id":76561198075373362,"connected_time":2733000000000,"state":"active","ping":38},{"user_id":190,"name":"most sane mentalist","steam_id":76561198310095220,"connected_time":857000000000,"state":"active","ping":33},{"user_id":177,"name":"Clitorina","steam_id":76561198077570815,"connected_time":2819000000000,"state":"active","ping":41},{"user_id":204,"name":"a man with a spoon","steam_id":76561198180684423,"connected_time":119000000000,"state":"active","ping":72}]},{"server_id":114,"name":"Uncletopia | London | 2 | All Maps","name_short":"lon-2","host":"lon-1.uk.uncletopia.com","port":27025,"enabled":true,"region":"eu","cc":"gb","latitude":51.509865,"longitude":-0.118092,"reserved":0,"last_update":"0001-01-01T00:00:00Z","name_a2s":"Uncletopia | London | 2 | All Maps","protocol":17,"map":"koth_highpass","folder":"tf","game":"Team Fortress","app_id":440,"player_count":0,"max_players":24,"Bots":0,"server_type":"Dedicated","server_os":"Linux","password":true,"vac":true,"version":"7723704","steam_id":85568392924470941,"keywords":["cp","nocrits","nodmgspread","uncletopia"],"game_id":440,"stv_port":27026,"stv_name":"Uncletopia | London | 2 | All Maps | STV","players":null},{"server_id":320,"name":"Uncletopia | London | 3 | All Maps","name_short":"lon-3","host":"lon-1.uk.uncletopia.com","port":27035,"enabled":true,"region":"eu","cc":"gb","latitude":51.509865,"longitude":-0.118092,"reserved":0,"last_update":"0001-01-01T00:00:00Z","name_a2s":"Uncletopia | London | 3 | All Maps","protocol":17,"map":"pl_barnblitz","folder":"tf","game":"Team Fortress","app_id":440,"player_count":24,"max_players":24,"Bots":0,"server_type":"Dedicated","server_os":"Linux","password":true,"vac":true,"version":"7723704","steam_id":85568392924510192,"keywords":["nocrits","nodmgspread","payload","uncletopia"],"game_id":440,"stv_port":27036,"stv_name":"Uncletopia | London | 3 | All Maps | STV","players":[{"user_id":318,"name":"teona","steam_id":76561198008107656,"connected_time":1730000000000,"state":"active","ping":43},{"user_id":307,"name":"xX_GamingGilf_Xx","steam_id":76561199118876157,"connected_time":2601000000000,"state":"active","ping":59},{"user_id":329,"name":"Serial Designation N","steam_id":76561198260915717,"connected_time":958000000000,"state":"active","ping":156},{"user_id":314,"name":"Horiizunn","steam_id":76561198105572423,"connected_time":1924000000000,"state":"active","ping":51},{"user_id":312,"name":"Kahvi","steam_id":76561198723244199,"connected_time":2053000000000,"state":"active","ping":72},{"user_id":320,"name":"Coca162","steam_id":76561198230656540,"connected_time":1372000000000,"state":"active","ping":36},{"user_id":322,"name":"silicon based life form","steam_id":76561199127121346,"connected_time":1023000000000,"state":"active","ping":47},{"user_id":308,"name":"PagTooth","steam_id":76561199066201887,"connected_time":2597000000000,"state":"active","ping":46},{"user_id":334,"name":"YC Lacus","steam_id":76561199107625942,"connected_time":781000000000,"state":"active","ping":46},{"user_id":330,"name":"Soggoboggo","steam_id":76561199145210786,"connected_time":957000000000,"state":"active","ping":44},{"user_id":313,"name":"Insanitybomb","steam_id":76561198048707708,"connected_time":2018000000000,"state":"active","ping":53},{"user_id":325,"name":"axl","steam_id":76561198991661832,"connected_time":984000000000,"state":"active","ping":69},{"user_id":317,"name":"Mar","steam_id":76561198127633424,"connected_time":1761000000000,"state":"active","ping":72},{"user_id":331,"name":"Timo010","steam_id":76561198832395256,"connected_time":894000000000,"state":"active","ping":72},{"user_id":295,"name":"engineer (1)","steam_id":76561198096097448,"connected_time":3414000000000,"state":"active","ping":49},{"user_id":316,"name":"Dr. Funkenstein","steam_id":76561197977816210,"connected_time":1845000000000,"state":"active","ping":47},{"user_id":328,"name":"NALA","steam_id":76561198039806469,"connected_time":974000000000,"state":"active","ping":79},{"user_id":342,"name":"ÊÅµ„Åø„Çì","steam_id":76561198335087051,"connected_time":186000000000,"state":"active","ping":84},{"user_id":338,"name":"Sanction9216","steam_id":76561198068045887,"connected_time":588000000000,"state":"active","ping":63},{"user_id":343,"name":"BongoSmuggler","steam_id":76561199088987354,"connected_time":14000000000,"state":"spawning","ping":60},{"user_id":336,"name":"TrocheDrewno","steam_id":76561198043662503,"connected_time":760000000000,"state":"active","ping":76},{"user_id":300,"name":"ti ebanutiy?","steam_id":76561198244445226,"connected_time":3183000000000,"state":"active","ping":88},{"user_id":264,"name":"KFC Enjoyer","steam_id":76561198840259819,"connected_time":4554000000000,"state":"active","ping":59},{"user_id":315,"name":"Lods of Emone","steam_id":76561198188642265,"connected_time":1905000000000,"state":"active","ping":47}]},{"server_id":321,"name":"Uncletopia | London | 4 | All Maps","name_short":"lon-4","host":"lon-1.uk.uncletopia.com","port":27045,"enabled":true,"region":"eu","cc":"gb","latitude":51.509865,"longitude":-0.118092,"reserved":0,"last_update":"0001-01-01T00:00:00Z","name_a2s":"Uncletopia | London | 4 | All Maps","protocol":17,"map":"koth_highpass","folder":"tf","game":"Team Fortress","app_id":440,"player_count":0,"max_players":24,"Bots":0,"server_type":"Dedicated","server_os":"Linux","password":true,"vac":true,"version":"7723704","steam_id":85568392924510193,"keywords":["cp","nocrits","nodmgspread","uncletopia"],"game_id":440,"stv_port":27046,"stv_name":"Uncletopia | London | 4 | All Maps | STV","players":null},{"server_id":21,"name":"Uncletopia | London | 5 | All Maps","name_short":"lon-5","host":"lon-1.uk.uncletopia.com","port":27055,"enabled":true,"region":"eu","cc":"gb","latitude":51.509865,"longitude":-0.118092,"reserved":0,"last_update":"0001-01-01T00:00:00Z","name_a2s":"Uncletopia | London | 5 | All Maps","protocol":17,"map":"koth_lakeside_final","folder":"tf","game":"Team Fortress","app_id":440,"player_count":0,"max_players":24,"Bots":0,"server_type":"Dedicated","server_os":"Linux","password":true,"vac":true,"version":"7723704","steam_id":85568392924742829,"keywords":["cp","nocrits","nodmgspread","uncletopia"],"game_id":440,"stv_port":27056,"stv_name":"Uncletopia | London | 5 | All Maps | STV","players":null},{"server_id":22,"name":"Uncletopia | London | 6 | All Maps","name_short":"lon-6","host":"lon-1.uk.uncletopia.com","port":27065,"enabled":true,"region":"eu","cc":"gb","latitude":51.509865,"longitude":-0.118092,"reserved":0,"last_update":"0001-01-01T00:00:00Z","name_a2s":"Uncletopia | London | 6 | All Maps","protocol":17,"map":"cp_altitude","folder":"tf","game":"Team Fortress","app_id":440,"player_count":0,"max_players":24,"Bots":0,"server_type":"Dedicated","server_os":"Linux","password":true,"vac":true,"version":"7723704","steam_id":85568392924742830,"keywords":["cp","nocrits","nodmgspread","uncletopia"],"game_id":440,"stv_port":27066,"stv_name":"Uncletopia | London | 6 | All Maps | STV","players":null},{"server_id":40,"name":"Uncletopia | London | 7 | No Payload","name_short":"lon-7","host":"lon-1.uk.uncletopia.com","port":27075,"enabled":true,"region":"eu","cc":"gb","latitude":51.509865,"longitude":-0.118092,"reserved":0,"last_update":"0001-01-01T00:00:00Z","name_a2s":"Uncletopia | London | 7 | No Payload","protocol":17,"map":"koth_cascade","folder":"tf","game":"Team Fortress","app_id":440,"player_count":0,"max_players":24,"Bots":0,"server_type":"Dedicated","server_os":"Linux","password":true,"vac":true,"version":"7723704","steam_id":85568392924964314,"keywords":["cp","nocrits","nodmgspread","uncletopia"],"game_id":440,"stv_port":27076,"stv_name":"Uncletopia | London | 7 | No Payload | STV","players":null},{"server_id":41,"name":"Uncletopia | London | 8 | Community","name_short":"lon-8","host":"lon-1.uk.uncletopia.com","port":27085,"enabled":true,"region":"eu","cc":"gb","latitude":51.509865,"longitude":-0.118092,"reserved":0,"last_update":"0001-01-01T00:00:00Z","name_a2s":"Uncletopia | London | 8 | Community","protocol":17,"map":"workshop/cp_villa_b19.ugc2113052569","folder":"tf","game":"Team Fortress","app_id":440,"player_count":0,"max_players":24,"Bots":0,"server_type":"Dedicated","server_os":"Linux","password":true,"vac":true,"version":"7723704","steam_id":85568392924964315,"keywords":["cp","nocrits","nodmgspread","uncletopia"],"game_id":440,"stv_port":27086,"stv_name":"Uncletopia | London | 8 | Community | STV","players":null},{"server_id":300,"name":"Uncletopia | Montr√©al | 1 | All Maps","name_short":"mtl-1","host":"mtl-1.ca.uncletopia.com","port":27015,"enabled":true,"region":"us-east","cc":"ca","latitude":45.50889,"longitude":-73.56167,"reserved":0,"last_update":"0001-01-01T00:00:00Z","name_a2s":"Uncletopia | Montr√©al | 1 | All Maps","protocol":17,"map":"cp_altitude","folder":"tf","game":"Team Fortress","app_id":440,"player_count":0,"max_players":24,"Bots":0,"server_type":"Dedicated","server_os":"Linux","password":true,"vac":true,"version":"7723704","steam_id":85568392924500087,"keywords":["cp","nocrits","nodmgspread","uncletopia"],"game_id":440,"stv_port":27016,"stv_name":"Uncletopia | Montr√©al | 1 | All Maps | STV","players":null},{"server_id":301,"name":"Uncletopia | Montr√©al | 2 | All Maps","name_short":"mtl-2","host":"mtl-1.ca.uncletopia.com","port":27025,"enabled":true,"region":"us-east","cc":"ca","latitude":45.50889,"longitude":-73.56167,"reserved":0,"last_update":"0001-01-01T00:00:00Z","name_a2s":"Uncletopia | Montr√©al | 2 | All Maps","protocol":17,"map":"cp_sunshine","folder":"tf","game":"Team Fortress","app_id":440,"player_count":0,"max_players":24,"Bots":0,"server_type":"Dedicated","server_os":"Linux","password":true,"vac":true,"version":"7723704","steam_id":85568392924500088,"keywords":["cp","nocrits","nodmgspread","uncletopia"],"game_id":440,"stv_port":27026,"stv_name":"Uncletopia | Montr√©al | 2 | All Maps | STV","players":null},{"server_id":302,"name":"Uncletopia | Montr√©al | 3 | All Maps","name_short":"mtl-3","host":"mtl-1.ca.uncletopia.com","port":27035,"enabled":true,"region":"us-east","cc":"ca","latitude":45.50889,"longitude":-73.56167,"reserved":0,"last_update":"0001-01-01T00:00:00Z","name_a2s":"Uncletopia | Montr√©al | 3 | All Maps","protocol":17,"map":"cp_dustbowl","folder":"tf","game":"Team Fortress","app_id":440,"player_count":0,"max_players":24,"Bots":0,"server_type":"Dedicated","server_os":"Linux","password":true,"vac":true,"version":"7723704","steam_id":85568392924500089,"keywords":["cp","nocrits","nodmgspread","uncletopia"],"game_id":440,"stv_port":27036,"stv_name":"Uncletopia | Montr√©al | 3 | All Maps | STV","players":null},{"server_id":303,"name":"Uncletopia | Montr√©al | 4 | No Payload","name_short":"mtl-4","host":"mtl-1.ca.uncletopia.com","port":27045,"enabled":true,"region":"us-east","cc":"ca","latitude":45.50889,"longitude":-73.56167,"reserved":0,"last_update":"0001-01-01T00:00:00Z","name_a2s":"Uncletopia | Montr√©al | 4 | No Payload","protocol":17,"map":"cp_process_final","folder":"tf","game":"Team Fortress","app_id":440,"player_count":0,"max_players":24,"Bots":0,"server_type":"Dedicated","server_os":"Linux","password":true,"vac":true,"version":"7723704","steam_id":85568392924500090,"keywords":["cp","nocrits","nodmgspread","uncletopia"],"game_id":440,"stv_port":27046,"stv_name":"Uncletopia | Montr√©al | 4 | No Payload | STV","players":null},{"server_id":13,"name":"Uncletopia | New York City | 1 | All Maps","name_short":"nyc-1","host":"nyc-1.us.uncletopia.com","port":27015,"enabled":true,"region":"us-east","cc":"us","latitude":40.73061,"longitude":-73.93524,"reserved":0,"last_update":"0001-01-01T00:00:00Z","name_a2s":"Uncletopia | New York City | 1 | All Maps","protocol":17,"map":"pl_barnblitz","folder":"tf","game":"Team Fortress","app_id":440,"player_count":24,"max_players":24,"Bots":0,"server_type":"Dedicated","server_os":"Linux","password":true,"vac":true,"version":"7723704","steam_id":85568392924469993,"keywords":["nocrits","nodmgspread","payload","uncletopia"],"game_id":440,"stv_port":27016,"stv_name":"Uncletopia | New York City | 1 | All Maps | STV","players":[{"user_id":73,"name":"PhatBoi","steam_id":76561198055859578,"connected_time":19000000000,"state":"active","ping":92},{"user_id":71,"name":"bikerkid207","steam_id":76561198390782783,"connected_time":36000000000,"state":"active","ping":41},{"user_id":6,"name":"Rick Assley","steam_id":76561198365019199,"connected_time":3675000000000,"state":"active","ping":65},{"user_id":57,"name":"Bagel","steam_id":76561198167747447,"connected_time":1316000000000,"state":"active","ping":59},{"user_id":58,"name":"Cadarok","steam_id":76561198031513104,"connected_time":1301000000000,"state":"active","ping":47},{"user_id":62,"name":"LordOfTheNoobs","steam_id":76561197962697523,"connected_time":1131000000000,"state":"active","ping":90},{"user_id":38,"name":"LalitoTV","steam_id":76561198334302951,"connected_time":2479000000000,"state":"active","ping":126},{"user_id":26,"name":"FestiveAnarchist","steam_id":76561199116042550,"connected_time":2724000000000,"state":"active","ping":63},{"user_id":66,"name":"Vagineer Gaming","steam_id":76561198276179693,"connected_time":242000000000,"state":"active","ping":69},{"user_id":67,"name":"dan","steam_id":76561197984998426,"connected_time":124000000000,"state":"active","ping":85},{"user_id":68,"name":"NoBoreGaming","steam_id":76561198044244547,"connected_time":68000000000,"state":"active","ping":54},{"user_id":25,"name":"shroomish enjoyer","steam_id":76561198149775502,"connected_time":2810000000000,"state":"active","ping":55},{"user_id":48,"name":"Œ®","steam_id":76561198293893486,"connected_time":2013000000000,"state":"active","ping":81},{"user_id":29,"name":"Iron_Dave_Qc","steam_id":76561198159325213,"connected_time":2648000000000,"state":"active","ping":58},{"user_id":60,"name":"sinisterMayo","steam_id":76561198087244649,"connected_time":1224000000000,"state":"active","ping":62},{"user_id":31,"name":"SuperJagops","steam_id":76561198034689716,"connected_time":2630000000000,"state":"active","ping":51},{"user_id":32,"name":"Festive Gianfranco Zola","steam_id":76561198442556119,"connected_time":2595000000000,"state":"active","ping":113},{"user_id":70,"name":"iamoctopii","steam_id":76561198876901076,"connected_time":39000000000,"state":"active","ping":136},{"user_id":35,"name":"Samus","steam_id":76561198121933439,"connected_time":2496000000000,"state":"active","ping":54},{"user_id":72,"name":"M.L.JEW","steam_id":76561198997375055,"connected_time":29000000000,"state":"active","ping":73},{"user_id":65,"name":"TheSnowGhost","steam_id":76561198271967286,"connected_time":1009000000000,"state":"active","ping":53},{"user_id":52,"name":"?","steam_id":76561199116413509,"connected_time":1879000000000,"state":"active","ping":131},{"user_id":69,"name":"–î–∞–≤–∏–¥TK^","steam_id":76561197992243765,"connected_time":65000000000,"state":"active","ping":56},{"user_id":51,"name":"Jhon Ultrakill","steam_id":76561198207877387,"connected_time":1935000000000,"state":"active","ping":54}]},{"server_id":14,"name":"Uncletopia | New York City | 2 | All Maps","name_short":"nyc-2","host":"nyc-1.us.uncletopia.com","port":27025,"enabled":true,"region":"us-east","cc":"us","latitude":40.73061,"longitude":-73.93524,"reserved":0,"last_update":"0001-01-01T00:00:00Z","name_a2s":"Uncletopia | New York City | 2 | All Maps","protocol":17,"map":"cp_dustbowl","folder":"tf","game":"Team Fortress","app_id":440,"player_count":0,"max_players":24,"Bots":0,"server_type":"Dedicated","server_os":"Linux","password":true,"vac":true,"version":"7723704","steam_id":85568392924469994,"keywords":["cp","nocrits","nodmgspread","uncletopia"],"game_id":440,"stv_port":27026,"stv_name":"Uncletopia | New York City | 2 | All Maps | STV","players":null},{"server_id":15,"name":"Uncletopia | New York City | 3 | All Maps","name_short":"nyc-3","host":"nyc-1.us.uncletopia.com","port":27035,"enabled":true,"region":"us-east","cc":"us","latitude":40.73061,"longitude":-73.93524,"reserved":0,"last_update":"0001-01-01T00:00:00Z","name_a2s":"Uncletopia | New York City | 3 | All Maps","protocol":17,"map":"pl_frontier_final","folder":"tf","game":"Team Fortress","app_id":440,"player_count":0,"max_players":24,"Bots":0,"server_type":"Dedicated","server_os":"Linux","password":true,"vac":true,"version":"7723704","steam_id":85568392924742820,"keywords":["nocrits","nodmgspread","payload","uncletopia"],"game_id":440,"stv_port":27036,"stv_name":"Uncletopia | New York City | 3 | All Maps | STV","players":null},{"server_id":16,"name":"Uncletopia | New York City | 4 | Community","name_short":"nyc-4","host":"nyc-1.us.uncletopia.com","port":27045,"enabled":true,"region":"us-east","cc":"us","latitude":40.73061,"longitude":-73.93524,"reserved":0,"last_update":"0001-01-01T00:00:00Z","name_a2s":"Uncletopia | New York City | 4 | Community","protocol":17,"map":"cp_process_final","folder":"tf","game":"Team Fortress","app_id":440,"player_count":0,"max_players":24,"Bots":0,"server_type":"Dedicated","server_os":"Linux","password":true,"vac":true,"version":"7723704","steam_id":85568392924742821,"keywords":["cp","nocrits","nodmgspread","uncletopia"],"game_id":440,"stv_port":27046,"stv_name":"Uncletopia | New York City | 4 | Community | STV","players":null},{"server_id":142,"name":"Uncletopia | S√£o Paulo | 1 | All Maps","name_short":"sao-1","host":"sao-1.br.uncletopia.com","port":27015,"enabled":true,"region":"sa","cc":"br","latitude":-23.533773,"longitude":-46.62529,"reserved":0,"last_update":"0001-01-01T00:00:00Z","name_a2s":"Uncletopia | S√£o Paulo | 1 | All Maps","protocol":17,"map":"pl_borneo","folder":"tf","game":"Team Fortress","app_id":440,"player_count":0,"max_players":24,"Bots":0,"server_type":"Dedicated","server_os":"Linux","password":true,"vac":true,"version":"7723704","steam_id":85568392924469996,"keywords":["nocrits","nodmgspread","payload","uncletopia"],"game_id":440,"stv_port":27016,"stv_name":"Uncletopia | S√£o Paulo | 1 | All Maps | STV","players":null},{"server_id":143,"name":"Uncletopia | S√£o Paulo | 2 | All Maps","name_short":"sao-2","host":"sao-2.br.uncletopia.com","port":27015,"enabled":true,"region":"sa","cc":"br","latitude":-23.533773,"longitude":-46.62529,"reserved":0,"last_update":"0001-01-01T00:00:00Z","name_a2s":"Uncletopia | S√£o Paulo | 2 | All Maps","protocol":17,"map":"cp_mountainlab","folder":"tf","game":"Team Fortress","app_id":440,"player_count":0,"max_players":24,"Bots":0,"server_type":"Dedicated","server_os":"Linux","password":true,"vac":true,"version":"7723704","steam_id":85568392924485349,"keywords":["cp","nocrits","nodmgspread","uncletopia"],"game_id":440,"stv_port":27016,"stv_name":"Uncletopia | S√£o Paulo | 2 | All Maps | STV","players":null},{"server_id":7,"name":"Uncletopia | Seattle | 1 | All Maps","name_short":"sea-1","host":"sea-1.us.uncletopia.com","port":27015,"enabled":true,"region":"us-west","cc":"us","latitude":47.608013,"longitude":-122.33517,"reserved":0,"last_update":"0001-01-01T00:00:00Z","name_a2s":"Uncletopia | Seattle | 1 | All Maps","protocol":17,"map":"koth_viaduct","folder":"tf","game":"Team Fortress","app_id":440,"player_count":0,"max_players":24,"Bots":0,"server_type":"Dedicated","server_os":"Linux","password":true,"vac":true,"version":"7723704","steam_id":85568392924469997,"keywords":["cp","nocrits","nodmgspread","uncletopia"],"game_id":440,"stv_port":27016,"stv_name":"Uncletopia | Seattle | 1 | All Maps | STV","players":null},{"server_id":119,"name":"Uncletopia | Seattle | 2 | All Maps","name_short":"sea-2","host":"sea-1.us.uncletopia.com","port":27025,"enabled":true,"region":"us-west","cc":"us","latitude":47.608013,"longitude":-122.33517,"reserved":0,"last_update":"0001-01-01T00:00:00Z","name_a2s":"Uncletopia | Seattle | 2 | All Maps","protocol":17,"map":"pl_upward","folder":"tf","game":"Team Fortress","app_id":440,"player_count":0,"max_players":24,"Bots":0,"server_type":"Dedicated","server_os":"Linux","password":true,"vac":true,"version":"7723704","steam_id":85568392924469998,"keywords":["nocrits","nodmgspread","payload","uncletopia"],"game_id":440,"stv_port":27026,"stv_name":"Uncletopia | Seattle | 2 | All Maps | STV","players":null},{"server_id":17,"name":"Uncletopia | San Francisco | 1 | All Maps","name_short":"sfo-1","host":"sfo-1.us.uncletopia.com","port":27015,"enabled":true,"region":"us-west","cc":"us","latitude":37.77397,"longitude":-122.4313,"reserved":0,"last_update":"0001-01-01T00:00:00Z","name_a2s":"Uncletopia | San Francisco | 1 | All Maps","protocol":17,"map":"koth_viaduct","folder":"tf","game":"Team Fortress","app_id":440,"player_count":0,"max_players":24,"Bots":0,"server_type":"Dedicated","server_os":"Linux","password":true,"vac":true,"version":"7723704","steam_id":85568392924469999,"keywords":["cp","nocrits","nodmgspread","uncletopia"],"game_id":440,"stv_port":27016,"stv_name":"Uncletopia | San Francisco | 1 | All Maps | STV","players":null},{"server_id":18,"name":"Uncletopia | San Francisco | 2 | All Maps","name_short":"sfo-2","host":"sfo-1.us.uncletopia.com","port":27025,"enabled":true,"region":"us-west","cc":"us","latitude":37.77397,"longitude":-122.4313,"reserved":0,"last_update":"0001-01-01T00:00:00Z","name_a2s":"Uncletopia | San Francisco | 2 | All Maps","protocol":17,"map":"cp_dustbowl","folder":"tf","game":"Team Fortress","app_id":440,"player_count":0,"max_players":24,"Bots":0,"server_type":"Dedicated","server_os":"Linux","password":true,"vac":true,"version":"7723704","steam_id":85568392924470000,"keywords":["cp","nocrits","nodmgspread","uncletopia"],"game_id":440,"stv_port":27026,"stv_name":"Uncletopia | San Francisco | 2 | All Maps | STV","players":null},{"server_id":19,"name":"Uncletopia | San Francisco | 3 | No Payload","name_short":"sfo-3","host":"sfo-1.us.uncletopia.com","port":27035,"enabled":true,"region":"us-west","cc":"us","latitude":37.77397,"longitude":-122.4313,"reserved":0,"last_update":"0001-01-01T00:00:00Z","name_a2s":"Uncletopia | San Francisco | 3 | No Payload","protocol":17,"map":"pl_snowycoast","folder":"tf","game":"Team Fortress","app_id":440,"player_count":0,"max_players":24,"Bots":0,"server_type":"Dedicated","server_os":"Linux","password":true,"vac":true,"version":"7723704","steam_id":85568392924742824,"keywords":["nocrits","nodmgspread","payload","uncletopia"],"game_id":440,"stv_port":27036,"stv_name":"Uncletopia | San Francisco | 3 | No Payload | STV","players":null},{"server_id":20,"name":"Uncletopia | San Francisco | 4 | Community","name_short":"sfo-4","host":"sfo-1.us.uncletopia.com","port":27045,"enabled":true,"region":"us-west","cc":"us","latitude":37.77397,"longitude":-122.4313,"reserved":0,"last_update":"0001-01-01T00:00:00Z","name_a2s":"Uncletopia | San Francisco | 4 | Community","protocol":17,"map":"pl_frontier_final","folder":"tf","game":"Team Fortress","app_id":440,"player_count":0,"max_players":24,"Bots":0,"server_type":"Dedicated","server_os":"Linux","password":true,"vac":true,"version":"7723704","steam_id":85568392924742826,"keywords":["nocrits","nodmgspread","payload","uncletopia"],"game_id":440,"stv_port":27046,"stv_name":"Uncletopia | San Francisco | 4 | Community | STV","players":null},{"server_id":141,"name":"Uncletopia | Sydney | 1 | All Maps","name_short":"syd-1","host":"syd-1.au.uncletopia.com","port":27015,"enabled":true,"region":"au","cc":"au","latitude":-33.865143,"longitude":151.2099,"reserved":0,"last_update":"0001-01-01T00:00:00Z","name_a2s":"Uncletopia | Sydney | 1 | All Maps","protocol":17,"map":"pl_frontier_final","folder":"tf","game":"Team Fortress","app_id":440,"player_count":0,"max_players":24,"Bots":0,"server_type":"Dedicated","server_os":"Linux","password":true,"vac":true,"version":"7723704","steam_id":85568392924470001,"keywords":["nocrits","nodmgspread","payload","uncletopia"],"game_id":440,"stv_port":27016,"stv_name":"Uncletopia | Sydney | 1 | All Maps | STV","players":null},{"server_id":123,"name":"Uncletopia | Sydney | 2 | All Maps","name_short":"syd-2","host":"syd-1.au.uncletopia.com","port":27025,"enabled":true,"region":"au","cc":"au","latitude":-33.865143,"longitude":151.2099,"reserved":0,"last_update":"0001-01-01T00:00:00Z","name_a2s":"Uncletopia | Sydney | 2 | All Maps","protocol":17,"map":"koth_cascade","folder":"tf","game":"Team Fortress","app_id":440,"player_count":0,"max_players":24,"Bots":0,"server_type":"Dedicated","server_os":"Linux","password":true,"vac":true,"version":"7723704","steam_id":85568392924470002,"keywords":["cp","nocrits","nodmgspread","uncletopia"],"game_id":440,"stv_port":27026,"stv_name":"Uncletopia | Sydney | 2 | All Maps | STV","players":null},{"server_id":395,"name":"Uncletopia | Sydney | 3 | All Maps","name_short":"syd-3","host":"syd-1.au.uncletopia.com","port":27035,"enabled":true,"region":"au","cc":"au","latitude":-33.865143,"longitude":151.2099,"reserved":0,"last_update":"0001-01-01T00:00:00Z","name_a2s":"Uncletopia | Sydney | 3 | All Maps","protocol":17,"map":"cp_dustbowl","folder":"tf","game":"Team Fortress","app_id":440,"player_count":0,"max_players":24,"Bots":0,"server_type":"Dedicated","server_os":"Linux","password":true,"vac":true,"version":"7723704","steam_id":85568392925194467,"keywords":["cp","nocrits","nodmgspread","uncletopia"],"game_id":440,"stv_port":27036,"stv_name":"Uncletopia | Sydney | 3 | All Maps | STV","players":null},{"server_id":396,"name":"Uncletopia | Sydney | 4 | All Maps","name_short":"syd-4","host":"syd-1.au.uncletopia.com","port":27045,"enabled":true,"region":"au","cc":"au","latitude":-33.865143,"longitude":151.2099,"reserved":0,"last_update":"0001-01-01T00:00:00Z","name_a2s":"Uncletopia | Sydney | 4 | All Maps","protocol":17,"map":"pl_pier","folder":"tf","game":"Team Fortress","app_id":440,"player_count":0,"max_players":24,"Bots":0,"server_type":"Dedicated","server_os":"Linux","password":true,"vac":true,"version":"7723704","steam_id":85568392925397958,"keywords":["nocrits","nodmgspread","payload","uncletopia"],"game_id":440,"stv_port":27046,"stv_name":"Uncletopia | Sydney | 4 | All Maps | STV","players":null},{"server_id":58,"name":"Uncletopia | Sydney | 5 | No Payload","name_short":"syd-5","host":"syd-1.au.uncletopia.com","port":27055,"enabled":true,"region":"au","cc":"au","latitude":-33.865143,"longitude":151.2099,"reserved":0,"last_update":"0001-01-01T00:00:00Z","name_a2s":"Uncletopia | Sydney | 5 | No Payload","protocol":17,"map":"cp_steel","folder":"tf","game":"Team Fortress","app_id":440,"player_count":0,"max_players":24,"Bots":0,"server_type":"Dedicated","server_os":"Linux","password":true,"vac":true,"version":"7723704","steam_id":85568392925397959,"keywords":["cp","nocrits","nodmgspread","uncletopia"],"game_id":440,"stv_port":27056,"stv_name":"Uncletopia | Sydney | 5 | No Payload | STV","players":null},{"server_id":59,"name":"Uncletopia | Sydney | 6 | Community","name_short":"syd-6","host":"syd-1.au.uncletopia.com","port":27065,"enabled":true,"region":"au","cc":"au","latitude":-33.865143,"longitude":151.2099,"reserved":0,"last_update":"0001-01-01T00:00:00Z","name_a2s":"Uncletopia | Sydney | 6 | Community","protocol":17,"map":"workshop/koth_ramjam_v2_b2.ugc2865676487","folder":"tf","game":"Team Fortress","app_id":440,"player_count":0,"max_players":24,"Bots":0,"server_type":"Dedicated","server_os":"Linux","password":true,"vac":true,"version":"7723704","steam_id":85568392925397960,"keywords":["cp","nocrits","nodmgspread","uncletopia"],"game_id":440,"stv_port":27066,"stv_name":"Uncletopia | Sydney | 6 | Community | STV","players":null},{"server_id":49,"name":"Uncletopia | Warsaw | 1 | All Maps","name_short":"waw-1","host":"waw-1.pl.uncletopia.com","port":27015,"enabled":true,"region":"eu","cc":"pl","latitude":52.2297,"longitude":21.017532,"reserved":0,"last_update":"0001-01-01T00:00:00Z","name_a2s":"Uncletopia | Warsaw | 1 | All Maps","protocol":17,"map":"pl_badwater","folder":"tf","game":"Team Fortress","app_id":440,"player_count":0,"max_players":24,"Bots":0,"server_type":"Dedicated","server_os":"Linux","password":true,"vac":true,"version":"7723704","steam_id":85568392925397850,"keywords":["nocrits","nodmgspread","payload","uncletopia"],"game_id":440,"stv_port":27016,"stv_name":"Uncletopia | Warsaw | 1 | All Maps | STV","players":null},{"server_id":50,"name":"Uncletopia | Warsaw | 2 | All Maps","name_short":"waw-2","host":"waw-1.pl.uncletopia.com","port":27025,"enabled":true,"region":"eu","cc":"pl","latitude":52.2297,"longitude":21.017532,"reserved":0,"last_update":"0001-01-01T00:00:00Z","name_a2s":"Uncletopia | Warsaw | 2 | All Maps","protocol":17,"map":"pl_snowycoast","folder":"tf","game":"Team Fortress","app_id":440,"player_count":0,"max_players":24,"Bots":0,"server_type":"Dedicated","server_os":"Linux","password":true,"vac":true,"version":"7723704","steam_id":85568392925397851,"keywords":["nocrits","nodmgspread","payload","uncletopia"],"game_id":440,"stv_port":27026,"stv_name":"Uncletopia | Warsaw | 2 | All Maps | STV","players":null},{"server_id":51,"name":"Uncletopia | Warsaw | 3 | All Maps","name_short":"waw-3","host":"waw-1.pl.uncletopia.com","port":27035,"enabled":true,"region":"eu","cc":"pl","latitude":52.2297,"longitude":21.017532,"reserved":0,"last_update":"0001-01-01T00:00:00Z","name_a2s":"Uncletopia | Warsaw | 3 | All Maps","protocol":17,"map":"koth_lakeside_final","folder":"tf","game":"Team Fortress","app_id":440,"player_count":0,"max_players":24,"Bots":0,"server_type":"Dedicated","server_os":"Linux","password":true,"vac":true,"version":"7723704","steam_id":85568392925397852,"keywords":["cp","nocrits","nodmgspread","uncletopia"],"game_id":440,"stv_port":27036,"stv_name":"Uncletopia | Warsaw | 3 | All Maps | STV","players":null},{"server_id":52,"name":"Uncletopia | Warsaw | 4 | All Maps","name_short":"waw-4","host":"waw-1.pl.uncletopia.com","port":27045,"enabled":true,"region":"eu","cc":"pl","latitude":52.2297,"longitude":21.017532,"reserved":0,"last_update":"0001-01-01T00:00:00Z","name_a2s":"Uncletopia | Warsaw | 4 | All Maps","protocol":17,"map":"pl_frontier_final","folder":"tf","game":"Team Fortress","app_id":440,"player_count":0,"max_players":24,"Bots":0,"server_type":"Dedicated","server_os":"Linux","password":true,"vac":true,"version":"7723704","steam_id":85568392925397853,"keywords":["nocrits","nodmgspread","payload","uncletopia"],"game_id":440,"stv_port":27046,"stv_name":"Uncletopia | Warsaw | 4 | All Maps | STV","players":null},{"server_id":53,"name":"Uncletopia | Warsaw | 5 | No Payload","name_short":"waw-5","host":"waw-1.pl.uncletopia.com","port":27055,"enabled":true,"region":"eu","cc":"pl","latitude":52.2297,"longitude":21.017532,"reserved":0,"last_update":"0001-01-01T00:00:00Z","name_a2s":"Uncletopia | Warsaw | 5 | No Payload","protocol":17,"map":"koth_highpass","folder":"tf","game":"Team Fortress","app_id":440,"player_count":0,"max_players":24,"Bots":0,"server_type":"Dedicated","server_os":"Linux","password":true,"vac":true,"version":"7723704","steam_id":85568392925397854,"keywords":["cp","nocrits","nodmgspread","uncletopia"],"game_id":440,"stv_port":27056,"stv_name":"Uncletopia | Warsaw | 5 | No Payload | STV","players":null},{"server_id":54,"name":"Uncletopia | Warsaw | 6 | Community","name_short":"waw-6","host":"waw-1.pl.uncletopia.com","port":27065,"enabled":true,"region":"eu","cc":"pl","latitude":52.2297,"longitude":21.017532,"reserved":0,"last_update":"0001-01-01T00:00:00Z","name_a2s":"Uncletopia | Warsaw | 6 | Community","protocol":17,"map":"koth_viaduct","folder":"tf","game":"Team Fortress","app_id":440,"player_count":0,"max_players":24,"Bots":0,"server_type":"Dedicated","server_os":"Linux","password":true,"vac":true,"version":"7723704","steam_id":85568392925397856,"keywords":["cp","nocrits","nodmgspread","uncletopia"],"game_id":440,"stv_port":27066,"stv_name":"Uncletopia | Warsaw | 6 | Community | STV","players":null}]}