{"status":true,"message":"","result":[{"server_id":9,"name":"Uncletopia | Atlanta | 1 | All Maps","name_short":"atl-1","host":"atl-1.us.uncletopia.com","port":27015,"enabled":true,"region":"us-east","cc":"us","latitude":33.753746,"longitude":-84.38633,"reserved":0,"last_update":"0001-01-01T00:00:00Z","name_a2s":"Uncletopia | Atlanta | 1 | All Maps","protocol":17,"map":"pl_badwater","folder":"tf","game":"Team Fortress","app_id":440,"player_count":19,"max_players":24,"Bots":0,"server_type":"Dedicated","server_os":"Linux","password":true,"vac":true,"version":"7961495","steam_id":85568392924469982,"keywords":["nocrits","nodmgspread","payload","uncletopia"],"game_id":440,"stv_port":27016,"stv_name":"Uncletopia | Atlanta | 1 | All Maps | STV","players":[{"user_id":775,"name":"Rex","steam_id":76561198138365053,"connected_time":402000000000,"state":"active","ping":109},{"user_id":774,"name":"ThatOneDioDude (Joe Defender)","steam_id":76561198840608049,"connected_time":461000000000,"state":"active","ping":51},{"user_id":771,"name":"Flint","steam_id":76561198066547582,"connected_time":598000000000,"state":"active","ping":110},{"user_id":776,"name":"Herdez Hot Salsa","steam_id":76561197991740906,"connected_time":368000000000,"state":"active","ping":69},{"user_id":780,"name":"Memoirist","steam_id":76561198026002842,"connected_time":125000000000,"state":"active","ping":78},{"user_id":753,"name":"canadian birds","steam_id":76561198059466588,"connected_time":1829000000000,"state":"active","ping":59},{"user_id":777,"name":"BL√òRG","steam_id":76561198036126673,"connected_time":307000000000,"state":"active","ping":90},{"user_id":732,"name":"DeezNoodlez","steam_id":76561198246700372,"connected_time":3412000000000,"state":"active","ping":64},{"user_id":694,"name":"Thotimus Begonimus","steam_id":76561197970275938,"connected_time":5325000000000,"state":"active","ping":43},{"user_id":752,"name":"Hyper","steam_id":76561199102864718,"connected_time":1960000000000,"state":"active","ping":74},{"user_id":779,"name":"ball","steam_id":76561198394080554,"connected_time":181000000000,"state":"active","ping":100},{"user_id":748,"name":"Dukino","steam_id":76561198008455368,"connected_time":2327000000000,"state":"active","ping":45},{"user_id":751,"name":"the pest","steam_id":76561198826298849,"connected_time":2115000000000,"state":"active","ping":71},{"user_id":781,"name":"Creature","steam_id":76561198194585781,"connected_time":7000000000,"state":"spawning","ping":111},{"user_id":782,"name":"Weed Dealer","steam_id":76561198418604400,"connected_time":6000000000,"state":"spawning","ping":119},{"user_id":772,"name":"Smooth, Refreshing Bleach‚Ñ¢","steam_id":76561197981060504,"connected_time":515000000000,"state":"active","ping":61},{"user_id":699,"name":"ash","steam_id":76561198127890645,"connected_time":5207000000000,"state":"active","ping":63},{"user_id":769,"name":"ziggy","steam_id":76561199097683320,"connected_time":647000000000,"state":"active","ping":49},{"user_id":650,"name":"Le4n!!!","steam_id":76561198045522596,"connected_time":8194000000000,"state":"active","ping":70}]},{"server_id":104,"name":"Uncletopia | Atlanta | 2 | All Maps","name_short":"atl-2","host":"atl-1.us.uncletopia.com","port":27025,"enabled":true,"region":"us-east","cc":"us","latitude":33.753746,"longitude":-84.38633,"reserved":0,"last_update":"0001-01-01T00:00:00Z","name_a2s":"Uncletopia | Atlanta | 2 | All Maps","protocol":17,"map":"pl_upward","folder":"tf","game":"Team Fortress","app_id":440,"player_count":8,"max_players":24,"Bots":0,"server_type":"Dedicated","server_os":"Linux","password":true,"vac":true,"version":"7961495","steam_id":85568392924469983,"keywords":["nocrits","nodmgspread","payload","uncletopia"],"game_id":440,"stv_port":27026,"stv_name":"Uncletopia | Atlanta | 2 | All Maps | STV","players":[{"user_id":657,"name":"Isbog_official","steam_id":76561198261081658,"connected_time":273000000000,"state":"active","ping":90},{"user_id":654,"name":"Blitz Fox","steam_id":76561198864732060,"connected_time":393000000000,"state":"active","ping":31},{"user_id":655,"name":"Sawdust Muncher","steam_id":76561198365876381,"connected_time":364000000000,"state":"active","ping":96},{"user_id":604,"name":"Hey","steam_id":76561198447517893,"connected_time":6161000000000,"state":"active","ping":74},{"user_id":658,"name":"Wolly","steam_id":76561198364431592,"connected_time":245000000000,"state":"active","ping":75},{"user_id":643,"name":"fuckterry","steam_id":76561198271957738,"connected_time":1118000000000,"state":"active","ping":45},{"user_id":651,"name":"ae","steam_id":76561198185490827,"connected_time":516000000000,"state":"active","ping":84},{"user_id":644,"name":"Gibus Man","steam_id":76561198257241062,"connected_time":1042000000000,"state":"active","ping":106}]},{"server_id":400,"name":"Uncletopia | Atlanta | 3 | Stopwatch","name_short":"atl-3","host":"atl-1.us.uncletopia.com","port":27035,"enabled":true,"region":"us-east","cc":"us","latitude":33.753746,"longitude":-84.38633,"reserved":0,"last_update":"0001-01-01T00:00:00Z","name_a2s":"Uncletopia | Atlanta | 3 | Stopwatch","protocol":17,"map":"koth_lakeside_final","folder":"tf","game":"Team Fortress","app_id":440,"player_count":24,"max_players":24,"Bots":0,"server_type":"Dedicated","server_os":"Linux","password":true,"vac":true,"version":"7961495","steam_id":85568392924515187,"keywords":["cp","nocrits","nodmgspread","uncletopia"],"game_id":440,"stv_port":27036,"stv_name":"Uncletopia | Atlanta | 3 | Stopwatch | STV","players":[{"user_id":269,"name":"Squanchy","steam_id":76561198036319676,"connected_time":349000000000,"state":"active","ping":65},{"user_id":264,"name":"You hate kissing boys,Don't you","steam_id":76561198996218460,"connected_time":719000000000,"state":"active","ping":53},{"user_id":258,"name":"C Papi","steam_id":76561198027779564,"connected_time":1051000000000,"state":"active","ping":50},{"user_id":212,"name":"Fumohuxi Viriphyto","steam_id":76561198369395636,"connected_time":3498000000000,"state":"active","ping":76},{"user_id":255,"name":"Achilles","steam_id":76561198086037134,"connected_time":1233000000000,"state":"active","ping":45},{"user_id":259,"name":"Spoooooki","steam_id":76561198078590661,"connected_time":1043000000000,"state":"active","ping":98},{"user_id":257,"name":"Sac","steam_id":76561198971736420,"connected_time":1156000000000,"state":"active","ping":106},{"user_id":239,"name":"Kick Down Door 6:00AM TUCK‚òÉRO","steam_id":76561197976146738,"connected_time":2052000000000,"state":"active","ping":72},{"user_id":261,"name":"beats (16:38)","steam_id":76561199245717718,"connected_time":1034000000000,"state":"active","ping":70},{"user_id":265,"name":"Sean","steam_id":76561198892489967,"connected_time":604000000000,"state":"active","ping":75},{"user_id":266,"name":"Sussy Panda","steam_id":76561198057725524,"connected_time":494000000000,"state":"active","ping":145},{"user_id":225,"name":"demon girl","steam_id":76561198100477765,"connected_time":2807000000000,"state":"active","ping":80},{"user_id":241,"name":"777","steam_id":76561198277163301,"connected_time":1983000000000,"state":"active","ping":85},{"user_id":248,"name":"Thicc_Epsi","steam_id":76561199245421269,"connected_time":1756000000000,"state":"active","ping":100},{"user_id":247,"name":"TheGayTF2Player","steam_id":76561199387213885,"connected_time":1782000000000,"state":"active","ping":70},{"user_id":230,"name":"ATLS1 | Strange Festive","steam_id":76561198050385093,"connected_time":2496000000000,"state":"active","ping":73},{"user_id":272,"name":"Immortal Smoke my problems away","steam_id":76561198280424107,"connected_time":293000000000,"state":"active","ping":80},{"user_id":232,"name":"fish","steam_id":76561198054070811,"connected_time":2475000000000,"state":"active","ping":112},{"user_id":268,"name":"notwarsley","steam_id":76561199144477781,"connected_time":436000000000,"state":"active","ping":75},{"user_id":270,"name":"joyeuxnoelle","steam_id":76561198062423120,"connected_time":344000000000,"state":"active","ping":56},{"user_id":215,"name":"Pancakes","steam_id":76561198212039509,"connected_time":3410000000000,"state":"active","ping":65},{"user_id":249,"name":"RetroDiskette","steam_id":76561198162749022,"connected_time":1739000000000,"state":"active","ping":60},{"user_id":273,"name":"Banana connoisseur","steam_id":76561199156630225,"connected_time":199000000000,"state":"active","ping":79},{"user_id":237,"name":"PyroTechno","steam_id":76561198060929872,"connected_time":2346000000000,"state":"active","ping":45}]},{"server_id":401,"name":"Uncletopia | Atlanta | 4 | Community","name_short":"atl-4","host":"atl-1.us.uncletopia.com","port":27045,"enabled":true,"region":"us-east","cc":"us","latitude":33.753746,"longitude":-84.38633,"reserved":0,"last_update":"0001-01-01T00:00:00Z","name_a2s":"Uncletopia | Atlanta | 4 | Community","protocol":17,"map":"workshop/koth_ashville_final.ugc2130459942","folder":"tf","game":"Team Fortress","app_id":440,"player_count":0,"max_players":24,"Bots":0,"server_type":"Dedicated","server_os":"Linux","password":true,"vac":true,"version":"7961495","steam_id":85568392924515188,"keywords":["cp","nocrits","nodmgspread","uncletopia"],"game_id":440,"stv_port":27046,"stv_name":"Uncletopia | Atlanta | 4 | Community | STV","players":null},{"server_id":2,"name":"Uncletopia | Chicago | 1 | All Maps","name_short":"chi-1","host":"chi-1.us.uncletopia.com","port":27015,"enabled":true,"region":"us-central","cc":"us","latitude":41.881832,"longitude":-87.62318,"reserved":0,"last_update":"0001-01-01T00:00:00Z","name_a2s":"Uncletopia | Chicago | 1 | All Maps","protocol":17,"map":"pl_snowycoast","folder":"tf","game":"Team Fortress","app_id":440,"player_count":24,"max_players":24,"Bots":0,"server_type":"Dedicated","server_os":"Linux","password":true,"vac":true,"version":"7961495","steam_id":85568392924469984,"keywords":["nocrits","nodmgspread","payload","uncletopia"],"game_id":440,"stv_port":27016,"stv_name":"Uncletopia | Chicago | 1 | All Maps | STV","players":[{"user_id":776,"name":"rhsiegetank","steam_id":76561198359829118,"connected_time":3552000000000,"state":"active","ping":90},{"user_id":799,"name":"Strange Diplomat","steam_id":76561198428191920,"connected_time":2057000000000,"state":"active","ping":67},{"user_id":783,"name":"Natsuki the Scunt","steam_id":76561199175922684,"connected_time":3347000000000,"state":"active","ping":118},{"user_id":796,"name":"Synthess","steam_id":76561198305140294,"connected_time":2812000000000,"state":"active","ping":52},{"user_id":778,"name":"Eiss","steam_id":76561198343183806,"connected_time":3463000000000,"state":"active","ping":91},{"user_id":802,"name":"K","steam_id":76561198171446177,"connected_time":1855000000000,"state":"active","ping":82},{"user_id":797,"name":"\"Flemmer\"","steam_id":76561198869188729,"connected_time":2642000000000,"state":"active","ping":52},{"user_id":811,"name":"Leethalweapon","steam_id":76561198412167609,"connected_time":292000000000,"state":"active","ping":67},{"user_id":788,"name":"The Freshman of Bel Air","steam_id":76561198027412463,"connected_time":3153000000000,"state":"active","ping":86},{"user_id":812,"name":"b","steam_id":76561198156336213,"connected_time":253000000000,"state":"active","ping":77},{"user_id":743,"name":"Notsocreative","steam_id":76561198236372202,"connected_time":4626000000000,"state":"active","ping":83},{"user_id":809,"name":"Lambsauce","steam_id":76561198151827926,"connected_time":322000000000,"state":"active","ping":62},{"user_id":690,"name":"Swiftmend","steam_id":76561197995595692,"connected_time":8666000000000,"state":"active","ping":76},{"user_id":813,"name":"Darkside_Gamer333","steam_id":76561198859756465,"connected_time":242000000000,"state":"active","ping":75},{"user_id":807,"name":"object permanence","steam_id":76561198050393061,"connected_time":1392000000000,"state":"active","ping":74},{"user_id":814,"name":"Dzhoshua","steam_id":76561198071915251,"connected_time":238000000000,"state":"active","ping":52},{"user_id":757,"name":"YASAI JUICE","steam_id":76561198131971992,"connected_time":4120000000000,"state":"active","ping":43},{"user_id":805,"name":"gregor","steam_id":76561198057076267,"connected_time":1696000000000,"state":"active","ping":82},{"user_id":815,"name":"defcon","steam_id":76561198100656328,"connected_time":218000000000,"state":"active","ping":70},{"user_id":792,"name":"rstrom","steam_id":76561197961225022,"connected_time":3045000000000,"state":"active","ping":67},{"user_id":816,"name":"Mantis","steam_id":76561197964316152,"connected_time":212000000000,"state":"active","ping":65},{"user_id":808,"name":"SandHanitizer","steam_id":76561198234676500,"connected_time":1270000000000,"state":"active","ping":62},{"user_id":696,"name":"Horrizan","steam_id":76561197965028480,"connected_time":7723000000000,"state":"active","ping":64},{"user_id":817,"name":"Cr1spy","steam_id":76561198352080718,"connected_time":35000000000,"state":"spawning","ping":69}]},{"server_id":106,"name":"Uncletopia | Chicago | 2 | All Maps","name_short":"chi-2","host":"chi-1.us.uncletopia.com","port":27025,"enabled":true,"region":"us-central","cc":"us","latitude":41.881832,"longitude":-87.62318,"reserved":0,"last_update":"0001-01-01T00:00:00Z","name_a2s":"Uncletopia | Chicago | 2 | All Maps","protocol":17,"map":"pl_badwater","folder":"tf","game":"Team Fortress","app_id":440,"player_count":23,"max_players":24,"Bots":0,"server_type":"Dedicated","server_os":"Linux","password":true,"vac":true,"version":"7961495","steam_id":85568392924469985,"keywords":["nocrits","nodmgspread","payload","uncletopia"],"game_id":440,"stv_port":27026,"stv_name":"Uncletopia | Chicago | 2 | All Maps | STV","players":[{"user_id":705,"name":"Phat Cat","steam_id":76561198123017274,"connected_time":1081000000000,"state":"active","ping":57},{"user_id":723,"name":"CoziestGlobe","steam_id":76561198199237735,"connected_time":503000000000,"state":"active","ping":75},{"user_id":690,"name":"Fried Water?!","steam_id":76561198053164815,"connected_time":2093000000000,"state":"active","ping":63},{"user_id":731,"name":"ImpeachedPear","steam_id":76561199125565239,"connected_time":198000000000,"state":"active","ping":60},{"user_id":679,"name":"bomba","steam_id":76561198301585642,"connected_time":2606000000000,"state":"active","ping":60},{"user_id":714,"name":"bread n butter babyyyyyyyyyy","steam_id":76561198110661425,"connected_time":736000000000,"state":"active","ping":100},{"user_id":722,"name":"Glanderson booper","steam_id":76561198021223747,"connected_time":554000000000,"state":"active","ping":90},{"user_id":732,"name":"Ace Chromatica","steam_id":76561198042211131,"connected_time":158000000000,"state":"active","ping":60},{"user_id":725,"name":"non professional nouns.","steam_id":76561198294013916,"connected_time":371000000000,"state":"active","ping":60},{"user_id":721,"name":"PTR","steam_id":76561198237253772,"connected_time":574000000000,"state":"active","ping":78},{"user_id":691,"name":"scarecr0wzz","steam_id":76561198416218389,"connected_time":2086000000000,"state":"active","ping":82},{"user_id":692,"name":"RollingCow","steam_id":76561198067114237,"connected_time":2069000000000,"state":"active","ping":80},{"user_id":720,"name":"nyna","steam_id":76561198029320773,"connected_time":597000000000,"state":"active","ping":104},{"user_id":726,"name":"Pepsiman","steam_id":76561198085789499,"connected_time":360000000000,"state":"active","ping":50},{"user_id":733,"name":"John Fortnite","steam_id":76561198076608253,"connected_time":125000000000,"state":"active","ping":61},{"user_id":719,"name":"Noise indicating burger flip","steam_id":76561198306965757,"connected_time":633000000000,"state":"active","ping":98},{"user_id":727,"name":"slowdance","steam_id":76561198097427947,"connected_time":355000000000,"state":"active","ping":144},{"user_id":728,"name":"Toxic-Fluid","steam_id":76561198115530353,"connected_time":342000000000,"state":"active","ping":55},{"user_id":701,"name":"Rick Nastley","steam_id":76561197965574706,"connected_time":1618000000000,"state":"active","ping":99},{"user_id":696,"name":"Goldfire","steam_id":76561198061999410,"connected_time":2051000000000,"state":"active","ping":97},{"user_id":700,"name":"Stick","steam_id":76561198001509374,"connected_time":1687000000000,"state":"active","ping":69},{"user_id":644,"name":"Always Here for You","steam_id":76561198219252313,"connected_time":5382000000000,"state":"active","ping":72},{"user_id":730,"name":"Skab E¬≤r","steam_id":76561199126112357,"connected_time":332000000000,"state":"active","ping":85}]},{"server_id":402,"name":"Uncletopia | Chicago | 3 | All Maps","name_short":"chi-3","host":"chi-1.us.uncletopia.com","port":27035,"enabled":true,"region":"us-central","cc":"us","latitude":41.881832,"longitude":-87.62318,"reserved":0,"last_update":"0001-01-01T00:00:00Z","name_a2s":"Uncletopia | Chicago | 3 | All Maps","protocol":17,"map":"cp_process_final","folder":"tf","game":"Team Fortress","app_id":440,"player_count":24,"max_players":24,"Bots":0,"server_type":"Dedicated","server_os":"Linux","password":true,"vac":true,"version":"7961495","steam_id":85568392924515191,"keywords":["cp","nocrits","nodmgspread","uncletopia"],"game_id":440,"stv_port":27036,"stv_name":"Uncletopia | Chicago | 3 | All Maps | STV","players":[{"user_id":663,"name":"jr933368","steam_id":76561199507931052,"connected_time":432000000000,"state":"active","ping":105},{"user_id":537,"name":"lobster","steam_id":76561198147417707,"connected_time":12696000000000,"state":"active","ping":75},{"user_id":596,"name":"Alejandro","steam_id":76561197970051493,"connected_time":5857000000000,"state":"active","ping":128},{"user_id":600,"name":"vga cable","steam_id":76561198217402847,"connected_time":5626000000000,"state":"active","ping":105},{"user_id":617,"name":"Gaming is for girls","steam_id":76561198401725755,"connected_time":4423000000000,"state":"active","ping":47},{"user_id":646,"name":"frank","steam_id":76561198137777483,"connected_time":2206000000000,"state":"active","ping":61},{"user_id":599,"name":"Blaze","steam_id":76561198043797702,"connected_time":5645000000000,"state":"active","ping":53},{"user_id":661,"name":"Olitude","steam_id":76561199238964574,"connected_time":487000000000,"state":"active","ping":61},{"user_id":636,"name":"`o2","steam_id":76561197992030936,"connected_time":3275000000000,"state":"active","ping":61},{"user_id":610,"name":"EvilPi99let","steam_id":76561197987243470,"connected_time":5032000000000,"state":"active","ping":75},{"user_id":630,"name":"Enron Hubbard","steam_id":76561198012951411,"connected_time":3419000000000,"state":"active","ping":53},{"user_id":538,"name":"‡∏∏","steam_id":76561198170624701,"connected_time":12682000000000,"state":"active","ping":84},{"user_id":647,"name":"chunger","steam_id":76561198107931997,"connected_time":2164000000000,"state":"active","ping":74},{"user_id":632,"name":"Pyrovision Distributor","steam_id":76561198242118240,"connected_time":3392000000000,"state":"active","ping":59},{"user_id":634,"name":"Joebobio","steam_id":76561198024442760,"connected_time":3345000000000,"state":"active","ping":58},{"user_id":659,"name":"MiriamValkyrie","steam_id":76561198060967416,"connected_time":1057000000000,"state":"active","ping":61},{"user_id":654,"name":"Rein","steam_id":76561198300340427,"connected_time":2059000000000,"state":"active","ping":61},{"user_id":653,"name":"Colonel Sanders jr.","steam_id":76561197990168787,"connected_time":2059000000000,"state":"active","ping":93},{"user_id":660,"name":"pie","steam_id":76561198012945016,"connected_time":1009000000000,"state":"active","ping":45},{"user_id":665,"name":"vacachimuela","steam_id":76561198297332421,"connected_time":48000000000,"state":"active","ping":97},{"user_id":662,"name":"Admiral Crumbs","steam_id":76561198108791583,"connected_time":480000000000,"state":"active","ping":71},{"user_id":655,"name":"Post nut clarity","steam_id":76561198060246831,"connected_time":2015000000000,"state":"active","ping":78},{"user_id":664,"name":"Totally_faraam","steam_id":76561199230162663,"connected_time":311000000000,"state":"active","ping":58},{"user_id":651,"name":"Hawkborne","steam_id":76561198107249245,"connected_time":2096000000000,"state":"active","ping":73}]},{"server_id":403,"name":"Uncletopia | Chicago | 4 | All Maps","name_short":"chi-4","host":"chi-1.us.uncletopia.com","port":27045,"enabled":true,"region":"us-central","cc":"us","latitude":41.881832,"longitude":-87.62318,"reserved":0,"last_update":"0001-01-01T00:00:00Z","name_a2s":"Uncletopia | Chicago | 4 | All Maps","protocol":17,"map":"pl_badwater","folder":"tf","game":"Team Fortress","app_id":440,"player_count":24,"max_players":24,"Bots":0,"server_type":"Dedicated","server_os":"Linux","password":true,"vac":true,"version":"7961495","steam_id":85568392924515193,"keywords":["nocrits","nodmgspread","payload","uncletopia"],"game_id":440,"stv_port":27046,"stv_name":"Uncletopia | Chicago | 4 | All Maps | STV","players":[{"user_id":531,"name":"Bucket Hat Trick","steam_id":76561198381785132,"connected_time":3939000000000,"state":"active","ping":79},{"user_id":570,"name":"The Pan Man From Slavic Land","steam_id":76561198401875841,"connected_time":1042000000000,"state":"active","ping":36},{"user_id":553,"name":"Nilantive","steam_id":76561198177565082,"connected_time":2894000000000,"state":"active","ping":74},{"user_id":542,"name":"astrobob911","steam_id":76561199099110654,"connected_time":3337000000000,"state":"active","ping":65},{"user_id":571,"name":"Siz","steam_id":76561198072962154,"connected_time":960000000000,"state":"active","ping":71},{"user_id":549,"name":"GoldtoothFour","steam_id":76561198055529332,"connected_time":2909000000000,"state":"active","ping":42},{"user_id":582,"name":"WiteBord","steam_id":76561198891799301,"connected_time":359000000000,"state":"active","ping":54},{"user_id":580,"name":"Dimitri Petrenko","steam_id":76561199081363791,"connected_time":563000000000,"state":"active","ping":93},{"user_id":579,"name":"Witicka Dot Com","steam_id":76561198050361870,"connected_time":691000000000,"state":"active","ping":59},{"user_id":482,"name":"wise","steam_id":76561198030066204,"connected_time":8256000000000,"state":"active","ping":49},{"user_id":583,"name":"Lickity Split","steam_id":76561198132051047,"connected_time":350000000000,"state":"active","ping":120},{"user_id":566,"name":"STANLEY","steam_id":76561198812086921,"connected_time":1904000000000,"state":"active","ping":61},{"user_id":575,"name":"Sarbanes-Oxley","steam_id":76561197975898479,"connected_time":891000000000,"state":"active","ping":75},{"user_id":584,"name":"Goredude","steam_id":76561198041048764,"connected_time":328000000000,"state":"active","ping":60},{"user_id":496,"name":"Snow Squid","steam_id":76561198201565674,"connected_time":6752000000000,"state":"active","ping":94},{"user_id":551,"name":"Greenmax9","steam_id":76561198056050329,"connected_time":2903000000000,"state":"active","ping":72},{"user_id":544,"name":"FutabaUchiha","steam_id":76561199436467630,"connected_time":3315000000000,"state":"active","ping":74},{"user_id":354,"name":"Emerald_Knight","steam_id":76561198067372868,"connected_time":16287000000000,"state":"active","ping":45},{"user_id":560,"name":"guy","steam_id":76561198079925551,"connected_time":2454000000000,"state":"active","ping":60},{"user_id":545,"name":"Craft_Warrior1","steam_id":76561198797296015,"connected_time":3297000000000,"state":"active","ping":60},{"user_id":578,"name":"psyk0smurf","steam_id":76561199077856919,"connected_time":733000000000,"state":"active","ping":69},{"user_id":548,"name":"big ol' buford","steam_id":76561198290675957,"connected_time":2931000000000,"state":"active","ping":59},{"user_id":576,"name":"rf","steam_id":76561198195359229,"connected_time":853000000000,"state":"active","ping":89},{"user_id":556,"name":"MintHaggis","steam_id":76561198006674825,"connected_time":2815000000000,"state":"active","ping":88}]},{"server_id":36,"name":"Uncletopia | Chicago | 5 | All Maps","name_short":"chi-5","host":"chi-2.us.uncletopia.com","port":27015,"enabled":true,"region":"us-central","cc":"us","latitude":41.881832,"longitude":-87.62318,"reserved":0,"last_update":"0001-01-01T00:00:00Z","name_a2s":"Uncletopia | Chicago | 5 | All Maps","protocol":17,"map":"koth_king","folder":"tf","game":"Team Fortress","app_id":440,"player_count":24,"max_players":24,"Bots":0,"server_type":"Dedicated","server_os":"Linux","password":true,"vac":true,"version":"7961495","steam_id":85568392924866362,"keywords":["cp","nocrits","nodmgspread","uncletopia"],"game_id":440,"stv_port":27016,"stv_name":"Uncletopia | Chicago | 5 | All Maps | STV","players":[{"user_id":796,"name":"GOLDIE","steam_id":76561199375258674,"connected_time":3197000000000,"state":"active","ping":81},{"user_id":769,"name":"Yongle","steam_id":76561198068591156,"connected_time":4740000000000,"state":"active","ping":58},{"user_id":783,"name":"you're bad","steam_id":76561198112297509,"connected_time":3766000000000,"state":"active","ping":75},{"user_id":817,"name":"9gon Danmar33","steam_id":76561198056453091,"connected_time":1812000000000,"state":"active","ping":54},{"user_id":722,"name":"cinamin.kake","steam_id":76561199003171233,"connected_time":8444000000000,"state":"active","ping":44},{"user_id":784,"name":"U SUX","steam_id":76561198167031395,"connected_time":3758000000000,"state":"active","ping":75},{"user_id":785,"name":"pathways","steam_id":76561198054832333,"connected_time":3747000000000,"state":"active","ping":47},{"user_id":834,"name":"A Mysterious Gift","steam_id":76561198077838946,"connected_time":682000000000,"state":"active","ping":61},{"user_id":829,"name":"Mother french fry","steam_id":76561197995620232,"connected_time":901000000000,"state":"active","ping":61},{"user_id":809,"name":"g8rade","steam_id":76561198070593964,"connected_time":2672000000000,"state":"active","ping":80},{"user_id":825,"name":"SCraig64","steam_id":76561198171251965,"connected_time":1000000000000,"state":"active","ping":75},{"user_id":832,"name":"CherN0ble","steam_id":76561198118209980,"connected_time":867000000000,"state":"active","ping":88},{"user_id":789,"name":"Evie","steam_id":76561198004001828,"connected_time":3550000000000,"state":"active","ping":45},{"user_id":823,"name":"Recyclops","steam_id":76561198258909388,"connected_time":1608000000000,"state":"active","ping":53},{"user_id":821,"name":"Yummy Kabobz","steam_id":76561198067661705,"connected_time":1640000000000,"state":"active","ping":67},{"user_id":761,"name":"uhooter","steam_id":76561198007829078,"connected_time":5053000000000,"state":"active","ping":56},{"user_id":836,"name":"coca hina","steam_id":76561198156419745,"connected_time":466000000000,"state":"active","ping":137},{"user_id":830,"name":"greg airfryer","steam_id":76561197999215868,"connected_time":892000000000,"state":"active","ping":46},{"user_id":822,"name":"Mr. Onion","steam_id":76561198153165950,"connected_time":1632000000000,"state":"active","ping":71},{"user_id":792,"name":"Poorly Drawn Bees","steam_id":76561197996763330,"connected_time":3522000000000,"state":"active","ping":81},{"user_id":634,"name":"Clean Lines","steam_id":76561197960691518,"connected_time":15424000000000,"state":"active","ping":58},{"user_id":793,"name":"maxey","steam_id":76561198096393648,"connected_time":3506000000000,"state":"active","ping":74},{"user_id":837,"name":"Super Mario Smoking Weed","steam_id":76561198069814977,"connected_time":162000000000,"state":"active","ping":74},{"user_id":835,"name":"CherriKat","steam_id":76561198821297512,"connected_time":551000000000,"state":"active","ping":107}]},{"server_id":37,"name":"Uncletopia | Chicago | 6 | All Maps","name_short":"chi-6","host":"chi-2.us.uncletopia.com","port":27025,"enabled":true,"region":"us-central","cc":"us","latitude":41.881832,"longitude":-87.62318,"reserved":0,"last_update":"0001-01-01T00:00:00Z","name_a2s":"Uncletopia | Chicago | 6 | All Maps","protocol":17,"map":"pl_badwater","folder":"tf","game":"Team Fortress","app_id":440,"player_count":24,"max_players":24,"Bots":0,"server_type":"Dedicated","server_os":"Linux","password":true,"vac":true,"version":"7961495","steam_id":85568392924866363,"keywords":["nocrits","nodmgspread","payload","uncletopia"],"game_id":440,"stv_port":27026,"stv_name":"Uncletopia | Chicago | 6 | All Maps | STV","players":[{"user_id":969,"name":"Lemon Soda","steam_id":76561198140208761,"connected_time":670000000000,"state":"active","ping":59},{"user_id":968,"name":"Lumi","steam_id":76561198089978036,"connected_time":692000000000,"state":"active","ping":65},{"user_id":935,"name":"Scarecrow","steam_id":76561198045870511,"connected_time":2499000000000,"state":"active","ping":48},{"user_id":950,"name":"raging rabbit","steam_id":76561198395202564,"connected_time":1685000000000,"state":"active","ping":102},{"user_id":941,"name":"shoe penis","steam_id":76561198871071913,"connected_time":2168000000000,"state":"active","ping":62},{"user_id":936,"name":"„Åè„Ç≥:ÂΩ°","steam_id":76561199200969139,"connected_time":2407000000000,"state":"active","ping":107},{"user_id":970,"name":"King","steam_id":76561198123927752,"connected_time":573000000000,"state":"active","ping":56},{"user_id":938,"name":"‚úß.*Remzy‚úß.*","steam_id":76561199239412094,"connected_time":2372000000000,"state":"active","ping":136},{"user_id":971,"name":"Meme Supreme","steam_id":76561198116265509,"connected_time":561000000000,"state":"active","ping":58},{"user_id":972,"name":"SCROWEN","steam_id":76561198150382695,"connected_time":393000000000,"state":"active","ping":76},{"user_id":973,"name":"Andrew's Taint","steam_id":76561198131400543,"connected_time":378000000000,"state":"active","ping":76},{"user_id":956,"name":"Riff III","steam_id":76561198066921423,"connected_time":1559000000000,"state":"active","ping":64},{"user_id":948,"name":"Sire Salty","steam_id":76561198079639072,"connected_time":1920000000000,"state":"active","ping":60},{"user_id":949,"name":"Evie","steam_id":76561198967313085,"connected_time":1790000000000,"state":"active","ping":105},{"user_id":963,"name":"moonboy","steam_id":76561198172113657,"connected_time":1368000000000,"state":"active","ping":80},{"user_id":952,"name":"Excalibrine","steam_id":76561198129312118,"connected_time":1595000000000,"state":"active","ping":90},{"user_id":953,"name":"Long Iron","steam_id":76561199383266546,"connected_time":1585000000000,"state":"active","ping":60},{"user_id":974,"name":"Rare Bowgart (real)","steam_id":76561199108972643,"connected_time":301000000000,"state":"active","ping":58},{"user_id":955,"name":"Everont√´","steam_id":76561199202265860,"connected_time":1574000000000,"state":"active","ping":85},{"user_id":958,"name":"GreenApples","steam_id":76561198120559543,"connected_time":1506000000000,"state":"active","ping":111},{"user_id":960,"name":"Modest","steam_id":76561198065643694,"connected_time":1456000000000,"state":"active","ping":60},{"user_id":961,"name":"Cornelius","steam_id":76561198123447388,"connected_time":1456000000000,"state":"active","ping":50},{"user_id":962,"name":"Dullahan","steam_id":76561198119668908,"connected_time":1453000000000,"state":"active","ping":111},{"user_id":967,"name":"Aegle","steam_id":76561198871463455,"connected_time":703000000000,"state":"active","ping":101}]},{"server_id":38,"name":"Uncletopia | Chicago | 7 | Stopwatch","name_short":"chi-7","host":"chi-2.us.uncletopia.com","port":27035,"enabled":true,"region":"us-central","cc":"us","latitude":41.881832,"longitude":-87.62318,"reserved":0,"last_update":"0001-01-01T00:00:00Z","name_a2s":"Uncletopia | Chicago | 7 | Stopwatch","protocol":17,"map":"workshop/koth_bagel_rc6.ugc2514036946","folder":"tf","game":"Team Fortress","app_id":440,"player_count":0,"max_players":24,"Bots":0,"server_type":"Dedicated","server_os":"Linux","password":true,"vac":true,"version":"7961495","steam_id":85568392924866364,"keywords":["cp","nocrits","nodmgspread","uncletopia"],"game_id":440,"stv_port":27036,"stv_name":"Uncletopia | Chicago | 7 | Stopwatch | STV","players":null},{"server_id":39,"name":"Uncletopia | Chicago | 8 | Community","name_short":"chi-8","host":"chi-2.us.uncletopia.com","port":27045,"enabled":true,"region":"us-central","cc":"us","latitude":41.881832,"longitude":-87.62318,"reserved":0,"last_update":"0001-01-01T00:00:00Z","name_a2s":"Uncletopia | Chicago | 8 | Community","protocol":17,"map":"workshop/pl_boundary_final1.ugc456799153","folder":"tf","game":"Team Fortress","app_id":440,"player_count":0,"max_players":24,"Bots":0,"server_type":"Dedicated","server_os":"Linux","password":true,"vac":true,"version":"7961495","steam_id":85568392924866365,"keywords":["nocrits","nodmgspread","payload","uncletopia"],"game_id":440,"stv_port":27046,"stv_name":"Uncletopia | Chicago | 8 | Community | STV","players":null},{"server_id":8,"name":"Uncletopia | Dallas | 1 | All Maps","name_short":"dal-1","host":"dal-1.us.uncletopia.com","port":27015,"enabled":true,"region":"us-central","cc":"us","latitude":32.779167,"longitude":-96.80889,"reserved":0,"last_update":"0001-01-01T00:00:00Z","name_a2s":"Uncletopia | Dallas | 1 | All Maps","protocol":17,"map":"pl_swiftwater_final1","folder":"tf","game":"Team Fortress","app_id":440,"player_count":18,"max_players":24,"Bots":0,"server_type":"Dedicated","server_os":"Linux","password":true,"vac":true,"version":"7961495","steam_id":85568392924469986,"keywords":["nocrits","nodmgspread","payload","uncletopia"],"game_id":440,"stv_port":27016,"stv_name":"Uncletopia | Dallas | 1 | All Maps | STV","players":[{"user_id":596,"name":"sithreis","steam_id":76561198000564263,"connected_time":168000000000,"state":"active","ping":75},{"user_id":579,"name":"dereck","steam_id":76561198283886556,"connected_time":1916000000000,"state":"active","ping":119},{"user_id":572,"name":"dog","steam_id":76561198263873491,"connected_time":2308000000000,"state":"active","ping":57},{"user_id":597,"name":"lanoc","steam_id":76561198055415367,"connected_time":124000000000,"state":"active","ping":64},{"user_id":598,"name":"The All-Seeing Tim","steam_id":76561198075510786,"connected_time":20000000000,"state":"active","ping":60},{"user_id":590,"name":"penzfan","steam_id":76561198230422640,"connected_time":630000000000,"state":"active","ping":60},{"user_id":586,"name":"Caught a Thundah","steam_id":76561198054495572,"connected_time":1136000000000,"state":"active","ping":50},{"user_id":591,"name":"story","steam_id":76561199088496817,"connected_time":473000000000,"state":"active","ping":60},{"user_id":599,"name":"Scorch_","steam_id":76561197977611078,"connected_time":2000000000,"state":"spawning","ping":71},{"user_id":569,"name":"JakeOwlsky","steam_id":76561198139194230,"connected_time":2616000000000,"state":"active","ping":93},{"user_id":574,"name":"diigdugg","steam_id":76561198172581861,"connected_time":2021000000000,"state":"active","ping":44},{"user_id":594,"name":"TastyWheat","steam_id":76561198855061918,"connected_time":361000000000,"state":"active","ping":90},{"user_id":595,"name":"Mr. Squirt","steam_id":76561198174755679,"connected_time":302000000000,"state":"active","ping":71},{"user_id":583,"name":"MeMyBongusAndTheGreatOutdoors","steam_id":76561198097708978,"connected_time":1719000000000,"state":"active","ping":49},{"user_id":566,"name":"Asrael","steam_id":76561197986044901,"connected_time":2927000000000,"state":"active","ping":89},{"user_id":588,"name":"errant","steam_id":76561197961758410,"connected_time":865000000000,"state":"active","ping":44},{"user_id":585,"name":"Gamerfan64","steam_id":76561198801410962,"connected_time":1521000000000,"state":"active","ping":46},{"user_id":563,"name":"SaaxoM","steam_id":76561198208256603,"connected_time":3105000000000,"state":"active","ping":74}]},{"server_id":108,"name":"Uncletopia | Dallas | 2 | All Maps","name_short":"dal-2","host":"dal-1.us.uncletopia.com","port":27025,"enabled":true,"region":"us-central","cc":"us","latitude":32.779167,"longitude":-96.80889,"reserved":0,"last_update":"0001-01-01T00:00:00Z","name_a2s":"Uncletopia | Dallas | 2 | All Maps","protocol":17,"map":"koth_viaduct","folder":"tf","game":"Team Fortress","app_id":440,"player_count":24,"max_players":24,"Bots":0,"server_type":"Dedicated","server_os":"Linux","password":true,"vac":true,"version":"7961495","steam_id":85568392924469988,"keywords":["cp","nocrits","nodmgspread","uncletopia"],"game_id":440,"stv_port":27026,"stv_name":"Uncletopia | Dallas | 2 | All Maps | STV","players":[{"user_id":699,"name":"üçíbutaüçí","steam_id":76561198135538212,"connected_time":809000000000,"state":"active","ping":76},{"user_id":703,"name":"dax","steam_id":76561198045335319,"connected_time":622000000000,"state":"active","ping":75},{"user_id":690,"name":"ack.awesome676","steam_id":76561199109415958,"connected_time":1337000000000,"state":"active","ping":73},{"user_id":675,"name":"Zezhest","steam_id":76561198038521979,"connected_time":2296000000000,"state":"active","ping":75},{"user_id":684,"name":"The Horny","steam_id":76561198863639459,"connected_time":1906000000000,"state":"active","ping":110},{"user_id":696,"name":"KYLE KYLESON","steam_id":76561198021920887,"connected_time":875000000000,"state":"active","ping":70},{"user_id":707,"name":"zzzz","steam_id":76561198310495200,"connected_time":491000000000,"state":"active","ping":75},{"user_id":632,"name":"mr ploobmeister","steam_id":76561198128908529,"connected_time":5070000000000,"state":"active","ping":51},{"user_id":643,"name":"Killer-Of-Night","steam_id":76561198054038830,"connected_time":3986000000000,"state":"active","ping":96},{"user_id":697,"name":"goblin","steam_id":76561199004451589,"connected_time":854000000000,"state":"active","ping":49},{"user_id":695,"name":"w/^w/o","steam_id":76561198070688101,"connected_time":886000000000,"state":"active","ping":70},{"user_id":637,"name":"chiswola","steam_id":76561198046920142,"connected_time":4870000000000,"state":"active","ping":83},{"user_id":691,"name":"Wiggs is the Shiggs","steam_id":76561198078379719,"connected_time":1331000000000,"state":"active","ping":87},{"user_id":677,"name":"the BIGGEST fan","steam_id":76561198253710690,"connected_time":2206000000000,"state":"active","ping":97},{"user_id":698,"name":"rat","steam_id":76561198130412963,"connected_time":819000000000,"state":"active","ping":70},{"user_id":705,"name":"DA GOOFY MENACE ^_^ \u003c3","steam_id":76561198832230598,"connected_time":590000000000,"state":"active","ping":86},{"user_id":679,"name":"GRAAAAHHHHHHHHHHHHHHHHHHHHHHHH","steam_id":76561199403427527,"connected_time":2178000000000,"state":"active","ping":74},{"user_id":708,"name":"Odd Life","steam_id":76561198244979998,"connected_time":467000000000,"state":"active","ping":82},{"user_id":688,"name":"Carson","steam_id":76561198068551867,"connected_time":1550000000000,"state":"active","ping":48},{"user_id":638,"name":"spiderguy","steam_id":76561198412074955,"connected_time":4667000000000,"state":"active","ping":56},{"user_id":701,"name":"Azeerthe","steam_id":76561198045728214,"connected_time":772000000000,"state":"active","ping":125},{"user_id":681,"name":"woof","steam_id":76561198016562343,"connected_time":2078000000000,"state":"active","ping":79},{"user_id":662,"name":"Catscr","steam_id":76561198076589280,"connected_time":2975000000000,"state":"active","ping":69},{"user_id":710,"name":"THE MENACE","steam_id":76561198312055294,"connected_time":58000000000,"state":"active","ping":90}]},{"server_id":404,"name":"Uncletopia | Dallas | 3 | All Maps","name_short":"dal-3","host":"dal-1.us.uncletopia.com","port":27035,"enabled":true,"region":"us-central","cc":"us","latitude":32.779167,"longitude":-96.80889,"reserved":0,"last_update":"0001-01-01T00:00:00Z","name_a2s":"Uncletopia | Dallas | 3 | All Maps","protocol":17,"map":"pl_upward","folder":"tf","game":"Team Fortress","app_id":440,"player_count":23,"max_players":24,"Bots":0,"server_type":"Dedicated","server_os":"Linux","password":true,"vac":true,"version":"7961495","steam_id":85568392924515219,"keywords":["nocrits","nodmgspread","payload","uncletopia"],"game_id":440,"stv_port":27036,"stv_name":"Uncletopia | Dallas | 3 | All Maps | STV","players":[{"user_id":103,"name":"Lain","steam_id":76561198029303534,"connected_time":256000000000,"state":"active","ping":67},{"user_id":94,"name":"No.21 - Feral Scent","steam_id":76561198045844070,"connected_time":697000000000,"state":"active","ping":49},{"user_id":75,"name":"2cats_2curious","steam_id":76561198027143149,"connected_time":1438000000000,"state":"active","ping":61},{"user_id":107,"name":"Gemmma","steam_id":76561198102160302,"connected_time":51000000000,"state":"active","ping":83},{"user_id":38,"name":"Xtrax","steam_id":76561198413323492,"connected_time":4715000000000,"state":"active","ping":53},{"user_id":54,"name":"Pepsi Man","steam_id":76561199087645322,"connected_time":2955000000000,"state":"active","ping":72},{"user_id":86,"name":"Zesty Zucchini Ziti","steam_id":76561198092494136,"connected_time":1289000000000,"state":"active","ping":74},{"user_id":97,"name":"andios","steam_id":76561198139499985,"connected_time":574000000000,"state":"active","ping":61},{"user_id":101,"name":"Persona404","steam_id":76561198109635077,"connected_time":367000000000,"state":"active","ping":84},{"user_id":96,"name":"Micc","steam_id":76561199447744486,"connected_time":681000000000,"state":"active","ping":101},{"user_id":92,"name":"Cinnifox","steam_id":76561198068773971,"connected_time":1038000000000,"state":"active","ping":75},{"user_id":55,"name":"Lexsagna","steam_id":76561198000278570,"connected_time":2913000000000,"state":"active","ping":134},{"user_id":104,"name":"Spoogley‚òÖ","steam_id":76561198124597623,"connected_time":144000000000,"state":"active","ping":46},{"user_id":78,"name":"KickButtNess","steam_id":76561198093986236,"connected_time":1384000000000,"state":"active","ping":75},{"user_id":89,"name":"Walter White","steam_id":76561198265079595,"connected_time":1250000000000,"state":"active","ping":60},{"user_id":102,"name":"Doggo","steam_id":76561198051514850,"connected_time":335000000000,"state":"active","ping":88},{"user_id":93,"name":"supcupman","steam_id":76561198051513866,"connected_time":735000000000,"state":"active","ping":93},{"user_id":105,"name":"Lord Shmeck","steam_id":76561198023851456,"connected_time":133000000000,"state":"active","ping":94},{"user_id":90,"name":"Pip","steam_id":76561198243520638,"connected_time":1249000000000,"state":"active","ping":77},{"user_id":83,"name":"Colo6299","steam_id":76561198028190435,"connected_time":1340000000000,"state":"active","ping":74},{"user_id":95,"name":"BreakfastTacos","steam_id":76561198847620442,"connected_time":692000000000,"state":"active","ping":46},{"user_id":87,"name":"boom guy haha","steam_id":76561198062993488,"connected_time":1268000000000,"state":"active","ping":78},{"user_id":100,"name":"type \"bad med\" to kick","steam_id":76561198076402476,"connected_time":454000000000,"state":"active","ping":80}]},{"server_id":405,"name":"Uncletopia | Dallas | 4 | Community","name_short":"dal-4","host":"dal-1.us.uncletopia.com","port":27045,"enabled":true,"region":"us-central","cc":"us","latitude":32.779167,"longitude":-96.80889,"reserved":0,"last_update":"0001-01-01T00:00:00Z","name_a2s":"Uncletopia | Dallas | 4 | Community","protocol":17,"map":"workshop/koth_synthetic_rc6a.ugc1549817316","folder":"tf","game":"Team Fortress","app_id":440,"player_count":0,"max_players":24,"Bots":0,"server_type":"Dedicated","server_os":"Linux","password":true,"vac":true,"version":"7961495","steam_id":85568392924515220,"keywords":["cp","nocrits","nodmgspread","uncletopia"],"game_id":440,"stv_port":27046,"stv_name":"Uncletopia | Dallas | 4 | Community | STV","players":null},{"server_id":5,"name":"Uncletopia | Frankfurt | 1 | All Maps","name_short":"frk-1","host":"frk-1.de.uncletopia.com","port":27015,"enabled":true,"region":"eu","cc":"de","latitude":50.110924,"longitude":8.682127,"reserved":0,"last_update":"0001-01-01T00:00:00Z","name_a2s":"Uncletopia | Frankfurt | 1 | All Maps","protocol":17,"map":"cp_badlands","folder":"tf","game":"Team Fortress","app_id":440,"player_count":0,"max_players":24,"Bots":0,"server_type":"Dedicated","server_os":"Linux","password":true,"vac":true,"version":"7961495","steam_id":85568392924469989,"keywords":["cp","nocrits","nodmgspread","uncletopia"],"game_id":440,"stv_port":27016,"stv_name":"Uncletopia | Frankfurt | 1 | All Maps | STV","players":null},{"server_id":110,"name":"Uncletopia | Frankfurt | 2 | All Maps","name_short":"frk-2","host":"frk-1.de.uncletopia.com","port":27025,"enabled":true,"region":"eu","cc":"de","latitude":50.110924,"longitude":8.682127,"reserved":0,"last_update":"0001-01-01T00:00:00Z","name_a2s":"Uncletopia | Frankfurt | 2 | All Maps","protocol":17,"map":"plr_hightower","folder":"tf","game":"Team Fortress","app_id":440,"player_count":0,"max_players":24,"Bots":0,"server_type":"Dedicated","server_os":"Linux","password":true,"vac":true,"version":"7961495","steam_id":85568392924469990,"keywords":["nocrits","nodmgspread","payload","uncletopia"],"game_id":440,"stv_port":27026,"stv_name":"Uncletopia | Frankfurt | 2 | All Maps | STV","players":null},{"server_id":308,"name":"Uncletopia | Frankfurt | 3 | All Maps","name_short":"frk-3","host":"frk-1.de.uncletopia.com","port":27035,"enabled":true,"region":"eu","cc":"de","latitude":50.110924,"longitude":8.682127,"reserved":0,"last_update":"0001-01-01T00:00:00Z","name_a2s":"Uncletopia | Frankfurt | 3 | All Maps","protocol":17,"map":"cp_metalworks","folder":"tf","game":"Team Fortress","app_id":440,"player_count":0,"max_players":24,"Bots":0,"server_type":"Dedicated","server_os":"Linux","password":true,"vac":true,"version":"7961495","steam_id":85568392924504274,"keywords":["cp","nocrits","nodmgspread","uncletopia"],"game_id":440,"stv_port":27036,"stv_name":"Uncletopia | Frankfurt | 3 | All Maps | STV","players":null},{"server_id":309,"name":"Uncletopia | Frankfurt | 4 | All Maps","name_short":"frk-4","host":"frk-1.de.uncletopia.com","port":27045,"enabled":true,"region":"eu","cc":"de","latitude":50.110924,"longitude":8.682127,"reserved":0,"last_update":"0001-01-01T00:00:00Z","name_a2s":"Uncletopia | Frankfurt | 4 | All Maps","protocol":17,"map":"cp_gorge","folder":"tf","game":"Team Fortress","app_id":440,"player_count":0,"max_players":24,"Bots":0,"server_type":"Dedicated","server_os":"Linux","password":true,"vac":true,"version":"7961495","steam_id":85568392924504275,"keywords":["cp","nocrits","nodmgspread","uncletopia"],"game_id":440,"stv_port":27046,"stv_name":"Uncletopia | Frankfurt | 4 | All Maps | STV","players":null},{"server_id":310,"name":"Uncletopia | Frankfurt | 5 | All Maps","name_short":"frk-5","host":"frk-1.de.uncletopia.com","port":27055,"enabled":true,"region":"eu","cc":"de","latitude":50.110924,"longitude":8.682127,"reserved":0,"last_update":"0001-01-01T00:00:00Z","name_a2s":"Uncletopia | Frankfurt | 5 | All Maps","protocol":17,"map":"cp_mountainlab","folder":"tf","game":"Team Fortress","app_id":440,"player_count":0,"max_players":24,"Bots":0,"server_type":"Dedicated","server_os":"Linux","password":true,"vac":true,"version":"7961495","steam_id":85568392924504277,"keywords":["cp","nocrits","nodmgspread","uncletopia"],"game_id":440,"stv_port":27056,"stv_name":"Uncletopia | Frankfurt | 5 | All Maps | STV","players":null},{"server_id":311,"name":"Uncletopia | Frankfurt | 6 | All Maps","name_short":"frk-6","host":"frk-1.de.uncletopia.com","port":27065,"enabled":true,"region":"eu","cc":"de","latitude":50.110924,"longitude":8.682127,"reserved":0,"last_update":"0001-01-01T00:00:00Z","name_a2s":"Uncletopia | Frankfurt | 6 | All Maps","protocol":17,"map":"cp_coldfront","folder":"tf","game":"Team Fortress","app_id":440,"player_count":0,"max_players":24,"Bots":0,"server_type":"Dedicated","server_os":"Linux","password":true,"vac":true,"version":"7961495","steam_id":85568392924504278,"keywords":["cp","nocrits","nodmgspread","uncletopia"],"game_id":440,"stv_port":27066,"stv_name":"Uncletopia | Frankfurt | 6 | All Maps | STV","players":null},{"server_id":23,"name":"Uncletopia | Frankfurt | 7 | Stopwatch","name_short":"frk-7","host":"frk-1.de.uncletopia.com","port":27075,"enabled":true,"region":"eu","cc":"de","latitude":50.110924,"longitude":8.682127,"reserved":0,"last_update":"0001-01-01T00:00:00Z","name_a2s":"Uncletopia | Frankfurt | 7 | Stopwatch","protocol":17,"map":"cp_sunshine","folder":"tf","game":"Team Fortress","app_id":440,"player_count":0,"max_players":24,"Bots":0,"server_type":"Dedicated","server_os":"Linux","password":true,"vac":true,"version":"7961495","steam_id":85568392924742827,"keywords":["cp","nocrits","nodmgspread","uncletopia"],"game_id":440,"stv_port":27076,"stv_name":"Uncletopia | Frankfurt | 7 | Stopwatch | STV","players":null},{"server_id":24,"name":"Uncletopia | Frankfurt | 8 | Community","name_short":"frk-8","host":"frk-1.de.uncletopia.com","port":27085,"enabled":true,"region":"eu","cc":"de","latitude":50.110924,"longitude":8.682127,"reserved":0,"last_update":"0001-01-01T00:00:00Z","name_a2s":"Uncletopia | Frankfurt | 8 | Community","protocol":17,"map":"workshop/pl_boundary_final1.ugc456799153","folder":"tf","game":"Team Fortress","app_id":440,"player_count":0,"max_players":24,"Bots":0,"server_type":"Dedicated","server_os":"Linux","password":true,"vac":true,"version":"7961495","steam_id":85568392924742828,"keywords":["nocrits","nodmgspread","payload","uncletopia"],"game_id":440,"stv_port":27086,"stv_name":"Uncletopia | Frankfurt | 8 | Community | STV","players":null},{"server_id":202,"name":"Uncletopia | Hong Kong | 1 | All Maps","name_short":"hgk-1","host":"hgk-1.hk.uncletopia.com","port":27015,"enabled":true,"region":"asia","cc":"hk","latitude":22.302711,"longitude":114.177216,"reserved":0,"last_update":"0001-01-01T00:00:00Z","name_a2s":"Uncletopia | Hong Kong | 1 | All Maps","protocol":17,"map":"koth_viaduct","folder":"tf","game":"Team Fortress","app_id":440,"player_count":1,"max_players":24,"Bots":0,"server_type":"Dedicated","server_os":"Linux","password":true,"vac":true,"version":"7961495","steam_id":85568392924494504,"keywords":["cp","nocrits","nodmgspread","uncletopia"],"game_id":440,"stv_port":27016,"stv_name":"Uncletopia | Hong Kong | 1 | All Maps | STV","players":[{"user_id":8,"name":"Odyssey","steam_id":76561199184927159,"connected_time":108000000000,"state":"active","ping":113}]},{"server_id":1,"name":"Uncletopia | Los Angeles | 1 | All Maps","name_short":"lax-1","host":"lax-1.us.uncletopia.com","port":27015,"enabled":true,"region":"us-west","cc":"us","latitude":33.94279,"longitude":-118.41004,"reserved":0,"last_update":"0001-01-01T00:00:00Z","name_a2s":"Uncletopia | Los Angeles | 1 | All Maps","protocol":17,"map":"pl_barnblitz","folder":"tf","game":"Team Fortress","app_id":440,"player_count":24,"max_players":24,"Bots":0,"server_type":"Dedicated","server_os":"Linux","password":true,"vac":true,"version":"7961495","steam_id":85568392924469991,"keywords":["nocrits","nodmgspread","payload","uncletopia"],"game_id":440,"stv_port":27016,"stv_name":"Uncletopia | Los Angeles | 1 | All Maps | STV","players":[{"user_id":130,"name":"a chicken","steam_id":76561198313121580,"connected_time":3637000000000,"state":"active","ping":49},{"user_id":147,"name":"Just a Good Friend","steam_id":76561198140052403,"connected_time":2363000000000,"state":"active","ping":45},{"user_id":132,"name":"lobster","steam_id":76561198073445815,"connected_time":3237000000000,"state":"active","ping":69},{"user_id":158,"name":"Yoyos","steam_id":76561198061035695,"connected_time":498000000000,"state":"active","ping":45},{"user_id":139,"name":"Mexican Elvis","steam_id":76561198165100210,"connected_time":2420000000000,"state":"active","ping":51},{"user_id":162,"name":"mac_cheese","steam_id":76561198071334162,"connected_time":464000000000,"state":"active","ping":77},{"user_id":159,"name":"beezer","steam_id":76561199049160726,"connected_time":496000000000,"state":"active","ping":45},{"user_id":161,"name":"Crustacean Daddy","steam_id":76561198993807061,"connected_time":475000000000,"state":"active","ping":31},{"user_id":150,"name":"BMoney","steam_id":76561198799389030,"connected_time":1447000000000,"state":"active","ping":48},{"user_id":167,"name":"chai","steam_id":76561198058182599,"connected_time":54000000000,"state":"active","ping":66},{"user_id":146,"name":"Kepa","steam_id":76561198091975728,"connected_time":2368000000000,"state":"active","ping":75},{"user_id":148,"name":"yellow ·óúÀ¨·óú","steam_id":76561198366474647,"connected_time":2258000000000,"state":"active","ping":43},{"user_id":151,"name":"[PINGU‚Ñ¢] Tiny Tuna","steam_id":76561198193611579,"connected_time":1440000000000,"state":"active","ping":101},{"user_id":163,"name":"shampoo","steam_id":76561198999938413,"connected_time":352000000000,"state":"active","ping":91},{"user_id":114,"name":"milk","steam_id":76561198053410877,"connected_time":4533000000000,"state":"active","ping":45},{"user_id":131,"name":"HAT-WEARING‚Ñ¢ Maggot Gamer Cat","steam_id":76561197973992705,"connected_time":3260000000000,"state":"active","ping":58},{"user_id":48,"name":"Mingephreaker","steam_id":76561198215825893,"connected_time":8535000000000,"state":"active","ping":104},{"user_id":141,"name":"SDK619","steam_id":76561198066699570,"connected_time":2406000000000,"state":"active","ping":75},{"user_id":165,"name":"[TRR/IO] Tangerine Baker","steam_id":76561199004774964,"connected_time":166000000000,"state":"active","ping":54},{"user_id":154,"name":"day6","steam_id":76561198168492250,"connected_time":1305000000000,"state":"active","ping":56},{"user_id":157,"name":"bansheerubber","steam_id":76561198042009362,"connected_time":918000000000,"state":"active","ping":52},{"user_id":160,"name":"darren","steam_id":76561199050155136,"connected_time":495000000000,"state":"active","ping":47},{"user_id":166,"name":"Schwifty Sky","steam_id":76561198044121499,"connected_time":120000000000,"state":"active","ping":81},{"user_id":121,"name":"Stormy DCP","steam_id":76561198325420712,"connected_time":4242000000000,"state":"active","ping":158}]},{"server_id":112,"name":"Uncletopia | Los Angeles | 2 | All Maps","name_short":"lax-2","host":"lax-1.us.uncletopia.com","port":27025,"enabled":true,"region":"us-west","cc":"us","latitude":33.94279,"longitude":-118.41004,"reserved":0,"last_update":"0001-01-01T00:00:00Z","name_a2s":"Uncletopia | Los Angeles | 2 | All Maps","protocol":17,"map":"cp_sunshine","folder":"tf","game":"Team Fortress","app_id":440,"player_count":24,"max_players":24,"Bots":0,"server_type":"Dedicated","server_os":"Linux","password":true,"vac":true,"version":"7961495","steam_id":85568392924469992,"keywords":["cp","nocrits","nodmgspread","uncletopia"],"game_id":440,"stv_port":27026,"stv_name":"Uncletopia | Los Angeles | 2 | All Maps | STV","players":[{"user_id":158,"name":"ÔΩ¢AntrixÔΩ£","steam_id":76561198375881040,"connected_time":1229000000000,"state":"active","ping":48},{"user_id":146,"name":"bocchi tha dawg","steam_id":76561198259650356,"connected_time":2353000000000,"state":"active","ping":56},{"user_id":169,"name":"abc123","steam_id":76561199177831971,"connected_time":148000000000,"state":"active","ping":84},{"user_id":103,"name":"ena - d","steam_id":76561198072329335,"connected_time":5592000000000,"state":"active","ping":92},{"user_id":110,"name":"Birdman743","steam_id":76561198799636748,"connected_time":4308000000000,"state":"active","ping":71},{"user_id":154,"name":"thatfoolralph","steam_id":76561199210333385,"connected_time":2030000000000,"state":"active","ping":61},{"user_id":162,"name":"Big Boy Beni","steam_id":76561197995469460,"connected_time":843000000000,"state":"active","ping":44},{"user_id":170,"name":"Mike Bean Burritos","steam_id":76561198173430607,"connected_time":103000000000,"state":"active","ping":85},{"user_id":115,"name":"BasedGod","steam_id":76561198061177973,"connected_time":4018000000000,"state":"active","ping":53},{"user_id":156,"name":"Malcolm Black","steam_id":76561198044877866,"connected_time":1281000000000,"state":"active","ping":66},{"user_id":161,"name":"oobner","steam_id":76561198864545608,"connected_time":989000000000,"state":"active","ping":60},{"user_id":128,"name":"weed lesbian","steam_id":76561198042263805,"connected_time":3247000000000,"state":"active","ping":85},{"user_id":121,"name":"Mr. Noodle","steam_id":76561198025280658,"connected_time":3757000000000,"state":"active","ping":54},{"user_id":157,"name":"Ashanti Clan","steam_id":76561198032651105,"connected_time":1259000000000,"state":"active","ping":72},{"user_id":164,"name":"mentos14","steam_id":76561198097993629,"connected_time":435000000000,"state":"active","ping":60},{"user_id":124,"name":"Melon","steam_id":76561199202306398,"connected_time":3556000000000,"state":"active","ping":39},{"user_id":143,"name":"udon","steam_id":76561198165872348,"connected_time":2571000000000,"state":"active","ping":70},{"user_id":147,"name":"Poopisviel Von Einzbern","steam_id":76561198259260433,"connected_time":2326000000000,"state":"active","ping":108},{"user_id":160,"name":"1000 Ping","steam_id":76561198098330939,"connected_time":1142000000000,"state":"active","ping":68},{"user_id":168,"name":"Nate","steam_id":76561198045186954,"connected_time":157000000000,"state":"active","ping":68},{"user_id":149,"name":"PainInTheRuss","steam_id":76561197977960543,"connected_time":2296000000000,"state":"active","ping":51},{"user_id":165,"name":"level 7 firemancer","steam_id":76561198209571677,"connected_time":298000000000,"state":"active","ping":102},{"user_id":151,"name":"Boba","steam_id":76561198983740259,"connected_time":2143000000000,"state":"active","ping":56},{"user_id":153,"name":"chimplicity","steam_id":76561198012097062,"connected_time":2082000000000,"state":"active","ping":59}]},{"server_id":324,"name":"Uncletopia | Los Angeles | 3 | All Maps","name_short":"lax-3","host":"lax-1.us.uncletopia.com","port":27035,"enabled":true,"region":"us-west","cc":"us","latitude":33.94279,"longitude":-118.41004,"reserved":0,"last_update":"0001-01-01T00:00:00Z","name_a2s":"Uncletopia | Los Angeles | 3 | All Maps","protocol":17,"map":"cp_sunshine","folder":"tf","game":"Team Fortress","app_id":440,"player_count":0,"max_players":24,"Bots":0,"server_type":"Dedicated","server_os":"Linux","password":true,"vac":true,"version":"7961495","steam_id":85568392924510198,"keywords":["cp","nocrits","nodmgspread","uncletopia"],"game_id":440,"stv_port":27036,"stv_name":"Uncletopia | Los Angeles | 3 | All Maps | STV","players":null},{"server_id":25,"name":"Uncletopia | Los Angeles | 4 | Stopwatch","name_short":"lax-4","host":"lax-1.us.uncletopia.com","port":27045,"enabled":true,"region":"us-west","cc":"us","latitude":33.94279,"longitude":-118.41004,"reserved":0,"last_update":"0001-01-01T00:00:00Z","name_a2s":"Uncletopia | Los Angeles | 4 | Stopwatch","protocol":17,"map":"workshop/koth_bagel_rc6.ugc2514036946","folder":"tf","game":"Team Fortress","app_id":440,"player_count":16,"max_players":24,"Bots":0,"server_type":"Dedicated","server_os":"Linux","password":true,"vac":true,"version":"7961495","steam_id":85568392924510199,"keywords":["cp","nocrits","nodmgspread","uncletopia"],"game_id":440,"stv_port":27046,"stv_name":"Uncletopia | Los Angeles | 4 | Stopwatch | STV","players":[{"user_id":58,"name":"trackpad gaming | f2p","steam_id":76561198840414371,"connected_time":179000000000,"state":"active","ping":78},{"user_id":53,"name":"goth witch","steam_id":76561198069605283,"connected_time":625000000000,"state":"active","ping":53},{"user_id":54,"name":"Soggy Zogg","steam_id":76561198836316052,"connected_time":623000000000,"state":"active","ping":45},{"user_id":55,"name":"Delta","steam_id":76561198158985472,"connected_time":482000000000,"state":"active","ping":149},{"user_id":42,"name":"finmin","steam_id":76561198127639913,"connected_time":1131000000000,"state":"active","ping":47},{"user_id":34,"name":"Sak","steam_id":76561198307655707,"connected_time":1712000000000,"state":"active","ping":57},{"user_id":43,"name":"jurt","steam_id":76561198966381490,"connected_time":1130000000000,"state":"active","ping":101},{"user_id":59,"name":"Panzerschreck Bath Water","steam_id":76561198178133625,"connected_time":48000000000,"state":"spawning","ping":311},{"user_id":38,"name":"ShadowZiki","steam_id":76561198145930013,"connected_time":1331000000000,"state":"active","ping":45},{"user_id":39,"name":"BomberHeadCx","steam_id":76561198189226831,"connected_time":1303000000000,"state":"active","ping":63},{"user_id":40,"name":"mafia is mafia","steam_id":76561198042574722,"connected_time":1225000000000,"state":"active","ping":82},{"user_id":41,"name":"Arroz Cream","steam_id":76561198447493924,"connected_time":1180000000000,"state":"active","ping":46},{"user_id":45,"name":"Planetfinder","steam_id":76561198209498395,"connected_time":993000000000,"state":"active","ping":75},{"user_id":46,"name":"genericBadName","steam_id":76561198992586439,"connected_time":929000000000,"state":"active","ping":76},{"user_id":57,"name":"Weegee","steam_id":76561198140095755,"connected_time":286000000000,"state":"active","ping":61},{"user_id":60,"name":"Leroy","steam_id":76561199013064727,"connected_time":42000000000,"state":"active","ping":89}]},{"server_id":11,"name":"Uncletopia | London | 1 | All Maps","name_short":"lon-1","host":"lon-1.uk.uncletopia.com","port":27015,"enabled":true,"region":"eu","cc":"gb","latitude":51.509865,"longitude":-0.118092,"reserved":0,"last_update":"0001-01-01T00:00:00Z","name_a2s":"Uncletopia | London | 1 | All Maps","protocol":17,"map":"pl_borneo","folder":"tf","game":"Team Fortress","app_id":440,"player_count":0,"max_players":24,"Bots":0,"server_type":"Dedicated","server_os":"Linux","password":true,"vac":true,"version":"7961495","steam_id":85568392924367362,"keywords":["nocrits","nodmgspread","payload","uncletopia"],"game_id":440,"stv_port":27016,"stv_name":"Uncletopia | London | 1 | All Maps | STV","players":null},{"server_id":114,"name":"Uncletopia | London | 2 | All Maps","name_short":"lon-2","host":"lon-1.uk.uncletopia.com","port":27025,"enabled":true,"region":"eu","cc":"gb","latitude":51.509865,"longitude":-0.118092,"reserved":0,"last_update":"0001-01-01T00:00:00Z","name_a2s":"Uncletopia | London | 2 | All Maps","protocol":17,"map":"pl_upward","folder":"tf","game":"Team Fortress","app_id":440,"player_count":0,"max_players":24,"Bots":0,"server_type":"Dedicated","server_os":"Linux","password":true,"vac":true,"version":"7961495","steam_id":85568392924470941,"keywords":["nocrits","nodmgspread","payload","uncletopia"],"game_id":440,"stv_port":27026,"stv_name":"Uncletopia | London | 2 | All Maps | STV","players":null},{"server_id":320,"name":"Uncletopia | London | 3 | All Maps","name_short":"lon-3","host":"lon-1.uk.uncletopia.com","port":27035,"enabled":true,"region":"eu","cc":"gb","latitude":51.509865,"longitude":-0.118092,"reserved":0,"last_update":"0001-01-01T00:00:00Z","name_a2s":"Uncletopia | London | 3 | All Maps","protocol":17,"map":"koth_highpass","folder":"tf","game":"Team Fortress","app_id":440,"player_count":0,"max_players":24,"Bots":0,"server_type":"Dedicated","server_os":"Linux","password":true,"vac":true,"version":"7961495","steam_id":85568392924510192,"keywords":["cp","nocrits","nodmgspread","uncletopia"],"game_id":440,"stv_port":27036,"stv_name":"Uncletopia | London | 3 | All Maps | STV","players":null},{"server_id":321,"name":"Uncletopia | London | 4 | All Maps","name_short":"lon-4","host":"lon-1.uk.uncletopia.com","port":27045,"enabled":true,"region":"eu","cc":"gb","latitude":51.509865,"longitude":-0.118092,"reserved":0,"last_update":"0001-01-01T00:00:00Z","name_a2s":"Uncletopia | London | 4 | All Maps","protocol":17,"map":"pl_badwater","folder":"tf","game":"Team Fortress","app_id":440,"player_count":0,"max_players":24,"Bots":0,"server_type":"Dedicated","server_os":"Linux","password":true,"vac":true,"version":"7961495","steam_id":85568392924510193,"keywords":["nocrits","nodmgspread","payload","uncletopia"],"game_id":440,"stv_port":27046,"stv_name":"Uncletopia | London | 4 | All Maps | STV","players":null},{"server_id":21,"name":"Uncletopia | London | 5 | All Maps","name_short":"lon-5","host":"lon-1.uk.uncletopia.com","port":27055,"enabled":true,"region":"eu","cc":"gb","latitude":51.509865,"longitude":-0.118092,"reserved":0,"last_update":"0001-01-01T00:00:00Z","name_a2s":"Uncletopia | London | 5 | All Maps","protocol":17,"map":"cp_dustbowl","folder":"tf","game":"Team Fortress","app_id":440,"player_count":0,"max_players":24,"Bots":0,"server_type":"Dedicated","server_os":"Linux","password":true,"vac":true,"version":"7961495","steam_id":85568392924742829,"keywords":["cp","nocrits","nodmgspread","uncletopia"],"game_id":440,"stv_port":27056,"stv_name":"Uncletopia | London | 5 | All Maps | STV","players":null},{"server_id":22,"name":"Uncletopia | London | 6 | All Maps","name_short":"lon-6","host":"lon-1.uk.uncletopia.com","port":27065,"enabled":true,"region":"eu","cc":"gb","latitude":51.509865,"longitude":-0.118092,"reserved":0,"last_update":"0001-01-01T00:00:00Z","name_a2s":"Uncletopia | London | 6 | All Maps","protocol":17,"map":"koth_viaduct","folder":"tf","game":"Team Fortress","app_id":440,"player_count":0,"max_players":24,"Bots":0,"server_type":"Dedicated","server_os":"Linux","password":true,"vac":true,"version":"7961495","steam_id":85568392924742830,"keywords":["cp","nocrits","nodmgspread","uncletopia"],"game_id":440,"stv_port":27066,"stv_name":"Uncletopia | London | 6 | All Maps | STV","players":null},{"server_id":40,"name":"Uncletopia | London | 7 | Stopwatch","name_short":"lon-7","host":"lon-1.uk.uncletopia.com","port":27075,"enabled":true,"region":"eu","cc":"gb","latitude":51.509865,"longitude":-0.118092,"reserved":0,"last_update":"0001-01-01T00:00:00Z","name_a2s":"Uncletopia | London | 7 | Stopwatch","protocol":17,"map":"cp_snakewater_final1","folder":"tf","game":"Team Fortress","app_id":440,"player_count":0,"max_players":24,"Bots":0,"server_type":"Dedicated","server_os":"Linux","password":true,"vac":true,"version":"7961495","steam_id":85568392924964314,"keywords":["cp","nocrits","nodmgspread","uncletopia"],"game_id":440,"stv_port":27076,"stv_name":"Uncletopia | London | 7 | Stopwatch | STV","players":null},{"server_id":41,"name":"Uncletopia | London | 8 | Community","name_short":"lon-8","host":"lon-1.uk.uncletopia.com","port":27085,"enabled":true,"region":"eu","cc":"gb","latitude":51.509865,"longitude":-0.118092,"reserved":0,"last_update":"0001-01-01T00:00:00Z","name_a2s":"Uncletopia | London | 8 | Community","protocol":17,"map":"workshop/cp_villa_b19.ugc2113052569","folder":"tf","game":"Team Fortress","app_id":440,"player_count":0,"max_players":24,"Bots":0,"server_type":"Dedicated","server_os":"Linux","password":true,"vac":true,"version":"7961495","steam_id":85568392924964315,"keywords":["cp","nocrits","nodmgspread","uncletopia"],"game_id":440,"stv_port":27086,"stv_name":"Uncletopia | London | 8 | Community | STV","players":null},{"server_id":300,"name":"Uncletopia | Montr√©al | 1 | One Thousand Uncles","name_short":"mtl-1","host":"mtl-1.ca.uncletopia.com","port":27015,"enabled":true,"region":"us-east","cc":"ca","latitude":45.50889,"longitude":-73.56167,"reserved":0,"last_update":"0001-01-01T00:00:00Z","name_a2s":"Uncletopia | Montr√©al | 1 | One Thousand Uncles","protocol":17,"map":"pl_snowycoast","folder":"tf","game":"Team Fortress","app_id":440,"player_count":0,"max_players":32,"Bots":0,"server_type":"Dedicated","server_os":"Linux","password":true,"vac":true,"version":"7961495","steam_id":85568392924500087,"keywords":["alltalk","danepve","increased_maxplayers","norespawntime","payload","uncletopia"],"game_id":440,"stv_port":0,"stv_name":"","players":null},{"server_id":301,"name":"Uncletopia | Montr√©al | 2 | One Thousand Uncles","name_short":"mtl-2","host":"mtl-1.ca.uncletopia.com","port":27025,"enabled":true,"region":"us-east","cc":"ca","latitude":45.50889,"longitude":-73.56167,"reserved":0,"last_update":"0001-01-01T00:00:00Z","name_a2s":"Uncletopia | Montr√©al | 2 | One Thousand Uncles","protocol":17,"map":"pl_goldrush","folder":"tf","game":"Team Fortress","app_id":440,"player_count":0,"max_players":32,"Bots":0,"server_type":"Dedicated","server_os":"Linux","password":true,"vac":true,"version":"7961495","steam_id":85568392924500088,"keywords":["alltalk","danepve","increased_maxplayers","norespawntime","payload","uncletopia"],"game_id":440,"stv_port":0,"stv_name":"","players":null},{"server_id":302,"name":"Uncletopia | Montr√©al | 3 | One Thousand Uncles","name_short":"mtl-3","host":"mtl-1.ca.uncletopia.com","port":27035,"enabled":true,"region":"us-east","cc":"ca","latitude":45.50889,"longitude":-73.56167,"reserved":0,"last_update":"0001-01-01T00:00:00Z","name_a2s":"Uncletopia | Montr√©al | 3 | One Thousand Uncles","protocol":17,"map":"pl_pier","folder":"tf","game":"Team Fortress","app_id":440,"player_count":0,"max_players":32,"Bots":0,"server_type":"Dedicated","server_os":"Linux","password":true,"vac":true,"version":"7961495","steam_id":85568392924500089,"keywords":["alltalk","danepve","increased_maxplayers","norespawntime","payload","uncletopia"],"game_id":440,"stv_port":0,"stv_name":"","players":null},{"server_id":13,"name":"Uncletopia | New York City | 1 | All Maps","name_short":"nyc-1","host":"nyc-1.us.uncletopia.com","port":27015,"enabled":true,"region":"us-east","cc":"us","latitude":40.73061,"longitude":-73.93524,"reserved":0,"last_update":"0001-01-01T00:00:00Z","name_a2s":"Uncletopia | New York City | 1 | All Maps","protocol":17,"map":"pl_frontier_final","folder":"tf","game":"Team Fortress","app_id":440,"player_count":15,"max_players":24,"Bots":0,"server_type":"Dedicated","server_os":"Linux","password":true,"vac":true,"version":"7961495","steam_id":85568392924469993,"keywords":["nocrits","nodmgspread","payload","uncletopia"],"game_id":440,"stv_port":27016,"stv_name":"Uncletopia | New York City | 1 | All Maps | STV","players":[{"user_id":918,"name":"medd","steam_id":76561198078238722,"connected_time":536000000000,"state":"active","ping":107},{"user_id":922,"name":"Captain Slow","steam_id":76561198116957161,"connected_time":343000000000,"state":"active","ping":43},{"user_id":895,"name":"Duncan Idaho","steam_id":76561197988963861,"connected_time":2975000000000,"state":"active","ping":60},{"user_id":914,"name":"Aku+","steam_id":76561198813782795,"connected_time":1143000000000,"state":"active","ping":135},{"user_id":925,"name":"Vincent Van Ghoul","steam_id":76561198271907916,"connected_time":224000000000,"state":"active","ping":46},{"user_id":905,"name":"GeorgyZhukov#Rustypot","steam_id":76561198075536517,"connected_time":1891000000000,"state":"active","ping":65},{"user_id":920,"name":"Gaming Grandpa","steam_id":76561198121418631,"connected_time":478000000000,"state":"active","ping":60},{"user_id":924,"name":"The Khronicles of Keith","steam_id":76561198056622157,"connected_time":298000000000,"state":"active","ping":47},{"user_id":900,"name":"corntent","steam_id":76561198824847948,"connected_time":2266000000000,"state":"active","ping":42},{"user_id":908,"name":"Whisk #GOOD GAMER","steam_id":76561198272318229,"connected_time":1652000000000,"state":"active","ping":62},{"user_id":886,"name":"Killbasa","steam_id":76561198064868400,"connected_time":3794000000000,"state":"active","ping":46},{"user_id":860,"name":"Two-Teste Tommy","steam_id":76561198064308936,"connected_time":5648000000000,"state":"active","ping":60},{"user_id":893,"name":"Lawyah","steam_id":76561198087789798,"connected_time":3051000000000,"state":"active","ping":98},{"user_id":911,"name":"APOTATO","steam_id":76561198118199858,"connected_time":1462000000000,"state":"active","ping":114},{"user_id":669,"name":"Drake the Pixel","steam_id":76561198131824401,"connected_time":12254000000000,"state":"active","ping":44}]},{"server_id":14,"name":"Uncletopia | New York City | 2 | All Maps","name_short":"nyc-2","host":"nyc-1.us.uncletopia.com","port":27025,"enabled":true,"region":"us-east","cc":"us","latitude":40.73061,"longitude":-73.93524,"reserved":0,"last_update":"0001-01-01T00:00:00Z","name_a2s":"Uncletopia | New York City | 2 | All Maps","protocol":17,"map":"cp_process_final","folder":"tf","game":"Team Fortress","app_id":440,"player_count":0,"max_players":24,"Bots":0,"server_type":"Dedicated","server_os":"Linux","password":true,"vac":true,"version":"7961495","steam_id":85568392924469994,"keywords":["cp","nocrits","nodmgspread","uncletopia"],"game_id":440,"stv_port":27026,"stv_name":"Uncletopia | New York City | 2 | All Maps | STV","players":null},{"server_id":15,"name":"Uncletopia | New York City | 3 | Stopwatch","name_short":"nyc-3","host":"nyc-1.us.uncletopia.com","port":27035,"enabled":true,"region":"us-east","cc":"us","latitude":40.73061,"longitude":-73.93524,"reserved":0,"last_update":"0001-01-01T00:00:00Z","name_a2s":"Uncletopia | New York City | 3 | Stopwatch","protocol":17,"map":"workshop/koth_ashville_final.ugc2130459942","folder":"tf","game":"Team Fortress","app_id":440,"player_count":0,"max_players":24,"Bots":0,"server_type":"Dedicated","server_os":"Linux","password":true,"vac":true,"version":"7961495","steam_id":85568392924742820,"keywords":["cp","nocrits","nodmgspread","uncletopia"],"game_id":440,"stv_port":27036,"stv_name":"Uncletopia | New York City | 3 | Stopwatch | STV","players":null},{"server_id":16,"name":"Uncletopia | New York City | 4 | Community","name_short":"nyc-4","host":"nyc-1.us.uncletopia.com","port":27045,"enabled":true,"region":"us-east","cc":"us","latitude":40.73061,"longitude":-73.93524,"reserved":0,"last_update":"0001-01-01T00:00:00Z","name_a2s":"Uncletopia | New York City | 4 | Community","protocol":17,"map":"workshop/koth_slaughter_rc1.ugc1712845210","folder":"tf","game":"Team Fortress","app_id":440,"player_count":0,"max_players":24,"Bots":0,"server_type":"Dedicated","server_os":"Linux","password":true,"vac":true,"version":"7961495","steam_id":85568392924742821,"keywords":["cp","nocrits","nodmgspread","uncletopia"],"game_id":440,"stv_port":27046,"stv_name":"Uncletopia | New York City | 4 | Community | STV","players":null},{"server_id":142,"name":"Uncletopia | S√£o Paulo | 1 | All Maps","name_short":"sao-1","host":"sao-1.br.uncletopia.com","port":27015,"enabled":true,"region":"sa","cc":"br","latitude":-23.533773,"longitude":-46.62529,"reserved":0,"last_update":"0001-01-01T00:00:00Z","name_a2s":"Uncletopia | S√£o Paulo | 1 | All Maps","protocol":17,"map":"koth_cascade","folder":"tf","game":"Team Fortress","app_id":440,"player_count":0,"max_players":24,"Bots":0,"server_type":"Dedicated","server_os":"Linux","password":true,"vac":true,"version":"7961495","steam_id":85568392924469996,"keywords":["cp","nocrits","nodmgspread","uncletopia"],"game_id":440,"stv_port":27016,"stv_name":"Uncletopia | S√£o Paulo | 1 | All Maps | STV","players":null},{"server_id":143,"name":"Uncletopia | S√£o Paulo | 2 | Community","name_short":"sao-2","host":"sao-2.br.uncletopia.com","port":27015,"enabled":true,"region":"sa","cc":"br","latitude":-23.533773,"longitude":-46.62529,"reserved":0,"last_update":"0001-01-01T00:00:00Z","name_a2s":"Uncletopia | S√£o Paulo | 2 | Community","protocol":17,"map":"workshop/koth_kemptown_rc1.ugc767410655","folder":"tf","game":"Team Fortress","app_id":440,"player_count":0,"max_players":24,"Bots":0,"server_type":"Dedicated","server_os":"Linux","password":true,"vac":true,"version":"7961495","steam_id":85568392924485349,"keywords":["cp","nocrits","nodmgspread","uncletopia"],"game_id":440,"stv_port":27016,"stv_name":"Uncletopia | S√£o Paulo | 2 | Community | STV","players":null},{"server_id":7,"name":"Uncletopia | Seattle | 1 | All Maps","name_short":"sea-1","host":"sea-1.us.uncletopia.com","port":27015,"enabled":true,"region":"us-west","cc":"us","latitude":47.608013,"longitude":-122.33517,"reserved":0,"last_update":"0001-01-01T00:00:00Z","name_a2s":"Uncletopia | Seattle | 1 | All Maps","protocol":17,"map":"pl_borneo","folder":"tf","game":"Team Fortress","app_id":440,"player_count":24,"max_players":24,"Bots":0,"server_type":"Dedicated","server_os":"Linux","password":true,"vac":true,"version":"7961495","steam_id":85568392924469997,"keywords":["nocrits","nodmgspread","payload","uncletopia"],"game_id":440,"stv_port":27016,"stv_name":"Uncletopia | Seattle | 1 | All Maps | STV","players":[{"user_id":765,"name":"Greskrendtregk","steam_id":76561197969553142,"connected_time":514000000000,"state":"active","ping":49},{"user_id":741,"name":"Dr. Karl, the AUS Science Guy","steam_id":76561198031278747,"connected_time":2446000000000,"state":"active","ping":44},{"user_id":743,"name":"TROY","steam_id":76561197983852176,"connected_time":2279000000000,"state":"active","ping":77},{"user_id":700,"name":"a","steam_id":76561198074209737,"connected_time":5596000000000,"state":"active","ping":88},{"user_id":688,"name":"soup","steam_id":76561198043209046,"connected_time":7497000000000,"state":"active","ping":67},{"user_id":732,"name":"NEBULA","steam_id":76561198086878595,"connected_time":3055000000000,"state":"active","ping":65},{"user_id":733,"name":"squash","steam_id":76561198150281353,"connected_time":3055000000000,"state":"active","ping":55},{"user_id":761,"name":"fragadelphia","steam_id":76561198066116363,"connected_time":606000000000,"state":"active","ping":46},{"user_id":734,"name":"Set","steam_id":76561198063949642,"connected_time":2991000000000,"state":"active","ping":44},{"user_id":739,"name":"Nom Skirrett","steam_id":76561198014600788,"connected_time":2766000000000,"state":"active","ping":69},{"user_id":766,"name":"Darkgigglemonster","steam_id":76561198870649125,"connected_time":77000000000,"state":"active","ping":79},{"user_id":730,"name":"[TrC] Dackstrus","steam_id":76561197973518509,"connected_time":3066000000000,"state":"active","ping":54},{"user_id":746,"name":"PvZ Enthusiast","steam_id":76561199089562026,"connected_time":2219000000000,"state":"active","ping":37},{"user_id":721,"name":"William P. Ennis","steam_id":76561198073464877,"connected_time":4173000000000,"state":"active","ping":89},{"user_id":705,"name":"OGBobbyJohns","steam_id":76561197964339077,"connected_time":4830000000000,"state":"active","ping":47},{"user_id":714,"name":"6","steam_id":76561198196527986,"connected_time":4672000000000,"state":"active","ping":75},{"user_id":715,"name":"O/YAK","steam_id":76561198158554040,"connected_time":4664000000000,"state":"active","ping":102},{"user_id":738,"name":"Grand","steam_id":76561198290143399,"connected_time":2800000000000,"state":"active","ping":77},{"user_id":758,"name":"Houdini Cache","steam_id":76561198045506970,"connected_time":620000000000,"state":"active","ping":38},{"user_id":750,"name":"blinkerton city","steam_id":76561198054270410,"connected_time":1661000000000,"state":"active","ping":56},{"user_id":759,"name":"Strikerbolt","steam_id":76561199095622897,"connected_time":620000000000,"state":"active","ping":84},{"user_id":764,"name":"Lord Hater","steam_id":76561199158148782,"connected_time":521000000000,"state":"active","ping":62},{"user_id":719,"name":"Keamy","steam_id":76561199471434875,"connected_time":4618000000000,"state":"active","ping":37},{"user_id":760,"name":"Squigzy_","steam_id":76561198061696667,"connected_time":619000000000,"state":"active","ping":83}]},{"server_id":119,"name":"Uncletopia | Seattle | 2 | All Maps","name_short":"sea-2","host":"sea-1.us.uncletopia.com","port":27025,"enabled":true,"region":"us-west","cc":"us","latitude":47.608013,"longitude":-122.33517,"reserved":0,"last_update":"0001-01-01T00:00:00Z","name_a2s":"Uncletopia | Seattle | 2 | All Maps","protocol":17,"map":"koth_cascade","folder":"tf","game":"Team Fortress","app_id":440,"player_count":0,"max_players":24,"Bots":0,"server_type":"Dedicated","server_os":"Linux","password":true,"vac":true,"version":"7961495","steam_id":85568392924469998,"keywords":["cp","nocrits","nodmgspread","uncletopia"],"game_id":440,"stv_port":27026,"stv_name":"Uncletopia | Seattle | 2 | All Maps | STV","players":null},{"server_id":406,"name":"Uncletopia | Seattle | 3 | Stopwatch","name_short":"sea-3","host":"sea-1.us.uncletopia.com","port":27035,"enabled":true,"region":"us-west","cc":"us","latitude":47.608013,"longitude":-122.33517,"reserved":0,"last_update":"0001-01-01T00:00:00Z","name_a2s":"Uncletopia | Seattle | 3 | Stopwatch","protocol":17,"map":"workshop/koth_product_final.ugc454272353","folder":"tf","game":"Team Fortress","app_id":440,"player_count":0,"max_players":24,"Bots":0,"server_type":"Dedicated","server_os":"Linux","password":true,"vac":true,"version":"7961495","steam_id":85568392924515217,"keywords":["cp","nocrits","nodmgspread","uncletopia"],"game_id":440,"stv_port":27036,"stv_name":"Uncletopia | Seattle | 3 | Stopwatch | STV","players":null},{"server_id":17,"name":"Uncletopia | San Francisco | 1 | All Maps","name_short":"sfo-1","host":"sfo-1.us.uncletopia.com","port":27015,"enabled":true,"region":"us-west","cc":"us","latitude":37.77397,"longitude":-122.4313,"reserved":0,"last_update":"0001-01-01T00:00:00Z","name_a2s":"Uncletopia | San Francisco | 1 | All Maps","protocol":17,"map":"pl_goldrush","folder":"tf","game":"Team Fortress","app_id":440,"player_count":24,"max_players":24,"Bots":0,"server_type":"Dedicated","server_os":"Linux","password":true,"vac":true,"version":"7961495","steam_id":85568392924469999,"keywords":["nocrits","nodmgspread","payload","uncletopia"],"game_id":440,"stv_port":27016,"stv_name":"Uncletopia | San Francisco | 1 | All Maps | STV","players":[{"user_id":398,"name":"Pluto","steam_id":76561198012630802,"connected_time":278000000000,"state":"active","ping":47},{"user_id":394,"name":"manchego gaming","steam_id":76561198069895678,"connected_time":429000000000,"state":"active","ping":89},{"user_id":349,"name":"Mercantile Pig","steam_id":76561198416391778,"connected_time":2811000000000,"state":"active","ping":41},{"user_id":399,"name":"Constipated","steam_id":76561198018411953,"connected_time":259000000000,"state":"active","ping":49},{"user_id":405,"name":"Flerps","steam_id":76561197979279110,"connected_time":47000000000,"state":"active","ping":46},{"user_id":400,"name":"Pie‚Ñ¢","steam_id":76561198158312625,"connected_time":239000000000,"state":"active","ping":146},{"user_id":392,"name":"cringy","steam_id":76561198323000455,"connected_time":500000000000,"state":"active","ping":60},{"user_id":373,"name":"dANZYYG","steam_id":76561197968179862,"connected_time":1022000000000,"state":"active","ping":68},{"user_id":351,"name":"[Industrial] A_HUMBLEBUMBLED","steam_id":76561198064771878,"connected_time":2763000000000,"state":"active","ping":58},{"user_id":397,"name":"Godot 102","steam_id":76561198083079903,"connected_time":325000000000,"state":"active","ping":69},{"user_id":377,"name":"zSabre","steam_id":76561198306476738,"connected_time":921000000000,"state":"active","ping":65},{"user_id":335,"name":"epsilon","steam_id":76561198025337276,"connected_time":3459000000000,"state":"active","ping":59},{"user_id":402,"name":"allMAX","steam_id":76561198270980670,"connected_time":215000000000,"state":"active","ping":142},{"user_id":379,"name":"bed wetter","steam_id":76561199065405827,"connected_time":868000000000,"state":"active","ping":80},{"user_id":365,"name":"Sgt. Eclair","steam_id":76561198156384194,"connected_time":1770000000000,"state":"active","ping":58},{"user_id":383,"name":"Kermit Silver","steam_id":76561198881309719,"connected_time":757000000000,"state":"active","ping":87},{"user_id":381,"name":"ninety9dragonfly","steam_id":76561198363406983,"connected_time":843000000000,"state":"active","ping":51},{"user_id":366,"name":"Winneapolis","steam_id":76561198326864404,"connected_time":1732000000000,"state":"active","ping":92},{"user_id":388,"name":"Cacophony","steam_id":76561198047474050,"connected_time":580000000000,"state":"active","ping":47},{"user_id":389,"name":"Khrono691","steam_id":76561198246227600,"connected_time":562000000000,"state":"active","ping":55},{"user_id":403,"name":"dankRobber","steam_id":76561197962405559,"connected_time":190000000000,"state":"active","ping":90},{"user_id":393,"name":"onkyokei","steam_id":76561198206177593,"connected_time":481000000000,"state":"active","ping":60},{"user_id":391,"name":"S Q U I S H E  T H A T  C A T","steam_id":76561198293865429,"connected_time":543000000000,"state":"active","ping":63},{"user_id":404,"name":"Sivinus","steam_id":76561198025589541,"connected_time":178000000000,"state":"active","ping":46}]},{"server_id":18,"name":"Uncletopia | San Francisco | 2 | All Maps","name_short":"sfo-2","host":"sfo-1.us.uncletopia.com","port":27025,"enabled":true,"region":"us-west","cc":"us","latitude":37.77397,"longitude":-122.4313,"reserved":0,"last_update":"0001-01-01T00:00:00Z","name_a2s":"Uncletopia | San Francisco | 2 | All Maps","protocol":17,"map":"cp_dustbowl","folder":"tf","game":"Team Fortress","app_id":440,"player_count":0,"max_players":24,"Bots":0,"server_type":"Dedicated","server_os":"Linux","password":true,"vac":true,"version":"7961495","steam_id":85568392924470000,"keywords":["cp","nocrits","nodmgspread","uncletopia"],"game_id":440,"stv_port":27026,"stv_name":"Uncletopia | San Francisco | 2 | All Maps | STV","players":null},{"server_id":19,"name":"Uncletopia | San Francisco | 3 | Stopwatch","name_short":"sfo-3","host":"sfo-1.us.uncletopia.com","port":27035,"enabled":true,"region":"us-west","cc":"us","latitude":37.77397,"longitude":-122.4313,"reserved":0,"last_update":"0001-01-01T00:00:00Z","name_a2s":"Uncletopia | San Francisco | 3 | Stopwatch","protocol":17,"map":"workshop/koth_product_final.ugc454272353","folder":"tf","game":"Team Fortress","app_id":440,"player_count":0,"max_players":24,"Bots":0,"server_type":"Dedicated","server_os":"Linux","password":true,"vac":true,"version":"7961495","steam_id":85568392924742824,"keywords":["cp","nocrits","nodmgspread","uncletopia"],"game_id":440,"stv_port":27036,"stv_name":"Uncletopia | San Francisco | 3 | Stopwatch | STV","players":null},{"server_id":20,"name":"Uncletopia | San Francisco | 4 | Community","name_short":"sfo-4","host":"sfo-1.us.uncletopia.com","port":27045,"enabled":true,"region":"us-west","cc":"us","latitude":37.77397,"longitude":-122.4313,"reserved":0,"last_update":"0001-01-01T00:00:00Z","name_a2s":"Uncletopia | San Francisco | 4 | Community","protocol":17,"map":"workshop/cp_sulfur_rc2.ugc619869471","folder":"tf","game":"Team Fortress","app_id":440,"player_count":0,"max_players":24,"Bots":0,"server_type":"Dedicated","server_os":"Linux","password":true,"vac":true,"version":"7961495","steam_id":85568392924742826,"keywords":["cp","nocrits","nodmgspread","uncletopia"],"game_id":440,"stv_port":27046,"stv_name":"Uncletopia | San Francisco | 4 | Community | STV","players":null},{"server_id":141,"name":"Uncletopia | Sydney | 1 | All Maps","name_short":"syd-1","host":"syd-1.au.uncletopia.com","port":27015,"enabled":true,"region":"au","cc":"au","latitude":-33.865143,"longitude":151.2099,"reserved":0,"last_update":"0001-01-01T00:00:00Z","name_a2s":"Uncletopia | Sydney | 1 | All Maps","protocol":17,"map":"koth_nucleus","folder":"tf","game":"Team Fortress","app_id":440,"player_count":0,"max_players":24,"Bots":0,"server_type":"Dedicated","server_os":"Linux","password":true,"vac":true,"version":"7961495","steam_id":85568392924470001,"keywords":["cp","nocrits","nodmgspread","uncletopia"],"game_id":440,"stv_port":27016,"stv_name":"Uncletopia | Sydney | 1 | All Maps | STV","players":null},{"server_id":123,"name":"Uncletopia | Sydney | 2 | All Maps","name_short":"syd-2","host":"syd-1.au.uncletopia.com","port":27025,"enabled":true,"region":"au","cc":"au","latitude":-33.865143,"longitude":151.2099,"reserved":0,"last_update":"0001-01-01T00:00:00Z","name_a2s":"Uncletopia | Sydney | 2 | All Maps","protocol":17,"map":"koth_viaduct","folder":"tf","game":"Team Fortress","app_id":440,"player_count":0,"max_players":24,"Bots":0,"server_type":"Dedicated","server_os":"Linux","password":true,"vac":true,"version":"7961495","steam_id":85568392924470002,"keywords":["cp","nocrits","nodmgspread","uncletopia"],"game_id":440,"stv_port":27026,"stv_name":"Uncletopia | Sydney | 2 | All Maps | STV","players":null},{"server_id":395,"name":"Uncletopia | Sydney | 3 | All Maps","name_short":"syd-3","host":"syd-1.au.uncletopia.com","port":27035,"enabled":true,"region":"au","cc":"au","latitude":-33.865143,"longitude":151.2099,"reserved":0,"last_update":"0001-01-01T00:00:00Z","name_a2s":"Uncletopia | Sydney | 3 | All Maps","protocol":17,"map":"cp_metalworks","folder":"tf","game":"Team Fortress","app_id":440,"player_count":0,"max_players":24,"Bots":0,"server_type":"Dedicated","server_os":"Linux","password":true,"vac":true,"version":"7961495","steam_id":85568392925194467,"keywords":["cp","nocrits","nodmgspread","uncletopia"],"game_id":440,"stv_port":27036,"stv_name":"Uncletopia | Sydney | 3 | All Maps | STV","players":null},{"server_id":396,"name":"Uncletopia | Sydney | 4 | All Maps","name_short":"syd-4","host":"syd-1.au.uncletopia.com","port":27045,"enabled":true,"region":"au","cc":"au","latitude":-33.865143,"longitude":151.2099,"reserved":0,"last_update":"0001-01-01T00:00:00Z","name_a2s":"Uncletopia | Sydney | 4 | All Maps","protocol":17,"map":"koth_cascade","folder":"tf","game":"Team Fortress","app_id":440,"player_count":0,"max_players":24,"Bots":0,"server_type":"Dedicated","server_os":"Linux","password":true,"vac":true,"version":"7961495","steam_id":85568392925397958,"keywords":["cp","nocrits","nodmgspread","uncletopia"],"game_id":440,"stv_port":27046,"stv_name":"Uncletopia | Sydney | 4 | All Maps | STV","players":null},{"server_id":58,"name":"Uncletopia | Sydney | 5 | Stopwatch","name_short":"syd-5","host":"syd-1.au.uncletopia.com","port":27055,"enabled":true,"region":"au","cc":"au","latitude":-33.865143,"longitude":151.2099,"reserved":0,"last_update":"0001-01-01T00:00:00Z","name_a2s":"Uncletopia | Sydney | 5 | Stopwatch","protocol":17,"map":"workshop/koth_product_final.ugc454272353","folder":"tf","game":"Team Fortress","app_id":440,"player_count":0,"max_players":24,"Bots":0,"server_type":"Dedicated","server_os":"Linux","password":true,"vac":true,"version":"7961495","steam_id":85568392925397959,"keywords":["cp","nocrits","nodmgspread","uncletopia"],"game_id":440,"stv_port":27056,"stv_name":"Uncletopia | Sydney | 5 | Stopwatch | STV","players":null},{"server_id":59,"name":"Uncletopia | Sydney | 6 | Community","name_short":"syd-6","host":"syd-1.au.uncletopia.com","port":27065,"enabled":true,"region":"au","cc":"au","latitude":-33.865143,"longitude":151.2099,"reserved":0,"last_update":"0001-01-01T00:00:00Z","name_a2s":"Uncletopia | Sydney | 6 | Community","protocol":17,"map":"workshop/koth_trenchfoot_ab1.ugc731436616","folder":"tf","game":"Team Fortress","app_id":440,"player_count":0,"max_players":24,"Bots":0,"server_type":"Dedicated","server_os":"Linux","password":true,"vac":true,"version":"7961495","steam_id":85568392925397960,"keywords":["cp","nocrits","nodmgspread","uncletopia"],"game_id":440,"stv_port":27066,"stv_name":"Uncletopia | Sydney | 6 | Community | STV","players":null},{"server_id":49,"name":"Uncletopia | Warsaw | 1 | One Thousand Uncles","name_short":"waw-1","host":"waw-1.pl.uncletopia.com","port":27015,"enabled":true,"region":"eu","cc":"pl","latitude":52.2297,"longitude":21.017532,"reserved":0,"last_update":"0001-01-01T00:00:00Z","name_a2s":"Uncletopia | Warsaw | 1 | One Thousand Uncles","protocol":17,"map":"cp_mercenarypark","folder":"tf","game":"Team Fortress","app_id":440,"player_count":0,"max_players":32,"Bots":0,"server_type":"Dedicated","server_os":"Linux","password":true,"vac":true,"version":"7961495","steam_id":85568392925397850,"keywords":["alltalk","cp","danepve","increased_maxplayers","norespawntime","uncletopia"],"game_id":440,"stv_port":0,"stv_name":"","players":null},{"server_id":50,"name":"Uncletopia | Warsaw | 2 | One Thousand Uncles","name_short":"waw-2","host":"waw-1.pl.uncletopia.com","port":27025,"enabled":true,"region":"eu","cc":"pl","latitude":52.2297,"longitude":21.017532,"reserved":0,"last_update":"0001-01-01T00:00:00Z","name_a2s":"Uncletopia | Warsaw | 2 | One Thousand Uncles","protocol":17,"map":"cp_egypt_final","folder":"tf","game":"Team Fortress","app_id":440,"player_count":0,"max_players":32,"Bots":0,"server_type":"Dedicated","server_os":"Linux","password":true,"vac":true,"version":"7961495","steam_id":85568392925397851,"keywords":["alltalk","cp","danepve","increased_maxplayers","norespawntime","uncletopia"],"game_id":440,"stv_port":0,"stv_name":"","players":null},{"server_id":51,"name":"Uncletopia | Warsaw | 3 | All Maps","name_short":"waw-3","host":"waw-1.pl.uncletopia.com","port":27035,"enabled":true,"region":"eu","cc":"pl","latitude":52.2297,"longitude":21.017532,"reserved":0,"last_update":"0001-01-01T00:00:00Z","name_a2s":"Uncletopia | Warsaw | 3 | All Maps","protocol":17,"map":"pl_snowycoast","folder":"tf","game":"Team Fortress","app_id":440,"player_count":0,"max_players":24,"Bots":0,"server_type":"Dedicated","server_os":"Linux","password":true,"vac":true,"version":"7961495","steam_id":85568392925397852,"keywords":["nocrits","nodmgspread","payload","uncletopia"],"game_id":440,"stv_port":27036,"stv_name":"Uncletopia | Warsaw | 3 | All Maps | STV","players":null},{"server_id":52,"name":"Uncletopia | Warsaw | 4 | All Maps","name_short":"waw-4","host":"waw-1.pl.uncletopia.com","port":27045,"enabled":true,"region":"eu","cc":"pl","latitude":52.2297,"longitude":21.017532,"reserved":0,"last_update":"0001-01-01T00:00:00Z","name_a2s":"Uncletopia | Warsaw | 4 | All Maps","protocol":17,"map":"cp_fastlane","folder":"tf","game":"Team Fortress","app_id":440,"player_count":0,"max_players":24,"Bots":0,"server_type":"Dedicated","server_os":"Linux","password":true,"vac":true,"version":"7961495","steam_id":85568392925397853,"keywords":["cp","nocrits","nodmgspread","uncletopia"],"game_id":440,"stv_port":27046,"stv_name":"Uncletopia | Warsaw | 4 | All Maps | STV","players":null},{"server_id":53,"name":"Uncletopia | Warsaw | 5 | Stopwatch","name_short":"waw-5","host":"waw-1.pl.uncletopia.com","port":27055,"enabled":true,"region":"eu","cc":"pl","latitude":52.2297,"longitude":21.017532,"reserved":0,"last_update":"0001-01-01T00:00:00Z","name_a2s":"Uncletopia | Warsaw | 5 | Stopwatch","protocol":17,"map":"cp_gullywash_final1","folder":"tf","game":"Team Fortress","app_id":440,"player_count":0,"max_players":24,"Bots":0,"server_type":"Dedicated","server_os":"Linux","password":true,"vac":true,"version":"7961495","steam_id":85568392925397854,"keywords":["cp","nocrits","nodmgspread","uncletopia"],"game_id":440,"stv_port":27056,"stv_name":"Uncletopia | Warsaw | 5 | Stopwatch | STV","players":null},{"server_id":54,"name":"Uncletopia | Warsaw | 6 | Community","name_short":"waw-6","host":"waw-1.pl.uncletopia.com","port":27065,"enabled":true,"region":"eu","cc":"pl","latitude":52.2297,"longitude":21.017532,"reserved":0,"last_update":"0001-01-01T00:00:00Z","name_a2s":"Uncletopia | Warsaw | 6 | Community","protocol":17,"map":"workshop/cp_fulgur_rc2a.ugc2068252300","folder":"tf","game":"Team Fortress","app_id":440,"player_count":0,"max_players":24,"Bots":0,"server_type":"Dedicated","server_os":"Linux","password":true,"vac":true,"version":"7961495","steam_id":85568392925397856,"keywords":["cp","nocrits","nodmgspread","uncletopia"],"game_id":440,"stv_port":27066,"stv_name":"Uncletopia | Warsaw | 6 | Community | STV","players":null}]}