{"status":true,"message":"","result":[{"server_id":9,"name":"Uncletopia | Atlanta | 1 | All Maps","name_short":"atl-1","host":"atl-1.us.uncletopia.com","port":27015,"enabled":true,"region":"us-east","cc":"us","latitude":33.753746,"longitude":-84.38633,"reserved":0,"last_update":"0001-01-01T00:00:00Z","name_a2s":"Uncletopia | Atlanta | 1 | All Maps","protocol":17,"map":"cp_sunshine","folder":"tf","game":"Team Fortress","app_id":440,"player_count":5,"max_players":24,"Bots":0,"server_type":"Dedicated","server_os":"Linux","password":true,"vac":true,"version":"7708610","steam_id":85568392924469982,"keywords":["cp","nocrits","nodmgspread","uncletopia"],"game_id":440,"stv_port":27016,"stv_name":"Uncletopia | Atlanta | 1 | All Maps | STV","players":[{"user_id":542,"name":"CrackedSanity","steam_id":76561198279841251,"connected_time":688000000000,"state":"active","ping":104},{"user_id":546,"name":"IRAcide","steam_id":76561198236149504,"connected_time":172000000000,"state":"active","ping":83},{"user_id":545,"name":"suwuicidal","steam_id":76561198251871936,"connected_time":352000000000,"state":"active","ping":48},{"user_id":486,"name":"Abbashea","steam_id":76561199182136969,"connected_time":5451000000000,"state":"active","ping":104},{"user_id":496,"name":"yesterday once more","steam_id":76561198038486613,"connected_time":4811000000000,"state":"active","ping":60}]},{"server_id":400,"name":"Uncletopia | Atlanta | 3 | All Maps","name_short":"atl-3","host":"atl-1.us.uncletopia.com","port":27035,"enabled":true,"region":"us-east","cc":"us","latitude":33.753746,"longitude":-84.38633,"reserved":0,"last_update":"0001-01-01T00:00:00Z","name_a2s":"Uncletopia | Atlanta | 3 | All Maps","protocol":17,"map":"koth_cascade","folder":"tf","game":"Team Fortress","app_id":440,"player_count":0,"max_players":24,"Bots":0,"server_type":"Dedicated","server_os":"Linux","password":true,"vac":true,"version":"7708610","steam_id":85568392924515187,"keywords":["cp","nocrits","nodmgspread","uncletopia"],"game_id":440,"stv_port":27036,"stv_name":"Uncletopia | Atlanta | 3 | All Maps | STV","players":null},{"server_id":401,"name":"Uncletopia | Atlanta | 4 | No Payload","name_short":"atl-4","host":"atl-1.us.uncletopia.com","port":27045,"enabled":true,"region":"us-east","cc":"us","latitude":33.753746,"longitude":-84.38633,"reserved":0,"last_update":"0001-01-01T00:00:00Z","name_a2s":"Uncletopia | Atlanta | 4 | No Payload","protocol":17,"map":"cp_junction_final","folder":"tf","game":"Team Fortress","app_id":440,"player_count":0,"max_players":24,"Bots":0,"server_type":"Dedicated","server_os":"Linux","password":true,"vac":true,"version":"7708610","steam_id":85568392924515188,"keywords":["cp","nocrits","nodmgspread","uncletopia"],"game_id":440,"stv_port":27046,"stv_name":"Uncletopia | Atlanta | 4 | No Payload | STV","players":null},{"server_id":2,"name":"Uncletopia | Chicago | 1 | All Maps","name_short":"chi-1","host":"chi-1.us.uncletopia.com","port":27015,"enabled":true,"region":"us-central","cc":"us","latitude":41.881832,"longitude":-87.62318,"reserved":0,"last_update":"0001-01-01T00:00:00Z","name_a2s":"Uncletopia | Chicago | 1 | All Maps","protocol":17,"map":"koth_highpass","folder":"tf","game":"Team Fortress","app_id":440,"player_count":0,"max_players":24,"Bots":0,"server_type":"Dedicated","server_os":"Linux","password":true,"vac":true,"version":"7708610","steam_id":85568392924469984,"keywords":["cp","nocrits","nodmgspread","uncletopia"],"game_id":440,"stv_port":27016,"stv_name":"Uncletopia | Chicago | 1 | All Maps | STV","players":null},{"server_id":106,"name":"Uncletopia | Chicago | 2 | All Maps","name_short":"chi-2","host":"chi-1.us.uncletopia.com","port":27025,"enabled":true,"region":"us-central","cc":"us","latitude":41.881832,"longitude":-87.62318,"reserved":0,"last_update":"0001-01-01T00:00:00Z","name_a2s":"Uncletopia | Chicago | 2 | All Maps","protocol":17,"map":"cp_sunshine","folder":"tf","game":"Team Fortress","app_id":440,"player_count":0,"max_players":24,"Bots":0,"server_type":"Dedicated","server_os":"Linux","password":true,"vac":true,"version":"7708610","steam_id":85568392924469985,"keywords":["cp","nocrits","nodmgspread","uncletopia"],"game_id":440,"stv_port":27026,"stv_name":"Uncletopia | Chicago | 2 | All Maps | STV","players":null},{"server_id":402,"name":"Uncletopia | Chicago | 3 | All Maps","name_short":"chi-3","host":"chi-1.us.uncletopia.com","port":27035,"enabled":true,"region":"us-central","cc":"us","latitude":41.881832,"longitude":-87.62318,"reserved":0,"last_update":"0001-01-01T00:00:00Z","name_a2s":"Uncletopia | Chicago | 3 | All Maps","protocol":17,"map":"koth_cascade","folder":"tf","game":"Team Fortress","app_id":440,"player_count":0,"max_players":24,"Bots":0,"server_type":"Dedicated","server_os":"Linux","password":true,"vac":true,"version":"7708610","steam_id":85568392924515191,"keywords":["cp","nocrits","nodmgspread","uncletopia"],"game_id":440,"stv_port":27036,"stv_name":"Uncletopia | Chicago | 3 | All Maps | STV","players":null},{"server_id":403,"name":"Uncletopia | Chicago | 4 | All Maps","name_short":"chi-4","host":"chi-1.us.uncletopia.com","port":27045,"enabled":true,"region":"us-central","cc":"us","latitude":41.881832,"longitude":-87.62318,"reserved":0,"last_update":"0001-01-01T00:00:00Z","name_a2s":"Uncletopia | Chicago | 4 | All Maps","protocol":17,"map":"cp_mountainlab","folder":"tf","game":"Team Fortress","app_id":440,"player_count":0,"max_players":24,"Bots":0,"server_type":"Dedicated","server_os":"Linux","password":true,"vac":true,"version":"7708610","steam_id":85568392924515193,"keywords":["cp","nocrits","nodmgspread","uncletopia"],"game_id":440,"stv_port":27046,"stv_name":"Uncletopia | Chicago | 4 | All Maps | STV","players":null},{"server_id":36,"name":"Uncletopia | Chicago | 5 | All Maps","name_short":"chi-5","host":"chi-2.us.uncletopia.com","port":27015,"enabled":true,"region":"us-central","cc":"us","latitude":41.881832,"longitude":-87.62318,"reserved":0,"last_update":"0001-01-01T00:00:00Z","name_a2s":"Uncletopia | Chicago | 5 | All Maps","protocol":17,"map":"pl_goldrush","folder":"tf","game":"Team Fortress","app_id":440,"player_count":24,"max_players":24,"Bots":0,"server_type":"Dedicated","server_os":"Linux","password":true,"vac":true,"version":"7708610","steam_id":85568392924866362,"keywords":["nocrits","nodmgspread","payload","uncletopia"],"game_id":440,"stv_port":27016,"stv_name":"Uncletopia | Chicago | 5 | All Maps | STV","players":[{"user_id":425,"name":"mexfrag.4 life","steam_id":76561198175961598,"connected_time":833000000000,"state":"active","ping":111},{"user_id":430,"name":"Bismarck","steam_id":76561198442873012,"connected_time":2000000000,"state":"spawning","ping":67},{"user_id":385,"name":"Foyboy™","steam_id":76561198072305817,"connected_time":4598000000000,"state":"active","ping":75},{"user_id":421,"name":"sweaterfan","steam_id":76561199389567214,"connected_time":1237000000000,"state":"active","ping":61},{"user_id":411,"name":"BruteForceLK","steam_id":76561198043922524,"connected_time":1713000000000,"state":"active","ping":68},{"user_id":416,"name":"herp derp ☕","steam_id":76561198047646956,"connected_time":1520000000000,"state":"active","ping":99},{"user_id":356,"name":"Dunkle","steam_id":76561198041903573,"connected_time":7625000000000,"state":"active","ping":90},{"user_id":391,"name":"The Foolish Samurai","steam_id":76561198094494945,"connected_time":4046000000000,"state":"active","ping":120},{"user_id":413,"name":"Nobuunga","steam_id":76561198100614981,"connected_time":1639000000000,"state":"active","ping":69},{"user_id":414,"name":"InfernoFlower64","steam_id":76561198181097391,"connected_time":1631000000000,"state":"active","ping":116},{"user_id":341,"name":"Yongle","steam_id":76561198068591156,"connected_time":7958000000000,"state":"active","ping":45},{"user_id":368,"name":"Jaguar lf med","steam_id":76561197971152439,"connected_time":7272000000000,"state":"active","ping":70},{"user_id":422,"name":"Alac","steam_id":76561198130051026,"connected_time":1233000000000,"state":"active","ping":56},{"user_id":407,"name":"Notorious_Pat","steam_id":76561198092348214,"connected_time":2643000000000,"state":"active","ping":46},{"user_id":396,"name":"Natsuki the Succubus","steam_id":76561198451780877,"connected_time":3644000000000,"state":"active","ping":63},{"user_id":408,"name":"Mikidy","steam_id":76561197972958970,"connected_time":2634000000000,"state":"active","ping":62},{"user_id":415,"name":"MistakesWereMade","steam_id":76561199059220481,"connected_time":1608000000000,"state":"active","ping":105},{"user_id":418,"name":"kezia","steam_id":76561198059815894,"connected_time":1409000000000,"state":"active","ping":46},{"user_id":424,"name":"-Enter Name Here-","steam_id":76561198040358938,"connected_time":969000000000,"state":"active","ping":80},{"user_id":428,"name":"Red","steam_id":76561197998285162,"connected_time":48000000000,"state":"active","ping":78},{"user_id":267,"name":"Tay1Qr","steam_id":76561198082809935,"connected_time":13991000000000,"state":"active","ping":70},{"user_id":426,"name":"Rusty","steam_id":76561198055585129,"connected_time":824000000000,"state":"active","ping":89},{"user_id":419,"name":"aisu","steam_id":76561198043768507,"connected_time":1403000000000,"state":"active","ping":61},{"user_id":429,"name":"FemboyNate","steam_id":76561198146636410,"connected_time":45000000000,"state":"active","ping":75}]},{"server_id":37,"name":"Uncletopia | Chicago | 6 | All Maps","name_short":"chi-6","host":"chi-2.us.uncletopia.com","port":27025,"enabled":true,"region":"us-central","cc":"us","latitude":41.881832,"longitude":-87.62318,"reserved":0,"last_update":"0001-01-01T00:00:00Z","name_a2s":"Uncletopia | Chicago | 6 | All Maps","protocol":17,"map":"cp_altitude","folder":"tf","game":"Team Fortress","app_id":440,"player_count":0,"max_players":24,"Bots":0,"server_type":"Dedicated","server_os":"Linux","password":true,"vac":true,"version":"7708610","steam_id":85568392924866363,"keywords":["cp","nocrits","nodmgspread","uncletopia"],"game_id":440,"stv_port":27026,"stv_name":"Uncletopia | Chicago | 6 | All Maps | STV","players":null},{"server_id":38,"name":"Uncletopia | Chicago | 7 | No Payload","name_short":"chi-7","host":"chi-2.us.uncletopia.com","port":27035,"enabled":true,"region":"us-central","cc":"us","latitude":41.881832,"longitude":-87.62318,"reserved":0,"last_update":"0001-01-01T00:00:00Z","name_a2s":"Uncletopia | Chicago | 7 | No Payload","protocol":17,"map":"koth_harvest_final","folder":"tf","game":"Team Fortress","app_id":440,"player_count":0,"max_players":24,"Bots":0,"server_type":"Dedicated","server_os":"Linux","password":true,"vac":true,"version":"7708610","steam_id":85568392924866364,"keywords":["cp","nocrits","nodmgspread","uncletopia"],"game_id":440,"stv_port":27036,"stv_name":"Uncletopia | Chicago | 7 | No Payload | STV","players":null},{"server_id":39,"name":"Uncletopia | Chicago | 8 | Community","name_short":"chi-8","host":"chi-2.us.uncletopia.com","port":27045,"enabled":true,"region":"us-central","cc":"us","latitude":41.881832,"longitude":-87.62318,"reserved":0,"last_update":"0001-01-01T00:00:00Z","name_a2s":"Uncletopia | Chicago | 8 | Community","protocol":17,"map":"workshop/cp_reckoner_rc6.ugc674719999","folder":"tf","game":"Team Fortress","app_id":440,"player_count":23,"max_players":24,"Bots":0,"server_type":"Dedicated","server_os":"Linux","password":true,"vac":true,"version":"7708610","steam_id":85568392924866365,"keywords":["cp","nocrits","nodmgspread","uncletopia"],"game_id":440,"stv_port":27046,"stv_name":"Uncletopia | Chicago | 8 | Community | STV","players":[{"user_id":385,"name":"DezeWarlock","steam_id":76561198042635557,"connected_time":1606000000000,"state":"active","ping":96},{"user_id":376,"name":"StoneColdest","steam_id":76561198045446179,"connected_time":1850000000000,"state":"active","ping":64},{"user_id":396,"name":"› snow","steam_id":76561198109783729,"connected_time":905000000000,"state":"active","ping":45},{"user_id":387,"name":"TTV Chaddy_Gaming","steam_id":76561198100098802,"connected_time":1411000000000,"state":"active","ping":139},{"user_id":377,"name":"MxProf","steam_id":76561198044519572,"connected_time":1832000000000,"state":"active","ping":100},{"user_id":378,"name":"Big Phil Gaming","steam_id":76561198049261401,"connected_time":1824000000000,"state":"active","ping":68},{"user_id":362,"name":"Novah","steam_id":76561198876978617,"connected_time":3972000000000,"state":"active","ping":72},{"user_id":405,"name":"Huge","steam_id":76561199030987614,"connected_time":318000000000,"state":"active","ping":75},{"user_id":320,"name":"Antifascist catgirl","steam_id":76561198149806947,"connected_time":6661000000000,"state":"active","ping":91},{"user_id":380,"name":"DerpySquirrel","steam_id":76561198032288820,"connected_time":1799000000000,"state":"active","ping":110},{"user_id":348,"name":"-10.416020, 105.674881","steam_id":76561198126947267,"connected_time":4808000000000,"state":"active","ping":62},{"user_id":381,"name":"Naked Buttered-Up Billy Mays","steam_id":76561198143139299,"connected_time":1780000000000,"state":"active","ping":45},{"user_id":382,"name":"epic_earthbound","steam_id":76561198081998723,"connected_time":1777000000000,"state":"active","ping":100},{"user_id":383,"name":"SqueamishCube","steam_id":76561198118733157,"connected_time":1769000000000,"state":"active","ping":55},{"user_id":384,"name":"autumnal.messenger","steam_id":76561199345816635,"connected_time":1714000000000,"state":"active","ping":104},{"user_id":386,"name":"bobbyreinman2009","steam_id":76561198804763186,"connected_time":1565000000000,"state":"active","ping":59},{"user_id":397,"name":"Nepsilock TTV","steam_id":76561198093783987,"connected_time":826000000000,"state":"active","ping":113},{"user_id":398,"name":"SlipperyBiz","steam_id":76561198011132403,"connected_time":817000000000,"state":"active","ping":85},{"user_id":390,"name":"landshark","steam_id":76561199068428779,"connected_time":1279000000000,"state":"active","ping":152},{"user_id":391,"name":"gojoel","steam_id":76561198251181946,"connected_time":1275000000000,"state":"active","ping":126},{"user_id":401,"name":"harlowng","steam_id":76561198060542928,"connected_time":729000000000,"state":"active","ping":128},{"user_id":402,"name":"Jermey","steam_id":76561198133887117,"connected_time":663000000000,"state":"active","ping":83},{"user_id":344,"name":"Debomba kong","steam_id":76561198361254937,"connected_time":5254000000000,"state":"active","ping":59}]},{"server_id":8,"name":"Uncletopia | Dallas | 1 | All Maps","name_short":"dal-1","host":"dal-1.us.uncletopia.com","port":27015,"enabled":true,"region":"us-central","cc":"us","latitude":32.779167,"longitude":-96.80889,"reserved":0,"last_update":"0001-01-01T00:00:00Z","name_a2s":"Uncletopia | Dallas | 1 | All Maps","protocol":17,"map":"koth_viaduct","folder":"tf","game":"Team Fortress","app_id":440,"player_count":0,"max_players":24,"Bots":0,"server_type":"Dedicated","server_os":"Linux","password":true,"vac":true,"version":"7708610","steam_id":85568392924469986,"keywords":["cp","nocrits","nodmgspread","uncletopia"],"game_id":440,"stv_port":27016,"stv_name":"Uncletopia | Dallas | 1 | All Maps | STV","players":null},{"server_id":108,"name":"Uncletopia | Dallas | 2 | All Maps","name_short":"dal-2","host":"dal-1.us.uncletopia.com","port":27025,"enabled":true,"region":"us-central","cc":"us","latitude":32.779167,"longitude":-96.80889,"reserved":0,"last_update":"0001-01-01T00:00:00Z","name_a2s":"Uncletopia | Dallas | 2 | All Maps","protocol":17,"map":"pl_upward","folder":"tf","game":"Team Fortress","app_id":440,"player_count":0,"max_players":24,"Bots":0,"server_type":"Dedicated","server_os":"Linux","password":true,"vac":true,"version":"7708610","steam_id":85568392924469988,"keywords":["nocrits","nodmgspread","payload","uncletopia"],"game_id":440,"stv_port":27026,"stv_name":"Uncletopia | Dallas | 2 | All Maps | STV","players":null},{"server_id":5,"name":"Uncletopia | Frankfurt | 1 | All Maps","name_short":"frk-1","host":"frk-1.de.uncletopia.com","port":27015,"enabled":true,"region":"eu","cc":"de","latitude":50.110924,"longitude":8.682127,"reserved":0,"last_update":"0001-01-01T00:00:00Z","name_a2s":"Uncletopia | Frankfurt | 1 | All Maps","protocol":17,"map":"pl_swiftwater_final1","folder":"tf","game":"Team Fortress","app_id":440,"player_count":24,"max_players":24,"Bots":0,"server_type":"Dedicated","server_os":"Linux","password":true,"vac":true,"version":"7708610","steam_id":85568392924469989,"keywords":["nocrits","nodmgspread","payload","uncletopia"],"game_id":440,"stv_port":27016,"stv_name":"Uncletopia | Frankfurt | 1 | All Maps | STV","players":[{"user_id":46,"name":"Chris","steam_id":76561199443600515,"connected_time":1486000000000,"state":"active","ping":61},{"user_id":5,"name":"Boobs rater","steam_id":76561198066977580,"connected_time":4099000000000,"state":"active","ping":82},{"user_id":10,"name":"Hikikomori","steam_id":76561198092506991,"connected_time":3436000000000,"state":"active","ping":97},{"user_id":11,"name":"Yuka","steam_id":76561198152009749,"connected_time":3261000000000,"state":"active","ping":58},{"user_id":18,"name":"forv","steam_id":76561198326667006,"connected_time":2335000000000,"state":"active","ping":62},{"user_id":19,"name":"arklewis","steam_id":76561198269595513,"connected_time":2304000000000,"state":"active","ping":162},{"user_id":12,"name":"Him","steam_id":76561198086400484,"connected_time":3150000000000,"state":"active","ping":64},{"user_id":56,"name":"leaf eater","steam_id":76561198083359604,"connected_time":365000000000,"state":"active","ping":54},{"user_id":14,"name":"Venus⚢","steam_id":76561198018602969,"connected_time":2909000000000,"state":"active","ping":66},{"user_id":16,"name":"FartGoing","steam_id":76561198122284275,"connected_time":2543000000000,"state":"active","ping":66},{"user_id":59,"name":"gorgie","steam_id":76561199032591040,"connected_time":186000000000,"state":"active","ping":80},{"user_id":20,"name":"Deva Path","steam_id":76561198085763542,"connected_time":2275000000000,"state":"active","ping":62},{"user_id":21,"name":"Viperense","steam_id":76561198036206811,"connected_time":2233000000000,"state":"active","ping":92},{"user_id":22,"name":"Almonds","steam_id":76561199411891752,"connected_time":2178000000000,"state":"active","ping":87},{"user_id":23,"name":".::[SerafeTTiN]::.","steam_id":76561198009471724,"connected_time":2034000000000,"state":"active","ping":89},{"user_id":60,"name":"sokige","steam_id":76561198167112371,"connected_time":125000000000,"state":"active","ping":106},{"user_id":41,"name":"heisenburger","steam_id":76561198284589853,"connected_time":1672000000000,"state":"active","ping":72},{"user_id":37,"name":"try meditation","steam_id":76561198190690201,"connected_time":1748000000000,"state":"active","ping":75},{"user_id":34,"name":"rogal","steam_id":76561198119355068,"connected_time":1850000000000,"state":"active","ping":88},{"user_id":33,"name":"NLN 123 PL","steam_id":76561198048832733,"connected_time":1858000000000,"state":"active","ping":61},{"user_id":55,"name":"Xayir","steam_id":76561198079566786,"connected_time":1076000000000,"state":"active","ping":60},{"user_id":45,"name":"Aprifox","steam_id":76561198022204947,"connected_time":1504000000000,"state":"active","ping":69},{"user_id":61,"name":"Montrose","steam_id":76561198338911736,"connected_time":75000000000,"state":"active","ping":176},{"user_id":52,"name":"implyDoods","steam_id":76561198856320759,"connected_time":1304000000000,"state":"active","ping":68}]},{"server_id":110,"name":"Uncletopia | Frankfurt | 2 | All Maps","name_short":"frk-2","host":"frk-1.de.uncletopia.com","port":27025,"enabled":true,"region":"eu","cc":"de","latitude":50.110924,"longitude":8.682127,"reserved":0,"last_update":"0001-01-01T00:00:00Z","name_a2s":"Uncletopia | Frankfurt | 2 | All Maps","protocol":17,"map":"pl_frontier_final","folder":"tf","game":"Team Fortress","app_id":440,"player_count":0,"max_players":24,"Bots":0,"server_type":"Dedicated","server_os":"Linux","password":true,"vac":true,"version":"7708610","steam_id":85568392924469990,"keywords":["nocrits","nodmgspread","payload","uncletopia"],"game_id":440,"stv_port":27026,"stv_name":"Uncletopia | Frankfurt | 2 | All Maps | STV","players":null},{"server_id":308,"name":"Uncletopia | Frankfurt | 3 | All Maps","name_short":"frk-3","host":"frk-1.de.uncletopia.com","port":27035,"enabled":true,"region":"eu","cc":"de","latitude":50.110924,"longitude":8.682127,"reserved":0,"last_update":"0001-01-01T00:00:00Z","name_a2s":"Uncletopia | Frankfurt | 3 | All Maps","protocol":17,"map":"cp_process_final","folder":"tf","game":"Team Fortress","app_id":440,"player_count":0,"max_players":24,"Bots":0,"server_type":"Dedicated","server_os":"Linux","password":true,"vac":true,"version":"7708610","steam_id":85568392924504274,"keywords":["cp","nocrits","nodmgspread","uncletopia"],"game_id":440,"stv_port":27036,"stv_name":"Uncletopia | Frankfurt | 3 | All Maps | STV","players":null},{"server_id":309,"name":"Uncletopia | Frankfurt | 4 | All Maps","name_short":"frk-4","host":"frk-1.de.uncletopia.com","port":27045,"enabled":true,"region":"eu","cc":"de","latitude":50.110924,"longitude":8.682127,"reserved":0,"last_update":"0001-01-01T00:00:00Z","name_a2s":"Uncletopia | Frankfurt | 4 | All Maps","protocol":17,"map":"pl_upward","folder":"tf","game":"Team Fortress","app_id":440,"player_count":0,"max_players":24,"Bots":0,"server_type":"Dedicated","server_os":"Linux","password":true,"vac":true,"version":"7708610","steam_id":85568392924504275,"keywords":["nocrits","nodmgspread","payload","uncletopia"],"game_id":440,"stv_port":27046,"stv_name":"Uncletopia | Frankfurt | 4 | All Maps | STV","players":null},{"server_id":310,"name":"Uncletopia | Frankfurt | 5 | All Maps","name_short":"frk-5","host":"frk-1.de.uncletopia.com","port":27055,"enabled":true,"region":"eu","cc":"de","latitude":50.110924,"longitude":8.682127,"reserved":0,"last_update":"0001-01-01T00:00:00Z","name_a2s":"Uncletopia | Frankfurt | 5 | All Maps","protocol":17,"map":"cp_sunshine","folder":"tf","game":"Team Fortress","app_id":440,"player_count":0,"max_players":24,"Bots":0,"server_type":"Dedicated","server_os":"Linux","password":true,"vac":true,"version":"7708610","steam_id":85568392924504277,"keywords":["cp","nocrits","nodmgspread","uncletopia"],"game_id":440,"stv_port":27056,"stv_name":"Uncletopia | Frankfurt | 5 | All Maps | STV","players":null},{"server_id":311,"name":"Uncletopia | Frankfurt | 6 | All Maps","name_short":"frk-6","host":"frk-1.de.uncletopia.com","port":27065,"enabled":true,"region":"eu","cc":"de","latitude":50.110924,"longitude":8.682127,"reserved":0,"last_update":"0001-01-01T00:00:00Z","name_a2s":"Uncletopia | Frankfurt | 6 | All Maps","protocol":17,"map":"pl_barnblitz","folder":"tf","game":"Team Fortress","app_id":440,"player_count":0,"max_players":24,"Bots":0,"server_type":"Dedicated","server_os":"Linux","password":true,"vac":true,"version":"7708610","steam_id":85568392924504278,"keywords":["nocrits","nodmgspread","payload","uncletopia"],"game_id":440,"stv_port":27066,"stv_name":"Uncletopia | Frankfurt | 6 | All Maps | STV","players":null},{"server_id":23,"name":"Uncletopia | Frankfurt | 7 | No Payload","name_short":"frk-7","host":"frk-1.de.uncletopia.com","port":27075,"enabled":true,"region":"eu","cc":"de","latitude":50.110924,"longitude":8.682127,"reserved":0,"last_update":"0001-01-01T00:00:00Z","name_a2s":"Uncletopia | Frankfurt | 7 | No Payload","protocol":17,"map":"koth_viaduct","folder":"tf","game":"Team Fortress","app_id":440,"player_count":0,"max_players":24,"Bots":0,"server_type":"Dedicated","server_os":"Linux","password":true,"vac":true,"version":"7708610","steam_id":85568392924742827,"keywords":["cp","nocrits","nodmgspread","uncletopia"],"game_id":440,"stv_port":27076,"stv_name":"Uncletopia | Frankfurt | 7 | No Payload | STV","players":null},{"server_id":24,"name":"Uncletopia | Frankfurt | 8 | Community","name_short":"frk-8","host":"frk-1.de.uncletopia.com","port":27085,"enabled":true,"region":"eu","cc":"de","latitude":50.110924,"longitude":8.682127,"reserved":0,"last_update":"0001-01-01T00:00:00Z","name_a2s":"Uncletopia | Frankfurt | 8 | Community","protocol":17,"map":"pl_borneo","folder":"tf","game":"Team Fortress","app_id":440,"player_count":0,"max_players":24,"Bots":0,"server_type":"Dedicated","server_os":"Linux","password":true,"vac":true,"version":"7708610","steam_id":85568392924742828,"keywords":["nocrits","nodmgspread","payload","uncletopia"],"game_id":440,"stv_port":27086,"stv_name":"Uncletopia | Frankfurt | 8 | Community | STV","players":null},{"server_id":202,"name":"Uncletopia | Hong Kong | 1 | All Maps","name_short":"hgk-1","host":"hgk-1.hk.uncletopia.com","port":27015,"enabled":true,"region":"asia","cc":"hk","latitude":22.302711,"longitude":114.177216,"reserved":0,"last_update":"0001-01-01T00:00:00Z","name_a2s":"Uncletopia | Hong Kong | 1 | All Maps","protocol":17,"map":"cp_dustbowl","folder":"tf","game":"Team Fortress","app_id":440,"player_count":24,"max_players":24,"Bots":0,"server_type":"Dedicated","server_os":"Linux","password":true,"vac":true,"version":"7708610","steam_id":85568392924494504,"keywords":["cp","nocrits","nodmgspread","uncletopia"],"game_id":440,"stv_port":27016,"stv_name":"Uncletopia | Hong Kong | 1 | All Maps | STV","players":[{"user_id":241,"name":"rpe","steam_id":76561198415334492,"connected_time":2714000000000,"state":"active","ping":81},{"user_id":286,"name":"梦魇大可汗","steam_id":76561199069641757,"connected_time":694000000000,"state":"active","ping":94},{"user_id":290,"name":"CosmoLighting101","steam_id":76561199217309000,"connected_time":320000000000,"state":"active","ping":62},{"user_id":231,"name":"Not_An_Otaku","steam_id":76561198305884432,"connected_time":3045000000000,"state":"active","ping":78},{"user_id":248,"name":"VDFG2022","steam_id":76561198092084609,"connected_time":2351000000000,"state":"active","ping":44},{"user_id":284,"name":"P","steam_id":76561198304514505,"connected_time":842000000000,"state":"active","ping":74},{"user_id":245,"name":"Yes'Tir'Day","steam_id":76561198091798037,"connected_time":2519000000000,"state":"active","ping":104},{"user_id":246,"name":"nihil","steam_id":76561198339641444,"connected_time":2509000000000,"state":"active","ping":79},{"user_id":291,"name":"Soviet Union","steam_id":76561199231294382,"connected_time":302000000000,"state":"active","ping":94},{"user_id":242,"name":"cellum95","steam_id":76561198172146871,"connected_time":2698000000000,"state":"active","ping":61},{"user_id":277,"name":"_lord_coconut_","steam_id":76561198960390650,"connected_time":1462000000000,"state":"active","ping":66},{"user_id":236,"name":"Shades on Goggles","steam_id":76561198406067629,"connected_time":2855000000000,"state":"active","ping":59},{"user_id":270,"name":"GrotesqueHorse","steam_id":76561198151298791,"connected_time":1577000000000,"state":"active","ping":96},{"user_id":278,"name":"Lateralbeef","steam_id":76561199143243135,"connected_time":1436000000000,"state":"active","ping":75},{"user_id":288,"name":"tiden2000","steam_id":76561198092969425,"connected_time":427000000000,"state":"active","ping":69},{"user_id":285,"name":"bookman","steam_id":76561198989168133,"connected_time":711000000000,"state":"active","ping":88},{"user_id":271,"name":"daredevil but funny","steam_id":76561198058786017,"connected_time":1526000000000,"state":"active","ping":76},{"user_id":282,"name":"brizzard","steam_id":76561198048438653,"connected_time":975000000000,"state":"active","ping":47},{"user_id":281,"name":"skypot","steam_id":76561198073840014,"connected_time":1022000000000,"state":"active","ping":83},{"user_id":261,"name":"diss","steam_id":76561199085668965,"connected_time":1947000000000,"state":"active","ping":64},{"user_id":273,"name":"ogey","steam_id":76561198074339034,"connected_time":1521000000000,"state":"active","ping":76},{"user_id":287,"name":"BBOY","steam_id":76561198070719495,"connected_time":528000000000,"state":"active","ping":69},{"user_id":274,"name":"BluLeaf.","steam_id":76561199219147272,"connected_time":1504000000000,"state":"active","ping":71},{"user_id":289,"name":"JesseyIdiot","steam_id":76561199087727164,"connected_time":336000000000,"state":"active","ping":90}]},{"server_id":1,"name":"Uncletopia | Los Angeles | 1 | All Maps","name_short":"lax-1","host":"lax-1.us.uncletopia.com","port":27015,"enabled":true,"region":"us-west","cc":"us","latitude":33.94279,"longitude":-118.41004,"reserved":0,"last_update":"0001-01-01T00:00:00Z","name_a2s":"Uncletopia | Los Angeles | 1 | All Maps","protocol":17,"map":"pl_borneo","folder":"tf","game":"Team Fortress","app_id":440,"player_count":0,"max_players":24,"Bots":0,"server_type":"Dedicated","server_os":"Linux","password":true,"vac":true,"version":"7708610","steam_id":85568392924469991,"keywords":["nocrits","nodmgspread","payload","uncletopia"],"game_id":440,"stv_port":27016,"stv_name":"Uncletopia | Los Angeles | 1 | All Maps | STV","players":null},{"server_id":112,"name":"Uncletopia | Los Angeles | 2 | All Maps","name_short":"lax-2","host":"lax-1.us.uncletopia.com","port":27025,"enabled":true,"region":"us-west","cc":"us","latitude":33.94279,"longitude":-118.41004,"reserved":0,"last_update":"0001-01-01T00:00:00Z","name_a2s":"Uncletopia | Los Angeles | 2 | All Maps","protocol":17,"map":"koth_viaduct","folder":"tf","game":"Team Fortress","app_id":440,"player_count":0,"max_players":24,"Bots":0,"server_type":"Dedicated","server_os":"Linux","password":true,"vac":true,"version":"7708610","steam_id":85568392924469992,"keywords":["cp","nocrits","nodmgspread","uncletopia"],"game_id":440,"stv_port":27026,"stv_name":"Uncletopia | Los Angeles | 2 | All Maps | STV","players":null},{"server_id":324,"name":"Uncletopia | Los Angeles | 3 | All Maps","name_short":"lax-3","host":"lax-1.us.uncletopia.com","port":27035,"enabled":true,"region":"us-west","cc":"us","latitude":33.94279,"longitude":-118.41004,"reserved":0,"last_update":"0001-01-01T00:00:00Z","name_a2s":"Uncletopia | Los Angeles | 3 | All Maps","protocol":17,"map":"koth_harvest_final","folder":"tf","game":"Team Fortress","app_id":440,"player_count":24,"max_players":24,"Bots":0,"server_type":"Dedicated","server_os":"Linux","password":true,"vac":true,"version":"7708610","steam_id":85568392924510198,"keywords":["cp","nocrits","nodmgspread","uncletopia"],"game_id":440,"stv_port":27036,"stv_name":"Uncletopia | Los Angeles | 3 | All Maps | STV","players":[{"user_id":517,"name":"Skrik","steam_id":76561198086829754,"connected_time":170000000000,"state":"active","ping":102},{"user_id":505,"name":"Bouncer","steam_id":76561198267436740,"connected_time":982000000000,"state":"active","ping":66},{"user_id":518,"name":"CreativeUsername","steam_id":76561198186045503,"connected_time":113000000000,"state":"active","ping":103},{"user_id":519,"name":"Kellyn Nova \\\\SQC//","steam_id":76561198064588009,"connected_time":74000000000,"state":"active","ping":116},{"user_id":511,"name":"BLEEEEGGGGGHHHHHHHH","steam_id":76561198088544558,"connected_time":642000000000,"state":"active","ping":44},{"user_id":495,"name":"pup v9","steam_id":76561198206523304,"connected_time":1598000000000,"state":"active","ping":88},{"user_id":496,"name":"cruiser","steam_id":76561198216976569,"connected_time":1466000000000,"state":"active","ping":55},{"user_id":508,"name":"throat_master","steam_id":76561199223514262,"connected_time":729000000000,"state":"active","ping":108},{"user_id":516,"name":"Dzhoshua","steam_id":76561198071915251,"connected_time":384000000000,"state":"active","ping":117},{"user_id":509,"name":"chirp","steam_id":76561198109916563,"connected_time":718000000000,"state":"active","ping":63},{"user_id":398,"name":"mommy HOG","steam_id":76561199230929836,"connected_time":8956000000000,"state":"active","ping":87},{"user_id":498,"name":"Red Orbama","steam_id":76561198047002366,"connected_time":1405000000000,"state":"active","ping":72},{"user_id":487,"name":"High Cotton","steam_id":76561197998894854,"connected_time":2820000000000,"state":"active","ping":104},{"user_id":480,"name":"tempqeiuwqefk","steam_id":76561198142160712,"connected_time":3306000000000,"state":"active","ping":74},{"user_id":513,"name":"demolondon the thrice","steam_id":76561198936116083,"connected_time":591000000000,"state":"active","ping":100},{"user_id":522,"name":"MAX","steam_id":76561198027033926,"connected_time":59000000000,"state":"active","ping":182},{"user_id":501,"name":"Alley_YAMBO","steam_id":76561198055651850,"connected_time":1333000000000,"state":"active","ping":37},{"user_id":400,"name":"MASSIVE HOG","steam_id":76561198079923652,"connected_time":8923000000000,"state":"active","ping":76},{"user_id":483,"name":"Rommel2007","steam_id":76561198041744631,"connected_time":3202000000000,"state":"active","ping":53},{"user_id":521,"name":"Amogous Supreme","steam_id":76561198025476774,"connected_time":65000000000,"state":"active","ping":62},{"user_id":514,"name":"MAX!!!","steam_id":76561198022856768,"connected_time":494000000000,"state":"active","ping":119},{"user_id":515,"name":"Rusted Cake","steam_id":76561198209755931,"connected_time":489000000000,"state":"active","ping":111},{"user_id":492,"name":"Jacasola","steam_id":76561198055460402,"connected_time":2520000000000,"state":"active","ping":52},{"user_id":503,"name":"JICK¶","steam_id":76561198134218403,"connected_time":1145000000000,"state":"active","ping":58}]},{"server_id":25,"name":"Uncletopia | Los Angeles | 4 | No Payload","name_short":"lax-4","host":"lax-1.us.uncletopia.com","port":27045,"enabled":true,"region":"us-west","cc":"us","latitude":33.94279,"longitude":-118.41004,"reserved":0,"last_update":"0001-01-01T00:00:00Z","name_a2s":"Uncletopia | Los Angeles | 4 | No Payload","protocol":17,"map":"plr_bananabay","folder":"tf","game":"Team Fortress","app_id":440,"player_count":0,"max_players":24,"Bots":0,"server_type":"Dedicated","server_os":"Linux","password":true,"vac":true,"version":"7708610","steam_id":85568392924510199,"keywords":["nocrits","nodmgspread","payload","uncletopia"],"game_id":440,"stv_port":27046,"stv_name":"Uncletopia | Los Angeles | 4 | No Payload | STV","players":null},{"server_id":11,"name":"Uncletopia | London | 1 | All Maps","name_short":"lon-1","host":"lon-1.uk.uncletopia.com","port":27015,"enabled":true,"region":"eu","cc":"gb","latitude":51.509865,"longitude":-0.118092,"reserved":0,"last_update":"0001-01-01T00:00:00Z","name_a2s":"Uncletopia | London | 1 | All Maps","protocol":17,"map":"cp_mountainlab","folder":"tf","game":"Team Fortress","app_id":440,"player_count":0,"max_players":24,"Bots":0,"server_type":"Dedicated","server_os":"Linux","password":true,"vac":true,"version":"7708610","steam_id":85568392924367362,"keywords":["cp","nocrits","nodmgspread","uncletopia"],"game_id":440,"stv_port":27016,"stv_name":"Uncletopia | London | 1 | All Maps | STV","players":null},{"server_id":114,"name":"Uncletopia | London | 2 | All Maps","name_short":"lon-2","host":"lon-1.uk.uncletopia.com","port":27025,"enabled":true,"region":"eu","cc":"gb","latitude":51.509865,"longitude":-0.118092,"reserved":0,"last_update":"0001-01-01T00:00:00Z","name_a2s":"Uncletopia | London | 2 | All Maps","protocol":17,"map":"cp_sunshine","folder":"tf","game":"Team Fortress","app_id":440,"player_count":0,"max_players":24,"Bots":0,"server_type":"Dedicated","server_os":"Linux","password":true,"vac":true,"version":"7708610","steam_id":85568392924470941,"keywords":["cp","nocrits","nodmgspread","uncletopia"],"game_id":440,"stv_port":27026,"stv_name":"Uncletopia | London | 2 | All Maps | STV","players":null},{"server_id":320,"name":"Uncletopia | London | 3 | All Maps","name_short":"lon-3","host":"lon-1.uk.uncletopia.com","port":27035,"enabled":true,"region":"eu","cc":"gb","latitude":51.509865,"longitude":-0.118092,"reserved":0,"last_update":"0001-01-01T00:00:00Z","name_a2s":"Uncletopia | London | 3 | All Maps","protocol":17,"map":"koth_cascade","folder":"tf","game":"Team Fortress","app_id":440,"player_count":0,"max_players":24,"Bots":0,"server_type":"Dedicated","server_os":"Linux","password":true,"vac":true,"version":"7708610","steam_id":85568392924510192,"keywords":["cp","nocrits","nodmgspread","uncletopia"],"game_id":440,"stv_port":27036,"stv_name":"Uncletopia | London | 3 | All Maps | STV","players":null},{"server_id":321,"name":"Uncletopia | London | 4 | All Maps","name_short":"lon-4","host":"lon-1.uk.uncletopia.com","port":27045,"enabled":true,"region":"eu","cc":"gb","latitude":51.509865,"longitude":-0.118092,"reserved":0,"last_update":"0001-01-01T00:00:00Z","name_a2s":"Uncletopia | London | 4 | All Maps","protocol":17,"map":"koth_cascade","folder":"tf","game":"Team Fortress","app_id":440,"player_count":0,"max_players":24,"Bots":0,"server_type":"Dedicated","server_os":"Linux","password":true,"vac":true,"version":"7708610","steam_id":85568392924510193,"keywords":["cp","nocrits","nodmgspread","uncletopia"],"game_id":440,"stv_port":27046,"stv_name":"Uncletopia | London | 4 | All Maps | STV","players":null},{"server_id":21,"name":"Uncletopia | London | 5 | All Maps","name_short":"lon-5","host":"lon-1.uk.uncletopia.com","port":27055,"enabled":true,"region":"eu","cc":"gb","latitude":51.509865,"longitude":-0.118092,"reserved":0,"last_update":"0001-01-01T00:00:00Z","name_a2s":"Uncletopia | London | 5 | All Maps","protocol":17,"map":"pl_badwater","folder":"tf","game":"Team Fortress","app_id":440,"player_count":0,"max_players":24,"Bots":0,"server_type":"Dedicated","server_os":"Linux","password":true,"vac":true,"version":"7708610","steam_id":85568392924742829,"keywords":["nocrits","nodmgspread","payload","uncletopia"],"game_id":440,"stv_port":27056,"stv_name":"Uncletopia | London | 5 | All Maps | STV","players":null},{"server_id":22,"name":"Uncletopia | London | 6 | All Maps","name_short":"lon-6","host":"lon-1.uk.uncletopia.com","port":27065,"enabled":true,"region":"eu","cc":"gb","latitude":51.509865,"longitude":-0.118092,"reserved":0,"last_update":"0001-01-01T00:00:00Z","name_a2s":"Uncletopia | London | 6 | All Maps","protocol":17,"map":"pl_frontier_final","folder":"tf","game":"Team Fortress","app_id":440,"player_count":0,"max_players":24,"Bots":0,"server_type":"Dedicated","server_os":"Linux","password":true,"vac":true,"version":"7708610","steam_id":85568392924742830,"keywords":["nocrits","nodmgspread","payload","uncletopia"],"game_id":440,"stv_port":27066,"stv_name":"Uncletopia | London | 6 | All Maps | STV","players":null},{"server_id":40,"name":"Uncletopia | London | 7 | No Payload","name_short":"lon-7","host":"lon-1.uk.uncletopia.com","port":27075,"enabled":true,"region":"eu","cc":"gb","latitude":51.509865,"longitude":-0.118092,"reserved":0,"last_update":"0001-01-01T00:00:00Z","name_a2s":"Uncletopia | London | 7 | No Payload","protocol":17,"map":"pl_barnblitz","folder":"tf","game":"Team Fortress","app_id":440,"player_count":0,"max_players":24,"Bots":0,"server_type":"Dedicated","server_os":"Linux","password":true,"vac":true,"version":"7708610","steam_id":85568392924964314,"keywords":["nocrits","nodmgspread","payload","uncletopia"],"game_id":440,"stv_port":27076,"stv_name":"Uncletopia | London | 7 | No Payload | STV","players":null},{"server_id":41,"name":"Uncletopia | London | 8 | Community","name_short":"lon-8","host":"lon-1.uk.uncletopia.com","port":27085,"enabled":true,"region":"eu","cc":"gb","latitude":51.509865,"longitude":-0.118092,"reserved":0,"last_update":"0001-01-01T00:00:00Z","name_a2s":"Uncletopia | London | 8 | Community","protocol":17,"map":"pl_pier","folder":"tf","game":"Team Fortress","app_id":440,"player_count":0,"max_players":24,"Bots":0,"server_type":"Dedicated","server_os":"Linux","password":true,"vac":true,"version":"7708610","steam_id":85568392924964315,"keywords":["nocrits","nodmgspread","payload","uncletopia"],"game_id":440,"stv_port":27086,"stv_name":"Uncletopia | London | 8 | Community | STV","players":null},{"server_id":300,"name":"Uncletopia | Montréal | 1 | All Maps","name_short":"mtl-1","host":"mtl-1.ca.uncletopia.com","port":27015,"enabled":true,"region":"us-east","cc":"ca","latitude":45.50889,"longitude":-73.56167,"reserved":0,"last_update":"0001-01-01T00:00:00Z","name_a2s":"Uncletopia | Montréal | 1 | All Maps","protocol":17,"map":"cp_dustbowl","folder":"tf","game":"Team Fortress","app_id":440,"player_count":0,"max_players":24,"Bots":0,"server_type":"Dedicated","server_os":"Linux","password":true,"vac":true,"version":"7708610","steam_id":85568392924500087,"keywords":["cp","nocrits","nodmgspread","uncletopia"],"game_id":440,"stv_port":27016,"stv_name":"Uncletopia | Montréal | 1 | All Maps | STV","players":null},{"server_id":301,"name":"Uncletopia | Montréal | 2 | All Maps","name_short":"mtl-2","host":"mtl-1.ca.uncletopia.com","port":27025,"enabled":true,"region":"us-east","cc":"ca","latitude":45.50889,"longitude":-73.56167,"reserved":0,"last_update":"0001-01-01T00:00:00Z","name_a2s":"Uncletopia | Montréal | 2 | All Maps","protocol":17,"map":"pl_swiftwater_final1","folder":"tf","game":"Team Fortress","app_id":440,"player_count":0,"max_players":24,"Bots":0,"server_type":"Dedicated","server_os":"Linux","password":true,"vac":true,"version":"7708610","steam_id":85568392924500088,"keywords":["nocrits","nodmgspread","payload","uncletopia"],"game_id":440,"stv_port":27026,"stv_name":"Uncletopia | Montréal | 2 | All Maps | STV","players":null},{"server_id":302,"name":"Uncletopia | Montréal | 3 | All Maps","name_short":"mtl-3","host":"mtl-1.ca.uncletopia.com","port":27035,"enabled":true,"region":"us-east","cc":"ca","latitude":45.50889,"longitude":-73.56167,"reserved":0,"last_update":"0001-01-01T00:00:00Z","name_a2s":"Uncletopia | Montréal | 3 | All Maps","protocol":17,"map":"cp_snakewater_final1","folder":"tf","game":"Team Fortress","app_id":440,"player_count":0,"max_players":24,"Bots":0,"server_type":"Dedicated","server_os":"Linux","password":true,"vac":true,"version":"7708610","steam_id":85568392924500089,"keywords":["cp","nocrits","nodmgspread","uncletopia"],"game_id":440,"stv_port":27036,"stv_name":"Uncletopia | Montréal | 3 | All Maps | STV","players":null},{"server_id":303,"name":"Uncletopia | Montréal | 4 | No Payload","name_short":"mtl-4","host":"mtl-1.ca.uncletopia.com","port":27045,"enabled":true,"region":"us-east","cc":"ca","latitude":45.50889,"longitude":-73.56167,"reserved":0,"last_update":"0001-01-01T00:00:00Z","name_a2s":"Uncletopia | Montréal | 4 | No Payload","protocol":17,"map":"cp_process_final","folder":"tf","game":"Team Fortress","app_id":440,"player_count":0,"max_players":24,"Bots":0,"server_type":"Dedicated","server_os":"Linux","password":true,"vac":true,"version":"7708610","steam_id":85568392924500090,"keywords":["cp","nocrits","nodmgspread","uncletopia"],"game_id":440,"stv_port":27046,"stv_name":"Uncletopia | Montréal | 4 | No Payload | STV","players":null},{"server_id":13,"name":"Uncletopia | New York City | 1 | All Maps","name_short":"nyc-1","host":"nyc-1.us.uncletopia.com","port":27015,"enabled":true,"region":"us-east","cc":"us","latitude":40.73061,"longitude":-73.93524,"reserved":0,"last_update":"0001-01-01T00:00:00Z","name_a2s":"Uncletopia | New York City | 1 | All Maps","protocol":17,"map":"cp_mountainlab","folder":"tf","game":"Team Fortress","app_id":440,"player_count":0,"max_players":24,"Bots":0,"server_type":"Dedicated","server_os":"Linux","password":true,"vac":true,"version":"7708610","steam_id":85568392924469993,"keywords":["cp","nocrits","nodmgspread","uncletopia"],"game_id":440,"stv_port":27016,"stv_name":"Uncletopia | New York City | 1 | All Maps | STV","players":null},{"server_id":14,"name":"Uncletopia | New York City | 2 | All Maps","name_short":"nyc-2","host":"nyc-1.us.uncletopia.com","port":27025,"enabled":true,"region":"us-east","cc":"us","latitude":40.73061,"longitude":-73.93524,"reserved":0,"last_update":"0001-01-01T00:00:00Z","name_a2s":"Uncletopia | New York City | 2 | All Maps","protocol":17,"map":"cp_dustbowl","folder":"tf","game":"Team Fortress","app_id":440,"player_count":0,"max_players":24,"Bots":0,"server_type":"Dedicated","server_os":"Linux","password":true,"vac":true,"version":"7708610","steam_id":85568392924469994,"keywords":["cp","nocrits","nodmgspread","uncletopia"],"game_id":440,"stv_port":27026,"stv_name":"Uncletopia | New York City | 2 | All Maps | STV","players":null},{"server_id":15,"name":"Uncletopia | New York City | 3 | All Maps","name_short":"nyc-3","host":"nyc-1.us.uncletopia.com","port":27035,"enabled":true,"region":"us-east","cc":"us","latitude":40.73061,"longitude":-73.93524,"reserved":0,"last_update":"0001-01-01T00:00:00Z","name_a2s":"Uncletopia | New York City | 3 | All Maps","protocol":17,"map":"koth_lakeside_final","folder":"tf","game":"Team Fortress","app_id":440,"player_count":0,"max_players":24,"Bots":0,"server_type":"Dedicated","server_os":"Linux","password":true,"vac":true,"version":"7708610","steam_id":85568392924742820,"keywords":["cp","nocrits","nodmgspread","uncletopia"],"game_id":440,"stv_port":27036,"stv_name":"Uncletopia | New York City | 3 | All Maps | STV","players":null},{"server_id":16,"name":"Uncletopia | New York City | 4 | Community","name_short":"nyc-4","host":"nyc-1.us.uncletopia.com","port":27045,"enabled":true,"region":"us-east","cc":"us","latitude":40.73061,"longitude":-73.93524,"reserved":0,"last_update":"0001-01-01T00:00:00Z","name_a2s":"Uncletopia | New York City | 4 | Community","protocol":17,"map":"workshop/koth_slaughter_rc1.ugc1712845210","folder":"tf","game":"Team Fortress","app_id":440,"player_count":0,"max_players":24,"Bots":0,"server_type":"Dedicated","server_os":"Linux","password":true,"vac":true,"version":"7708610","steam_id":85568392924742821,"keywords":["cp","nocrits","nodmgspread","uncletopia"],"game_id":440,"stv_port":27046,"stv_name":"Uncletopia | New York City | 4 | Community | STV","players":null},{"server_id":142,"name":"Uncletopia | São Paulo | 1 | All Maps","name_short":"sao-1","host":"sao-1.br.uncletopia.com","port":27015,"enabled":true,"region":"sa","cc":"br","latitude":-23.533773,"longitude":-46.62529,"reserved":0,"last_update":"0001-01-01T00:00:00Z","name_a2s":"Uncletopia | São Paulo | 1 | All Maps","protocol":17,"map":"pl_borneo","folder":"tf","game":"Team Fortress","app_id":440,"player_count":0,"max_players":24,"Bots":0,"server_type":"Dedicated","server_os":"Linux","password":true,"vac":true,"version":"7708610","steam_id":85568392924469996,"keywords":["nocrits","nodmgspread","payload","uncletopia"],"game_id":440,"stv_port":27016,"stv_name":"Uncletopia | São Paulo | 1 | All Maps | STV","players":null},{"server_id":143,"name":"Uncletopia | São Paulo | 2 | All Maps","name_short":"sao-2","host":"sao-2.br.uncletopia.com","port":27015,"enabled":true,"region":"sa","cc":"br","latitude":-23.533773,"longitude":-46.62529,"reserved":0,"last_update":"0001-01-01T00:00:00Z","name_a2s":"Uncletopia | São Paulo | 2 | All Maps","protocol":17,"map":"koth_viaduct","folder":"tf","game":"Team Fortress","app_id":440,"player_count":0,"max_players":24,"Bots":0,"server_type":"Dedicated","server_os":"Linux","password":true,"vac":true,"version":"7708610","steam_id":85568392924485349,"keywords":["cp","nocrits","nodmgspread","uncletopia"],"game_id":440,"stv_port":27016,"stv_name":"Uncletopia | São Paulo | 2 | All Maps | STV","players":null},{"server_id":7,"name":"Uncletopia | Seattle | 1 | All Maps","name_short":"sea-1","host":"sea-1.us.uncletopia.com","port":27015,"enabled":true,"region":"us-west","cc":"us","latitude":47.608013,"longitude":-122.33517,"reserved":0,"last_update":"0001-01-01T00:00:00Z","name_a2s":"Uncletopia | Seattle | 1 | All Maps","protocol":17,"map":"pl_upward","folder":"tf","game":"Team Fortress","app_id":440,"player_count":24,"max_players":24,"Bots":0,"server_type":"Dedicated","server_os":"Linux","password":true,"vac":true,"version":"7708610","steam_id":85568392924469997,"keywords":["nocrits","nodmgspread","payload","uncletopia"],"game_id":440,"stv_port":27016,"stv_name":"Uncletopia | Seattle | 1 | All Maps | STV","players":[{"user_id":358,"name":"XzachTLY","steam_id":76561198145534604,"connected_time":8309000000000,"state":"active","ping":69},{"user_id":423,"name":"ThePriceIsRice","steam_id":76561198079069543,"connected_time":1612000000000,"state":"active","ping":64},{"user_id":426,"name":"Bagaboned","steam_id":76561198043761335,"connected_time":1100000000000,"state":"active","ping":49},{"user_id":366,"name":"PopcornNinja101","steam_id":76561198330680181,"connected_time":7713000000000,"state":"active","ping":45},{"user_id":404,"name":"GameGuru the Green Gryphon","steam_id":76561198118495354,"connected_time":4069000000000,"state":"active","ping":51},{"user_id":432,"name":"abaddon_amog","steam_id":76561198268581959,"connected_time":455000000000,"state":"active","ping":55},{"user_id":430,"name":"Level 99 Mudcrab","steam_id":76561198077452771,"connected_time":617000000000,"state":"active","ping":59},{"user_id":427,"name":"tricky dance moves","steam_id":76561198885055475,"connected_time":658000000000,"state":"active","ping":70},{"user_id":407,"name":"The Caretaker","steam_id":76561198125241411,"connected_time":3211000000000,"state":"active","ping":91},{"user_id":425,"name":"CheeseCake488","steam_id":76561199407617942,"connected_time":1445000000000,"state":"active","ping":109},{"user_id":410,"name":"CassandraRC7 (She/her)","steam_id":76561198094123940,"connected_time":2943000000000,"state":"active","ping":121},{"user_id":412,"name":"Big Yoshi #savetf2","steam_id":76561198009916036,"connected_time":2803000000000,"state":"active","ping":108},{"user_id":411,"name":"Raian","steam_id":76561199138048671,"connected_time":2805000000000,"state":"active","ping":64},{"user_id":384,"name":"Arsonist Goose","steam_id":76561198147441830,"connected_time":6179000000000,"state":"active","ping":75},{"user_id":424,"name":"[K.Y.L.L.]Lyka","steam_id":76561198027321950,"connected_time":1588000000000,"state":"active","ping":48},{"user_id":416,"name":"squid game","steam_id":76561199248960166,"connected_time":2686000000000,"state":"active","ping":41},{"user_id":398,"name":"[TrC] Dackstrus","steam_id":76561197973518509,"connected_time":4331000000000,"state":"active","ping":59},{"user_id":420,"name":"oil","steam_id":76561198099980149,"connected_time":1623000000000,"state":"active","ping":75},{"user_id":433,"name":"Sgt Autmn","steam_id":76561198072047939,"connected_time":372000000000,"state":"active","ping":47},{"user_id":387,"name":"mcstabby492","steam_id":76561198301041074,"connected_time":6044000000000,"state":"active","ping":77},{"user_id":405,"name":"facade","steam_id":76561199157009256,"connected_time":3266000000000,"state":"active","ping":49},{"user_id":428,"name":"Armorey","steam_id":76561198091489138,"connected_time":632000000000,"state":"active","ping":95},{"user_id":392,"name":"Ddot","steam_id":76561198082846392,"connected_time":5669000000000,"state":"active","ping":53},{"user_id":357,"name":"blinkerton city","steam_id":76561198054270410,"connected_time":8327000000000,"state":"active","ping":57}]},{"server_id":119,"name":"Uncletopia | Seattle | 2 | All Maps","name_short":"sea-2","host":"sea-1.us.uncletopia.com","port":27025,"enabled":true,"region":"us-west","cc":"us","latitude":47.608013,"longitude":-122.33517,"reserved":0,"last_update":"0001-01-01T00:00:00Z","name_a2s":"Uncletopia | Seattle | 2 | All Maps","protocol":17,"map":"koth_highpass","folder":"tf","game":"Team Fortress","app_id":440,"player_count":0,"max_players":24,"Bots":0,"server_type":"Dedicated","server_os":"Linux","password":true,"vac":true,"version":"7708610","steam_id":85568392924469998,"keywords":["cp","nocrits","nodmgspread","uncletopia"],"game_id":440,"stv_port":27026,"stv_name":"Uncletopia | Seattle | 2 | All Maps | STV","players":null},{"server_id":17,"name":"Uncletopia | San Francisco | 1 | All Maps","name_short":"sfo-1","host":"sfo-1.us.uncletopia.com","port":27015,"enabled":true,"region":"us-west","cc":"us","latitude":37.77397,"longitude":-122.4313,"reserved":0,"last_update":"0001-01-01T00:00:00Z","name_a2s":"Uncletopia | San Francisco | 1 | All Maps","protocol":17,"map":"koth_viaduct","folder":"tf","game":"Team Fortress","app_id":440,"player_count":0,"max_players":24,"Bots":0,"server_type":"Dedicated","server_os":"Linux","password":true,"vac":true,"version":"7708610","steam_id":85568392924469999,"keywords":["cp","nocrits","nodmgspread","uncletopia"],"game_id":440,"stv_port":27016,"stv_name":"Uncletopia | San Francisco | 1 | All Maps | STV","players":null},{"server_id":18,"name":"Uncletopia | San Francisco | 2 | All Maps","name_short":"sfo-2","host":"sfo-1.us.uncletopia.com","port":27025,"enabled":true,"region":"us-west","cc":"us","latitude":37.77397,"longitude":-122.4313,"reserved":0,"last_update":"0001-01-01T00:00:00Z","name_a2s":"Uncletopia | San Francisco | 2 | All Maps","protocol":17,"map":"koth_harvest_final","folder":"tf","game":"Team Fortress","app_id":440,"player_count":0,"max_players":24,"Bots":0,"server_type":"Dedicated","server_os":"Linux","password":true,"vac":true,"version":"7708610","steam_id":85568392924470000,"keywords":["cp","nocrits","nodmgspread","uncletopia"],"game_id":440,"stv_port":27026,"stv_name":"Uncletopia | San Francisco | 2 | All Maps | STV","players":null},{"server_id":19,"name":"Uncletopia | San Francisco | 3 | No Payload","name_short":"sfo-3","host":"sfo-1.us.uncletopia.com","port":27035,"enabled":true,"region":"us-west","cc":"us","latitude":37.77397,"longitude":-122.4313,"reserved":0,"last_update":"0001-01-01T00:00:00Z","name_a2s":"Uncletopia | San Francisco | 3 | No Payload","protocol":17,"map":"ctf_sawmill","folder":"tf","game":"Team Fortress","app_id":440,"player_count":0,"max_players":24,"Bots":0,"server_type":"Dedicated","server_os":"Linux","password":true,"vac":true,"version":"7708610","steam_id":85568392924742824,"keywords":["ctf","nocrits","nodmgspread","uncletopia"],"game_id":440,"stv_port":27036,"stv_name":"Uncletopia | San Francisco | 3 | No Payload | STV","players":null},{"server_id":20,"name":"Uncletopia | San Francisco | 4 | Community","name_short":"sfo-4","host":"sfo-1.us.uncletopia.com","port":27045,"enabled":true,"region":"us-west","cc":"us","latitude":37.77397,"longitude":-122.4313,"reserved":0,"last_update":"0001-01-01T00:00:00Z","name_a2s":"Uncletopia | San Francisco | 4 | Community","protocol":17,"map":"workshop/rd_asteroid_redux_rc9.ugc2154902912","folder":"tf","game":"Team Fortress","app_id":440,"player_count":0,"max_players":24,"Bots":0,"server_type":"Dedicated","server_os":"Linux","password":true,"vac":true,"version":"7708610","steam_id":85568392924742826,"keywords":["beta","nocrits","nodmgspread","rd","uncletopia"],"game_id":440,"stv_port":27046,"stv_name":"Uncletopia | San Francisco | 4 | Community | STV","players":null},{"server_id":141,"name":"Uncletopia | Sydney | 1 | All Maps","name_short":"syd-1","host":"syd-1.au.uncletopia.com","port":27015,"enabled":true,"region":"au","cc":"au","latitude":-33.865143,"longitude":151.2099,"reserved":0,"last_update":"0001-01-01T00:00:00Z","name_a2s":"Uncletopia | Sydney | 1 | All Maps","protocol":17,"map":"pl_pier","folder":"tf","game":"Team Fortress","app_id":440,"player_count":24,"max_players":24,"Bots":0,"server_type":"Dedicated","server_os":"Linux","password":true,"vac":true,"version":"7708610","steam_id":85568392924470001,"keywords":["nocrits","nodmgspread","payload","uncletopia"],"game_id":440,"stv_port":27016,"stv_name":"Uncletopia | Sydney | 1 | All Maps | STV","players":[{"user_id":402,"name":"NaCl","steam_id":76561198176111621,"connected_time":572000000000,"state":"active","ping":91},{"user_id":401,"name":"ToadFungus","steam_id":76561199219667039,"connected_time":607000000000,"state":"active","ping":100},{"user_id":319,"name":"❄❄❄❄❄❄❄❄","steam_id":76561198159933043,"connected_time":5728000000000,"state":"active","ping":67},{"user_id":416,"name":"Q","steam_id":76561198055600105,"connected_time":115000000000,"state":"active","ping":70},{"user_id":410,"name":"IM SIIK FOR YIIK IM SIIK FOR YI","steam_id":76561198164982533,"connected_time":491000000000,"state":"active","ping":112},{"user_id":405,"name":"MikkyD","steam_id":76561198043452962,"connected_time":549000000000,"state":"active","ping":64},{"user_id":373,"name":"Gavin.","steam_id":76561198405783348,"connected_time":3075000000000,"state":"active","ping":60},{"user_id":406,"name":"skud","steam_id":76561198136866711,"connected_time":544000000000,"state":"active","ping":55},{"user_id":378,"name":"penis muncher","steam_id":76561198288259746,"connected_time":2552000000000,"state":"active","ping":58},{"user_id":407,"name":"A Spud","steam_id":76561198105197590,"connected_time":538000000000,"state":"active","ping":100},{"user_id":379,"name":"callistoAshley","steam_id":76561198178116375,"connected_time":2552000000000,"state":"active","ping":50},{"user_id":397,"name":"4-Star Yelp Review","steam_id":76561197995258180,"connected_time":1329000000000,"state":"active","ping":48},{"user_id":375,"name":"deadmoi27","steam_id":76561198157061007,"connected_time":2933000000000,"state":"active","ping":64},{"user_id":398,"name":"1bean234","steam_id":76561198054698346,"connected_time":1324000000000,"state":"active","ping":52},{"user_id":400,"name":"Ne1son","steam_id":76561198085020252,"connected_time":917000000000,"state":"active","ping":82},{"user_id":388,"name":"Drop the trout","steam_id":76561198061515657,"connected_time":2417000000000,"state":"active","ping":60},{"user_id":394,"name":"Poison_Kouki","steam_id":76561198150364859,"connected_time":1417000000000,"state":"active","ping":50},{"user_id":371,"name":"UnseenStroke","steam_id":76561198265303268,"connected_time":3475000000000,"state":"active","ping":63},{"user_id":417,"name":"Soru","steam_id":76561198010844786,"connected_time":103000000000,"state":"active","ping":69},{"user_id":306,"name":"leonidas","steam_id":76561198054096076,"connected_time":6430000000000,"state":"active","ping":50},{"user_id":408,"name":"Federal Agent No. 734","steam_id":76561198132758545,"connected_time":531000000000,"state":"active","ping":54},{"user_id":418,"name":"Comedy Mode","steam_id":76561198293250088,"connected_time":103000000000,"state":"active","ping":104},{"user_id":415,"name":"krandlez` (Any/All)","steam_id":76561198044839726,"connected_time":195000000000,"state":"active","ping":44},{"user_id":342,"name":"A KNIFE!","steam_id":76561198160390701,"connected_time":5030000000000,"state":"active","ping":90}]},{"server_id":123,"name":"Uncletopia | Sydney | 2 | All Maps","name_short":"syd-2","host":"syd-1.au.uncletopia.com","port":27025,"enabled":true,"region":"au","cc":"au","latitude":-33.865143,"longitude":151.2099,"reserved":0,"last_update":"0001-01-01T00:00:00Z","name_a2s":"Uncletopia | Sydney | 2 | All Maps","protocol":17,"map":"pl_wutville_event","folder":"tf","game":"Team Fortress","app_id":440,"player_count":24,"max_players":24,"Bots":0,"server_type":"Dedicated","server_os":"Linux","password":true,"vac":true,"version":"7708610","steam_id":85568392924470002,"keywords":["nocrits","nodmgspread","payload","uncletopia"],"game_id":440,"stv_port":27026,"stv_name":"Uncletopia | Sydney | 2 | All Maps | STV","players":[{"user_id":379,"name":"Engineer tf2","steam_id":76561198066569420,"connected_time":993000000000,"state":"active","ping":75},{"user_id":365,"name":"Green Guy","steam_id":76561198267184450,"connected_time":2095000000000,"state":"active","ping":69},{"user_id":378,"name":"Finger Guns","steam_id":76561198045189153,"connected_time":1027000000000,"state":"active","ping":55},{"user_id":388,"name":"\u003c0/","steam_id":76561197969655014,"connected_time":259000000000,"state":"active","ping":83},{"user_id":387,"name":"LeCarz","steam_id":76561198091515229,"connected_time":355000000000,"state":"active","ping":64},{"user_id":384,"name":"Lexi","steam_id":76561198286432394,"connected_time":622000000000,"state":"active","ping":45},{"user_id":351,"name":"DIY Miracle","steam_id":76561198046228152,"connected_time":3008000000000,"state":"active","ping":63},{"user_id":376,"name":"Ticklish Demoman","steam_id":76561198955569441,"connected_time":1463000000000,"state":"active","ping":47},{"user_id":389,"name":"Lord_Sklorp","steam_id":76561198433325746,"connected_time":249000000000,"state":"active","ping":36},{"user_id":336,"name":"giwtwm","steam_id":76561198132937542,"connected_time":3407000000000,"state":"active","ping":61},{"user_id":393,"name":"Chicken","steam_id":76561198102356311,"connected_time":117000000000,"state":"active","ping":54},{"user_id":364,"name":"Moorane","steam_id":76561198071091263,"connected_time":2124000000000,"state":"active","ping":63},{"user_id":346,"name":"Lovres","steam_id":76561198058740774,"connected_time":3237000000000,"state":"active","ping":75},{"user_id":370,"name":"Zeee","steam_id":76561198050627062,"connected_time":1841000000000,"state":"active","ping":85},{"user_id":392,"name":"Meihronias","steam_id":76561199163845108,"connected_time":133000000000,"state":"active","ping":66},{"user_id":360,"name":"Local Trash Expert","steam_id":76561198145598622,"connected_time":2376000000000,"state":"active","ping":77},{"user_id":371,"name":"audit (shirtless gamer)","steam_id":76561198199935918,"connected_time":1834000000000,"state":"active","ping":58},{"user_id":394,"name":"Mad(enninglyFestive)mannsHat","steam_id":76561199063185304,"connected_time":109000000000,"state":"active","ping":70},{"user_id":347,"name":"violent media","steam_id":76561198025225448,"connected_time":3216000000000,"state":"active","ping":79},{"user_id":372,"name":"Jacobmeister","steam_id":76561198071652927,"connected_time":1820000000000,"state":"active","ping":79},{"user_id":383,"name":"rabbet","steam_id":76561198060493922,"connected_time":757000000000,"state":"active","ping":41},{"user_id":377,"name":"Charm","steam_id":76561198028891054,"connected_time":1138000000000,"state":"active","ping":57},{"user_id":398,"name":"fido dido","steam_id":76561198017390541,"connected_time":64000000000,"state":"active","ping":46},{"user_id":397,"name":"iliana","steam_id":76561198304080170,"connected_time":85000000000,"state":"active","ping":41}]},{"server_id":395,"name":"Uncletopia | Sydney | 3 | All Maps","name_short":"syd-3","host":"syd-1.au.uncletopia.com","port":27035,"enabled":true,"region":"au","cc":"au","latitude":-33.865143,"longitude":151.2099,"reserved":0,"last_update":"0001-01-01T00:00:00Z","name_a2s":"Uncletopia | Sydney | 3 | All Maps","protocol":17,"map":"koth_viaduct","folder":"tf","game":"Team Fortress","app_id":440,"player_count":2,"max_players":24,"Bots":0,"server_type":"Dedicated","server_os":"Linux","password":true,"vac":true,"version":"7708610","steam_id":85568392925194467,"keywords":["cp","nocrits","nodmgspread","uncletopia"],"game_id":440,"stv_port":27036,"stv_name":"Uncletopia | Sydney | 3 | All Maps | STV","players":[{"user_id":16,"name":"LexiEz","steam_id":76561198195478589,"connected_time":219000000000,"state":"active","ping":47},{"user_id":17,"name":"Akunébíokwudigbo","steam_id":76561198197777382,"connected_time":197000000000,"state":"active","ping":47}]},{"server_id":396,"name":"Uncletopia | Sydney | 4 | All Maps","name_short":"syd-4","host":"syd-1.au.uncletopia.com","port":27045,"enabled":true,"region":"au","cc":"au","latitude":-33.865143,"longitude":151.2099,"reserved":0,"last_update":"0001-01-01T00:00:00Z","name_a2s":"Uncletopia | Sydney | 4 | All Maps","protocol":17,"map":"cp_mountainlab","folder":"tf","game":"Team Fortress","app_id":440,"player_count":0,"max_players":24,"Bots":0,"server_type":"Dedicated","server_os":"Linux","password":true,"vac":true,"version":"7708610","steam_id":85568392925397958,"keywords":["cp","nocrits","nodmgspread","uncletopia"],"game_id":440,"stv_port":27046,"stv_name":"Uncletopia | Sydney | 4 | All Maps | STV","players":null},{"server_id":58,"name":"Uncletopia | Sydney | 5 | No Payload","name_short":"syd-5","host":"syd-1.au.uncletopia.com","port":27055,"enabled":true,"region":"au","cc":"au","latitude":-33.865143,"longitude":151.2099,"reserved":0,"last_update":"0001-01-01T00:00:00Z","name_a2s":"Uncletopia | Sydney | 5 | No Payload","protocol":17,"map":"koth_suijin","folder":"tf","game":"Team Fortress","app_id":440,"player_count":2,"max_players":24,"Bots":0,"server_type":"Dedicated","server_os":"Linux","password":true,"vac":true,"version":"7708610","steam_id":85568392925397959,"keywords":["cp","nocrits","nodmgspread","uncletopia"],"game_id":440,"stv_port":27056,"stv_name":"Uncletopia | Sydney | 5 | No Payload | STV","players":[{"user_id":11,"name":"LightningBlock","steam_id":76561198289997742,"connected_time":565000000000,"state":"active","ping":30},{"user_id":12,"name":"JustAnotherJAM3S","steam_id":76561199134765873,"connected_time":515000000000,"state":"active","ping":40}]},{"server_id":59,"name":"Uncletopia | Sydney | 6 | Community","name_short":"syd-6","host":"syd-1.au.uncletopia.com","port":27065,"enabled":true,"region":"au","cc":"au","latitude":-33.865143,"longitude":151.2099,"reserved":0,"last_update":"0001-01-01T00:00:00Z","name_a2s":"Uncletopia | Sydney | 6 | Community","protocol":17,"map":"workshop/koth_ashville_final.ugc2130459942","folder":"tf","game":"Team Fortress","app_id":440,"player_count":0,"max_players":24,"Bots":0,"server_type":"Dedicated","server_os":"Linux","password":true,"vac":true,"version":"7708610","steam_id":85568392925397960,"keywords":["cp","nocrits","nodmgspread","uncletopia"],"game_id":440,"stv_port":27066,"stv_name":"Uncletopia | Sydney | 6 | Community | STV","players":null},{"server_id":49,"name":"Uncletopia | Warsaw | 1 | All Maps","name_short":"waw-1","host":"waw-1.pl.uncletopia.com","port":27015,"enabled":true,"region":"eu","cc":"pl","latitude":52.2297,"longitude":21.017532,"reserved":0,"last_update":"0001-01-01T00:00:00Z","name_a2s":"Uncletopia | Warsaw | 1 | All Maps","protocol":17,"map":"pl_borneo","folder":"tf","game":"Team Fortress","app_id":440,"player_count":0,"max_players":24,"Bots":0,"server_type":"Dedicated","server_os":"Linux","password":true,"vac":true,"version":"7708610","steam_id":85568392925397850,"keywords":["nocrits","nodmgspread","payload","uncletopia"],"game_id":440,"stv_port":27016,"stv_name":"Uncletopia | Warsaw | 1 | All Maps | STV","players":null},{"server_id":50,"name":"Uncletopia | Warsaw | 2 | All Maps","name_short":"waw-2","host":"waw-1.pl.uncletopia.com","port":27025,"enabled":true,"region":"eu","cc":"pl","latitude":52.2297,"longitude":21.017532,"reserved":0,"last_update":"0001-01-01T00:00:00Z","name_a2s":"Uncletopia | Warsaw | 2 | All Maps","protocol":17,"map":"pl_barnblitz","folder":"tf","game":"Team Fortress","app_id":440,"player_count":0,"max_players":24,"Bots":0,"server_type":"Dedicated","server_os":"Linux","password":true,"vac":true,"version":"7708610","steam_id":85568392925397851,"keywords":["nocrits","nodmgspread","payload","uncletopia"],"game_id":440,"stv_port":27026,"stv_name":"Uncletopia | Warsaw | 2 | All Maps | STV","players":null},{"server_id":51,"name":"Uncletopia | Warsaw | 3 | All Maps","name_short":"waw-3","host":"waw-1.pl.uncletopia.com","port":27035,"enabled":true,"region":"eu","cc":"pl","latitude":52.2297,"longitude":21.017532,"reserved":0,"last_update":"0001-01-01T00:00:00Z","name_a2s":"Uncletopia | Warsaw | 3 | All Maps","protocol":17,"map":"pl_badwater","folder":"tf","game":"Team Fortress","app_id":440,"player_count":0,"max_players":24,"Bots":0,"server_type":"Dedicated","server_os":"Linux","password":true,"vac":true,"version":"7708610","steam_id":85568392925397852,"keywords":["nocrits","nodmgspread","payload","uncletopia"],"game_id":440,"stv_port":27036,"stv_name":"Uncletopia | Warsaw | 3 | All Maps | STV","players":null},{"server_id":52,"name":"Uncletopia | Warsaw | 4 | All Maps","name_short":"waw-4","host":"waw-1.pl.uncletopia.com","port":27045,"enabled":true,"region":"eu","cc":"pl","latitude":52.2297,"longitude":21.017532,"reserved":0,"last_update":"0001-01-01T00:00:00Z","name_a2s":"Uncletopia | Warsaw | 4 | All Maps","protocol":17,"map":"pl_pier","folder":"tf","game":"Team Fortress","app_id":440,"player_count":0,"max_players":24,"Bots":0,"server_type":"Dedicated","server_os":"Linux","password":true,"vac":true,"version":"7708610","steam_id":85568392925397853,"keywords":["nocrits","nodmgspread","payload","uncletopia"],"game_id":440,"stv_port":27046,"stv_name":"Uncletopia | Warsaw | 4 | All Maps | STV","players":null},{"server_id":53,"name":"Uncletopia | Warsaw | 5 | No Payload","name_short":"waw-5","host":"waw-1.pl.uncletopia.com","port":27055,"enabled":true,"region":"eu","cc":"pl","latitude":52.2297,"longitude":21.017532,"reserved":0,"last_update":"0001-01-01T00:00:00Z","name_a2s":"Uncletopia | Warsaw | 5 | No Payload","protocol":17,"map":"pl_borneo","folder":"tf","game":"Team Fortress","app_id":440,"player_count":0,"max_players":24,"Bots":0,"server_type":"Dedicated","server_os":"Linux","password":true,"vac":true,"version":"7708610","steam_id":85568392925397854,"keywords":["nocrits","nodmgspread","payload","uncletopia"],"game_id":440,"stv_port":27056,"stv_name":"Uncletopia | Warsaw | 5 | No Payload | STV","players":null},{"server_id":54,"name":"Uncletopia | Warsaw | 6 | Community","name_short":"waw-6","host":"waw-1.pl.uncletopia.com","port":27065,"enabled":true,"region":"eu","cc":"pl","latitude":52.2297,"longitude":21.017532,"reserved":0,"last_update":"0001-01-01T00:00:00Z","name_a2s":"Uncletopia | Warsaw | 6 | Community","protocol":17,"map":"pl_swiftwater_final1","folder":"tf","game":"Team Fortress","app_id":440,"player_count":0,"max_players":24,"Bots":0,"server_type":"Dedicated","server_os":"Linux","password":true,"vac":true,"version":"7708610","steam_id":85568392925397856,"keywords":["nocrits","nodmgspread","payload","uncletopia"],"game_id":440,"stv_port":27066,"stv_name":"Uncletopia | Warsaw | 6 | Community | STV","players":null}]}