{"status":true,"message":"","result":[{"server_id":9,"name":"Uncletopia | Atlanta | 1 | All Maps","name_short":"atl-1","host":"atl-1.us.uncletopia.com","port":27015,"enabled":true,"region":"us-east","cc":"us","latitude":33.753746,"longitude":-84.38633,"reserved":0,"last_update":"0001-01-01T00:00:00Z","name_a2s":"Uncletopia | Atlanta | 1 | All Maps","protocol":17,"map":"cp_sunshine","folder":"tf","game":"Team Fortress","app_id":440,"player_count":24,"max_players":24,"Bots":0,"server_type":"Dedicated","server_os":"Linux","password":true,"vac":true,"version":"7757534","steam_id":85568392924469982,"keywords":["cp","nocrits","nodmgspread","uncletopia"],"game_id":440,"stv_port":27016,"stv_name":"Uncletopia | Atlanta | 1 | All Maps | STV","players":[{"user_id":587,"name":"Snuwly","steam_id":76561198144015097,"connected_time":815000000000,"state":"active","ping":88},{"user_id":589,"name":"uhooter","steam_id":76561198007829078,"connected_time":789000000000,"state":"active","ping":75},{"user_id":609,"name":"BUFF THE SCORCH SHOT","steam_id":76561198042899484,"connected_time":117000000000,"state":"active","ping":120},{"user_id":585,"name":"BLU1 l Epifiny","steam_id":76561198027958086,"connected_time":927000000000,"state":"active","ping":82},{"user_id":608,"name":"offensive rick and morty memes","steam_id":76561198367019006,"connected_time":137000000000,"state":"active","ping":91},{"user_id":598,"name":"Bob the Minion","steam_id":76561197972389354,"connected_time":481000000000,"state":"active","ping":117},{"user_id":572,"name":"shaderoses","steam_id":76561198070800500,"connected_time":2597000000000,"state":"active","ping":70},{"user_id":596,"name":"ThomasTheDankEngine","steam_id":76561198963846205,"connected_time":524000000000,"state":"active","ping":85},{"user_id":592,"name":"Lasagna Con Queso","steam_id":76561198846041246,"connected_time":732000000000,"state":"active","ping":62},{"user_id":586,"name":"jmp","steam_id":76561198168283286,"connected_time":845000000000,"state":"active","ping":164},{"user_id":593,"name":"cilo","steam_id":76561198046163502,"connected_time":723000000000,"state":"active","ping":74},{"user_id":594,"name":"fuckterry","steam_id":76561198271957738,"connected_time":691000000000,"state":"active","ping":50},{"user_id":595,"name":"THIRDPIERCE","steam_id":76561198405366314,"connected_time":691000000000,"state":"active","ping":89},{"user_id":566,"name":"Orangecrust26","steam_id":76561199232443221,"connected_time":3468000000000,"state":"active","ping":75},{"user_id":597,"name":"MOTORTREND TRUCK OF THE YEAR","steam_id":76561198077654131,"connected_time":498000000000,"state":"active","ping":75},{"user_id":573,"name":"DuckMann","steam_id":76561198197058638,"connected_time":2570000000000,"state":"active","ping":64},{"user_id":599,"name":"I regret nothing","steam_id":76561198399261089,"connected_time":470000000000,"state":"active","ping":103},{"user_id":600,"name":"RokkitFrog","steam_id":76561198046465850,"connected_time":389000000000,"state":"active","ping":82},{"user_id":601,"name":"robert","steam_id":76561198001196512,"connected_time":380000000000,"state":"active","ping":87},{"user_id":607,"name":"cereaI","steam_id":76561198066929519,"connected_time":153000000000,"state":"active","ping":61},{"user_id":568,"name":"Iron","steam_id":76561198247918478,"connected_time":3350000000000,"state":"active","ping":88},{"user_id":603,"name":"Dr. Strangelove","steam_id":76561198014593467,"connected_time":356000000000,"state":"active","ping":45},{"user_id":604,"name":"Mage","steam_id":76561198285026879,"connected_time":331000000000,"state":"active","ping":81},{"user_id":605,"name":"Yuhh","steam_id":76561199112894955,"connected_time":329000000000,"state":"active","ping":87}]},{"server_id":400,"name":"Uncletopia | Atlanta | 3 | Community","name_short":"atl-3","host":"atl-1.us.uncletopia.com","port":27035,"enabled":true,"region":"us-east","cc":"us","latitude":33.753746,"longitude":-84.38633,"reserved":0,"last_update":"0001-01-01T00:00:00Z","name_a2s":"Uncletopia | Atlanta | 3 | Community","protocol":17,"map":"workshop/pl_cactuscanyon_redux_rc4b.ugc2579644293","folder":"tf","game":"Team Fortress","app_id":440,"player_count":24,"max_players":24,"Bots":0,"server_type":"Dedicated","server_os":"Linux","password":true,"vac":true,"version":"7757534","steam_id":85568392924515187,"keywords":["nocrits","nodmgspread","payload","uncletopia"],"game_id":440,"stv_port":27036,"stv_name":"Uncletopia | Atlanta | 3 | Community | STV","players":[{"user_id":109,"name":"radio","steam_id":76561198148059714,"connected_time":2891000000000,"state":"active","ping":61},{"user_id":160,"name":"Nico","steam_id":76561198115074738,"connected_time":683000000000,"state":"active","ping":80},{"user_id":132,"name":"Robert E.T.","steam_id":76561197986439371,"connected_time":1877000000000,"state":"active","ping":113},{"user_id":159,"name":"TheTruthOfTheCessationOfDukkha","steam_id":76561198214370515,"connected_time":685000000000,"state":"active","ping":68},{"user_id":112,"name":"joyeuxnoelle","steam_id":76561198062423120,"connected_time":2730000000000,"state":"active","ping":67},{"user_id":89,"name":"Calypso","steam_id":76561198082939544,"connected_time":5237000000000,"state":"active","ping":119},{"user_id":146,"name":"„ÄåSaint„Äç","steam_id":76561198241943070,"connected_time":1074000000000,"state":"active","ping":96},{"user_id":154,"name":"Aldinach","steam_id":76561198079912615,"connected_time":848000000000,"state":"active","ping":67},{"user_id":163,"name":"DiscoTraveler","steam_id":76561199240168088,"connected_time":617000000000,"state":"active","ping":53},{"user_id":156,"name":"Oinker","steam_id":76561198033130631,"connected_time":776000000000,"state":"active","ping":100},{"user_id":86,"name":"MetalTao","steam_id":76561198189408110,"connected_time":5746000000000,"state":"active","ping":93},{"user_id":141,"name":"MrhobbitRequiem","steam_id":76561198976215013,"connected_time":1408000000000,"state":"active","ping":62},{"user_id":108,"name":"nin nin","steam_id":76561198055445565,"connected_time":3156000000000,"state":"active","ping":176},{"user_id":165,"name":"BlueKirbvii","steam_id":76561199021459412,"connected_time":558000000000,"state":"active","ping":99},{"user_id":168,"name":"Little Minty","steam_id":76561198070061535,"connected_time":79000000000,"state":"active","ping":73},{"user_id":164,"name":"Rokkon Shojo","steam_id":76561198082071180,"connected_time":608000000000,"state":"active","ping":178},{"user_id":157,"name":"Inevitable","steam_id":76561198210050169,"connected_time":750000000000,"state":"active","ping":63},{"user_id":166,"name":"owlbortch","steam_id":76561198042849350,"connected_time":510000000000,"state":"active","ping":60},{"user_id":152,"name":"bluffish","steam_id":76561199164580672,"connected_time":1001000000000,"state":"active","ping":62},{"user_id":70,"name":"Warzard","steam_id":76561199154051413,"connected_time":7555000000000,"state":"active","ping":159},{"user_id":158,"name":"camilb50","steam_id":76561198027878466,"connected_time":727000000000,"state":"active","ping":59},{"user_id":153,"name":"level 1 pyro","steam_id":76561198281197072,"connected_time":988000000000,"state":"active","ping":48},{"user_id":81,"name":"Local Talent","steam_id":76561199053290637,"connected_time":6757000000000,"state":"active","ping":62},{"user_id":167,"name":"MrLeftTurn","steam_id":76561198856743969,"connected_time":486000000000,"state":"active","ping":155}]},{"server_id":401,"name":"Uncletopia | Atlanta | 4 | No Payload","name_short":"atl-4","host":"atl-1.us.uncletopia.com","port":27045,"enabled":true,"region":"us-east","cc":"us","latitude":33.753746,"longitude":-84.38633,"reserved":0,"last_update":"0001-01-01T00:00:00Z","name_a2s":"","protocol":0,"map":"","folder":"","game":"","app_id":0,"player_count":0,"max_players":0,"Bots":0,"server_type":"","server_os":"","password":false,"vac":false,"version":"","steam_id":0,"keywords":null,"game_id":0,"stv_port":0,"stv_name":"","players":null},{"server_id":2,"name":"Uncletopia | Chicago | 1 | All Maps","name_short":"chi-1","host":"chi-1.us.uncletopia.com","port":27015,"enabled":true,"region":"us-central","cc":"us","latitude":41.881832,"longitude":-87.62318,"reserved":0,"last_update":"0001-01-01T00:00:00Z","name_a2s":"Uncletopia | Chicago | 1 | All Maps","protocol":17,"map":"plr_bananabay","folder":"tf","game":"Team Fortress","app_id":440,"player_count":23,"max_players":24,"Bots":0,"server_type":"Dedicated","server_os":"Linux","password":true,"vac":true,"version":"7757534","steam_id":85568392924469984,"keywords":["nocrits","nodmgspread","payload","uncletopia"],"game_id":440,"stv_port":27016,"stv_name":"Uncletopia | Chicago | 1 | All Maps | STV","players":[{"user_id":857,"name":"Iggy Dogg","steam_id":76561198059602545,"connected_time":1023000000000,"state":"active","ping":50},{"user_id":858,"name":"Zizen","steam_id":76561199011832069,"connected_time":576000000000,"state":"active","ping":113},{"user_id":834,"name":"Country Dish Towel","steam_id":76561198068958789,"connected_time":2356000000000,"state":"active","ping":70},{"user_id":849,"name":"Vibe‚Ñ¢","steam_id":76561198156083411,"connected_time":1592000000000,"state":"active","ping":66},{"user_id":862,"name":"Kol","steam_id":76561199151398882,"connected_time":282000000000,"state":"active","ping":97},{"user_id":832,"name":"pel","steam_id":76561198021224745,"connected_time":2435000000000,"state":"active","ping":55},{"user_id":865,"name":"dinnerblaster82","steam_id":76561198059041027,"connected_time":202000000000,"state":"active","ping":105},{"user_id":840,"name":"cute43 big man ting","steam_id":76561198079417151,"connected_time":2172000000000,"state":"active","ping":86},{"user_id":864,"name":"Grink \"V.F\" da Boy","steam_id":76561197985230768,"connected_time":229000000000,"state":"active","ping":107},{"user_id":866,"name":"cyal","steam_id":76561198080957000,"connected_time":195000000000,"state":"active","ping":100},{"user_id":833,"name":"blindcinema_","steam_id":76561198026908105,"connected_time":2413000000000,"state":"active","ping":166},{"user_id":733,"name":"Grungy_Greg","steam_id":76561198217362968,"connected_time":7939000000000,"state":"active","ping":73},{"user_id":869,"name":"skelly jelly","steam_id":76561198059623564,"connected_time":48000000000,"state":"active","ping":68},{"user_id":837,"name":"Uhonlapjontetzika","steam_id":76561199431280503,"connected_time":2219000000000,"state":"active","ping":73},{"user_id":868,"name":"richard clock","steam_id":76561198048455671,"connected_time":147000000000,"state":"active","ping":54},{"user_id":859,"name":"Luna_Blossom","steam_id":76561198816384987,"connected_time":553000000000,"state":"active","ping":118},{"user_id":870,"name":"Corn Bin","steam_id":76561198044954795,"connected_time":18000000000,"state":"active","ping":68},{"user_id":806,"name":"Hydroxianchaos","steam_id":76561198043786828,"connected_time":3673000000000,"state":"active","ping":91},{"user_id":828,"name":"Ripley","steam_id":76561198080766916,"connected_time":2531000000000,"state":"active","ping":72},{"user_id":752,"name":"PinkLemonade","steam_id":76561198799286228,"connected_time":6707000000000,"state":"active","ping":75},{"user_id":855,"name":"Anna","steam_id":76561197999657118,"connected_time":1138000000000,"state":"active","ping":72},{"user_id":861,"name":"Uncle Meat","steam_id":76561198012534850,"connected_time":346000000000,"state":"active","ping":67},{"user_id":839,"name":"Cdesmondd","steam_id":76561198072774462,"connected_time":2206000000000,"state":"active","ping":63}]},{"server_id":106,"name":"Uncletopia | Chicago | 2 | All Maps","name_short":"chi-2","host":"chi-1.us.uncletopia.com","port":27025,"enabled":true,"region":"us-central","cc":"us","latitude":41.881832,"longitude":-87.62318,"reserved":0,"last_update":"0001-01-01T00:00:00Z","name_a2s":"Uncletopia | Chicago | 2 | All Maps","protocol":17,"map":"cp_process_final","folder":"tf","game":"Team Fortress","app_id":440,"player_count":0,"max_players":24,"Bots":0,"server_type":"Dedicated","server_os":"Linux","password":true,"vac":true,"version":"7757534","steam_id":85568392924469985,"keywords":["cp","nocrits","nodmgspread","uncletopia"],"game_id":440,"stv_port":27026,"stv_name":"Uncletopia | Chicago | 2 | All Maps | STV","players":null},{"server_id":402,"name":"Uncletopia | Chicago | 3 | All Maps","name_short":"chi-3","host":"chi-1.us.uncletopia.com","port":27035,"enabled":true,"region":"us-central","cc":"us","latitude":41.881832,"longitude":-87.62318,"reserved":0,"last_update":"0001-01-01T00:00:00Z","name_a2s":"Uncletopia | Chicago | 3 | All Maps","protocol":17,"map":"pl_badwater","folder":"tf","game":"Team Fortress","app_id":440,"player_count":21,"max_players":24,"Bots":0,"server_type":"Dedicated","server_os":"Linux","password":true,"vac":true,"version":"7757534","steam_id":85568392924515191,"keywords":["nocrits","nodmgspread","payload","uncletopia"],"game_id":440,"stv_port":27036,"stv_name":"Uncletopia | Chicago | 3 | All Maps | STV","players":[{"user_id":220,"name":"lanoc","steam_id":76561198055415367,"connected_time":3571000000000,"state":"active","ping":59},{"user_id":273,"name":"Mickey","steam_id":76561197976868960,"connected_time":476000000000,"state":"active","ping":150},{"user_id":268,"name":"cheetaz","steam_id":76561198224614084,"connected_time":618000000000,"state":"active","ping":75},{"user_id":285,"name":"k104m","steam_id":76561198153020266,"connected_time":297000000000,"state":"active","ping":75},{"user_id":277,"name":"STANLEY","steam_id":76561198812086921,"connected_time":433000000000,"state":"active","ping":56},{"user_id":252,"name":"hasenpfeffer","steam_id":76561198000564263,"connected_time":1192000000000,"state":"active","ping":62},{"user_id":269,"name":"Bart Harley Jarvis","steam_id":76561199215811448,"connected_time":584000000000,"state":"active","ping":76},{"user_id":272,"name":"A tree","steam_id":76561198309065247,"connected_time":510000000000,"state":"active","ping":59},{"user_id":275,"name":"Project_Counter","steam_id":76561198152786076,"connected_time":459000000000,"state":"active","ping":74},{"user_id":271,"name":"AKconner","steam_id":76561198312569787,"connected_time":540000000000,"state":"active","ping":69},{"user_id":276,"name":"Oomitch","steam_id":76561198071702759,"connected_time":454000000000,"state":"active","ping":101},{"user_id":248,"name":"Remy the rat","steam_id":76561198080519558,"connected_time":1758000000000,"state":"active","ping":77},{"user_id":254,"name":"java","steam_id":76561198030276792,"connected_time":1162000000000,"state":"active","ping":59},{"user_id":278,"name":"Chermernd","steam_id":76561198137092500,"connected_time":431000000000,"state":"active","ping":64},{"user_id":240,"name":"Ozone-flavored Starburst","steam_id":76561199163688421,"connected_time":2366000000000,"state":"active","ping":94},{"user_id":259,"name":"Lennu","steam_id":76561198060730154,"connected_time":1092000000000,"state":"active","ping":74},{"user_id":279,"name":"id dragoon","steam_id":76561198323079151,"connected_time":419000000000,"state":"active","ping":118},{"user_id":280,"name":"Purple potato","steam_id":76561198932276149,"connected_time":411000000000,"state":"active","ping":121},{"user_id":284,"name":"trappy (showered)","steam_id":76561198402801140,"connected_time":344000000000,"state":"active","ping":66},{"user_id":281,"name":"k1tty","steam_id":76561198869348268,"connected_time":385000000000,"state":"active","ping":101},{"user_id":264,"name":"dollar donut trade","steam_id":76561198058956253,"connected_time":1020000000000,"state":"active","ping":80}]},{"server_id":403,"name":"Uncletopia | Chicago | 4 | All Maps","name_short":"chi-4","host":"chi-1.us.uncletopia.com","port":27045,"enabled":true,"region":"us-central","cc":"us","latitude":41.881832,"longitude":-87.62318,"reserved":0,"last_update":"0001-01-01T00:00:00Z","name_a2s":"Uncletopia | Chicago | 4 | All Maps","protocol":17,"map":"pl_upward","folder":"tf","game":"Team Fortress","app_id":440,"player_count":24,"max_players":24,"Bots":0,"server_type":"Dedicated","server_os":"Linux","password":true,"vac":true,"version":"7757534","steam_id":85568392924515193,"keywords":["nocrits","nodmgspread","payload","uncletopia"],"game_id":440,"stv_port":27046,"stv_name":"Uncletopia | Chicago | 4 | All Maps | STV","players":[{"user_id":579,"name":"Poyo Boyo","steam_id":76561198010201227,"connected_time":2083000000000,"state":"active","ping":73},{"user_id":616,"name":"supcupman","steam_id":76561198051513866,"connected_time":401000000000,"state":"active","ping":108},{"user_id":512,"name":"ZombieSkeletor2","steam_id":76561198244937990,"connected_time":8145000000000,"state":"active","ping":101},{"user_id":604,"name":"Minerkid2004","steam_id":76561198044262827,"connected_time":1610000000000,"state":"active","ping":96},{"user_id":589,"name":"Furry Saul Goodman","steam_id":76561198069580305,"connected_time":1814000000000,"state":"active","ping":47},{"user_id":618,"name":"Sarbanes-Oxley","steam_id":76561197975898479,"connected_time":82000000000,"state":"active","ping":74},{"user_id":599,"name":"TheRiGuy21","steam_id":76561199466243640,"connected_time":1711000000000,"state":"active","ping":80},{"user_id":608,"name":"[T]aKer","steam_id":76561198001778013,"connected_time":928000000000,"state":"active","ping":135},{"user_id":564,"name":"B/S/SuperBoof","steam_id":76561197992030936,"connected_time":3055000000000,"state":"active","ping":63},{"user_id":609,"name":"CobyNoHoes","steam_id":76561198122236594,"connected_time":917000000000,"state":"active","ping":83},{"user_id":605,"name":"Steadman Slick","steam_id":76561198092633444,"connected_time":943000000000,"state":"active","ping":44},{"user_id":606,"name":"Skillz","steam_id":76561198054746727,"connected_time":936000000000,"state":"active","ping":57},{"user_id":607,"name":"hawkeyeproductions249","steam_id":76561199469688272,"connected_time":931000000000,"state":"active","ping":52},{"user_id":617,"name":"Lore","steam_id":76561198098407538,"connected_time":286000000000,"state":"active","ping":56},{"user_id":614,"name":"CroMaLaka","steam_id":76561198380926090,"connected_time":883000000000,"state":"active","ping":47},{"user_id":615,"name":"Pronounced30","steam_id":76561198070127606,"connected_time":880000000000,"state":"active","ping":85},{"user_id":601,"name":"Silverriver","steam_id":76561198121289856,"connected_time":1701000000000,"state":"active","ping":62},{"user_id":602,"name":"Emperor Dankatine","steam_id":76561198044741086,"connected_time":1672000000000,"state":"active","ping":84},{"user_id":603,"name":"BreadGod","steam_id":76561198050665205,"connected_time":1626000000000,"state":"active","ping":60},{"user_id":587,"name":"Steve Jobs' cousin Hand Jobs","steam_id":76561198282766831,"connected_time":1946000000000,"state":"active","ping":51},{"user_id":621,"name":"Cam(era)","steam_id":76561198285054047,"connected_time":48000000000,"state":"active","ping":74},{"user_id":613,"name":"Gunslinger Rafa","steam_id":76561198070140106,"connected_time":900000000000,"state":"active","ping":95},{"user_id":596,"name":"CrazyM3rc","steam_id":76561199025383150,"connected_time":1767000000000,"state":"active","ping":77},{"user_id":594,"name":"Lorberry","steam_id":76561198023706058,"connected_time":1779000000000,"state":"active","ping":33}]},{"server_id":36,"name":"Uncletopia | Chicago | 5 | All Maps","name_short":"chi-5","host":"chi-2.us.uncletopia.com","port":27015,"enabled":true,"region":"us-central","cc":"us","latitude":41.881832,"longitude":-87.62318,"reserved":0,"last_update":"0001-01-01T00:00:00Z","name_a2s":"Uncletopia | Chicago | 5 | All Maps","protocol":17,"map":"pl_upward","folder":"tf","game":"Team Fortress","app_id":440,"player_count":24,"max_players":24,"Bots":0,"server_type":"Dedicated","server_os":"Linux","password":true,"vac":true,"version":"7757534","steam_id":85568392924866362,"keywords":["nocrits","nodmgspread","payload","uncletopia"],"game_id":440,"stv_port":27016,"stv_name":"Uncletopia | Chicago | 5 | All Maps | STV","players":[{"user_id":184,"name":"Beary Adorable","steam_id":76561198023815802,"connected_time":5297000000000,"state":"active","ping":101},{"user_id":225,"name":"chronoculus","steam_id":76561198194554235,"connected_time":751000000000,"state":"active","ping":100},{"user_id":226,"name":"flora","steam_id":76561197994492154,"connected_time":747000000000,"state":"active","ping":171},{"user_id":230,"name":"üÖúüÖîüÖîüÖöüÖ¢üÖ£üÖî\ufffd\ufffd\ufffd","steam_id":76561197999748343,"connected_time":732000000000,"state":"active","ping":69},{"user_id":177,"name":"Limasio","steam_id":76561198198176191,"connected_time":5444000000000,"state":"active","ping":69},{"user_id":228,"name":"Cinderace:)","steam_id":76561198132899671,"connected_time":746000000000,"state":"active","ping":55},{"user_id":231,"name":"Smiling","steam_id":76561198293407075,"connected_time":728000000000,"state":"active","ping":87},{"user_id":212,"name":"Rein","steam_id":76561198300340427,"connected_time":2788000000000,"state":"active","ping":60},{"user_id":235,"name":"RED1 | nomad","steam_id":76561197998740399,"connected_time":435000000000,"state":"active","ping":62},{"user_id":211,"name":"Slippery","steam_id":76561199469441947,"connected_time":2927000000000,"state":"active","ping":53},{"user_id":193,"name":"palua","steam_id":76561198069673478,"connected_time":4372000000000,"state":"active","ping":73},{"user_id":194,"name":"Ryan Lewis truther","steam_id":76561198050505826,"connected_time":4326000000000,"state":"active","ping":75},{"user_id":215,"name":"totally not a pile of beans","steam_id":76561198119851931,"connected_time":2617000000000,"state":"active","ping":85},{"user_id":90,"name":"toastman","steam_id":76561198207073088,"connected_time":11204000000000,"state":"active","ping":67},{"user_id":233,"name":"RED1 | eish","steam_id":76561198089463603,"connected_time":719000000000,"state":"active","ping":129},{"user_id":190,"name":"Samsiel","steam_id":76561198094134951,"connected_time":4584000000000,"state":"active","ping":93},{"user_id":216,"name":"Ace Chromatica","steam_id":76561198042211131,"connected_time":2498000000000,"state":"active","ping":56},{"user_id":222,"name":"Toast","steam_id":76561198234616616,"connected_time":1550000000000,"state":"active","ping":66},{"user_id":234,"name":"schmedic","steam_id":76561199187337967,"connected_time":714000000000,"state":"active","ping":66},{"user_id":205,"name":"Mommy Cloud Audios Gaming","steam_id":76561198880304614,"connected_time":3670000000000,"state":"active","ping":57},{"user_id":209,"name":"peee pee man","steam_id":76561198044979205,"connected_time":3139000000000,"state":"active","ping":77},{"user_id":217,"name":"Nen","steam_id":76561198893347370,"connected_time":2399000000000,"state":"active","ping":114},{"user_id":236,"name":"moe5x","steam_id":76561198316877833,"connected_time":132000000000,"state":"active","ping":105},{"user_id":201,"name":"gourmet salad","steam_id":76561198173128765,"connected_time":4057000000000,"state":"active","ping":56}]},{"server_id":37,"name":"Uncletopia | Chicago | 6 | All Maps","name_short":"chi-6","host":"chi-2.us.uncletopia.com","port":27025,"enabled":true,"region":"us-central","cc":"us","latitude":41.881832,"longitude":-87.62318,"reserved":0,"last_update":"0001-01-01T00:00:00Z","name_a2s":"Uncletopia | Chicago | 6 | All Maps","protocol":17,"map":"pl_barnblitz","folder":"tf","game":"Team Fortress","app_id":440,"player_count":22,"max_players":24,"Bots":0,"server_type":"Dedicated","server_os":"Linux","password":true,"vac":true,"version":"7757534","steam_id":85568392924866363,"keywords":["nocrits","nodmgspread","payload","uncletopia"],"game_id":440,"stv_port":27026,"stv_name":"Uncletopia | Chicago | 6 | All Maps | STV","players":[{"user_id":902,"name":"CivilWarMike","steam_id":76561198141188839,"connected_time":142000000000,"state":"active","ping":86},{"user_id":883,"name":"Fudge_Cake","steam_id":76561198059218167,"connected_time":1537000000000,"state":"active","ping":73},{"user_id":891,"name":"lyraaaaaaaaaaa","steam_id":76561198259331758,"connected_time":1284000000000,"state":"active","ping":92},{"user_id":855,"name":"too funky ·óúÀ¨·óú","steam_id":76561199120399776,"connected_time":3210000000000,"state":"active","ping":71},{"user_id":898,"name":"Totally","steam_id":76561198126511227,"connected_time":365000000000,"state":"active","ping":63},{"user_id":900,"name":"playguy carter","steam_id":76561198080679337,"connected_time":150000000000,"state":"active","ping":61},{"user_id":901,"name":"Bip","steam_id":76561199022962204,"connected_time":147000000000,"state":"active","ping":71},{"user_id":903,"name":"plap plap plap","steam_id":76561198054925421,"connected_time":66000000000,"state":"active","ping":54},{"user_id":878,"name":"Specialist Snow","steam_id":76561198090215419,"connected_time":1592000000000,"state":"active","ping":59},{"user_id":831,"name":"gettysburg","steam_id":76561198016157051,"connected_time":4985000000000,"state":"active","ping":68},{"user_id":843,"name":":)","steam_id":76561198093921290,"connected_time":4578000000000,"state":"active","ping":48},{"user_id":892,"name":"Butman902","steam_id":76561198190200054,"connected_time":1281000000000,"state":"active","ping":82},{"user_id":879,"name":"LJ PRODUCTIONS","steam_id":76561198061697475,"connected_time":1556000000000,"state":"active","ping":68},{"user_id":886,"name":"SLAYAOFTHEDEAD","steam_id":76561198088874594,"connected_time":1456000000000,"state":"active","ping":93},{"user_id":904,"name":"lite","steam_id":76561198300633951,"connected_time":57000000000,"state":"active","ping":105},{"user_id":905,"name":"linus","steam_id":76561198106196691,"connected_time":40000000000,"state":"active","ping":73},{"user_id":820,"name":":3","steam_id":76561198277163301,"connected_time":5638000000000,"state":"active","ping":67},{"user_id":745,"name":"dansal","steam_id":76561197997042510,"connected_time":11753000000000,"state":"active","ping":79},{"user_id":863,"name":"Braindawg","steam_id":76561197988531991,"connected_time":3013000000000,"state":"active","ping":92},{"user_id":848,"name":"Antifa Alligator","steam_id":76561197988170816,"connected_time":4300000000000,"state":"active","ping":64},{"user_id":889,"name":"Shamaury","steam_id":76561198073773862,"connected_time":1413000000000,"state":"active","ping":69},{"user_id":893,"name":"\"The Captain\" by Leonard Cohen","steam_id":76561198121955432,"connected_time":1182000000000,"state":"active","ping":57}]},{"server_id":38,"name":"Uncletopia | Chicago | 7 | Stopwatch Beta","name_short":"chi-7","host":"chi-2.us.uncletopia.com","port":27035,"enabled":true,"region":"us-central","cc":"us","latitude":41.881832,"longitude":-87.62318,"reserved":0,"last_update":"0001-01-01T00:00:00Z","name_a2s":"Uncletopia | Chicago | 7 | Stopwatch Beta","protocol":17,"map":"workshop/pl_vigil_rc9.ugc1266210012","folder":"tf","game":"Team Fortress","app_id":440,"player_count":0,"max_players":24,"Bots":0,"server_type":"Dedicated","server_os":"Linux","password":true,"vac":true,"version":"7757534","steam_id":85568392924866364,"keywords":["nocrits","nodmgspread","payload","uncletopia"],"game_id":440,"stv_port":27036,"stv_name":"Uncletopia | Chicago | 7 | Stopwatch Beta | STV","players":null},{"server_id":39,"name":"Uncletopia | Chicago | 8 | Community","name_short":"chi-8","host":"chi-2.us.uncletopia.com","port":27045,"enabled":true,"region":"us-central","cc":"us","latitude":41.881832,"longitude":-87.62318,"reserved":0,"last_update":"0001-01-01T00:00:00Z","name_a2s":"Uncletopia | Chicago | 8 | Community","protocol":17,"map":"workshop/cp_mannbase_rc2a.ugc1900737467","folder":"tf","game":"Team Fortress","app_id":440,"player_count":0,"max_players":24,"Bots":0,"server_type":"Dedicated","server_os":"Linux","password":true,"vac":true,"version":"7757534","steam_id":85568392924866365,"keywords":["cp","nocrits","nodmgspread","uncletopia"],"game_id":440,"stv_port":27046,"stv_name":"Uncletopia | Chicago | 8 | Community | STV","players":null},{"server_id":8,"name":"Uncletopia | Dallas | 1 | All Maps","name_short":"dal-1","host":"dal-1.us.uncletopia.com","port":27015,"enabled":true,"region":"us-central","cc":"us","latitude":32.779167,"longitude":-96.80889,"reserved":0,"last_update":"0001-01-01T00:00:00Z","name_a2s":"Uncletopia | Dallas | 1 | All Maps","protocol":17,"map":"pl_barnblitz","folder":"tf","game":"Team Fortress","app_id":440,"player_count":24,"max_players":24,"Bots":0,"server_type":"Dedicated","server_os":"Linux","password":true,"vac":true,"version":"7757534","steam_id":85568392924469986,"keywords":["nocrits","nodmgspread","payload","uncletopia"],"game_id":440,"stv_port":27016,"stv_name":"Uncletopia | Dallas | 1 | All Maps | STV","players":[{"user_id":390,"name":"monke","steam_id":76561198035138859,"connected_time":245000000000,"state":"active","ping":98},{"user_id":379,"name":"The Robot Menace","steam_id":76561198043390413,"connected_time":1291000000000,"state":"active","ping":52},{"user_id":370,"name":"*loudly chewing on milk*","steam_id":76561198012539938,"connected_time":1588000000000,"state":"active","ping":94},{"user_id":361,"name":"Techzal","steam_id":76561198015284807,"connected_time":1789000000000,"state":"active","ping":79},{"user_id":307,"name":"Rachel","steam_id":76561198208951683,"connected_time":6236000000000,"state":"active","ping":82},{"user_id":371,"name":"lamb","steam_id":76561198013707948,"connected_time":1556000000000,"state":"active","ping":50},{"user_id":372,"name":"Chappy","steam_id":76561198022076650,"connected_time":1532000000000,"state":"active","ping":82},{"user_id":334,"name":"MerlinTheWizard","steam_id":76561198171472393,"connected_time":3787000000000,"state":"active","ping":72},{"user_id":367,"name":"codwarn","steam_id":76561198060079656,"connected_time":1695000000000,"state":"active","ping":61},{"user_id":389,"name":"Blue_Yoshi","steam_id":76561199455280829,"connected_time":274000000000,"state":"active","ping":61},{"user_id":368,"name":"Prof. Abedul","steam_id":76561198146171581,"connected_time":1693000000000,"state":"active","ping":132},{"user_id":344,"name":"Drowse","steam_id":76561198029794548,"connected_time":3143000000000,"state":"active","ping":84},{"user_id":383,"name":"Mitty","steam_id":76561198014177684,"connected_time":1076000000000,"state":"active","ping":88},{"user_id":340,"name":"RipHunter77","steam_id":76561198272973014,"connected_time":3349000000000,"state":"active","ping":72},{"user_id":385,"name":"Stock Medic","steam_id":76561198065479730,"connected_time":720000000000,"state":"active","ping":60},{"user_id":373,"name":"Sleepycap","steam_id":76561198044484011,"connected_time":1527000000000,"state":"active","ping":70},{"user_id":347,"name":"Kzjytsugn","steam_id":76561198130241974,"connected_time":3115000000000,"state":"active","ping":95},{"user_id":392,"name":"Eduardo","steam_id":76561198236519984,"connected_time":97000000000,"state":"active","ping":105},{"user_id":381,"name":"„ÄéAggron Gaming„Äè","steam_id":76561198059749631,"connected_time":1129000000000,"state":"active","ping":104},{"user_id":348,"name":"ryghehn","steam_id":76561198195359229,"connected_time":3093000000000,"state":"active","ping":103},{"user_id":328,"name":"The Great MIlenko","steam_id":76561199386828013,"connected_time":4732000000000,"state":"active","ping":78},{"user_id":375,"name":"HypnoHyena","steam_id":76561197999321413,"connected_time":1497000000000,"state":"active","ping":77},{"user_id":391,"name":"IHUNTZ","steam_id":76561198390109907,"connected_time":213000000000,"state":"active","ping":90},{"user_id":376,"name":"Johnny Esports","steam_id":76561198115812405,"connected_time":1469000000000,"state":"active","ping":101}]},{"server_id":108,"name":"Uncletopia | Dallas | 2 | All Maps","name_short":"dal-2","host":"dal-1.us.uncletopia.com","port":27025,"enabled":true,"region":"us-central","cc":"us","latitude":32.779167,"longitude":-96.80889,"reserved":0,"last_update":"0001-01-01T00:00:00Z","name_a2s":"Uncletopia | Dallas | 2 | All Maps","protocol":17,"map":"koth_cascade","folder":"tf","game":"Team Fortress","app_id":440,"player_count":0,"max_players":24,"Bots":0,"server_type":"Dedicated","server_os":"Linux","password":true,"vac":true,"version":"7757534","steam_id":85568392924469988,"keywords":["cp","nocrits","nodmgspread","uncletopia"],"game_id":440,"stv_port":27026,"stv_name":"Uncletopia | Dallas | 2 | All Maps | STV","players":null},{"server_id":5,"name":"Uncletopia | Frankfurt | 1 | All Maps","name_short":"frk-1","host":"frk-1.de.uncletopia.com","port":27015,"enabled":true,"region":"eu","cc":"de","latitude":50.110924,"longitude":8.682127,"reserved":0,"last_update":"0001-01-01T00:00:00Z","name_a2s":"Uncletopia | Frankfurt | 1 | All Maps","protocol":17,"map":"pl_snowycoast","folder":"tf","game":"Team Fortress","app_id":440,"player_count":0,"max_players":24,"Bots":0,"server_type":"Dedicated","server_os":"Linux","password":true,"vac":true,"version":"7757534","steam_id":85568392924469989,"keywords":["nocrits","nodmgspread","payload","uncletopia"],"game_id":440,"stv_port":27016,"stv_name":"Uncletopia | Frankfurt | 1 | All Maps | STV","players":null},{"server_id":110,"name":"Uncletopia | Frankfurt | 2 | All Maps","name_short":"frk-2","host":"frk-1.de.uncletopia.com","port":27025,"enabled":true,"region":"eu","cc":"de","latitude":50.110924,"longitude":8.682127,"reserved":0,"last_update":"0001-01-01T00:00:00Z","name_a2s":"Uncletopia | Frankfurt | 2 | All Maps","protocol":17,"map":"pl_snowycoast","folder":"tf","game":"Team Fortress","app_id":440,"player_count":0,"max_players":24,"Bots":0,"server_type":"Dedicated","server_os":"Linux","password":true,"vac":true,"version":"7757534","steam_id":85568392924469990,"keywords":["nocrits","nodmgspread","payload","uncletopia"],"game_id":440,"stv_port":27026,"stv_name":"Uncletopia | Frankfurt | 2 | All Maps | STV","players":null},{"server_id":308,"name":"Uncletopia | Frankfurt | 3 | All Maps","name_short":"frk-3","host":"frk-1.de.uncletopia.com","port":27035,"enabled":true,"region":"eu","cc":"de","latitude":50.110924,"longitude":8.682127,"reserved":0,"last_update":"0001-01-01T00:00:00Z","name_a2s":"Uncletopia | Frankfurt | 3 | All Maps","protocol":17,"map":"cp_altitude","folder":"tf","game":"Team Fortress","app_id":440,"player_count":0,"max_players":24,"Bots":0,"server_type":"Dedicated","server_os":"Linux","password":true,"vac":true,"version":"7757534","steam_id":85568392924504274,"keywords":["cp","nocrits","nodmgspread","uncletopia"],"game_id":440,"stv_port":27036,"stv_name":"Uncletopia | Frankfurt | 3 | All Maps | STV","players":null},{"server_id":309,"name":"Uncletopia | Frankfurt | 4 | All Maps","name_short":"frk-4","host":"frk-1.de.uncletopia.com","port":27045,"enabled":true,"region":"eu","cc":"de","latitude":50.110924,"longitude":8.682127,"reserved":0,"last_update":"0001-01-01T00:00:00Z","name_a2s":"Uncletopia | Frankfurt | 4 | All Maps","protocol":17,"map":"cp_altitude","folder":"tf","game":"Team Fortress","app_id":440,"player_count":0,"max_players":24,"Bots":0,"server_type":"Dedicated","server_os":"Linux","password":true,"vac":true,"version":"7757534","steam_id":85568392924504275,"keywords":["cp","nocrits","nodmgspread","uncletopia"],"game_id":440,"stv_port":27046,"stv_name":"Uncletopia | Frankfurt | 4 | All Maps | STV","players":null},{"server_id":310,"name":"Uncletopia | Frankfurt | 5 | All Maps","name_short":"frk-5","host":"frk-1.de.uncletopia.com","port":27055,"enabled":true,"region":"eu","cc":"de","latitude":50.110924,"longitude":8.682127,"reserved":0,"last_update":"0001-01-01T00:00:00Z","name_a2s":"Uncletopia | Frankfurt | 5 | All Maps","protocol":17,"map":"cp_altitude","folder":"tf","game":"Team Fortress","app_id":440,"player_count":0,"max_players":24,"Bots":0,"server_type":"Dedicated","server_os":"Linux","password":true,"vac":true,"version":"7757534","steam_id":85568392924504277,"keywords":["cp","nocrits","nodmgspread","uncletopia"],"game_id":440,"stv_port":27056,"stv_name":"Uncletopia | Frankfurt | 5 | All Maps | STV","players":null},{"server_id":311,"name":"Uncletopia | Frankfurt | 6 | All Maps","name_short":"frk-6","host":"frk-1.de.uncletopia.com","port":27065,"enabled":true,"region":"eu","cc":"de","latitude":50.110924,"longitude":8.682127,"reserved":0,"last_update":"0001-01-01T00:00:00Z","name_a2s":"Uncletopia | Frankfurt | 6 | All Maps","protocol":17,"map":"koth_highpass","folder":"tf","game":"Team Fortress","app_id":440,"player_count":0,"max_players":24,"Bots":0,"server_type":"Dedicated","server_os":"Linux","password":true,"vac":true,"version":"7757534","steam_id":85568392924504278,"keywords":["cp","nocrits","nodmgspread","uncletopia"],"game_id":440,"stv_port":27066,"stv_name":"Uncletopia | Frankfurt | 6 | All Maps | STV","players":null},{"server_id":23,"name":"Uncletopia | Frankfurt | 7 | Stopwatch Beta","name_short":"frk-7","host":"frk-1.de.uncletopia.com","port":27075,"enabled":true,"region":"eu","cc":"de","latitude":50.110924,"longitude":8.682127,"reserved":0,"last_update":"0001-01-01T00:00:00Z","name_a2s":"Uncletopia | Frankfurt | 7 | Stopwatch Beta","protocol":17,"map":"pl_frontier_final","folder":"tf","game":"Team Fortress","app_id":440,"player_count":0,"max_players":24,"Bots":0,"server_type":"Dedicated","server_os":"Linux","password":true,"vac":true,"version":"7757534","steam_id":85568392924742827,"keywords":["nocrits","nodmgspread","payload","uncletopia"],"game_id":440,"stv_port":27076,"stv_name":"Uncletopia | Frankfurt | 7 | Stopwatch Beta | STV","players":null},{"server_id":24,"name":"Uncletopia | Frankfurt | 8 | Community","name_short":"frk-8","host":"frk-1.de.uncletopia.com","port":27085,"enabled":true,"region":"eu","cc":"de","latitude":50.110924,"longitude":8.682127,"reserved":0,"last_update":"0001-01-01T00:00:00Z","name_a2s":"Uncletopia | Frankfurt | 8 | Community","protocol":17,"map":"pl_badwater","folder":"tf","game":"Team Fortress","app_id":440,"player_count":0,"max_players":24,"Bots":0,"server_type":"Dedicated","server_os":"Linux","password":true,"vac":true,"version":"7757534","steam_id":85568392924742828,"keywords":["nocrits","nodmgspread","payload","uncletopia"],"game_id":440,"stv_port":27086,"stv_name":"Uncletopia | Frankfurt | 8 | Community | STV","players":null},{"server_id":202,"name":"Uncletopia | Hong Kong | 1 | All Maps","name_short":"hgk-1","host":"hgk-1.hk.uncletopia.com","port":27015,"enabled":true,"region":"asia","cc":"hk","latitude":22.302711,"longitude":114.177216,"reserved":0,"last_update":"0001-01-01T00:00:00Z","name_a2s":"Uncletopia | Hong Kong | 1 | All Maps","protocol":17,"map":"ctf_doublecross","folder":"tf","game":"Team Fortress","app_id":440,"player_count":7,"max_players":24,"Bots":0,"server_type":"Dedicated","server_os":"Linux","password":true,"vac":true,"version":"7757534","steam_id":85568392924494504,"keywords":["ctf","nocrits","nodmgspread","uncletopia"],"game_id":440,"stv_port":27016,"stv_name":"Uncletopia | Hong Kong | 1 | All Maps | STV","players":[{"user_id":17,"name":"Ice Crack, Dude","steam_id":76561199445694770,"connected_time":1317000000000,"state":"active","ping":140},{"user_id":10,"name":"3wfFbdrjEze5d2G","steam_id":76561198435900451,"connected_time":3606000000000,"state":"active","ping":106},{"user_id":14,"name":"augh | blw.tf","steam_id":76561199199846767,"connected_time":2352000000000,"state":"active","ping":62},{"user_id":13,"name":"Â§âÊÖã„ÅÆÁ•û","steam_id":76561199017344476,"connected_time":2952000000000,"state":"active","ping":132},{"user_id":22,"name":"About","steam_id":76561198198273477,"connected_time":254000000000,"state":"active","ping":106},{"user_id":20,"name":"INCREASE GAS PRICES","steam_id":76561199406575369,"connected_time":624000000000,"state":"active","ping":75},{"user_id":21,"name":"Shienn__","steam_id":76561199174019837,"connected_time":621000000000,"state":"active","ping":102}]},{"server_id":1,"name":"Uncletopia | Los Angeles | 1 | All Maps","name_short":"lax-1","host":"lax-1.us.uncletopia.com","port":27015,"enabled":true,"region":"us-west","cc":"us","latitude":33.94279,"longitude":-118.41004,"reserved":0,"last_update":"0001-01-01T00:00:00Z","name_a2s":"Uncletopia | Los Angeles | 1 | All Maps","protocol":17,"map":"pl_frontier_final","folder":"tf","game":"Team Fortress","app_id":440,"player_count":23,"max_players":24,"Bots":0,"server_type":"Dedicated","server_os":"Linux","password":true,"vac":true,"version":"7757534","steam_id":85568392924469991,"keywords":["nocrits","nodmgspread","payload","uncletopia"],"game_id":440,"stv_port":27016,"stv_name":"Uncletopia | Los Angeles | 1 | All Maps | STV","players":[{"user_id":402,"name":"Scout:DefenderOfCP(ControlPoint","steam_id":76561199435609906,"connected_time":904000000000,"state":"active","ping":92},{"user_id":389,"name":"teh mummy","steam_id":76561198044123636,"connected_time":1859000000000,"state":"active","ping":33},{"user_id":411,"name":"yeyoi","steam_id":76561198069821885,"connected_time":317000000000,"state":"active","ping":69},{"user_id":412,"name":"joecool","steam_id":76561198414164768,"connected_time":286000000000,"state":"active","ping":70},{"user_id":410,"name":"Arthur","steam_id":76561198075996414,"connected_time":568000000000,"state":"active","ping":85},{"user_id":340,"name":"beatrix","steam_id":76561199057103062,"connected_time":4977000000000,"state":"active","ping":47},{"user_id":406,"name":"Jovi Boy","steam_id":76561198046605691,"connected_time":645000000000,"state":"active","ping":60},{"user_id":413,"name":"CherryYeti","steam_id":76561199221441151,"connected_time":183000000000,"state":"active","ping":59},{"user_id":399,"name":"crouton.net","steam_id":76561198068374646,"connected_time":1276000000000,"state":"active","ping":64},{"user_id":387,"name":"Mothership","steam_id":76561198044029501,"connected_time":2017000000000,"state":"active","ping":101},{"user_id":383,"name":"Sad Sapling","steam_id":76561198075612150,"connected_time":2179000000000,"state":"active","ping":46},{"user_id":396,"name":"brobtlcehc","steam_id":76561198043558709,"connected_time":1603000000000,"state":"active","ping":77},{"user_id":407,"name":"CaveMann","steam_id":76561198063049297,"connected_time":625000000000,"state":"active","ping":47},{"user_id":414,"name":"Sorasonic","steam_id":76561198042463115,"connected_time":50000000000,"state":"active","ping":57},{"user_id":395,"name":"Delta","steam_id":76561198021957971,"connected_time":1652000000000,"state":"active","ping":52},{"user_id":381,"name":"Skeletor","steam_id":76561198396811465,"connected_time":2221000000000,"state":"active","ping":97},{"user_id":349,"name":"Oreodog300","steam_id":76561198137626866,"connected_time":4295000000000,"state":"active","ping":48},{"user_id":375,"name":"ElectronX","steam_id":76561198116034988,"connected_time":2697000000000,"state":"active","ping":55},{"user_id":408,"name":"HOG RIDER","steam_id":76561198298589502,"connected_time":623000000000,"state":"active","ping":51},{"user_id":372,"name":"Jack from Jack in The Box","steam_id":76561199083594971,"connected_time":2998000000000,"state":"active","ping":48},{"user_id":409,"name":"fortzei","steam_id":76561198210920541,"connected_time":609000000000,"state":"active","ping":62},{"user_id":355,"name":"MinusSoup918","steam_id":76561198060902773,"connected_time":4198000000000,"state":"active","ping":66},{"user_id":401,"name":"SpaghettiMaster420","steam_id":76561199024321120,"connected_time":1200000000000,"state":"active","ping":67}]},{"server_id":112,"name":"Uncletopia | Los Angeles | 2 | All Maps","name_short":"lax-2","host":"lax-1.us.uncletopia.com","port":27025,"enabled":true,"region":"us-west","cc":"us","latitude":33.94279,"longitude":-118.41004,"reserved":0,"last_update":"0001-01-01T00:00:00Z","name_a2s":"Uncletopia | Los Angeles | 2 | All Maps","protocol":17,"map":"pl_swiftwater_final1","folder":"tf","game":"Team Fortress","app_id":440,"player_count":24,"max_players":24,"Bots":0,"server_type":"Dedicated","server_os":"Linux","password":true,"vac":true,"version":"7757534","steam_id":85568392924469992,"keywords":["nocrits","nodmgspread","payload","uncletopia"],"game_id":440,"stv_port":27026,"stv_name":"Uncletopia | Los Angeles | 2 | All Maps | STV","players":[{"user_id":116,"name":"REGICIDE","steam_id":76561198025377842,"connected_time":1425000000000,"state":"active","ping":57},{"user_id":117,"name":"thebestman982","steam_id":76561199001698710,"connected_time":1380000000000,"state":"active","ping":98},{"user_id":118,"name":"lazy","steam_id":76561198396257711,"connected_time":1335000000000,"state":"active","ping":51},{"user_id":138,"name":"JON","steam_id":76561198057971005,"connected_time":249000000000,"state":"active","ping":71},{"user_id":128,"name":"Cousin Balki","steam_id":76561198070496395,"connected_time":1023000000000,"state":"active","ping":117},{"user_id":95,"name":"Birdman743","steam_id":76561198799636748,"connected_time":3090000000000,"state":"active","ping":85},{"user_id":139,"name":"Evanb","steam_id":76561198042057792,"connected_time":223000000000,"state":"active","ping":78},{"user_id":82,"name":"Battery_Included","steam_id":76561198067164431,"connected_time":4525000000000,"state":"active","ping":41},{"user_id":110,"name":"bigindarug","steam_id":76561198165784818,"connected_time":1945000000000,"state":"active","ping":65},{"user_id":142,"name":"Rueflic","steam_id":76561198201735771,"connected_time":139000000000,"state":"active","ping":59},{"user_id":121,"name":"cedar","steam_id":76561199114675299,"connected_time":1198000000000,"state":"active","ping":102},{"user_id":122,"name":"borzier","steam_id":76561198069190432,"connected_time":1193000000000,"state":"active","ping":110},{"user_id":141,"name":"Amigo","steam_id":76561199010729091,"connected_time":155000000000,"state":"active","ping":71},{"user_id":143,"name":"‚ô¶‚ô£Quadric‚ô•‚ô†","steam_id":76561198061003853,"connected_time":131000000000,"state":"active","ping":118},{"user_id":145,"name":"Father Jon","steam_id":76561198324730919,"connected_time":121000000000,"state":"active","ping":99},{"user_id":113,"name":"Uncle Iroh","steam_id":76561198131467867,"connected_time":1785000000000,"state":"active","ping":46},{"user_id":146,"name":"Frogzilla","steam_id":76561198077657538,"connected_time":119000000000,"state":"active","ping":89},{"user_id":134,"name":"K4le","steam_id":76561198747668363,"connected_time":696000000000,"state":"active","ping":58},{"user_id":112,"name":"Wicket","steam_id":76561198044023036,"connected_time":1898000000000,"state":"active","ping":106},{"user_id":137,"name":"P A N","steam_id":76561198334559569,"connected_time":426000000000,"state":"active","ping":116},{"user_id":98,"name":"Akkawi","steam_id":76561198203159952,"connected_time":2767000000000,"state":"active","ping":58},{"user_id":125,"name":"Cricket Girl!","steam_id":76561198838054669,"connected_time":1119000000000,"state":"active","ping":114},{"user_id":147,"name":"Barn.Jones1992","steam_id":76561198197981309,"connected_time":102000000000,"state":"active","ping":49},{"user_id":127,"name":"Artorias","steam_id":76561198329193255,"connected_time":1080000000000,"state":"active","ping":117}]},{"server_id":324,"name":"Uncletopia | Los Angeles | 3 | All Maps","name_short":"lax-3","host":"lax-1.us.uncletopia.com","port":27035,"enabled":true,"region":"us-west","cc":"us","latitude":33.94279,"longitude":-118.41004,"reserved":0,"last_update":"0001-01-01T00:00:00Z","name_a2s":"Uncletopia | Los Angeles | 3 | All Maps","protocol":17,"map":"pl_snowycoast","folder":"tf","game":"Team Fortress","app_id":440,"player_count":0,"max_players":24,"Bots":0,"server_type":"Dedicated","server_os":"Linux","password":true,"vac":true,"version":"7757534","steam_id":85568392924510198,"keywords":["nocrits","nodmgspread","payload","uncletopia"],"game_id":440,"stv_port":27036,"stv_name":"Uncletopia | Los Angeles | 3 | All Maps | STV","players":null},{"server_id":25,"name":"Uncletopia | Los Angeles | 4 | Stopwatch Beta","name_short":"lax-4","host":"lax-1.us.uncletopia.com","port":27045,"enabled":true,"region":"us-west","cc":"us","latitude":33.94279,"longitude":-118.41004,"reserved":0,"last_update":"0001-01-01T00:00:00Z","name_a2s":"Uncletopia | Los Angeles | 4 | Stopwatch Beta","protocol":17,"map":"pl_frontier_final","folder":"tf","game":"Team Fortress","app_id":440,"player_count":0,"max_players":24,"Bots":0,"server_type":"Dedicated","server_os":"Linux","password":true,"vac":true,"version":"7757534","steam_id":85568392924510199,"keywords":["nocrits","nodmgspread","payload","uncletopia"],"game_id":440,"stv_port":27046,"stv_name":"Uncletopia | Los Angeles | 4 | Stopwatch Beta | STV","players":null},{"server_id":11,"name":"Uncletopia | London | 1 | All Maps","name_short":"lon-1","host":"lon-1.uk.uncletopia.com","port":27015,"enabled":true,"region":"eu","cc":"gb","latitude":51.509865,"longitude":-0.118092,"reserved":0,"last_update":"0001-01-01T00:00:00Z","name_a2s":"Uncletopia | London | 1 | All Maps","protocol":17,"map":"koth_lakeside_final","folder":"tf","game":"Team Fortress","app_id":440,"player_count":3,"max_players":24,"Bots":0,"server_type":"Dedicated","server_os":"Linux","password":true,"vac":true,"version":"7757534","steam_id":85568392924367362,"keywords":["cp","nocrits","nodmgspread","uncletopia"],"game_id":440,"stv_port":27016,"stv_name":"Uncletopia | London | 1 | All Maps | STV","players":[{"user_id":945,"name":"posht0 @_@","steam_id":76561198106182078,"connected_time":609000000000,"state":"active","ping":104},{"user_id":946,"name":"fried","steam_id":76561198307522022,"connected_time":488000000000,"state":"active","ping":48},{"user_id":948,"name":"Johnny Cockroach","steam_id":76561198049648277,"connected_time":186000000000,"state":"active","ping":111}]},{"server_id":114,"name":"Uncletopia | London | 2 | All Maps","name_short":"lon-2","host":"lon-1.uk.uncletopia.com","port":27025,"enabled":true,"region":"eu","cc":"gb","latitude":51.509865,"longitude":-0.118092,"reserved":0,"last_update":"0001-01-01T00:00:00Z","name_a2s":"Uncletopia | London | 2 | All Maps","protocol":17,"map":"cp_dustbowl","folder":"tf","game":"Team Fortress","app_id":440,"player_count":0,"max_players":24,"Bots":0,"server_type":"Dedicated","server_os":"Linux","password":true,"vac":true,"version":"7757534","steam_id":85568392924470941,"keywords":["cp","nocrits","nodmgspread","uncletopia"],"game_id":440,"stv_port":27026,"stv_name":"Uncletopia | London | 2 | All Maps | STV","players":null},{"server_id":320,"name":"Uncletopia | London | 3 | All Maps","name_short":"lon-3","host":"lon-1.uk.uncletopia.com","port":27035,"enabled":true,"region":"eu","cc":"gb","latitude":51.509865,"longitude":-0.118092,"reserved":0,"last_update":"0001-01-01T00:00:00Z","name_a2s":"Uncletopia | London | 3 | All Maps","protocol":17,"map":"koth_sawmill","folder":"tf","game":"Team Fortress","app_id":440,"player_count":0,"max_players":24,"Bots":0,"server_type":"Dedicated","server_os":"Linux","password":true,"vac":true,"version":"7757534","steam_id":85568392924510192,"keywords":["cp","nocrits","nodmgspread","uncletopia"],"game_id":440,"stv_port":27036,"stv_name":"Uncletopia | London | 3 | All Maps | STV","players":null},{"server_id":321,"name":"Uncletopia | London | 4 | All Maps","name_short":"lon-4","host":"lon-1.uk.uncletopia.com","port":27045,"enabled":true,"region":"eu","cc":"gb","latitude":51.509865,"longitude":-0.118092,"reserved":0,"last_update":"0001-01-01T00:00:00Z","name_a2s":"Uncletopia | London | 4 | All Maps","protocol":17,"map":"koth_harvest_final","folder":"tf","game":"Team Fortress","app_id":440,"player_count":0,"max_players":24,"Bots":0,"server_type":"Dedicated","server_os":"Linux","password":true,"vac":true,"version":"7757534","steam_id":85568392924510193,"keywords":["cp","nocrits","nodmgspread","uncletopia"],"game_id":440,"stv_port":27046,"stv_name":"Uncletopia | London | 4 | All Maps | STV","players":null},{"server_id":21,"name":"Uncletopia | London | 5 | All Maps","name_short":"lon-5","host":"lon-1.uk.uncletopia.com","port":27055,"enabled":true,"region":"eu","cc":"gb","latitude":51.509865,"longitude":-0.118092,"reserved":0,"last_update":"0001-01-01T00:00:00Z","name_a2s":"Uncletopia | London | 5 | All Maps","protocol":17,"map":"koth_cascade","folder":"tf","game":"Team Fortress","app_id":440,"player_count":0,"max_players":24,"Bots":0,"server_type":"Dedicated","server_os":"Linux","password":true,"vac":true,"version":"7757534","steam_id":85568392924742829,"keywords":["cp","nocrits","nodmgspread","uncletopia"],"game_id":440,"stv_port":27056,"stv_name":"Uncletopia | London | 5 | All Maps | STV","players":null},{"server_id":22,"name":"Uncletopia | London | 6 | All Maps","name_short":"lon-6","host":"lon-1.uk.uncletopia.com","port":27065,"enabled":true,"region":"eu","cc":"gb","latitude":51.509865,"longitude":-0.118092,"reserved":0,"last_update":"0001-01-01T00:00:00Z","name_a2s":"Uncletopia | London | 6 | All Maps","protocol":17,"map":"pl_swiftwater_final1","folder":"tf","game":"Team Fortress","app_id":440,"player_count":0,"max_players":24,"Bots":0,"server_type":"Dedicated","server_os":"Linux","password":true,"vac":true,"version":"7757534","steam_id":85568392924742830,"keywords":["nocrits","nodmgspread","payload","uncletopia"],"game_id":440,"stv_port":27066,"stv_name":"Uncletopia | London | 6 | All Maps | STV","players":null},{"server_id":40,"name":"Uncletopia | London | 7 | No Payload","name_short":"lon-7","host":"lon-1.uk.uncletopia.com","port":27075,"enabled":true,"region":"eu","cc":"gb","latitude":51.509865,"longitude":-0.118092,"reserved":0,"last_update":"0001-01-01T00:00:00Z","name_a2s":"Uncletopia | London | 7 | No Payload","protocol":17,"map":"plr_pipeline","folder":"tf","game":"Team Fortress","app_id":440,"player_count":0,"max_players":24,"Bots":0,"server_type":"Dedicated","server_os":"Linux","password":true,"vac":true,"version":"7757534","steam_id":85568392924964314,"keywords":["nocrits","nodmgspread","payload","uncletopia"],"game_id":440,"stv_port":27076,"stv_name":"Uncletopia | London | 7 | No Payload | STV","players":null},{"server_id":41,"name":"Uncletopia | London | 8 | Community","name_short":"lon-8","host":"lon-1.uk.uncletopia.com","port":27085,"enabled":true,"region":"eu","cc":"gb","latitude":51.509865,"longitude":-0.118092,"reserved":0,"last_update":"0001-01-01T00:00:00Z","name_a2s":"Uncletopia | London | 8 | Community","protocol":17,"map":"workshop/cp_croissant_final.ugc458840209","folder":"tf","game":"Team Fortress","app_id":440,"player_count":0,"max_players":24,"Bots":0,"server_type":"Dedicated","server_os":"Linux","password":true,"vac":true,"version":"7757534","steam_id":85568392924964315,"keywords":["cp","nocrits","nodmgspread","uncletopia"],"game_id":440,"stv_port":27086,"stv_name":"Uncletopia | London | 8 | Community | STV","players":null},{"server_id":300,"name":"Uncletopia | Montr√©al | 1 | All Maps","name_short":"mtl-1","host":"mtl-1.ca.uncletopia.com","port":27015,"enabled":true,"region":"us-east","cc":"ca","latitude":45.50889,"longitude":-73.56167,"reserved":0,"last_update":"0001-01-01T00:00:00Z","name_a2s":"Uncletopia | Montr√©al | 1 | All Maps","protocol":17,"map":"pl_borneo","folder":"tf","game":"Team Fortress","app_id":440,"player_count":0,"max_players":24,"Bots":0,"server_type":"Dedicated","server_os":"Linux","password":true,"vac":true,"version":"7757534","steam_id":85568392924500087,"keywords":["nocrits","nodmgspread","payload","uncletopia"],"game_id":440,"stv_port":27016,"stv_name":"Uncletopia | Montr√©al | 1 | All Maps | STV","players":null},{"server_id":301,"name":"Uncletopia | Montr√©al | 2 | All Maps","name_short":"mtl-2","host":"mtl-1.ca.uncletopia.com","port":27025,"enabled":true,"region":"us-east","cc":"ca","latitude":45.50889,"longitude":-73.56167,"reserved":0,"last_update":"0001-01-01T00:00:00Z","name_a2s":"Uncletopia | Montr√©al | 2 | All Maps","protocol":17,"map":"pl_frontier_final","folder":"tf","game":"Team Fortress","app_id":440,"player_count":0,"max_players":24,"Bots":0,"server_type":"Dedicated","server_os":"Linux","password":true,"vac":true,"version":"7757534","steam_id":85568392924500088,"keywords":["nocrits","nodmgspread","payload","uncletopia"],"game_id":440,"stv_port":27026,"stv_name":"Uncletopia | Montr√©al | 2 | All Maps | STV","players":null},{"server_id":302,"name":"Uncletopia | Montr√©al | 3 | All Maps","name_short":"mtl-3","host":"mtl-1.ca.uncletopia.com","port":27035,"enabled":true,"region":"us-east","cc":"ca","latitude":45.50889,"longitude":-73.56167,"reserved":0,"last_update":"0001-01-01T00:00:00Z","name_a2s":"Uncletopia | Montr√©al | 3 | All Maps","protocol":17,"map":"koth_highpass","folder":"tf","game":"Team Fortress","app_id":440,"player_count":0,"max_players":24,"Bots":0,"server_type":"Dedicated","server_os":"Linux","password":true,"vac":true,"version":"7757534","steam_id":85568392924500089,"keywords":["cp","nocrits","nodmgspread","uncletopia"],"game_id":440,"stv_port":27036,"stv_name":"Uncletopia | Montr√©al | 3 | All Maps | STV","players":null},{"server_id":303,"name":"Uncletopia | Montr√©al | 4 | No Payload","name_short":"mtl-4","host":"mtl-1.ca.uncletopia.com","port":27045,"enabled":true,"region":"us-east","cc":"ca","latitude":45.50889,"longitude":-73.56167,"reserved":0,"last_update":"0001-01-01T00:00:00Z","name_a2s":"Uncletopia | Montr√©al | 4 | No Payload","protocol":17,"map":"pl_borneo","folder":"tf","game":"Team Fortress","app_id":440,"player_count":0,"max_players":24,"Bots":0,"server_type":"Dedicated","server_os":"Linux","password":true,"vac":true,"version":"7757534","steam_id":85568392924500090,"keywords":["nocrits","nodmgspread","payload","uncletopia"],"game_id":440,"stv_port":27046,"stv_name":"Uncletopia | Montr√©al | 4 | No Payload | STV","players":null},{"server_id":13,"name":"Uncletopia | New York City | 1 | All Maps","name_short":"nyc-1","host":"nyc-1.us.uncletopia.com","port":27015,"enabled":true,"region":"us-east","cc":"us","latitude":40.73061,"longitude":-73.93524,"reserved":0,"last_update":"0001-01-01T00:00:00Z","name_a2s":"Uncletopia | New York City | 1 | All Maps","protocol":17,"map":"koth_highpass","folder":"tf","game":"Team Fortress","app_id":440,"player_count":0,"max_players":24,"Bots":0,"server_type":"Dedicated","server_os":"Linux","password":true,"vac":true,"version":"7757534","steam_id":85568392924469993,"keywords":["cp","nocrits","nodmgspread","uncletopia"],"game_id":440,"stv_port":27016,"stv_name":"Uncletopia | New York City | 1 | All Maps | STV","players":null},{"server_id":14,"name":"Uncletopia | New York City | 2 | All Maps","name_short":"nyc-2","host":"nyc-1.us.uncletopia.com","port":27025,"enabled":true,"region":"us-east","cc":"us","latitude":40.73061,"longitude":-73.93524,"reserved":0,"last_update":"0001-01-01T00:00:00Z","name_a2s":"Uncletopia | New York City | 2 | All Maps","protocol":17,"map":"pl_swiftwater_final1","folder":"tf","game":"Team Fortress","app_id":440,"player_count":0,"max_players":24,"Bots":0,"server_type":"Dedicated","server_os":"Linux","password":true,"vac":true,"version":"7757534","steam_id":85568392924469994,"keywords":["nocrits","nodmgspread","payload","uncletopia"],"game_id":440,"stv_port":27026,"stv_name":"Uncletopia | New York City | 2 | All Maps | STV","players":null},{"server_id":15,"name":"Uncletopia | New York City | 3 | Stopwatch Beta","name_short":"nyc-3","host":"nyc-1.us.uncletopia.com","port":27035,"enabled":true,"region":"us-east","cc":"us","latitude":40.73061,"longitude":-73.93524,"reserved":0,"last_update":"0001-01-01T00:00:00Z","name_a2s":"Uncletopia | New York City | 3 | Stopwatch Beta","protocol":17,"map":"koth_highpass","folder":"tf","game":"Team Fortress","app_id":440,"player_count":0,"max_players":24,"Bots":0,"server_type":"Dedicated","server_os":"Linux","password":true,"vac":true,"version":"7757534","steam_id":85568392924742820,"keywords":["cp","nocrits","nodmgspread","uncletopia"],"game_id":440,"stv_port":27036,"stv_name":"Uncletopia | New York City | 3 | Stopwatch Beta | STV","players":null},{"server_id":16,"name":"Uncletopia | New York City | 4 | Community","name_short":"nyc-4","host":"nyc-1.us.uncletopia.com","port":27045,"enabled":true,"region":"us-east","cc":"us","latitude":40.73061,"longitude":-73.93524,"reserved":0,"last_update":"0001-01-01T00:00:00Z","name_a2s":"Uncletopia | New York City | 4 | Community","protocol":17,"map":"workshop/pl_cashworks_final1.ugc2904065412","folder":"tf","game":"Team Fortress","app_id":440,"player_count":21,"max_players":24,"Bots":0,"server_type":"Dedicated","server_os":"Linux","password":true,"vac":true,"version":"7757534","steam_id":85568392924742821,"keywords":["nocrits","nodmgspread","payload","uncletopia"],"game_id":440,"stv_port":27046,"stv_name":"Uncletopia | New York City | 4 | Community | STV","players":[{"user_id":387,"name":"Banio Kaioie","steam_id":76561198153295874,"connected_time":436000000000,"state":"active","ping":130},{"user_id":390,"name":"Lognes","steam_id":76561198076569769,"connected_time":125000000000,"state":"active","ping":134},{"user_id":389,"name":"jeremimi","steam_id":76561198818225102,"connected_time":273000000000,"state":"active","ping":121},{"user_id":385,"name":"Ballin \u0026 Can't Get Up","steam_id":76561198047394013,"connected_time":530000000000,"state":"active","ping":60},{"user_id":391,"name":"Neo Kabuto","steam_id":76561197998339185,"connected_time":111000000000,"state":"active","ping":88},{"user_id":325,"name":"softest_Poly","steam_id":76561198192264662,"connected_time":4139000000000,"state":"active","ping":94},{"user_id":373,"name":"Mason","steam_id":76561198067984258,"connected_time":1543000000000,"state":"active","ping":75},{"user_id":322,"name":"Maj. Problem","steam_id":76561198240148840,"connected_time":4178000000000,"state":"active","ping":81},{"user_id":369,"name":"Brendan","steam_id":76561198041079914,"connected_time":1859000000000,"state":"active","ping":53},{"user_id":341,"name":"ZaYMuLL","steam_id":76561198110935733,"connected_time":3750000000000,"state":"active","ping":85},{"user_id":370,"name":"Elmerfudd3","steam_id":76561198209528367,"connected_time":1817000000000,"state":"active","ping":70},{"user_id":374,"name":"jerps","steam_id":76561198113109989,"connected_time":1507000000000,"state":"active","ping":61},{"user_id":346,"name":"Skaibae","steam_id":76561198134178824,"connected_time":3378000000000,"state":"active","ping":44},{"user_id":375,"name":"Split","steam_id":76561199134222256,"connected_time":1502000000000,"state":"active","ping":81},{"user_id":376,"name":"not luie","steam_id":76561199468287142,"connected_time":1483000000000,"state":"active","ping":76},{"user_id":336,"name":"NuggetShay.jpg","steam_id":76561198190962742,"connected_time":4050000000000,"state":"active","ping":75},{"user_id":383,"name":"R4wb33fG4m1ng73","steam_id":76561198121372198,"connected_time":953000000000,"state":"active","ping":82},{"user_id":377,"name":"LazahBeam","steam_id":76561199456232623,"connected_time":1476000000000,"state":"active","ping":86},{"user_id":393,"name":"i lov huntman :)","steam_id":76561198302410791,"connected_time":40000000000,"state":"spawning","ping":226},{"user_id":363,"name":"Threxx","steam_id":76561198068348885,"connected_time":2084000000000,"state":"active","ping":37},{"user_id":380,"name":"American Dad","steam_id":76561198059711448,"connected_time":1391000000000,"state":"active","ping":84}]},{"server_id":142,"name":"Uncletopia | S√£o Paulo | 1 | All Maps","name_short":"sao-1","host":"sao-1.br.uncletopia.com","port":27015,"enabled":true,"region":"sa","cc":"br","latitude":-23.533773,"longitude":-46.62529,"reserved":0,"last_update":"0001-01-01T00:00:00Z","name_a2s":"Uncletopia | S√£o Paulo | 1 | All Maps","protocol":17,"map":"koth_lakeside_final","folder":"tf","game":"Team Fortress","app_id":440,"player_count":0,"max_players":24,"Bots":0,"server_type":"Dedicated","server_os":"Linux","password":true,"vac":true,"version":"7757534","steam_id":85568392924469996,"keywords":["cp","nocrits","nodmgspread","uncletopia"],"game_id":440,"stv_port":27016,"stv_name":"Uncletopia | S√£o Paulo | 1 | All Maps | STV","players":null},{"server_id":143,"name":"Uncletopia | S√£o Paulo | 2 | All Maps","name_short":"sao-2","host":"sao-2.br.uncletopia.com","port":27015,"enabled":true,"region":"sa","cc":"br","latitude":-23.533773,"longitude":-46.62529,"reserved":0,"last_update":"0001-01-01T00:00:00Z","name_a2s":"Uncletopia | S√£o Paulo | 2 | All Maps","protocol":17,"map":"koth_cascade","folder":"tf","game":"Team Fortress","app_id":440,"player_count":0,"max_players":24,"Bots":0,"server_type":"Dedicated","server_os":"Linux","password":true,"vac":true,"version":"7757534","steam_id":85568392924485349,"keywords":["cp","nocrits","nodmgspread","uncletopia"],"game_id":440,"stv_port":27016,"stv_name":"Uncletopia | S√£o Paulo | 2 | All Maps | STV","players":null},{"server_id":7,"name":"Uncletopia | Seattle | 1 | All Maps","name_short":"sea-1","host":"sea-1.us.uncletopia.com","port":27015,"enabled":true,"region":"us-west","cc":"us","latitude":47.608013,"longitude":-122.33517,"reserved":0,"last_update":"0001-01-01T00:00:00Z","name_a2s":"Uncletopia | Seattle | 1 | All Maps","protocol":17,"map":"pl_upward","folder":"tf","game":"Team Fortress","app_id":440,"player_count":20,"max_players":24,"Bots":0,"server_type":"Dedicated","server_os":"Linux","password":true,"vac":true,"version":"7757534","steam_id":85568392924469997,"keywords":["nocrits","nodmgspread","payload","uncletopia"],"game_id":440,"stv_port":27016,"stv_name":"Uncletopia | Seattle | 1 | All Maps | STV","players":[{"user_id":745,"name":"I THINK COOLSVILLE SUCKS","steam_id":76561198066855998,"connected_time":132000000000,"state":"active","ping":45},{"user_id":739,"name":"„Ä£dust„Ä£ -she/her-","steam_id":76561198045218909,"connected_time":862000000000,"state":"active","ping":33},{"user_id":703,"name":"MisterManne","steam_id":76561198106598600,"connected_time":3873000000000,"state":"active","ping":57},{"user_id":727,"name":"shane","steam_id":76561198060491451,"connected_time":1699000000000,"state":"active","ping":87},{"user_id":729,"name":"perplexingPariah","steam_id":76561198017132711,"connected_time":1675000000000,"state":"active","ping":38},{"user_id":735,"name":"doomshroom","steam_id":76561198092827250,"connected_time":1171000000000,"state":"active","ping":54},{"user_id":740,"name":"Willy Wonker","steam_id":76561198082944789,"connected_time":677000000000,"state":"active","ping":71},{"user_id":723,"name":"spenca","steam_id":76561198025371154,"connected_time":1743000000000,"state":"active","ping":61},{"user_id":743,"name":"Arathyn","steam_id":76561198179955586,"connected_time":386000000000,"state":"active","ping":92},{"user_id":746,"name":"bbbbb","steam_id":76561198095480838,"connected_time":120000000000,"state":"active","ping":49},{"user_id":730,"name":"PrimateChallenge","steam_id":76561198038103724,"connected_time":1643000000000,"state":"active","ping":55},{"user_id":744,"name":"Morse","steam_id":76561198039944542,"connected_time":241000000000,"state":"active","ping":52},{"user_id":747,"name":"Casper","steam_id":76561198142131926,"connected_time":75000000000,"state":"active","ping":70},{"user_id":734,"name":"TheFakeApple","steam_id":76561199090113472,"connected_time":1211000000000,"state":"active","ping":56},{"user_id":724,"name":"sb._","steam_id":76561198010150098,"connected_time":1738000000000,"state":"active","ping":71},{"user_id":742,"name":"maiden abyss","steam_id":76561198968958854,"connected_time":414000000000,"state":"active","ping":53},{"user_id":736,"name":"Freddie Benson","steam_id":76561198012741266,"connected_time":1154000000000,"state":"active","ping":47},{"user_id":741,"name":"toilet thief","steam_id":76561198057486874,"connected_time":625000000000,"state":"active","ping":73},{"user_id":657,"name":"Kuma","steam_id":76561199100813140,"connected_time":8819000000000,"state":"active","ping":85},{"user_id":715,"name":"inubby","steam_id":76561198018471589,"connected_time":2594000000000,"state":"active","ping":69}]},{"server_id":119,"name":"Uncletopia | Seattle | 2 | All Maps","name_short":"sea-2","host":"sea-1.us.uncletopia.com","port":27025,"enabled":true,"region":"us-west","cc":"us","latitude":47.608013,"longitude":-122.33517,"reserved":0,"last_update":"0001-01-01T00:00:00Z","name_a2s":"Uncletopia | Seattle | 2 | All Maps","protocol":17,"map":"pl_borneo","folder":"tf","game":"Team Fortress","app_id":440,"player_count":24,"max_players":24,"Bots":0,"server_type":"Dedicated","server_os":"Linux","password":true,"vac":true,"version":"7757534","steam_id":85568392924469998,"keywords":["nocrits","nodmgspread","payload","uncletopia"],"game_id":440,"stv_port":27026,"stv_name":"Uncletopia | Seattle | 2 | All Maps | STV","players":[{"user_id":402,"name":"North","steam_id":76561199173696836,"connected_time":446000000000,"state":"active","ping":71},{"user_id":362,"name":"the sploogiest splooger","steam_id":76561199095126154,"connected_time":2286000000000,"state":"active","ping":61},{"user_id":382,"name":"TROY","steam_id":76561197983852176,"connected_time":1241000000000,"state":"active","ping":77},{"user_id":353,"name":"Batso","steam_id":76561198106589452,"connected_time":2543000000000,"state":"active","ping":96},{"user_id":403,"name":"david","steam_id":76561198401625806,"connected_time":416000000000,"state":"active","ping":70},{"user_id":400,"name":"Ohana4","steam_id":76561199142959128,"connected_time":504000000000,"state":"active","ping":49},{"user_id":388,"name":"Triple Lizard","steam_id":76561198188459654,"connected_time":840000000000,"state":"active","ping":138},{"user_id":389,"name":"we did it mate","steam_id":76561199471434875,"connected_time":835000000000,"state":"active","ping":38},{"user_id":368,"name":"ivyXXcision","steam_id":76561198031474906,"connected_time":2057000000000,"state":"active","ping":117},{"user_id":390,"name":"East","steam_id":76561197973050453,"connected_time":821000000000,"state":"active","ping":41},{"user_id":360,"name":"the splotchiest splotcher splot","steam_id":76561198419896433,"connected_time":2368000000000,"state":"active","ping":43},{"user_id":406,"name":"Yesterday's Grouse's Son","steam_id":76561198259873083,"connected_time":220000000000,"state":"active","ping":68},{"user_id":391,"name":"sorry i fell asleep","steam_id":76561198424248616,"connected_time":810000000000,"state":"active","ping":75},{"user_id":392,"name":"Kuudere","steam_id":76561198075028016,"connected_time":809000000000,"state":"active","ping":104},{"user_id":373,"name":"Tom Skirrett","steam_id":76561198014600788,"connected_time":1552000000000,"state":"active","ping":88},{"user_id":289,"name":"Danzuniverse","steam_id":76561198179817943,"connected_time":6169000000000,"state":"active","ping":57},{"user_id":401,"name":"Room","steam_id":76561199174579733,"connected_time":482000000000,"state":"active","ping":120},{"user_id":393,"name":"Dr. Mantis Toboggan","steam_id":76561198073398432,"connected_time":806000000000,"state":"active","ping":54},{"user_id":396,"name":"Path To Victory","steam_id":76561198026958898,"connected_time":707000000000,"state":"active","ping":67},{"user_id":383,"name":"J U K I E","steam_id":76561197962841151,"connected_time":1106000000000,"state":"active","ping":46},{"user_id":404,"name":"SvicidalBug","steam_id":76561198221390504,"connected_time":395000000000,"state":"active","ping":69},{"user_id":384,"name":"Rise for the National Spamton","steam_id":76561198138468982,"connected_time":1008000000000,"state":"active","ping":53},{"user_id":369,"name":"lonelymaw","steam_id":76561198020675278,"connected_time":1891000000000,"state":"active","ping":41},{"user_id":386,"name":"Lonestar827","steam_id":76561198035533639,"connected_time":877000000000,"state":"active","ping":62}]},{"server_id":406,"name":"Uncletopia | Seattle | 3 | Stopwatch Beta","name_short":"sea-3","host":"sea-1.us.uncletopia.com","port":27035,"enabled":true,"region":"us-west","cc":"us","latitude":47.608013,"longitude":-122.33517,"reserved":0,"last_update":"0001-01-01T00:00:00Z","name_a2s":"Uncletopia | Seattle | 3 | Stopwatch Beta","protocol":17,"map":"koth_highpass","folder":"tf","game":"Team Fortress","app_id":440,"player_count":0,"max_players":24,"Bots":0,"server_type":"Dedicated","server_os":"Linux","password":true,"vac":true,"version":"7757534","steam_id":85568392924515217,"keywords":["cp","nocrits","nodmgspread","uncletopia"],"game_id":440,"stv_port":27036,"stv_name":"Uncletopia | Seattle | 3 | Stopwatch Beta | STV","players":null},{"server_id":17,"name":"Uncletopia | San Francisco | 1 | All Maps","name_short":"sfo-1","host":"sfo-1.us.uncletopia.com","port":27015,"enabled":true,"region":"us-west","cc":"us","latitude":37.77397,"longitude":-122.4313,"reserved":0,"last_update":"0001-01-01T00:00:00Z","name_a2s":"Uncletopia | San Francisco | 1 | All Maps","protocol":17,"map":"koth_viaduct","folder":"tf","game":"Team Fortress","app_id":440,"player_count":21,"max_players":24,"Bots":0,"server_type":"Dedicated","server_os":"Linux","password":true,"vac":true,"version":"7757534","steam_id":85568392924469999,"keywords":["cp","nocrits","nodmgspread","uncletopia"],"game_id":440,"stv_port":27016,"stv_name":"Uncletopia | San Francisco | 1 | All Maps | STV","players":[{"user_id":534,"name":"Agent Q","steam_id":76561198830829003,"connected_time":7019000000000,"state":"active","ping":76},{"user_id":571,"name":"Volkan","steam_id":76561198401314312,"connected_time":4261000000000,"state":"active","ping":69},{"user_id":626,"name":"PainInTheRuss","steam_id":76561197977960543,"connected_time":379000000000,"state":"active","ping":45},{"user_id":609,"name":"dave strider","steam_id":76561198065112186,"connected_time":2128000000000,"state":"active","ping":66},{"user_id":598,"name":"Flyingcat9000","steam_id":76561198179561797,"connected_time":2977000000000,"state":"active","ping":39},{"user_id":629,"name":"Koopa Paratroopa","steam_id":76561198035448426,"connected_time":119000000000,"state":"active","ping":60},{"user_id":624,"name":"Padre Pat","steam_id":76561198392985381,"connected_time":639000000000,"state":"active","ping":78},{"user_id":617,"name":"Bikeway Naros","steam_id":76561198086676786,"connected_time":1549000000000,"state":"active","ping":49},{"user_id":612,"name":"Kitz","steam_id":76561199187932282,"connected_time":1673000000000,"state":"active","ping":114},{"user_id":575,"name":"Feel the bern","steam_id":76561198078824519,"connected_time":4160000000000,"state":"active","ping":73},{"user_id":625,"name":"TheRealChizz","steam_id":76561198016055769,"connected_time":584000000000,"state":"active","ping":54},{"user_id":604,"name":"Lilmaggedon","steam_id":76561198072393166,"connected_time":2392000000000,"state":"active","ping":98},{"user_id":631,"name":"yahman, yahman, yahman!","steam_id":76561198066970734,"connected_time":16000000000,"state":"active","ping":53},{"user_id":632,"name":"kitty paradise","steam_id":76561199058167329,"connected_time":9000000000,"state":"spawning","ping":237},{"user_id":579,"name":"munch","steam_id":76561198281972362,"connected_time":4015000000000,"state":"active","ping":81},{"user_id":596,"name":"SirArza","steam_id":76561198196214655,"connected_time":3228000000000,"state":"active","ping":108},{"user_id":614,"name":"lana_del_Rei.com","steam_id":76561198172447621,"connected_time":1669000000000,"state":"active","ping":48},{"user_id":581,"name":"brian eno enjoyer","steam_id":76561198056467179,"connected_time":3950000000000,"state":"active","ping":140},{"user_id":582,"name":"notatrip (link in bio)","steam_id":76561198046109327,"connected_time":3941000000000,"state":"active","ping":133},{"user_id":597,"name":"Samantha","steam_id":76561198127578307,"connected_time":3202000000000,"state":"active","ping":79},{"user_id":607,"name":"eyes","steam_id":76561198211699576,"connected_time":2207000000000,"state":"active","ping":105}]},{"server_id":18,"name":"Uncletopia | San Francisco | 2 | All Maps","name_short":"sfo-2","host":"sfo-1.us.uncletopia.com","port":27025,"enabled":true,"region":"us-west","cc":"us","latitude":37.77397,"longitude":-122.4313,"reserved":0,"last_update":"0001-01-01T00:00:00Z","name_a2s":"Uncletopia | San Francisco | 2 | All Maps","protocol":17,"map":"pl_badwater","folder":"tf","game":"Team Fortress","app_id":440,"player_count":16,"max_players":24,"Bots":0,"server_type":"Dedicated","server_os":"Linux","password":true,"vac":true,"version":"7757534","steam_id":85568392924470000,"keywords":["nocrits","nodmgspread","payload","uncletopia"],"game_id":440,"stv_port":27026,"stv_name":"Uncletopia | San Francisco | 2 | All Maps | STV","players":[{"user_id":195,"name":"Jax O'Gaytor","steam_id":76561198288922168,"connected_time":433000000000,"state":"active","ping":70},{"user_id":196,"name":"Saggle","steam_id":76561198056075147,"connected_time":354000000000,"state":"active","ping":177},{"user_id":185,"name":"everythingrhymeswithorange","steam_id":76561198010306193,"connected_time":985000000000,"state":"active","ping":53},{"user_id":186,"name":"SAP","steam_id":76561198005186905,"connected_time":981000000000,"state":"active","ping":82},{"user_id":187,"name":"PonYOOOOOOO","steam_id":76561199067424111,"connected_time":981000000000,"state":"active","ping":50},{"user_id":188,"name":"Cyberbreeze","steam_id":76561198148654069,"connected_time":974000000000,"state":"active","ping":60},{"user_id":178,"name":"Bowl of Soup","steam_id":76561198114255273,"connected_time":1842000000000,"state":"active","ping":79},{"user_id":169,"name":"bigman1","steam_id":76561198050225055,"connected_time":2466000000000,"state":"active","ping":47},{"user_id":165,"name":"a chicken","steam_id":76561198313121580,"connected_time":3320000000000,"state":"active","ping":53},{"user_id":162,"name":"Antonpirulero10","steam_id":76561198253036781,"connected_time":3479000000000,"state":"active","ping":80},{"user_id":192,"name":"Young-OG","steam_id":76561198058800479,"connected_time":553000000000,"state":"active","ping":110},{"user_id":112,"name":"HAT-WEARING‚Ñ¢ Maggot Gamer Cat","steam_id":76561197973992705,"connected_time":8453000000000,"state":"active","ping":59},{"user_id":181,"name":"Gr8butnotreally","steam_id":76561198133924450,"connected_time":1513000000000,"state":"active","ping":73},{"user_id":182,"name":"Prof. Anesthesia","steam_id":76561198993250002,"connected_time":1445000000000,"state":"active","ping":76},{"user_id":167,"name":"[PINGU‚Ñ¢] Tiny Tuna","steam_id":76561198193611579,"connected_time":3157000000000,"state":"active","ping":113},{"user_id":191,"name":"tavorraX0","steam_id":76561198042465206,"connected_time":949000000000,"state":"active","ping":177}]},{"server_id":19,"name":"Uncletopia | San Francisco | 3 | Stopwatch Beta","name_short":"sfo-3","host":"sfo-1.us.uncletopia.com","port":27035,"enabled":true,"region":"us-west","cc":"us","latitude":37.77397,"longitude":-122.4313,"reserved":0,"last_update":"0001-01-01T00:00:00Z","name_a2s":"Uncletopia | San Francisco | 3 | Stopwatch Beta","protocol":17,"map":"pl_borneo","folder":"tf","game":"Team Fortress","app_id":440,"player_count":0,"max_players":24,"Bots":0,"server_type":"Dedicated","server_os":"Linux","password":true,"vac":true,"version":"7757534","steam_id":85568392924742824,"keywords":["nocrits","nodmgspread","payload","uncletopia"],"game_id":440,"stv_port":27036,"stv_name":"Uncletopia | San Francisco | 3 | Stopwatch Beta | STV","players":null},{"server_id":20,"name":"Uncletopia | San Francisco | 4 | Community","name_short":"sfo-4","host":"sfo-1.us.uncletopia.com","port":27045,"enabled":true,"region":"us-west","cc":"us","latitude":37.77397,"longitude":-122.4313,"reserved":0,"last_update":"0001-01-01T00:00:00Z","name_a2s":"Uncletopia | San Francisco | 4 | Community","protocol":17,"map":"workshop/koth_ashville_final.ugc2130459942","folder":"tf","game":"Team Fortress","app_id":440,"player_count":0,"max_players":24,"Bots":0,"server_type":"Dedicated","server_os":"Linux","password":true,"vac":true,"version":"7757534","steam_id":85568392924742826,"keywords":["cp","nocrits","nodmgspread","uncletopia"],"game_id":440,"stv_port":27046,"stv_name":"Uncletopia | San Francisco | 4 | Community | STV","players":null},{"server_id":141,"name":"Uncletopia | Sydney | 1 | All Maps","name_short":"syd-1","host":"syd-1.au.uncletopia.com","port":27015,"enabled":true,"region":"au","cc":"au","latitude":-33.865143,"longitude":151.2099,"reserved":0,"last_update":"0001-01-01T00:00:00Z","name_a2s":"Uncletopia | Sydney | 1 | All Maps","protocol":17,"map":"pl_snowycoast","folder":"tf","game":"Team Fortress","app_id":440,"player_count":0,"max_players":24,"Bots":0,"server_type":"Dedicated","server_os":"Linux","password":true,"vac":true,"version":"7757534","steam_id":85568392924470001,"keywords":["nocrits","nodmgspread","payload","uncletopia"],"game_id":440,"stv_port":27016,"stv_name":"Uncletopia | Sydney | 1 | All Maps | STV","players":null},{"server_id":123,"name":"Uncletopia | Sydney | 2 | All Maps","name_short":"syd-2","host":"syd-1.au.uncletopia.com","port":27025,"enabled":true,"region":"au","cc":"au","latitude":-33.865143,"longitude":151.2099,"reserved":0,"last_update":"0001-01-01T00:00:00Z","name_a2s":"Uncletopia | Sydney | 2 | All Maps","protocol":17,"map":"pl_badwater","folder":"tf","game":"Team Fortress","app_id":440,"player_count":24,"max_players":24,"Bots":0,"server_type":"Dedicated","server_os":"Linux","password":true,"vac":true,"version":"7757534","steam_id":85568392924470002,"keywords":["nocrits","nodmgspread","payload","uncletopia"],"game_id":440,"stv_port":27026,"stv_name":"Uncletopia | Sydney | 2 | All Maps | STV","players":[{"user_id":115,"name":"samm","steam_id":76561198190525662,"connected_time":124000000000,"state":"active","ping":51},{"user_id":111,"name":"SkoKiE","steam_id":76561198283542986,"connected_time":287000000000,"state":"active","ping":65},{"user_id":114,"name":"ANML","steam_id":76561198260039591,"connected_time":136000000000,"state":"active","ping":50},{"user_id":101,"name":"Branko","steam_id":76561199262196710,"connected_time":1006000000000,"state":"active","ping":46},{"user_id":107,"name":"david boeing","steam_id":76561198079351541,"connected_time":517000000000,"state":"active","ping":45},{"user_id":96,"name":"Kanga Bangas","steam_id":76561198162187264,"connected_time":1142000000000,"state":"active","ping":76},{"user_id":116,"name":"KillerBlow","steam_id":76561198930232832,"connected_time":120000000000,"state":"active","ping":88},{"user_id":98,"name":"zebulon","steam_id":76561198063481761,"connected_time":1053000000000,"state":"active","ping":42},{"user_id":93,"name":"jim :)","steam_id":76561198127508905,"connected_time":1656000000000,"state":"active","ping":37},{"user_id":61,"name":"Leonidas","steam_id":76561198054096076,"connected_time":3037000000000,"state":"active","ping":49},{"user_id":109,"name":"ratbag","steam_id":76561198048064049,"connected_time":472000000000,"state":"active","ping":91},{"user_id":105,"name":"Fatass Yoshi","steam_id":76561198033784848,"connected_time":714000000000,"state":"active","ping":56},{"user_id":113,"name":"Rarity the Fabulous","steam_id":76561198077653287,"connected_time":154000000000,"state":"active","ping":30},{"user_id":54,"name":"voxii","steam_id":76561198099698281,"connected_time":4194000000000,"state":"active","ping":69},{"user_id":103,"name":"Averg","steam_id":76561199116359172,"connected_time":838000000000,"state":"active","ping":53},{"user_id":100,"name":"Pirate Arr","steam_id":76561198011944697,"connected_time":1030000000000,"state":"active","ping":55},{"user_id":68,"name":"Mac","steam_id":76561198063407128,"connected_time":2896000000000,"state":"active","ping":47},{"user_id":112,"name":"RoverTw0","steam_id":76561198025416071,"connected_time":254000000000,"state":"active","ping":79},{"user_id":91,"name":"Cup","steam_id":76561198038485845,"connected_time":1697000000000,"state":"active","ping":45},{"user_id":87,"name":"A KNIFE!","steam_id":76561198160390701,"connected_time":1840000000000,"state":"active","ping":65},{"user_id":106,"name":"SaltierThanYou","steam_id":76561198444395188,"connected_time":670000000000,"state":"active","ping":80},{"user_id":71,"name":"Lincoln2603","steam_id":76561198170236666,"connected_time":2772000000000,"state":"active","ping":45},{"user_id":97,"name":"Canyon","steam_id":76561198233329500,"connected_time":1058000000000,"state":"active","ping":83},{"user_id":89,"name":"Mr. Shoot And Score","steam_id":76561198087803935,"connected_time":1787000000000,"state":"active","ping":48}]},{"server_id":395,"name":"Uncletopia | Sydney | 3 | All Maps","name_short":"syd-3","host":"syd-1.au.uncletopia.com","port":27035,"enabled":true,"region":"au","cc":"au","latitude":-33.865143,"longitude":151.2099,"reserved":0,"last_update":"0001-01-01T00:00:00Z","name_a2s":"Uncletopia | Sydney | 3 | All Maps","protocol":17,"map":"cp_process_final","folder":"tf","game":"Team Fortress","app_id":440,"player_count":0,"max_players":24,"Bots":0,"server_type":"Dedicated","server_os":"Linux","password":true,"vac":true,"version":"7757534","steam_id":85568392925194467,"keywords":["cp","nocrits","nodmgspread","uncletopia"],"game_id":440,"stv_port":27036,"stv_name":"Uncletopia | Sydney | 3 | All Maps | STV","players":null},{"server_id":396,"name":"Uncletopia | Sydney | 4 | All Maps","name_short":"syd-4","host":"syd-1.au.uncletopia.com","port":27045,"enabled":true,"region":"au","cc":"au","latitude":-33.865143,"longitude":151.2099,"reserved":0,"last_update":"0001-01-01T00:00:00Z","name_a2s":"Uncletopia | Sydney | 4 | All Maps","protocol":17,"map":"koth_lakeside_final","folder":"tf","game":"Team Fortress","app_id":440,"player_count":0,"max_players":24,"Bots":0,"server_type":"Dedicated","server_os":"Linux","password":true,"vac":true,"version":"7757534","steam_id":85568392925397958,"keywords":["cp","nocrits","nodmgspread","uncletopia"],"game_id":440,"stv_port":27046,"stv_name":"Uncletopia | Sydney | 4 | All Maps | STV","players":null},{"server_id":58,"name":"Uncletopia | Sydney | 5 | Stopwatch Beta","name_short":"syd-5","host":"syd-1.au.uncletopia.com","port":27055,"enabled":true,"region":"au","cc":"au","latitude":-33.865143,"longitude":151.2099,"reserved":0,"last_update":"0001-01-01T00:00:00Z","name_a2s":"Uncletopia | Sydney | 5 | Stopwatch Beta","protocol":17,"map":"koth_highpass","folder":"tf","game":"Team Fortress","app_id":440,"player_count":0,"max_players":24,"Bots":0,"server_type":"Dedicated","server_os":"Linux","password":true,"vac":true,"version":"7757534","steam_id":85568392925397959,"keywords":["cp","nocrits","nodmgspread","uncletopia"],"game_id":440,"stv_port":27056,"stv_name":"Uncletopia | Sydney | 5 | Stopwatch Beta | STV","players":null},{"server_id":59,"name":"Uncletopia | Sydney | 6 | Community","name_short":"syd-6","host":"syd-1.au.uncletopia.com","port":27065,"enabled":true,"region":"au","cc":"au","latitude":-33.865143,"longitude":151.2099,"reserved":0,"last_update":"0001-01-01T00:00:00Z","name_a2s":"Uncletopia | Sydney | 6 | Community","protocol":17,"map":"workshop/cp_villa_b19.ugc2113052569","folder":"tf","game":"Team Fortress","app_id":440,"player_count":0,"max_players":24,"Bots":0,"server_type":"Dedicated","server_os":"Linux","password":true,"vac":true,"version":"7757534","steam_id":85568392925397960,"keywords":["cp","nocrits","nodmgspread","uncletopia"],"game_id":440,"stv_port":27066,"stv_name":"Uncletopia | Sydney | 6 | Community | STV","players":null},{"server_id":49,"name":"Uncletopia | Warsaw | 1 | All Maps","name_short":"waw-1","host":"waw-1.pl.uncletopia.com","port":27015,"enabled":true,"region":"eu","cc":"pl","latitude":52.2297,"longitude":21.017532,"reserved":0,"last_update":"0001-01-01T00:00:00Z","name_a2s":"","protocol":0,"map":"","folder":"","game":"","app_id":0,"player_count":0,"max_players":0,"Bots":0,"server_type":"","server_os":"","password":false,"vac":false,"version":"","steam_id":0,"keywords":null,"game_id":0,"stv_port":0,"stv_name":"","players":null},{"server_id":50,"name":"Uncletopia | Warsaw | 2 | All Maps","name_short":"waw-2","host":"waw-1.pl.uncletopia.com","port":27025,"enabled":true,"region":"eu","cc":"pl","latitude":52.2297,"longitude":21.017532,"reserved":0,"last_update":"0001-01-01T00:00:00Z","name_a2s":"Uncletopia | Warsaw | 2 | All Maps","protocol":17,"map":"cp_process_final","folder":"tf","game":"Team Fortress","app_id":440,"player_count":0,"max_players":24,"Bots":0,"server_type":"Dedicated","server_os":"Linux","password":true,"vac":true,"version":"7757534","steam_id":85568392925397851,"keywords":["cp","nocrits","nodmgspread","uncletopia"],"game_id":440,"stv_port":27026,"stv_name":"Uncletopia | Warsaw | 2 | All Maps | STV","players":null},{"server_id":51,"name":"Uncletopia | Warsaw | 3 | All Maps","name_short":"waw-3","host":"waw-1.pl.uncletopia.com","port":27035,"enabled":true,"region":"eu","cc":"pl","latitude":52.2297,"longitude":21.017532,"reserved":0,"last_update":"0001-01-01T00:00:00Z","name_a2s":"Uncletopia | Warsaw | 3 | All Maps","protocol":17,"map":"pl_barnblitz","folder":"tf","game":"Team Fortress","app_id":440,"player_count":0,"max_players":24,"Bots":0,"server_type":"Dedicated","server_os":"Linux","password":true,"vac":true,"version":"7757534","steam_id":85568392925397852,"keywords":["nocrits","nodmgspread","payload","uncletopia"],"game_id":440,"stv_port":27036,"stv_name":"Uncletopia | Warsaw | 3 | All Maps | STV","players":null},{"server_id":52,"name":"Uncletopia | Warsaw | 4 | All Maps","name_short":"waw-4","host":"waw-1.pl.uncletopia.com","port":27045,"enabled":true,"region":"eu","cc":"pl","latitude":52.2297,"longitude":21.017532,"reserved":0,"last_update":"0001-01-01T00:00:00Z","name_a2s":"Uncletopia | Warsaw | 4 | All Maps","protocol":17,"map":"pl_snowycoast","folder":"tf","game":"Team Fortress","app_id":440,"player_count":0,"max_players":24,"Bots":0,"server_type":"Dedicated","server_os":"Linux","password":true,"vac":true,"version":"7757534","steam_id":85568392925397853,"keywords":["nocrits","nodmgspread","payload","uncletopia"],"game_id":440,"stv_port":27046,"stv_name":"Uncletopia | Warsaw | 4 | All Maps | STV","players":null},{"server_id":53,"name":"Uncletopia | Warsaw | 5 | Stopwatch Beta","name_short":"waw-5","host":"waw-1.pl.uncletopia.com","port":27055,"enabled":true,"region":"eu","cc":"pl","latitude":52.2297,"longitude":21.017532,"reserved":0,"last_update":"0001-01-01T00:00:00Z","name_a2s":"Uncletopia | Warsaw | 5 | Stopwatch Beta","protocol":17,"map":"pl_barnblitz","folder":"tf","game":"Team Fortress","app_id":440,"player_count":0,"max_players":24,"Bots":0,"server_type":"Dedicated","server_os":"Linux","password":true,"vac":true,"version":"7757534","steam_id":85568392925397854,"keywords":["nocrits","nodmgspread","payload","uncletopia"],"game_id":440,"stv_port":27056,"stv_name":"Uncletopia | Warsaw | 5 | Stopwatch Beta | STV","players":null},{"server_id":54,"name":"Uncletopia | Warsaw | 6 | Community","name_short":"waw-6","host":"waw-1.pl.uncletopia.com","port":27065,"enabled":true,"region":"eu","cc":"pl","latitude":52.2297,"longitude":21.017532,"reserved":0,"last_update":"0001-01-01T00:00:00Z","name_a2s":"Uncletopia | Warsaw | 6 | Community","protocol":17,"map":"pl_swiftwater_final1","folder":"tf","game":"Team Fortress","app_id":440,"player_count":0,"max_players":24,"Bots":0,"server_type":"Dedicated","server_os":"Linux","password":true,"vac":true,"version":"7757534","steam_id":85568392925397856,"keywords":["nocrits","nodmgspread","payload","uncletopia"],"game_id":440,"stv_port":27066,"stv_name":"Uncletopia | Warsaw | 6 | Community | STV","players":null}]}