{"status":true,"message":"","result":[{"server_id":9,"name":"Uncletopia | Atlanta | 1 | All Maps","name_short":"atl-1","host":"atl-1.us.uncletopia.com","port":27015,"enabled":true,"region":"us-east","cc":"us","latitude":33.753746,"longitude":-84.38633,"reserved":0,"last_update":"0001-01-01T00:00:00Z","name_a2s":"Uncletopia | Atlanta | 1 | All Maps","protocol":17,"map":"pl_barnblitz","folder":"tf","game":"Team Fortress","app_id":440,"player_count":24,"max_players":24,"Bots":0,"server_type":"Dedicated","server_os":"Linux","password":true,"vac":true,"version":"7961495","steam_id":85568392924469982,"keywords":["nocrits","nodmgspread","payload","uncletopia"],"game_id":440,"stv_port":27016,"stv_name":"Uncletopia | Atlanta | 1 | All Maps | STV","players":null},{"server_id":104,"name":"Uncletopia | Atlanta | 2 | All Maps","name_short":"atl-2","host":"atl-1.us.uncletopia.com","port":27025,"enabled":true,"region":"us-east","cc":"us","latitude":33.753746,"longitude":-84.38633,"reserved":0,"last_update":"0001-01-01T00:00:00Z","name_a2s":"Uncletopia | Atlanta | 2 | All Maps","protocol":17,"map":"pl_thundermountain","folder":"tf","game":"Team Fortress","app_id":440,"player_count":19,"max_players":24,"Bots":0,"server_type":"Dedicated","server_os":"Linux","password":true,"vac":true,"version":"7961495","steam_id":85568392924469983,"keywords":["nocrits","nodmgspread","payload","uncletopia"],"game_id":440,"stv_port":27026,"stv_name":"Uncletopia | Atlanta | 2 | All Maps | STV","players":null},{"server_id":400,"name":"Uncletopia | Atlanta | 3 | Stopwatch","name_short":"atl-3","host":"atl-1.us.uncletopia.com","port":27035,"enabled":true,"region":"us-east","cc":"us","latitude":33.753746,"longitude":-84.38633,"reserved":0,"last_update":"0001-01-01T00:00:00Z","name_a2s":"Uncletopia | Atlanta | 3 | Stopwatch","protocol":17,"map":"koth_clearcut_b15","folder":"tf","game":"Team Fortress","app_id":440,"player_count":2,"max_players":24,"Bots":0,"server_type":"Dedicated","server_os":"Linux","password":true,"vac":true,"version":"7961495","steam_id":85568392924515187,"keywords":["cp","nocrits","nodmgspread","uncletopia"],"game_id":440,"stv_port":27036,"stv_name":"Uncletopia | Atlanta | 3 | Stopwatch | STV","players":null},{"server_id":401,"name":"Uncletopia | Atlanta | 4 | Community","name_short":"atl-4","host":"atl-1.us.uncletopia.com","port":27045,"enabled":true,"region":"us-east","cc":"us","latitude":33.753746,"longitude":-84.38633,"reserved":0,"last_update":"0001-01-01T00:00:00Z","name_a2s":"Uncletopia | Atlanta | 4 | Community","protocol":17,"map":"koth_ramjam_rc1","folder":"tf","game":"Team Fortress","app_id":440,"player_count":0,"max_players":24,"Bots":0,"server_type":"Dedicated","server_os":"Linux","password":true,"vac":true,"version":"7961495","steam_id":85568392924515188,"keywords":["cp","nocrits","nodmgspread","uncletopia"],"game_id":440,"stv_port":27046,"stv_name":"Uncletopia | Atlanta | 4 | Community | STV","players":null},{"server_id":2,"name":"Uncletopia | Chicago | 1 | All Maps","name_short":"chi-1","host":"chi-1.us.uncletopia.com","port":27015,"enabled":true,"region":"us-central","cc":"us","latitude":41.881832,"longitude":-87.62318,"reserved":0,"last_update":"0001-01-01T00:00:00Z","name_a2s":"Uncletopia | Chicago | 1 | All Maps","protocol":17,"map":"pl_barnblitz","folder":"tf","game":"Team Fortress","app_id":440,"player_count":24,"max_players":24,"Bots":0,"server_type":"Dedicated","server_os":"Linux","password":true,"vac":true,"version":"7961495","steam_id":85568392924469984,"keywords":["nocrits","nodmgspread","payload","uncletopia"],"game_id":440,"stv_port":27016,"stv_name":"Uncletopia | Chicago | 1 | All Maps | STV","players":[{"user_id":673,"name":"my friend can take 5guys anyday","steam_id":76561198144766439,"connected_time":3231000000000,"state":"active","ping":47},{"user_id":697,"name":"Space","steam_id":76561198350489754,"connected_time":910000000000,"state":"active","ping":61},{"user_id":687,"name":"Valenhart","steam_id":76561198354036240,"connected_time":1670000000000,"state":"active","ping":73},{"user_id":705,"name":"[NAME-REDACTED]","steam_id":76561198035682975,"connected_time":10000000000,"state":"spawning","ping":70},{"user_id":703,"name":"Pigeon Nuggets","steam_id":76561198151200724,"connected_time":197000000000,"state":"active","ping":127},{"user_id":618,"name":"REALLINUSJEWTIP.","steam_id":76561198056647983,"connected_time":6801000000000,"state":"active","ping":59},{"user_id":694,"name":"Punsequence64","steam_id":76561199201885917,"connected_time":1449000000000,"state":"active","ping":68},{"user_id":616,"name":"Bookmenot","steam_id":76561198153442084,"connected_time":6872000000000,"state":"active","ping":54},{"user_id":685,"name":"i suffer from ligma","steam_id":76561199158496518,"connected_time":1970000000000,"state":"active","ping":134},{"user_id":682,"name":"177013","steam_id":76561198072303290,"connected_time":2367000000000,"state":"active","ping":62},{"user_id":695,"name":"delilah from NY","steam_id":76561198136642793,"connected_time":1447000000000,"state":"active","ping":81},{"user_id":678,"name":"ESRI Shapefile","steam_id":76561197999829638,"connected_time":2781000000000,"state":"active","ping":45},{"user_id":700,"name":"rattlin' bog","steam_id":76561198224551028,"connected_time":375000000000,"state":"active","ping":71},{"user_id":619,"name":"pai-sano","steam_id":76561198065575472,"connected_time":6796000000000,"state":"active","ping":60},{"user_id":696,"name":"rainyfish","steam_id":76561198313734266,"connected_time":1440000000000,"state":"active","ping":59},{"user_id":701,"name":"Bronze Age Furvert","steam_id":76561198859118263,"connected_time":275000000000,"state":"active","ping":70},{"user_id":691,"name":"Porky Minch","steam_id":76561198116168773,"connected_time":1486000000000,"state":"active","ping":56},{"user_id":702,"name":"Renegade","steam_id":76561198066847055,"connected_time":272000000000,"state":"active","ping":53},{"user_id":654,"name":"Blargh","steam_id":76561198044095816,"connected_time":4249000000000,"state":"active","ping":60},{"user_id":644,"name":"Leadwolf","steam_id":76561198308533122,"connected_time":4690000000000,"state":"active","ping":85},{"user_id":649,"name":"Kreld","steam_id":76561198047794615,"connected_time":4492000000000,"state":"active","ping":157},{"user_id":704,"name":"Yung Settings","steam_id":76561198233126064,"connected_time":167000000000,"state":"active","ping":74},{"user_id":639,"name":"ChromeAlum","steam_id":76561198072363631,"connected_time":5419000000000,"state":"active","ping":91},{"user_id":646,"name":"DjBallBag","steam_id":76561198118551080,"connected_time":4576000000000,"state":"active","ping":89}]},{"server_id":106,"name":"Uncletopia | Chicago | 2 | All Maps","name_short":"chi-2","host":"chi-1.us.uncletopia.com","port":27025,"enabled":true,"region":"us-central","cc":"us","latitude":41.881832,"longitude":-87.62318,"reserved":0,"last_update":"0001-01-01T00:00:00Z","name_a2s":"Uncletopia | Chicago | 2 | All Maps","protocol":17,"map":"pl_borneo","folder":"tf","game":"Team Fortress","app_id":440,"player_count":21,"max_players":24,"Bots":0,"server_type":"Dedicated","server_os":"Linux","password":true,"vac":true,"version":"7961495","steam_id":85568392924469985,"keywords":["nocrits","nodmgspread","payload","uncletopia"],"game_id":440,"stv_port":27026,"stv_name":"Uncletopia | Chicago | 2 | All Maps | STV","players":[{"user_id":486,"name":"Some_Arse","steam_id":76561198039095394,"connected_time":4867000000000,"state":"active","ping":63},{"user_id":525,"name":"cwaggs76","steam_id":76561199013048778,"connected_time":2572000000000,"state":"active","ping":65},{"user_id":545,"name":"Fiendish Frog","steam_id":76561198029478821,"connected_time":1191000000000,"state":"active","ping":88},{"user_id":476,"name":"eloressa","steam_id":76561198120330867,"connected_time":6701000000000,"state":"active","ping":41},{"user_id":547,"name":"deadpixel","steam_id":76561198150249843,"connected_time":1050000000000,"state":"active","ping":54},{"user_id":493,"name":"sppmorris","steam_id":76561199055512312,"connected_time":4634000000000,"state":"active","ping":59},{"user_id":480,"name":"Zipf","steam_id":76561198174424443,"connected_time":6055000000000,"state":"active","ping":68},{"user_id":495,"name":"Ostrich","steam_id":76561198068553779,"connected_time":4592000000000,"state":"active","ping":78},{"user_id":539,"name":"Nobody","steam_id":76561198085808754,"connected_time":1724000000000,"state":"active","ping":85},{"user_id":544,"name":"merk","steam_id":76561198434609353,"connected_time":1209000000000,"state":"active","ping":92},{"user_id":537,"name":"cotton candy ghooost","steam_id":76561198058998371,"connected_time":1763000000000,"state":"active","ping":60},{"user_id":498,"name":"Atlas","steam_id":76561198127975050,"connected_time":4539000000000,"state":"active","ping":60},{"user_id":549,"name":"Rein | Comms Open","steam_id":76561198300340427,"connected_time":746000000000,"state":"active","ping":58},{"user_id":540,"name":"NERV","steam_id":76561198111023744,"connected_time":1678000000000,"state":"active","ping":69},{"user_id":529,"name":"dunk","steam_id":76561198132476501,"connected_time":2356000000000,"state":"active","ping":51},{"user_id":550,"name":"Whiskey Maria One Flamey Boye","steam_id":76561198148321810,"connected_time":674000000000,"state":"active","ping":54},{"user_id":527,"name":"Mal0","steam_id":76561198129584634,"connected_time":2567000000000,"state":"active","ping":79},{"user_id":442,"name":"HundchenTanque","steam_id":76561198122692754,"connected_time":8411000000000,"state":"active","ping":56},{"user_id":516,"name":"Predicta","steam_id":76561198017630616,"connected_time":3487000000000,"state":"active","ping":39},{"user_id":531,"name":"Kuddly Kay (She/Her)","steam_id":76561198353432576,"connected_time":2268000000000,"state":"active","ping":60},{"user_id":473,"name":"meat.","steam_id":76561198256154493,"connected_time":6793000000000,"state":"active","ping":54}]},{"server_id":402,"name":"Uncletopia | Chicago | 3 | All Maps","name_short":"chi-3","host":"chi-1.us.uncletopia.com","port":27035,"enabled":true,"region":"us-central","cc":"us","latitude":41.881832,"longitude":-87.62318,"reserved":0,"last_update":"0001-01-01T00:00:00Z","name_a2s":"Uncletopia | Chicago | 3 | All Maps","protocol":17,"map":"pl_frontier_final","folder":"tf","game":"Team Fortress","app_id":440,"player_count":24,"max_players":24,"Bots":0,"server_type":"Dedicated","server_os":"Linux","password":true,"vac":true,"version":"7961495","steam_id":85568392924515191,"keywords":["nocrits","nodmgspread","payload","uncletopia"],"game_id":440,"stv_port":27036,"stv_name":"Uncletopia | Chicago | 3 | All Maps | STV","players":[{"user_id":218,"name":"Whip_the_Rabbit","steam_id":76561198049896057,"connected_time":122000000000,"state":"active","ping":109},{"user_id":206,"name":"PTR","steam_id":76561198237253772,"connected_time":1068000000000,"state":"active","ping":72},{"user_id":180,"name":"Macro","steam_id":76561199442846226,"connected_time":4048000000000,"state":"active","ping":73},{"user_id":208,"name":"Silverkeys","steam_id":76561197986012496,"connected_time":1018000000000,"state":"active","ping":70},{"user_id":191,"name":"Bone Daddy","steam_id":76561198061376445,"connected_time":3341000000000,"state":"active","ping":62},{"user_id":209,"name":"RusticCarp42989","steam_id":76561198361151865,"connected_time":979000000000,"state":"active","ping":124},{"user_id":210,"name":"fazecumshot69","steam_id":76561199248475270,"connected_time":960000000000,"state":"active","ping":76},{"user_id":146,"name":"guy","steam_id":76561198079925551,"connected_time":6283000000000,"state":"active","ping":62},{"user_id":197,"name":"Amoxicilina","steam_id":76561198168486429,"connected_time":2151000000000,"state":"active","ping":123},{"user_id":211,"name":"Vaudeville Villain","steam_id":76561199212093339,"connected_time":952000000000,"state":"active","ping":73},{"user_id":217,"name":"dicksnip","steam_id":76561198356515396,"connected_time":184000000000,"state":"active","ping":82},{"user_id":110,"name":"The strongest ⑨ ball","steam_id":76561198126760743,"connected_time":8584000000000,"state":"active","ping":82},{"user_id":216,"name":"boffo","steam_id":76561198096978718,"connected_time":412000000000,"state":"active","ping":89},{"user_id":184,"name":"Natsuki the Scunt","steam_id":76561199175922684,"connected_time":4007000000000,"state":"active","ping":102},{"user_id":205,"name":"card carrying member","steam_id":76561198043558709,"connected_time":1583000000000,"state":"active","ping":94},{"user_id":195,"name":"SiltyStar85","steam_id":76561198309175923,"connected_time":3058000000000,"state":"active","ping":75},{"user_id":213,"name":"Dr. Dick","steam_id":76561198138011922,"connected_time":816000000000,"state":"active","ping":73},{"user_id":186,"name":"Pasta E Fagioli","steam_id":76561198043920604,"connected_time":3986000000000,"state":"active","ping":76},{"user_id":214,"name":"barnblitz can ChokeMyChucklenut","steam_id":76561198882404753,"connected_time":587000000000,"state":"active","ping":74},{"user_id":215,"name":"Vix The Vulpix","steam_id":76561198292181452,"connected_time":556000000000,"state":"active","ping":65},{"user_id":106,"name":"Uwu Micster","steam_id":76561198843890616,"connected_time":8958000000000,"state":"active","ping":82},{"user_id":204,"name":"DZ-7","steam_id":76561198418183516,"connected_time":1607000000000,"state":"active","ping":172},{"user_id":212,"name":"Draco","steam_id":76561198031226933,"connected_time":889000000000,"state":"active","ping":141},{"user_id":169,"name":"RexCreeper456","steam_id":76561199319578396,"connected_time":5261000000000,"state":"active","ping":66}]},{"server_id":403,"name":"Uncletopia | Chicago | 4 | All Maps","name_short":"chi-4","host":"chi-1.us.uncletopia.com","port":27045,"enabled":true,"region":"us-central","cc":"us","latitude":41.881832,"longitude":-87.62318,"reserved":0,"last_update":"0001-01-01T00:00:00Z","name_a2s":"Uncletopia | Chicago | 4 | All Maps","protocol":17,"map":"cp_gorge","folder":"tf","game":"Team Fortress","app_id":440,"player_count":24,"max_players":24,"Bots":0,"server_type":"Dedicated","server_os":"Linux","password":true,"vac":true,"version":"7961495","steam_id":85568392924515193,"keywords":["cp","nocrits","nodmgspread","uncletopia"],"game_id":440,"stv_port":27046,"stv_name":"Uncletopia | Chicago | 4 | All Maps | STV","players":[{"user_id":242,"name":"The Notorious RBG","steam_id":76561198014275148,"connected_time":1406000000000,"state":"active","ping":69},{"user_id":254,"name":"Strangelove","steam_id":76561198353773611,"connected_time":396000000000,"state":"active","ping":83},{"user_id":251,"name":"adult tim","steam_id":76561198075510786,"connected_time":436000000000,"state":"active","ping":74},{"user_id":212,"name":"Melon Keller","steam_id":76561198127426615,"connected_time":2727000000000,"state":"active","ping":108},{"user_id":247,"name":"Lucide","steam_id":76561197998530400,"connected_time":789000000000,"state":"active","ping":104},{"user_id":245,"name":"MedRed™ #IATAH","steam_id":76561198002962970,"connected_time":1103000000000,"state":"active","ping":95},{"user_id":151,"name":"Swash","steam_id":76561197969421355,"connected_time":11122000000000,"state":"active","ping":54},{"user_id":197,"name":"Runny Eggs","steam_id":76561198006785882,"connected_time":5640000000000,"state":"active","ping":73},{"user_id":258,"name":"Ringo x Seiran","steam_id":76561198357437908,"connected_time":143000000000,"state":"active","ping":73},{"user_id":240,"name":"MonkyBoo","steam_id":76561198304371716,"connected_time":1473000000000,"state":"active","ping":63},{"user_id":253,"name":"DeletedTaters","steam_id":76561198040773153,"connected_time":398000000000,"state":"active","ping":60},{"user_id":255,"name":"waterbucket","steam_id":76561198317002542,"connected_time":362000000000,"state":"active","ping":74},{"user_id":248,"name":"Stev","steam_id":76561198061516631,"connected_time":759000000000,"state":"active","ping":47},{"user_id":261,"name":"James","steam_id":76561198081313916,"connected_time":102000000000,"state":"active","ping":72},{"user_id":244,"name":"Stapler","steam_id":76561198099295077,"connected_time":1166000000000,"state":"active","ping":93},{"user_id":249,"name":"An Erect Penis :)","steam_id":76561198086477485,"connected_time":456000000000,"state":"active","ping":40},{"user_id":221,"name":"Bombsgamer","steam_id":76561198350009050,"connected_time":2549000000000,"state":"active","ping":72},{"user_id":233,"name":"Wang of Wall St","steam_id":76561198047460598,"connected_time":1844000000000,"state":"active","ping":76},{"user_id":256,"name":"DeltaD","steam_id":76561198096108552,"connected_time":240000000000,"state":"active","ping":75},{"user_id":262,"name":"marty","steam_id":76561198032782746,"connected_time":76000000000,"state":"active","ping":87},{"user_id":259,"name":"The Dead Weight","steam_id":76561198056694098,"connected_time":135000000000,"state":"active","ping":61},{"user_id":246,"name":"Bullwinkle J. Moose","steam_id":76561198075977196,"connected_time":903000000000,"state":"active","ping":77},{"user_id":260,"name":"Naffty","steam_id":76561198119734981,"connected_time":134000000000,"state":"active","ping":103},{"user_id":106,"name":"Lia_Rein","steam_id":76561198151569597,"connected_time":14298000000000,"state":"active","ping":137}]},{"server_id":36,"name":"Uncletopia | Chicago | 5 | All Maps","name_short":"chi-5","host":"chi-2.us.uncletopia.com","port":27015,"enabled":true,"region":"us-central","cc":"us","latitude":41.881832,"longitude":-87.62318,"reserved":0,"last_update":"0001-01-01T00:00:00Z","name_a2s":"Uncletopia | Chicago | 5 | All Maps","protocol":17,"map":"pl_pier","folder":"tf","game":"Team Fortress","app_id":440,"player_count":24,"max_players":24,"Bots":0,"server_type":"Dedicated","server_os":"Linux","password":true,"vac":true,"version":"7961495","steam_id":85568392924866362,"keywords":["nocrits","nodmgspread","payload","uncletopia"],"game_id":440,"stv_port":27016,"stv_name":"Uncletopia | Chicago | 5 | All Maps | STV","players":[{"user_id":360,"name":"Epha","steam_id":76561198079379951,"connected_time":3033000000000,"state":"active","ping":61},{"user_id":370,"name":"chiswola","steam_id":76561198046920142,"connected_time":1610000000000,"state":"active","ping":74},{"user_id":380,"name":"the archmage","steam_id":76561198380018244,"connected_time":570000000000,"state":"active","ping":75},{"user_id":343,"name":"Kent C Straight","steam_id":76561198056190259,"connected_time":3607000000000,"state":"active","ping":64},{"user_id":358,"name":"sensible","steam_id":76561198072216373,"connected_time":3172000000000,"state":"active","ping":85},{"user_id":382,"name":"Polar","steam_id":76561198271964253,"connected_time":544000000000,"state":"active","ping":78},{"user_id":381,"name":"stall","steam_id":76561199152861652,"connected_time":563000000000,"state":"active","ping":62},{"user_id":361,"name":"F R O G","steam_id":76561198166604331,"connected_time":2978000000000,"state":"active","ping":89},{"user_id":388,"name":"Moosen","steam_id":76561198281948574,"connected_time":48000000000,"state":"active","ping":123},{"user_id":336,"name":"Tree45","steam_id":76561198143698408,"connected_time":4089000000000,"state":"active","ping":69},{"user_id":339,"name":"Maeve","steam_id":76561198798176670,"connected_time":3790000000000,"state":"active","ping":60},{"user_id":384,"name":"he munch","steam_id":76561198339644583,"connected_time":519000000000,"state":"active","ping":57},{"user_id":385,"name":"Asanez3","steam_id":76561198037381436,"connected_time":498000000000,"state":"active","ping":165},{"user_id":376,"name":"Fake Hero","steam_id":76561198169177822,"connected_time":1275000000000,"state":"active","ping":120},{"user_id":325,"name":"Homosexual Warmachine","steam_id":76561198040425096,"connected_time":4938000000000,"state":"active","ping":64},{"user_id":368,"name":"Kent C Gay","steam_id":76561198418178297,"connected_time":1661000000000,"state":"active","ping":51},{"user_id":371,"name":"Mongoose88","steam_id":76561197961442445,"connected_time":1531000000000,"state":"active","ping":67},{"user_id":345,"name":"thecal","steam_id":76561198307893384,"connected_time":3517000000000,"state":"active","ping":59},{"user_id":386,"name":"zeno","steam_id":76561198201545159,"connected_time":464000000000,"state":"active","ping":52},{"user_id":365,"name":"Space⭐Taffy","steam_id":76561198002271720,"connected_time":2382000000000,"state":"active","ping":71},{"user_id":366,"name":"on that zaza?","steam_id":76561198038713198,"connected_time":2193000000000,"state":"active","ping":74},{"user_id":378,"name":"Ninetees","steam_id":76561198119483989,"connected_time":1255000000000,"state":"active","ping":81},{"user_id":387,"name":"Treeckogeek","steam_id":76561198453328078,"connected_time":172000000000,"state":"active","ping":65},{"user_id":377,"name":"Duke Spruce","steam_id":76561199231296521,"connected_time":1258000000000,"state":"active","ping":78}]},{"server_id":37,"name":"Uncletopia | Chicago | 6 | All Maps","name_short":"chi-6","host":"chi-2.us.uncletopia.com","port":27025,"enabled":true,"region":"us-central","cc":"us","latitude":41.881832,"longitude":-87.62318,"reserved":0,"last_update":"0001-01-01T00:00:00Z","name_a2s":"Uncletopia | Chicago | 6 | All Maps","protocol":17,"map":"pl_upward","folder":"tf","game":"Team Fortress","app_id":440,"player_count":24,"max_players":24,"Bots":0,"server_type":"Dedicated","server_os":"Linux","password":true,"vac":true,"version":"7961495","steam_id":85568392924866363,"keywords":["nocrits","nodmgspread","payload","uncletopia"],"game_id":440,"stv_port":27026,"stv_name":"Uncletopia | Chicago | 6 | All Maps | STV","players":[{"user_id":36,"name":"saturn eating his own ass","steam_id":76561198016826181,"connected_time":3379000000000,"state":"active","ping":72},{"user_id":69,"name":"krimsonxsin","steam_id":76561198379898602,"connected_time":438000000000,"state":"active","ping":124},{"user_id":39,"name":"shakoiwa","steam_id":76561199059441773,"connected_time":2507000000000,"state":"active","ping":110},{"user_id":40,"name":"DarthMalvos","steam_id":76561198163859298,"connected_time":2161000000000,"state":"active","ping":66},{"user_id":41,"name":"JollyRood","steam_id":76561199076088278,"connected_time":2141000000000,"state":"active","ping":80},{"user_id":42,"name":"the worst player ever","steam_id":76561198027487285,"connected_time":2074000000000,"state":"active","ping":119},{"user_id":43,"name":"JOEBOSS218","steam_id":76561198071655931,"connected_time":2006000000000,"state":"active","ping":86},{"user_id":44,"name":"WheelockWarlock","steam_id":76561198171456553,"connected_time":1982000000000,"state":"active","ping":92},{"user_id":45,"name":"Combez","steam_id":76561198215028184,"connected_time":1814000000000,"state":"active","ping":121},{"user_id":53,"name":"Gas Can","steam_id":76561198162853003,"connected_time":1162000000000,"state":"active","ping":72},{"user_id":71,"name":"chesterwnimitz","steam_id":76561198062664377,"connected_time":271000000000,"state":"active","ping":84},{"user_id":55,"name":"BobRossDaMobBoss","steam_id":76561198799262066,"connected_time":1156000000000,"state":"active","ping":85},{"user_id":50,"name":"Saiki K.","steam_id":76561199187226776,"connected_time":1255000000000,"state":"active","ping":75},{"user_id":56,"name":"bigtrucker55649","steam_id":76561198288604502,"connected_time":1132000000000,"state":"active","ping":80},{"user_id":57,"name":"Takeover","steam_id":76561197996081461,"connected_time":1120000000000,"state":"active","ping":61},{"user_id":58,"name":"Kirby Knight tf2","steam_id":76561199070864271,"connected_time":1120000000000,"state":"active","ping":60},{"user_id":59,"name":"Jolly","steam_id":76561198064214000,"connected_time":1103000000000,"state":"active","ping":69},{"user_id":72,"name":"count tokeula","steam_id":76561198305796131,"connected_time":222000000000,"state":"active","ping":49},{"user_id":61,"name":"XeroDollars","steam_id":76561198137858047,"connected_time":1076000000000,"state":"active","ping":69},{"user_id":62,"name":"The Wave","steam_id":76561198268225109,"connected_time":1065000000000,"state":"active","ping":91},{"user_id":68,"name":"Amazingamerhawk","steam_id":76561199064935924,"connected_time":706000000000,"state":"active","ping":75},{"user_id":70,"name":"puke","steam_id":76561197999279693,"connected_time":306000000000,"state":"active","ping":76},{"user_id":65,"name":"Tohru","steam_id":76561198139393876,"connected_time":1007000000000,"state":"active","ping":78},{"user_id":66,"name":"Ibrahim","steam_id":76561198028320625,"connected_time":988000000000,"state":"active","ping":71}]},{"server_id":38,"name":"Uncletopia | Chicago | 7 | Stopwatch","name_short":"chi-7","host":"chi-2.us.uncletopia.com","port":27035,"enabled":true,"region":"us-central","cc":"us","latitude":41.881832,"longitude":-87.62318,"reserved":0,"last_update":"0001-01-01T00:00:00Z","name_a2s":"Uncletopia | Chicago | 7 | Stopwatch","protocol":17,"map":"pl_swiftwater_final1","folder":"tf","game":"Team Fortress","app_id":440,"player_count":0,"max_players":24,"Bots":0,"server_type":"Dedicated","server_os":"Linux","password":true,"vac":true,"version":"7961495","steam_id":85568392924866364,"keywords":["nocrits","nodmgspread","payload","uncletopia"],"game_id":440,"stv_port":27036,"stv_name":"Uncletopia | Chicago | 7 | Stopwatch | STV","players":null},{"server_id":39,"name":"Uncletopia | Chicago | 8 | Community","name_short":"chi-8","host":"chi-2.us.uncletopia.com","port":27045,"enabled":true,"region":"us-central","cc":"us","latitude":41.881832,"longitude":-87.62318,"reserved":0,"last_update":"0001-01-01T00:00:00Z","name_a2s":"Uncletopia | Chicago | 8 | Community","protocol":17,"map":"workshop/pl_emerge_rc2.ugc888027758","folder":"tf","game":"Team Fortress","app_id":440,"player_count":23,"max_players":24,"Bots":0,"server_type":"Dedicated","server_os":"Linux","password":true,"vac":true,"version":"7961495","steam_id":85568392924866365,"keywords":["nocrits","nodmgspread","payload","uncletopia"],"game_id":440,"stv_port":27046,"stv_name":"Uncletopia | Chicago | 8 | Community | STV","players":[{"user_id":113,"name":"I keep it halal bro","steam_id":76561198076163949,"connected_time":1983000000000,"state":"active","ping":56},{"user_id":156,"name":"lana_del_Rei.com","steam_id":76561198172447621,"connected_time":81000000000,"state":"active","ping":94},{"user_id":127,"name":"ElephantHydrogen4277882","steam_id":76561198175741741,"connected_time":1392000000000,"state":"active","ping":77},{"user_id":73,"name":"Minus-Abinus","steam_id":76561199080630632,"connected_time":4687000000000,"state":"active","ping":91},{"user_id":158,"name":"king sir glorious","steam_id":76561198115676070,"connected_time":34000000000,"state":"active","ping":95},{"user_id":147,"name":"Nortel Network Telephone T7316","steam_id":76561198399261089,"connected_time":356000000000,"state":"active","ping":88},{"user_id":157,"name":"PyroTechno","steam_id":76561198060929872,"connected_time":48000000000,"state":"active","ping":101},{"user_id":148,"name":"Hovg9000","steam_id":76561199191556710,"connected_time":353000000000,"state":"active","ping":86},{"user_id":154,"name":"GoldtoothFour","steam_id":76561198055529332,"connected_time":111000000000,"state":"active","ping":54},{"user_id":110,"name":"Thequirka","steam_id":76561198968058652,"connected_time":2297000000000,"state":"active","ping":95},{"user_id":137,"name":"teegs","steam_id":76561198067905221,"connected_time":894000000000,"state":"active","ping":51},{"user_id":159,"name":"GiraffeMan","steam_id":76561198042104084,"connected_time":21000000000,"state":"active","ping":66},{"user_id":120,"name":"pup","steam_id":76561198145921847,"connected_time":1670000000000,"state":"active","ping":60},{"user_id":138,"name":"ill flipn't","steam_id":76561198421913648,"connected_time":850000000000,"state":"active","ping":98},{"user_id":144,"name":"KASHI","steam_id":76561198045285049,"connected_time":485000000000,"state":"active","ping":87},{"user_id":155,"name":"D","steam_id":76561198292908619,"connected_time":104000000000,"state":"active","ping":75},{"user_id":150,"name":"SilentFootba11","steam_id":76561199006570947,"connected_time":338000000000,"state":"active","ping":70},{"user_id":153,"name":"Brendan","steam_id":76561198041079914,"connected_time":174000000000,"state":"active","ping":73},{"user_id":140,"name":"Tom Crúaich","steam_id":76561197999439911,"connected_time":776000000000,"state":"active","ping":77},{"user_id":142,"name":"DiamondEpsilon","steam_id":76561198203883311,"connected_time":737000000000,"state":"active","ping":85},{"user_id":151,"name":"StudioMania (#SAVETF2)","steam_id":76561198211315795,"connected_time":329000000000,"state":"active","ping":70},{"user_id":112,"name":"t.tv/FamilyGuyFunnyMoments277","steam_id":76561198416047580,"connected_time":2179000000000,"state":"active","ping":61},{"user_id":43,"name":"Captain Chicken","steam_id":76561198047767530,"connected_time":8148000000000,"state":"active","ping":110}]},{"server_id":8,"name":"Uncletopia | Dallas | 1 | All Maps","name_short":"dal-1","host":"dal-1.us.uncletopia.com","port":27015,"enabled":true,"region":"us-central","cc":"us","latitude":32.779167,"longitude":-96.80889,"reserved":0,"last_update":"0001-01-01T00:00:00Z","name_a2s":"Uncletopia | Dallas | 1 | All Maps","protocol":17,"map":"cp_dustbowl","folder":"tf","game":"Team Fortress","app_id":440,"player_count":24,"max_players":24,"Bots":0,"server_type":"Dedicated","server_os":"Linux","password":true,"vac":true,"version":"7961495","steam_id":85568392924469986,"keywords":["cp","nocrits","nodmgspread","uncletopia"],"game_id":440,"stv_port":27016,"stv_name":"Uncletopia | Dallas | 1 | All Maps | STV","players":[{"user_id":537,"name":"Bogey","steam_id":76561198096227944,"connected_time":2077000000000,"state":"active","ping":44},{"user_id":538,"name":"dumbest girl alive","steam_id":76561198062263639,"connected_time":2074000000000,"state":"active","ping":49},{"user_id":557,"name":"mellowhype","steam_id":76561198040675606,"connected_time":921000000000,"state":"active","ping":48},{"user_id":565,"name":"M4tT","steam_id":76561198118764868,"connected_time":279000000000,"state":"active","ping":54},{"user_id":550,"name":"gnarlyslutt","steam_id":76561199383496552,"connected_time":1766000000000,"state":"active","ping":88},{"user_id":552,"name":"Withered Bonnie (Real)","steam_id":76561198423310113,"connected_time":1634000000000,"state":"active","ping":54},{"user_id":562,"name":"Ranch","steam_id":76561198035557013,"connected_time":725000000000,"state":"active","ping":66},{"user_id":563,"name":"Commodore","steam_id":76561198042112852,"connected_time":701000000000,"state":"active","ping":91},{"user_id":547,"name":"Rami✿","steam_id":76561198993652475,"connected_time":1837000000000,"state":"active","ping":45},{"user_id":564,"name":"KeppelTheMess","steam_id":76561199274191548,"connected_time":590000000000,"state":"active","ping":90},{"user_id":490,"name":"DeckofDragons","steam_id":76561198057398213,"connected_time":5513000000000,"state":"active","ping":78},{"user_id":548,"name":"Pipnirsian","steam_id":76561198380976416,"connected_time":1788000000000,"state":"active","ping":79},{"user_id":545,"name":"wlnecro1","steam_id":76561199157418402,"connected_time":1975000000000,"state":"active","ping":52},{"user_id":502,"name":"flippercurve","steam_id":76561199238295034,"connected_time":5084000000000,"state":"active","ping":71},{"user_id":549,"name":"Jim","steam_id":76561198998398262,"connected_time":1785000000000,"state":"active","ping":79},{"user_id":479,"name":"Ballista","steam_id":76561197983182562,"connected_time":6071000000000,"state":"active","ping":58},{"user_id":558,"name":"Red","steam_id":76561198001939529,"connected_time":783000000000,"state":"active","ping":87},{"user_id":556,"name":"Herbal.T.73","steam_id":76561198012745038,"connected_time":1158000000000,"state":"active","ping":125},{"user_id":544,"name":"LampMan","steam_id":76561198079857527,"connected_time":2017000000000,"state":"active","ping":60},{"user_id":529,"name":"Fever Dreams","steam_id":76561198116614620,"connected_time":3045000000000,"state":"active","ping":83},{"user_id":518,"name":"Moonflower ✦","steam_id":76561198191782483,"connected_time":4330000000000,"state":"active","ping":54},{"user_id":559,"name":"arinet","steam_id":76561198052572890,"connected_time":777000000000,"state":"active","ping":85},{"user_id":535,"name":"Barmy","steam_id":76561198111626352,"connected_time":2875000000000,"state":"active","ping":91},{"user_id":560,"name":"Knight Solaire","steam_id":76561198056334711,"connected_time":772000000000,"state":"active","ping":72}]},{"server_id":108,"name":"Uncletopia | Dallas | 2 | All Maps","name_short":"dal-2","host":"dal-1.us.uncletopia.com","port":27025,"enabled":true,"region":"us-central","cc":"us","latitude":32.779167,"longitude":-96.80889,"reserved":0,"last_update":"0001-01-01T00:00:00Z","name_a2s":"Uncletopia | Dallas | 2 | All Maps","protocol":17,"map":"pl_pier","folder":"tf","game":"Team Fortress","app_id":440,"player_count":23,"max_players":24,"Bots":0,"server_type":"Dedicated","server_os":"Linux","password":true,"vac":true,"version":"7961495","steam_id":85568392924469988,"keywords":["nocrits","nodmgspread","payload","uncletopia"],"game_id":440,"stv_port":27026,"stv_name":"Uncletopia | Dallas | 2 | All Maps | STV","players":[{"user_id":370,"name":"boo boo keys","steam_id":76561197999318398,"connected_time":204000000000,"state":"active","ping":105},{"user_id":349,"name":"Alfonso Molestro","steam_id":76561197998677099,"connected_time":2381000000000,"state":"active","ping":112},{"user_id":340,"name":"Lain","steam_id":76561198029303534,"connected_time":3105000000000,"state":"active","ping":68},{"user_id":368,"name":"4logan","steam_id":76561198835163155,"connected_time":826000000000,"state":"active","ping":90},{"user_id":371,"name":"KingGizzardluvr69420","steam_id":76561198059925499,"connected_time":107000000000,"state":"active","ping":56},{"user_id":362,"name":"blåhaj enjoyer","steam_id":76561198132803810,"connected_time":1116000000000,"state":"active","ping":60},{"user_id":348,"name":"Michaelpc1","steam_id":76561198088365519,"connected_time":2582000000000,"state":"active","ping":81},{"user_id":326,"name":"SpunkyNuggs","steam_id":76561198046401833,"connected_time":4141000000000,"state":"active","ping":76},{"user_id":327,"name":"B R O W N","steam_id":76561198047340813,"connected_time":4130000000000,"state":"active","ping":78},{"user_id":365,"name":"Gavilán","steam_id":76561198285212453,"connected_time":1077000000000,"state":"active","ping":73},{"user_id":301,"name":"CUSTOMA ON THA GRILL","steam_id":76561198165303806,"connected_time":6183000000000,"state":"active","ping":72},{"user_id":345,"name":"JellyParrot","steam_id":76561199190990163,"connected_time":2974000000000,"state":"active","ping":69},{"user_id":307,"name":"skegeton","steam_id":76561198095581099,"connected_time":5719000000000,"state":"active","ping":61},{"user_id":361,"name":"mid IT guy","steam_id":76561198061552103,"connected_time":1127000000000,"state":"active","ping":60},{"user_id":366,"name":"JohnnyGitGud","steam_id":76561198401455467,"connected_time":1055000000000,"state":"active","ping":100},{"user_id":367,"name":"miguel","steam_id":76561198158054484,"connected_time":1045000000000,"state":"active","ping":70},{"user_id":343,"name":"heartware","steam_id":76561198061714868,"connected_time":3019000000000,"state":"active","ping":95},{"user_id":360,"name":"shitass (Reaping and Sowing)","steam_id":76561198210572481,"connected_time":1252000000000,"state":"active","ping":60},{"user_id":372,"name":"VicLoL","steam_id":76561198045580784,"connected_time":91000000000,"state":"active","ping":87},{"user_id":346,"name":"steady","steam_id":76561198210433363,"connected_time":2969000000000,"state":"active","ping":66},{"user_id":363,"name":"Qwefti","steam_id":76561198123261072,"connected_time":1116000000000,"state":"active","ping":86},{"user_id":208,"name":"Mellou","steam_id":76561198212048740,"connected_time":14394000000000,"state":"active","ping":42},{"user_id":359,"name":"Jeremy","steam_id":76561198283977979,"connected_time":1646000000000,"state":"active","ping":100}]},{"server_id":404,"name":"Uncletopia | Dallas | 3 | All Maps","name_short":"dal-3","host":"dal-1.us.uncletopia.com","port":27035,"enabled":true,"region":"us-central","cc":"us","latitude":32.779167,"longitude":-96.80889,"reserved":0,"last_update":"0001-01-01T00:00:00Z","name_a2s":"Uncletopia | Dallas | 3 | All Maps","protocol":17,"map":"koth_nucleus","folder":"tf","game":"Team Fortress","app_id":440,"player_count":16,"max_players":24,"Bots":0,"server_type":"Dedicated","server_os":"Linux","password":true,"vac":true,"version":"7961495","steam_id":85568392924515219,"keywords":["cp","nocrits","nodmgspread","uncletopia"],"game_id":440,"stv_port":27036,"stv_name":"Uncletopia | Dallas | 3 | All Maps | STV","players":[{"user_id":321,"name":"Argon","steam_id":76561199254804349,"connected_time":1157000000000,"state":"active","ping":86},{"user_id":312,"name":"Kuyumiester","steam_id":76561198126835302,"connected_time":1623000000000,"state":"active","ping":56},{"user_id":323,"name":"Orca?","steam_id":76561198164341099,"connected_time":1142000000000,"state":"active","ping":102},{"user_id":332,"name":"Kool","steam_id":76561198365084061,"connected_time":166000000000,"state":"active","ping":74},{"user_id":286,"name":"Gwando","steam_id":76561198294629124,"connected_time":3779000000000,"state":"active","ping":51},{"user_id":334,"name":"Brim Reaper","steam_id":76561198325549536,"connected_time":80000000000,"state":"active","ping":73},{"user_id":335,"name":"Not Giga Chad","steam_id":76561198059785363,"connected_time":80000000000,"state":"active","ping":56},{"user_id":217,"name":"Da Policia","steam_id":76561198012762789,"connected_time":9197000000000,"state":"active","ping":44},{"user_id":330,"name":"allahsdroptop","steam_id":76561198133195238,"connected_time":529000000000,"state":"active","ping":92},{"user_id":333,"name":"maxie!","steam_id":76561197962607364,"connected_time":120000000000,"state":"active","ping":72},{"user_id":316,"name":"-W3E- grim10465","steam_id":76561198045698581,"connected_time":1490000000000,"state":"active","ping":76},{"user_id":326,"name":"Si1entSn1pa","steam_id":76561198170095479,"connected_time":1129000000000,"state":"active","ping":84},{"user_id":331,"name":"weasilsquid","steam_id":76561199014763568,"connected_time":476000000000,"state":"active","ping":65},{"user_id":308,"name":"BehindYou","steam_id":76561198987222560,"connected_time":1845000000000,"state":"active","ping":63},{"user_id":285,"name":"scaring the hoes","steam_id":76561198332519926,"connected_time":3843000000000,"state":"active","ping":76},{"user_id":269,"name":"Carne Asada?","steam_id":76561198157252638,"connected_time":4800000000000,"state":"active","ping":69}]},{"server_id":405,"name":"Uncletopia | Dallas | 4 | Community","name_short":"dal-4","host":"dal-1.us.uncletopia.com","port":27045,"enabled":true,"region":"us-central","cc":"us","latitude":32.779167,"longitude":-96.80889,"reserved":0,"last_update":"0001-01-01T00:00:00Z","name_a2s":"Uncletopia | Dallas | 4 | Community","protocol":17,"map":"workshop/pl_emerge_rc2.ugc888027758","folder":"tf","game":"Team Fortress","app_id":440,"player_count":16,"max_players":24,"Bots":0,"server_type":"Dedicated","server_os":"Linux","password":true,"vac":true,"version":"7961495","steam_id":85568392924515220,"keywords":["nocrits","nodmgspread","payload","uncletopia"],"game_id":440,"stv_port":27046,"stv_name":"Uncletopia | Dallas | 4 | Community | STV","players":[{"user_id":102,"name":"ognuker","steam_id":76561198044114346,"connected_time":1874000000000,"state":"active","ping":89},{"user_id":108,"name":"Did I?","steam_id":76561198061316204,"connected_time":876000000000,"state":"active","ping":64},{"user_id":106,"name":"Foghorn Leghorn","steam_id":76561198321453473,"connected_time":1094000000000,"state":"active","ping":85},{"user_id":79,"name":"Hoxatron","steam_id":76561198136288818,"connected_time":3920000000000,"state":"active","ping":44},{"user_id":80,"name":"Nexus","steam_id":76561199092072822,"connected_time":3920000000000,"state":"active","ping":66},{"user_id":109,"name":"a little guy","steam_id":76561198085888959,"connected_time":697000000000,"state":"active","ping":55},{"user_id":110,"name":"ShadowDragon0125","steam_id":76561198343849022,"connected_time":564000000000,"state":"active","ping":60},{"user_id":112,"name":"寧々","steam_id":76561198831996918,"connected_time":238000000000,"state":"active","ping":75},{"user_id":81,"name":"mothsprings","steam_id":76561198928604937,"connected_time":3917000000000,"state":"active","ping":87},{"user_id":113,"name":"Iron Argus","steam_id":76561198181088245,"connected_time":85000000000,"state":"active","ping":96},{"user_id":53,"name":"GuyGuy","steam_id":76561198237817232,"connected_time":6218000000000,"state":"active","ping":90},{"user_id":92,"name":"FerventRobin935","steam_id":76561198440135297,"connected_time":3092000000000,"state":"active","ping":74},{"user_id":89,"name":"SmeagolDaRegal","steam_id":76561198095029807,"connected_time":3456000000000,"state":"active","ping":130},{"user_id":88,"name":"Kaiser_will","steam_id":76561198198680293,"connected_time":3474000000000,"state":"active","ping":64},{"user_id":42,"name":"Sardine","steam_id":76561198257139257,"connected_time":7333000000000,"state":"active","ping":89},{"user_id":44,"name":"player","steam_id":76561198191881433,"connected_time":7306000000000,"state":"active","ping":93}]},{"server_id":5,"name":"Uncletopia | Frankfurt | 1 | All Maps","name_short":"frk-1","host":"frk-1.de.uncletopia.com","port":27015,"enabled":true,"region":"eu","cc":"de","latitude":50.110924,"longitude":8.682127,"reserved":0,"last_update":"0001-01-01T00:00:00Z","name_a2s":"Uncletopia | Frankfurt | 1 | All Maps","protocol":17,"map":"pl_barnblitz","folder":"tf","game":"Team Fortress","app_id":440,"player_count":0,"max_players":24,"Bots":0,"server_type":"Dedicated","server_os":"Linux","password":true,"vac":true,"version":"7961495","steam_id":85568392924469989,"keywords":["nocrits","nodmgspread","payload","uncletopia"],"game_id":440,"stv_port":27016,"stv_name":"Uncletopia | Frankfurt | 1 | All Maps | STV","players":null},{"server_id":110,"name":"Uncletopia | Frankfurt | 2 | All Maps","name_short":"frk-2","host":"frk-1.de.uncletopia.com","port":27025,"enabled":true,"region":"eu","cc":"de","latitude":50.110924,"longitude":8.682127,"reserved":0,"last_update":"0001-01-01T00:00:00Z","name_a2s":"Uncletopia | Frankfurt | 2 | All Maps","protocol":17,"map":"cp_sunshine","folder":"tf","game":"Team Fortress","app_id":440,"player_count":0,"max_players":24,"Bots":0,"server_type":"Dedicated","server_os":"Linux","password":true,"vac":true,"version":"7961495","steam_id":85568392924469990,"keywords":["cp","nocrits","nodmgspread","uncletopia"],"game_id":440,"stv_port":27026,"stv_name":"Uncletopia | Frankfurt | 2 | All Maps | STV","players":null},{"server_id":308,"name":"Uncletopia | Frankfurt | 3 | All Maps","name_short":"frk-3","host":"frk-1.de.uncletopia.com","port":27035,"enabled":true,"region":"eu","cc":"de","latitude":50.110924,"longitude":8.682127,"reserved":0,"last_update":"0001-01-01T00:00:00Z","name_a2s":"Uncletopia | Frankfurt | 3 | All Maps","protocol":17,"map":"pl_swiftwater_final1","folder":"tf","game":"Team Fortress","app_id":440,"player_count":0,"max_players":24,"Bots":0,"server_type":"Dedicated","server_os":"Linux","password":true,"vac":true,"version":"7961495","steam_id":85568392924504274,"keywords":["nocrits","nodmgspread","payload","uncletopia"],"game_id":440,"stv_port":27036,"stv_name":"Uncletopia | Frankfurt | 3 | All Maps | STV","players":null},{"server_id":309,"name":"Uncletopia | Frankfurt | 4 | All Maps","name_short":"frk-4","host":"frk-1.de.uncletopia.com","port":27045,"enabled":true,"region":"eu","cc":"de","latitude":50.110924,"longitude":8.682127,"reserved":0,"last_update":"0001-01-01T00:00:00Z","name_a2s":"Uncletopia | Frankfurt | 4 | All Maps","protocol":17,"map":"koth_viaduct","folder":"tf","game":"Team Fortress","app_id":440,"player_count":0,"max_players":24,"Bots":0,"server_type":"Dedicated","server_os":"Linux","password":true,"vac":true,"version":"7961495","steam_id":85568392924504275,"keywords":["cp","nocrits","nodmgspread","uncletopia"],"game_id":440,"stv_port":27046,"stv_name":"Uncletopia | Frankfurt | 4 | All Maps | STV","players":null},{"server_id":310,"name":"Uncletopia | Frankfurt | 5 | All Maps","name_short":"frk-5","host":"frk-1.de.uncletopia.com","port":27055,"enabled":true,"region":"eu","cc":"de","latitude":50.110924,"longitude":8.682127,"reserved":0,"last_update":"0001-01-01T00:00:00Z","name_a2s":"Uncletopia | Frankfurt | 5 | All Maps","protocol":17,"map":"pl_barnblitz","folder":"tf","game":"Team Fortress","app_id":440,"player_count":0,"max_players":24,"Bots":0,"server_type":"Dedicated","server_os":"Linux","password":true,"vac":true,"version":"7961495","steam_id":85568392924504277,"keywords":["nocrits","nodmgspread","payload","uncletopia"],"game_id":440,"stv_port":27056,"stv_name":"Uncletopia | Frankfurt | 5 | All Maps | STV","players":null},{"server_id":311,"name":"Uncletopia | Frankfurt | 6 | All Maps","name_short":"frk-6","host":"frk-1.de.uncletopia.com","port":27065,"enabled":true,"region":"eu","cc":"de","latitude":50.110924,"longitude":8.682127,"reserved":0,"last_update":"0001-01-01T00:00:00Z","name_a2s":"Uncletopia | Frankfurt | 6 | All Maps","protocol":17,"map":"koth_cascade","folder":"tf","game":"Team Fortress","app_id":440,"player_count":0,"max_players":24,"Bots":0,"server_type":"Dedicated","server_os":"Linux","password":true,"vac":true,"version":"7961495","steam_id":85568392924504278,"keywords":["cp","nocrits","nodmgspread","uncletopia"],"game_id":440,"stv_port":27066,"stv_name":"Uncletopia | Frankfurt | 6 | All Maps | STV","players":null},{"server_id":23,"name":"Uncletopia | Frankfurt | 7 | Stopwatch","name_short":"frk-7","host":"frk-1.de.uncletopia.com","port":27075,"enabled":true,"region":"eu","cc":"de","latitude":50.110924,"longitude":8.682127,"reserved":0,"last_update":"0001-01-01T00:00:00Z","name_a2s":"Uncletopia | Frankfurt | 7 | Stopwatch","protocol":17,"map":"pl_frontier_final","folder":"tf","game":"Team Fortress","app_id":440,"player_count":0,"max_players":24,"Bots":0,"server_type":"Dedicated","server_os":"Linux","password":true,"vac":true,"version":"7961495","steam_id":85568392924742827,"keywords":["nocrits","nodmgspread","payload","uncletopia"],"game_id":440,"stv_port":27076,"stv_name":"Uncletopia | Frankfurt | 7 | Stopwatch | STV","players":null},{"server_id":24,"name":"Uncletopia | Frankfurt | 8 | Community","name_short":"frk-8","host":"frk-1.de.uncletopia.com","port":27085,"enabled":true,"region":"eu","cc":"de","latitude":50.110924,"longitude":8.682127,"reserved":0,"last_update":"0001-01-01T00:00:00Z","name_a2s":"Uncletopia | Frankfurt | 8 | Community","protocol":17,"map":"workshop/rd_asteroid_redux_b1.ugc2154902912","folder":"tf","game":"Team Fortress","app_id":440,"player_count":0,"max_players":24,"Bots":0,"server_type":"Dedicated","server_os":"Linux","password":true,"vac":true,"version":"7961495","steam_id":85568392924742828,"keywords":["beta","nocrits","nodmgspread","rd","uncletopia"],"game_id":440,"stv_port":27086,"stv_name":"Uncletopia | Frankfurt | 8 | Community | STV","players":null},{"server_id":202,"name":"Uncletopia | Hong Kong | 1 | All Maps","name_short":"hgk-1","host":"hgk-1.hk.uncletopia.com","port":27015,"enabled":true,"region":"asia","cc":"hk","latitude":22.302711,"longitude":114.177216,"reserved":0,"last_update":"0001-01-01T00:00:00Z","name_a2s":"Uncletopia | Hong Kong | 1 | All Maps","protocol":17,"map":"cp_snakewater_final1","folder":"tf","game":"Team Fortress","app_id":440,"player_count":0,"max_players":24,"Bots":0,"server_type":"Dedicated","server_os":"Linux","password":true,"vac":true,"version":"7961495","steam_id":85568392924494504,"keywords":["cp","nocrits","nodmgspread","uncletopia"],"game_id":440,"stv_port":27016,"stv_name":"Uncletopia | Hong Kong | 1 | All Maps | STV","players":null},{"server_id":1,"name":"Uncletopia | Los Angeles | 1 | All Maps","name_short":"lax-1","host":"lax-1.us.uncletopia.com","port":27015,"enabled":true,"region":"us-west","cc":"us","latitude":33.94279,"longitude":-118.41004,"reserved":0,"last_update":"0001-01-01T00:00:00Z","name_a2s":"Uncletopia | Los Angeles | 1 | All Maps","protocol":17,"map":"ctf_sawmill","folder":"tf","game":"Team Fortress","app_id":440,"player_count":24,"max_players":24,"Bots":0,"server_type":"Dedicated","server_os":"Linux","password":true,"vac":true,"version":"7961495","steam_id":85568392924469991,"keywords":["ctf","nocrits","nodmgspread","uncletopia"],"game_id":440,"stv_port":27016,"stv_name":"Uncletopia | Los Angeles | 1 | All Maps | STV","players":[{"user_id":14,"name":"werolat","steam_id":76561197960544784,"connected_time":10704000000000,"state":"active","ping":55},{"user_id":65,"name":"Exusiai","steam_id":76561198348354629,"connected_time":4490000000000,"state":"active","ping":42},{"user_id":101,"name":"Ian","steam_id":76561198159334435,"connected_time":1138000000000,"state":"active","ping":165},{"user_id":51,"name":"Hugs","steam_id":76561198214584133,"connected_time":5204000000000,"state":"active","ping":57},{"user_id":84,"name":"Seshreb","steam_id":76561198846614634,"connected_time":2853000000000,"state":"active","ping":59},{"user_id":109,"name":"VoodooPapa","steam_id":76561199160439066,"connected_time":123000000000,"state":"active","ping":61},{"user_id":91,"name":"Danoman47","steam_id":76561199377565865,"connected_time":1891000000000,"state":"active","ping":88},{"user_id":92,"name":"small meth pouch","steam_id":76561198130412963,"connected_time":1890000000000,"state":"active","ping":84},{"user_id":96,"name":"ROTTINGGIRL","steam_id":76561198051445358,"connected_time":1820000000000,"state":"active","ping":24},{"user_id":111,"name":"PunyHappyFace","steam_id":76561198118059305,"connected_time":93000000000,"state":"active","ping":45},{"user_id":93,"name":"Skeleop","steam_id":76561198981106464,"connected_time":1873000000000,"state":"active","ping":46},{"user_id":75,"name":"Hound From Heck","steam_id":76561198087764017,"connected_time":4107000000000,"state":"active","ping":70},{"user_id":41,"name":"Master of Golfcarts™","steam_id":76561198071033195,"connected_time":5661000000000,"state":"active","ping":64},{"user_id":42,"name":"Booba Feet","steam_id":76561198072094942,"connected_time":5641000000000,"state":"active","ping":88},{"user_id":89,"name":"roach","steam_id":76561198354811369,"connected_time":2096000000000,"state":"active","ping":49},{"user_id":99,"name":"Johnora","steam_id":76561198220495936,"connected_time":1537000000000,"state":"active","ping":86},{"user_id":88,"name":"McDonald","steam_id":76561199028533497,"connected_time":2297000000000,"state":"active","ping":43},{"user_id":81,"name":"mmmmmmmmmmmmmmmmmm","steam_id":76561199267742979,"connected_time":3296000000000,"state":"active","ping":55},{"user_id":113,"name":"Festive Bastard","steam_id":76561198094512904,"connected_time":7000000000,"state":"spawning","ping":117},{"user_id":108,"name":"Ernbergler","steam_id":76561198042583426,"connected_time":429000000000,"state":"active","ping":71},{"user_id":100,"name":"Slime","steam_id":76561198121138382,"connected_time":1273000000000,"state":"active","ping":58},{"user_id":106,"name":"cielael","steam_id":76561198043971956,"connected_time":717000000000,"state":"active","ping":48},{"user_id":85,"name":"GLXy","steam_id":76561198207551544,"connected_time":2827000000000,"state":"active","ping":73},{"user_id":105,"name":"Do cOck","steam_id":76561198132755619,"connected_time":918000000000,"state":"active","ping":43}]},{"server_id":112,"name":"Uncletopia | Los Angeles | 2 | All Maps","name_short":"lax-2","host":"lax-1.us.uncletopia.com","port":27025,"enabled":true,"region":"us-west","cc":"us","latitude":33.94279,"longitude":-118.41004,"reserved":0,"last_update":"0001-01-01T00:00:00Z","name_a2s":"Uncletopia | Los Angeles | 2 | All Maps","protocol":17,"map":"koth_lakeside_final","folder":"tf","game":"Team Fortress","app_id":440,"player_count":0,"max_players":24,"Bots":0,"server_type":"Dedicated","server_os":"Linux","password":true,"vac":true,"version":"7961495","steam_id":85568392924469992,"keywords":["cp","nocrits","nodmgspread","uncletopia"],"game_id":440,"stv_port":27026,"stv_name":"Uncletopia | Los Angeles | 2 | All Maps | STV","players":null},{"server_id":324,"name":"Uncletopia | Los Angeles | 3 | All Maps","name_short":"lax-3","host":"lax-1.us.uncletopia.com","port":27035,"enabled":true,"region":"us-west","cc":"us","latitude":33.94279,"longitude":-118.41004,"reserved":0,"last_update":"0001-01-01T00:00:00Z","name_a2s":"Uncletopia | Los Angeles | 3 | All Maps","protocol":17,"map":"pl_upward","folder":"tf","game":"Team Fortress","app_id":440,"player_count":23,"max_players":24,"Bots":0,"server_type":"Dedicated","server_os":"Linux","password":true,"vac":true,"version":"7961495","steam_id":85568392924510198,"keywords":["nocrits","nodmgspread","payload","uncletopia"],"game_id":440,"stv_port":27036,"stv_name":"Uncletopia | Los Angeles | 3 | All Maps | STV","players":[{"user_id":170,"name":"❤ Ashley ❤","steam_id":76561198056428303,"connected_time":2116000000000,"state":"active","ping":44},{"user_id":207,"name":"duncaidan","steam_id":76561199013510313,"connected_time":550000000000,"state":"active","ping":54},{"user_id":193,"name":"Vv","steam_id":76561199052196750,"connected_time":868000000000,"state":"active","ping":76},{"user_id":194,"name":"❤To Lazy❤","steam_id":76561198164211904,"connected_time":867000000000,"state":"active","ping":61},{"user_id":179,"name":"Kazoo","steam_id":76561199229748300,"connected_time":1788000000000,"state":"active","ping":60},{"user_id":181,"name":"freyja","steam_id":76561198012480197,"connected_time":1731000000000,"state":"active","ping":45},{"user_id":204,"name":"supcupman","steam_id":76561198051513866,"connected_time":582000000000,"state":"active","ping":71},{"user_id":218,"name":"shai","steam_id":76561198144909435,"connected_time":16000000000,"state":"active","ping":285},{"user_id":208,"name":"slyish","steam_id":76561198242764778,"connected_time":549000000000,"state":"active","ping":87},{"user_id":214,"name":"Soviet Potato","steam_id":76561198068546113,"connected_time":195000000000,"state":"active","ping":39},{"user_id":190,"name":"fluffytail309","steam_id":76561199491688974,"connected_time":1015000000000,"state":"active","ping":112},{"user_id":199,"name":"bombs away!","steam_id":76561198140305247,"connected_time":682000000000,"state":"active","ping":120},{"user_id":217,"name":"♥ur :3 medic gf♥ (51ref/hr)","steam_id":76561198816778484,"connected_time":55000000000,"state":"active","ping":109},{"user_id":201,"name":"N7 Kobold","steam_id":76561198308506257,"connected_time":675000000000,"state":"active","ping":70},{"user_id":163,"name":"depeche","steam_id":76561199497603020,"connected_time":2492000000000,"state":"active","ping":47},{"user_id":209,"name":"Skribbles","steam_id":76561198373073766,"connected_time":337000000000,"state":"active","ping":55},{"user_id":183,"name":"walrooos","steam_id":76561198024521839,"connected_time":1165000000000,"state":"active","ping":46},{"user_id":177,"name":"Frank Accardi","steam_id":76561198017275707,"connected_time":1871000000000,"state":"active","ping":67},{"user_id":167,"name":"self sufficient kitten","steam_id":76561197960592612,"connected_time":2227000000000,"state":"active","ping":76},{"user_id":203,"name":"Brain Magic","steam_id":76561198010201477,"connected_time":656000000000,"state":"active","ping":56},{"user_id":205,"name":"spacetoven","steam_id":76561198115821131,"connected_time":581000000000,"state":"active","ping":57},{"user_id":188,"name":"weed lesbian","steam_id":76561198042263805,"connected_time":1082000000000,"state":"active","ping":82},{"user_id":212,"name":"bogus","steam_id":76561198377555279,"connected_time":292000000000,"state":"active","ping":116}]},{"server_id":25,"name":"Uncletopia | Los Angeles | 4 | Stopwatch","name_short":"lax-4","host":"lax-1.us.uncletopia.com","port":27045,"enabled":true,"region":"us-west","cc":"us","latitude":33.94279,"longitude":-118.41004,"reserved":0,"last_update":"0001-01-01T00:00:00Z","name_a2s":"Uncletopia | Los Angeles | 4 | Stopwatch","protocol":17,"map":"pl_barnblitz","folder":"tf","game":"Team Fortress","app_id":440,"player_count":0,"max_players":24,"Bots":0,"server_type":"Dedicated","server_os":"Linux","password":true,"vac":true,"version":"7961495","steam_id":85568392924510199,"keywords":["nocrits","nodmgspread","payload","uncletopia"],"game_id":440,"stv_port":27046,"stv_name":"Uncletopia | Los Angeles | 4 | Stopwatch | STV","players":null},{"server_id":11,"name":"Uncletopia | London | 1 | All Maps","name_short":"lon-1","host":"lon-1.uk.uncletopia.com","port":27015,"enabled":true,"region":"eu","cc":"gb","latitude":51.509865,"longitude":-0.118092,"reserved":0,"last_update":"0001-01-01T00:00:00Z","name_a2s":"Uncletopia | London | 1 | All Maps","protocol":17,"map":"koth_cascade","folder":"tf","game":"Team Fortress","app_id":440,"player_count":2,"max_players":24,"Bots":0,"server_type":"Dedicated","server_os":"Linux","password":true,"vac":true,"version":"7961495","steam_id":85568392924367362,"keywords":["cp","nocrits","nodmgspread","uncletopia"],"game_id":440,"stv_port":27016,"stv_name":"Uncletopia | London | 1 | All Maps | STV","players":[{"user_id":834,"name":"ебучий случай","steam_id":76561199087920612,"connected_time":598000000000,"state":"active","ping":122},{"user_id":836,"name":"peruna","steam_id":76561198000721196,"connected_time":301000000000,"state":"active","ping":86}]},{"server_id":114,"name":"Uncletopia | London | 2 | All Maps","name_short":"lon-2","host":"lon-1.uk.uncletopia.com","port":27025,"enabled":true,"region":"eu","cc":"gb","latitude":51.509865,"longitude":-0.118092,"reserved":0,"last_update":"0001-01-01T00:00:00Z","name_a2s":"Uncletopia | London | 2 | All Maps","protocol":17,"map":"cp_dustbowl","folder":"tf","game":"Team Fortress","app_id":440,"player_count":0,"max_players":24,"Bots":0,"server_type":"Dedicated","server_os":"Linux","password":true,"vac":true,"version":"7961495","steam_id":85568392924470941,"keywords":["cp","nocrits","nodmgspread","uncletopia"],"game_id":440,"stv_port":27026,"stv_name":"Uncletopia | London | 2 | All Maps | STV","players":null},{"server_id":320,"name":"Uncletopia | London | 3 | All Maps","name_short":"lon-3","host":"lon-1.uk.uncletopia.com","port":27035,"enabled":true,"region":"eu","cc":"gb","latitude":51.509865,"longitude":-0.118092,"reserved":0,"last_update":"0001-01-01T00:00:00Z","name_a2s":"Uncletopia | London | 3 | All Maps","protocol":17,"map":"cp_mountainlab","folder":"tf","game":"Team Fortress","app_id":440,"player_count":0,"max_players":24,"Bots":0,"server_type":"Dedicated","server_os":"Linux","password":true,"vac":true,"version":"7961495","steam_id":85568392924510192,"keywords":["cp","nocrits","nodmgspread","uncletopia"],"game_id":440,"stv_port":27036,"stv_name":"Uncletopia | London | 3 | All Maps | STV","players":null},{"server_id":321,"name":"Uncletopia | London | 4 | All Maps","name_short":"lon-4","host":"lon-1.uk.uncletopia.com","port":27045,"enabled":true,"region":"eu","cc":"gb","latitude":51.509865,"longitude":-0.118092,"reserved":0,"last_update":"0001-01-01T00:00:00Z","name_a2s":"Uncletopia | London | 4 | All Maps","protocol":17,"map":"koth_cascade","folder":"tf","game":"Team Fortress","app_id":440,"player_count":0,"max_players":24,"Bots":0,"server_type":"Dedicated","server_os":"Linux","password":true,"vac":true,"version":"7961495","steam_id":85568392924510193,"keywords":["cp","nocrits","nodmgspread","uncletopia"],"game_id":440,"stv_port":27046,"stv_name":"Uncletopia | London | 4 | All Maps | STV","players":null},{"server_id":21,"name":"Uncletopia | London | 5 | All Maps","name_short":"lon-5","host":"lon-1.uk.uncletopia.com","port":27055,"enabled":true,"region":"eu","cc":"gb","latitude":51.509865,"longitude":-0.118092,"reserved":0,"last_update":"0001-01-01T00:00:00Z","name_a2s":"Uncletopia | London | 5 | All Maps","protocol":17,"map":"koth_highpass","folder":"tf","game":"Team Fortress","app_id":440,"player_count":0,"max_players":24,"Bots":0,"server_type":"Dedicated","server_os":"Linux","password":true,"vac":true,"version":"7961495","steam_id":85568392924742829,"keywords":["cp","nocrits","nodmgspread","uncletopia"],"game_id":440,"stv_port":27056,"stv_name":"Uncletopia | London | 5 | All Maps | STV","players":null},{"server_id":22,"name":"Uncletopia | London | 6 | All Maps","name_short":"lon-6","host":"lon-1.uk.uncletopia.com","port":27065,"enabled":true,"region":"eu","cc":"gb","latitude":51.509865,"longitude":-0.118092,"reserved":0,"last_update":"0001-01-01T00:00:00Z","name_a2s":"Uncletopia | London | 6 | All Maps","protocol":17,"map":"cp_snakewater_final1","folder":"tf","game":"Team Fortress","app_id":440,"player_count":0,"max_players":24,"Bots":0,"server_type":"Dedicated","server_os":"Linux","password":true,"vac":true,"version":"7961495","steam_id":85568392924742830,"keywords":["cp","nocrits","nodmgspread","uncletopia"],"game_id":440,"stv_port":27066,"stv_name":"Uncletopia | London | 6 | All Maps | STV","players":null},{"server_id":40,"name":"Uncletopia | London | 7 | Stopwatch","name_short":"lon-7","host":"lon-1.uk.uncletopia.com","port":27075,"enabled":true,"region":"eu","cc":"gb","latitude":51.509865,"longitude":-0.118092,"reserved":0,"last_update":"0001-01-01T00:00:00Z","name_a2s":"Uncletopia | London | 7 | Stopwatch","protocol":17,"map":"workshop/koth_ashville_final.ugc2130459942","folder":"tf","game":"Team Fortress","app_id":440,"player_count":0,"max_players":24,"Bots":0,"server_type":"Dedicated","server_os":"Linux","password":true,"vac":true,"version":"7961495","steam_id":85568392924964314,"keywords":["cp","nocrits","nodmgspread","uncletopia"],"game_id":440,"stv_port":27076,"stv_name":"Uncletopia | London | 7 | Stopwatch | STV","players":null},{"server_id":41,"name":"Uncletopia | London | 8 | Community","name_short":"lon-8","host":"lon-1.uk.uncletopia.com","port":27085,"enabled":true,"region":"eu","cc":"gb","latitude":51.509865,"longitude":-0.118092,"reserved":0,"last_update":"0001-01-01T00:00:00Z","name_a2s":"Uncletopia | London | 8 | Community","protocol":17,"map":"workshop/koth_product_final.ugc454272353","folder":"tf","game":"Team Fortress","app_id":440,"player_count":0,"max_players":24,"Bots":0,"server_type":"Dedicated","server_os":"Linux","password":true,"vac":true,"version":"7961495","steam_id":85568392924964315,"keywords":["cp","nocrits","nodmgspread","uncletopia"],"game_id":440,"stv_port":27086,"stv_name":"Uncletopia | London | 8 | Community | STV","players":null},{"server_id":300,"name":"Uncletopia | Montréal | 1 | One Thousand Uncles","name_short":"mtl-1","host":"mtl-1.ca.uncletopia.com","port":27015,"enabled":true,"region":"us-east","cc":"ca","latitude":45.50889,"longitude":-73.56167,"reserved":0,"last_update":"0001-01-01T00:00:00Z","name_a2s":"","protocol":0,"map":"","folder":"","game":"","app_id":0,"player_count":12,"max_players":0,"Bots":0,"server_type":"","server_os":"","password":false,"vac":false,"version":"","steam_id":0,"keywords":null,"game_id":0,"stv_port":0,"stv_name":"","players":[{"user_id":167,"name":"ExplosiveGamer21","steam_id":76561198132370955,"connected_time":2879000000000,"state":"active","ping":120},{"user_id":194,"name":"Wilbur","steam_id":76561198341220433,"connected_time":1518000000000,"state":"active","ping":139},{"user_id":232,"name":"Pohnut","steam_id":76561198087831690,"connected_time":849000000000,"state":"active","ping":125},{"user_id":235,"name":"William P. Ennis","steam_id":76561198073464877,"connected_time":523000000000,"state":"active","ping":104},{"user_id":115,"name":"Joe Nathan","steam_id":76561198041030399,"connected_time":5007000000000,"state":"active","ping":89},{"user_id":55,"name":"hashmap","steam_id":76561198043794014,"connected_time":7808000000000,"state":"active","ping":44},{"user_id":215,"name":"BrotchaDoor","steam_id":76561198317474583,"connected_time":992000000000,"state":"active","ping":69},{"user_id":168,"name":"Hoxton","steam_id":76561198129209505,"connected_time":2750000000000,"state":"active","ping":149},{"user_id":113,"name":"Brison","steam_id":76561198051370524,"connected_time":5136000000000,"state":"active","ping":103},{"user_id":109,"name":"Congcrab","steam_id":76561198078687685,"connected_time":5694000000000,"state":"active","ping":83},{"user_id":172,"name":"1-800-GHOST-DANCE","steam_id":76561198835430429,"connected_time":2288000000000,"state":"active","ping":91},{"user_id":171,"name":"rabidhyperfocus","steam_id":76561198101495169,"connected_time":2442000000000,"state":"active","ping":90}]},{"server_id":301,"name":"Uncletopia | Montréal | 2 | One Thousand Uncles","name_short":"mtl-2","host":"mtl-1.ca.uncletopia.com","port":27025,"enabled":true,"region":"us-east","cc":"ca","latitude":45.50889,"longitude":-73.56167,"reserved":0,"last_update":"0001-01-01T00:00:00Z","name_a2s":"","protocol":0,"map":"","folder":"","game":"","app_id":0,"player_count":11,"max_players":0,"Bots":0,"server_type":"","server_os":"","password":false,"vac":false,"version":"","steam_id":0,"keywords":null,"game_id":0,"stv_port":0,"stv_name":"","players":[{"user_id":24,"name":"Engineer Gaming Live","steam_id":76561198045914603,"connected_time":8060000000000,"state":"active","ping":87},{"user_id":145,"name":"Local H00ligan","steam_id":76561198448802335,"connected_time":208000000000,"state":"spawning","ping":61},{"user_id":42,"name":"SirParker135","steam_id":76561198450302639,"connected_time":8032000000000,"state":"active","ping":138},{"user_id":137,"name":"ACrispSlimJim","steam_id":76561198145913920,"connected_time":1562000000000,"state":"active","ping":81},{"user_id":45,"name":"The Engineer is Engiqueer","steam_id":76561198177310341,"connected_time":7904000000000,"state":"active","ping":85},{"user_id":142,"name":"exx","steam_id":76561198090552145,"connected_time":660000000000,"state":"active","ping":154},{"user_id":143,"name":"MintyGhoul666","steam_id":76561198232417796,"connected_time":336000000000,"state":"active","ping":95},{"user_id":104,"name":"RacoonGamer","steam_id":76561198100907657,"connected_time":3778000000000,"state":"active","ping":41},{"user_id":144,"name":"Demon Drem'Zellot","steam_id":76561198022106547,"connected_time":254000000000,"state":"active","ping":107},{"user_id":113,"name":"MDL (real)","steam_id":76561198203256620,"connected_time":2311000000000,"state":"active","ping":140},{"user_id":75,"name":"Hawkuro","steam_id":76561198252194838,"connected_time":5838000000000,"state":"active","ping":126}]},{"server_id":302,"name":"Uncletopia | Montréal | 3 | One Thousand Uncles","name_short":"mtl-3","host":"mtl-1.ca.uncletopia.com","port":27035,"enabled":true,"region":"us-east","cc":"ca","latitude":45.50889,"longitude":-73.56167,"reserved":0,"last_update":"0001-01-01T00:00:00Z","name_a2s":"","protocol":0,"map":"","folder":"","game":"","app_id":0,"player_count":0,"max_players":0,"Bots":0,"server_type":"","server_os":"","password":false,"vac":false,"version":"","steam_id":0,"keywords":null,"game_id":0,"stv_port":0,"stv_name":"","players":null},{"server_id":13,"name":"Uncletopia | New York City | 1 | All Maps","name_short":"nyc-1","host":"nyc-1.us.uncletopia.com","port":27015,"enabled":true,"region":"us-east","cc":"us","latitude":40.73061,"longitude":-73.93524,"reserved":0,"last_update":"0001-01-01T00:00:00Z","name_a2s":"Uncletopia | New York City | 1 | All Maps","protocol":17,"map":"cp_freight_final1","folder":"tf","game":"Team Fortress","app_id":440,"player_count":22,"max_players":24,"Bots":0,"server_type":"Dedicated","server_os":"Linux","password":true,"vac":true,"version":"7961495","steam_id":85568392924469993,"keywords":["cp","nocrits","nodmgspread","uncletopia"],"game_id":440,"stv_port":27016,"stv_name":"Uncletopia | New York City | 1 | All Maps | STV","players":[{"user_id":521,"name":"It's FoolMoon","steam_id":76561198153344375,"connected_time":3186000000000,"state":"active","ping":36},{"user_id":555,"name":"hambone fakenamington","steam_id":76561197973249427,"connected_time":971000000000,"state":"active","ping":45},{"user_id":539,"name":"murdering mood","steam_id":76561198088384838,"connected_time":2258000000000,"state":"active","ping":56},{"user_id":559,"name":"patdine","steam_id":76561198060865671,"connected_time":799000000000,"state":"active","ping":67},{"user_id":560,"name":"DigitalWizard","steam_id":76561198085936715,"connected_time":711000000000,"state":"active","ping":73},{"user_id":567,"name":"dillon/dylan","steam_id":76561198118054166,"connected_time":73000000000,"state":"active","ping":51},{"user_id":544,"name":"xhon (got the puter back!!!!!)","steam_id":76561198089691679,"connected_time":1926000000000,"state":"active","ping":59},{"user_id":568,"name":"K\u0026S Beverages","steam_id":76561198058378081,"connected_time":51000000000,"state":"spawning","ping":48},{"user_id":545,"name":"Astoriae!","steam_id":76561199090168858,"connected_time":1852000000000,"state":"active","ping":55},{"user_id":557,"name":"Buck","steam_id":76561198064244796,"connected_time":924000000000,"state":"active","ping":56},{"user_id":566,"name":"Ligmus Sigmus","steam_id":76561198168946002,"connected_time":154000000000,"state":"active","ping":46},{"user_id":538,"name":"Feces","steam_id":76561198380219187,"connected_time":2336000000000,"state":"active","ping":73},{"user_id":537,"name":"squaggles!","steam_id":76561197994995011,"connected_time":2525000000000,"state":"active","ping":54},{"user_id":554,"name":"sonikro","steam_id":76561197989428692,"connected_time":1011000000000,"state":"active","ping":60},{"user_id":564,"name":"kikikikoboy","steam_id":76561198073380271,"connected_time":526000000000,"state":"active","ping":68},{"user_id":541,"name":"Ras","steam_id":76561198123546775,"connected_time":1989000000000,"state":"active","ping":72},{"user_id":563,"name":"Pretentious Gunspy","steam_id":76561199241325005,"connected_time":562000000000,"state":"active","ping":75},{"user_id":402,"name":"Zoey Cakes","steam_id":76561198080247936,"connected_time":13869000000000,"state":"active","ping":87},{"user_id":531,"name":"toastman","steam_id":76561198207073088,"connected_time":3111000000000,"state":"active","ping":95},{"user_id":465,"name":"Byte","steam_id":76561197995281363,"connected_time":8382000000000,"state":"active","ping":101},{"user_id":536,"name":"Rambly Dambly","steam_id":76561198844496567,"connected_time":2763000000000,"state":"active","ping":39},{"user_id":549,"name":"Suck Her Dick Sunday","steam_id":76561198029274581,"connected_time":1606000000000,"state":"active","ping":72}]},{"server_id":14,"name":"Uncletopia | New York City | 2 | All Maps","name_short":"nyc-2","host":"nyc-1.us.uncletopia.com","port":27025,"enabled":true,"region":"us-east","cc":"us","latitude":40.73061,"longitude":-73.93524,"reserved":0,"last_update":"0001-01-01T00:00:00Z","name_a2s":"Uncletopia | New York City | 2 | All Maps","protocol":17,"map":"pl_badwater","folder":"tf","game":"Team Fortress","app_id":440,"player_count":24,"max_players":24,"Bots":0,"server_type":"Dedicated","server_os":"Linux","password":true,"vac":true,"version":"7961495","steam_id":85568392924469994,"keywords":["nocrits","nodmgspread","payload","uncletopia"],"game_id":440,"stv_port":27026,"stv_name":"Uncletopia | New York City | 2 | All Maps | STV","players":[{"user_id":482,"name":"Psychosis","steam_id":76561198078659070,"connected_time":999000000000,"state":"active","ping":75},{"user_id":398,"name":"Braamklauw","steam_id":76561198283287697,"connected_time":5949000000000,"state":"active","ping":142},{"user_id":449,"name":"Maragi (ace defective)","steam_id":76561198051372868,"connected_time":3236000000000,"state":"active","ping":45},{"user_id":428,"name":"St. Bobson Q Dugnutt III Esq Sr","steam_id":76561197993459985,"connected_time":4782000000000,"state":"active","ping":65},{"user_id":437,"name":"ndvr","steam_id":76561199379200102,"connected_time":3877000000000,"state":"active","ping":50},{"user_id":484,"name":"Verathragna","steam_id":76561198067215453,"connected_time":786000000000,"state":"active","ping":56},{"user_id":486,"name":"ImmortalProphet","steam_id":76561198012352477,"connected_time":166000000000,"state":"active","ping":63},{"user_id":413,"name":"Sir Quacksalot","steam_id":76561198048942777,"connected_time":5390000000000,"state":"active","ping":93},{"user_id":480,"name":"FUSION","steam_id":76561197972659738,"connected_time":1181000000000,"state":"active","ping":42},{"user_id":396,"name":"greepfan","steam_id":76561198064359644,"connected_time":6201000000000,"state":"active","ping":53},{"user_id":381,"name":"Spiral Mountain","steam_id":76561198058683715,"connected_time":7671000000000,"state":"active","ping":72},{"user_id":476,"name":"totally not a pile of beans","steam_id":76561198119851931,"connected_time":1671000000000,"state":"active","ping":71},{"user_id":470,"name":"soltuno","steam_id":76561198074430565,"connected_time":1957000000000,"state":"active","ping":128},{"user_id":481,"name":"tell me your favorite dinosaur","steam_id":76561198080310253,"connected_time":1113000000000,"state":"active","ping":108},{"user_id":467,"name":"Christian Bonnie","steam_id":76561199194702127,"connected_time":2313000000000,"state":"active","ping":112},{"user_id":369,"name":"Trusty","steam_id":76561198035444237,"connected_time":8314000000000,"state":"active","ping":57},{"user_id":432,"name":"Bee_Pirate","steam_id":76561199000599111,"connected_time":4480000000000,"state":"active","ping":61},{"user_id":389,"name":"Bert.","steam_id":76561198140666346,"connected_time":6812000000000,"state":"active","ping":54},{"user_id":483,"name":"sawrik","steam_id":76561198018808213,"connected_time":803000000000,"state":"active","ping":72},{"user_id":459,"name":"LordOfTheNoobs","steam_id":76561197962697523,"connected_time":2660000000000,"state":"active","ping":71},{"user_id":473,"name":"Justinbk","steam_id":76561198076047549,"connected_time":1828000000000,"state":"active","ping":64},{"user_id":485,"name":"TOASTER IN A RAIN COAT","steam_id":76561199090392905,"connected_time":506000000000,"state":"active","ping":62},{"user_id":472,"name":"she's Ricking on my Pickle","steam_id":76561198043907258,"connected_time":1900000000000,"state":"active","ping":75},{"user_id":447,"name":"High School Nudical","steam_id":76561198172120615,"connected_time":3336000000000,"state":"active","ping":36}]},{"server_id":15,"name":"Uncletopia | New York City | 3 | Stopwatch","name_short":"nyc-3","host":"nyc-1.us.uncletopia.com","port":27035,"enabled":true,"region":"us-east","cc":"us","latitude":40.73061,"longitude":-73.93524,"reserved":0,"last_update":"0001-01-01T00:00:00Z","name_a2s":"Uncletopia | New York City | 3 | Stopwatch","protocol":17,"map":"workshop/koth_clearcut_b15.ugc2107050255","folder":"tf","game":"Team Fortress","app_id":440,"player_count":0,"max_players":24,"Bots":0,"server_type":"Dedicated","server_os":"Linux","password":true,"vac":true,"version":"7961495","steam_id":85568392924742820,"keywords":["cp","nocrits","nodmgspread","uncletopia"],"game_id":440,"stv_port":27036,"stv_name":"Uncletopia | New York City | 3 | Stopwatch | STV","players":null},{"server_id":16,"name":"Uncletopia | New York City | 4 | Community","name_short":"nyc-4","host":"nyc-1.us.uncletopia.com","port":27045,"enabled":true,"region":"us-east","cc":"us","latitude":40.73061,"longitude":-73.93524,"reserved":0,"last_update":"0001-01-01T00:00:00Z","name_a2s":"Uncletopia | New York City | 4 | Community","protocol":17,"map":"workshop/rd_asteroid_redux_b1.ugc2154902912","folder":"tf","game":"Team Fortress","app_id":440,"player_count":0,"max_players":24,"Bots":0,"server_type":"Dedicated","server_os":"Linux","password":true,"vac":true,"version":"7961495","steam_id":85568392924742821,"keywords":["beta","nocrits","nodmgspread","rd","uncletopia"],"game_id":440,"stv_port":27046,"stv_name":"Uncletopia | New York City | 4 | Community | STV","players":null},{"server_id":142,"name":"Uncletopia | São Paulo | 1 | All Maps","name_short":"sao-1","host":"sao-1.br.uncletopia.com","port":27015,"enabled":true,"region":"sa","cc":"br","latitude":-23.533773,"longitude":-46.62529,"reserved":0,"last_update":"0001-01-01T00:00:00Z","name_a2s":"Uncletopia | São Paulo | 1 | All Maps","protocol":17,"map":"koth_highpass","folder":"tf","game":"Team Fortress","app_id":440,"player_count":0,"max_players":24,"Bots":0,"server_type":"Dedicated","server_os":"Linux","password":true,"vac":true,"version":"7961495","steam_id":85568392924469996,"keywords":["cp","nocrits","nodmgspread","uncletopia"],"game_id":440,"stv_port":27016,"stv_name":"Uncletopia | São Paulo | 1 | All Maps | STV","players":null},{"server_id":143,"name":"Uncletopia | São Paulo | 2 | Community","name_short":"sao-2","host":"sao-2.br.uncletopia.com","port":27015,"enabled":true,"region":"sa","cc":"br","latitude":-23.533773,"longitude":-46.62529,"reserved":0,"last_update":"0001-01-01T00:00:00Z","name_a2s":"Uncletopia | São Paulo | 2 | Community","protocol":17,"map":"workshop/koth_ramjam_rc1.ugc459778887","folder":"tf","game":"Team Fortress","app_id":440,"player_count":0,"max_players":24,"Bots":0,"server_type":"Dedicated","server_os":"Linux","password":true,"vac":true,"version":"7961495","steam_id":85568392924485349,"keywords":["cp","nocrits","nodmgspread","uncletopia"],"game_id":440,"stv_port":27016,"stv_name":"Uncletopia | São Paulo | 2 | Community | STV","players":null},{"server_id":7,"name":"Uncletopia | Seattle | 1 | All Maps","name_short":"sea-1","host":"sea-1.us.uncletopia.com","port":27015,"enabled":true,"region":"us-west","cc":"us","latitude":47.608013,"longitude":-122.33517,"reserved":0,"last_update":"0001-01-01T00:00:00Z","name_a2s":"Uncletopia | Seattle | 1 | All Maps","protocol":17,"map":"pl_borneo","folder":"tf","game":"Team Fortress","app_id":440,"player_count":24,"max_players":24,"Bots":0,"server_type":"Dedicated","server_os":"Linux","password":true,"vac":true,"version":"7961495","steam_id":85568392924469997,"keywords":["nocrits","nodmgspread","payload","uncletopia"],"game_id":440,"stv_port":27016,"stv_name":"Uncletopia | Seattle | 1 | All Maps | STV","players":[{"user_id":697,"name":"pop-lo","steam_id":76561199309961848,"connected_time":1814000000000,"state":"active","ping":111},{"user_id":708,"name":"Arsonist Goose","steam_id":76561198147441830,"connected_time":316000000000,"state":"active","ping":70},{"user_id":702,"name":"a cat plushie","steam_id":76561198080046542,"connected_time":1018000000000,"state":"active","ping":45},{"user_id":687,"name":"[72Vs] James Yeetoe","steam_id":76561198314789145,"connected_time":2296000000000,"state":"active","ping":46},{"user_id":633,"name":"COOL master_9","steam_id":76561198073041151,"connected_time":6793000000000,"state":"active","ping":82},{"user_id":637,"name":"squart guy","steam_id":76561199411560141,"connected_time":6663000000000,"state":"active","ping":48},{"user_id":688,"name":"I am the pinnacle of funny","steam_id":76561198306393090,"connected_time":2255000000000,"state":"active","ping":90},{"user_id":676,"name":"steezy","steam_id":76561198263134652,"connected_time":2537000000000,"state":"active","ping":61},{"user_id":694,"name":"jayeskae","steam_id":76561198144220801,"connected_time":1941000000000,"state":"active","ping":51},{"user_id":691,"name":"SmallErection","steam_id":76561198071770147,"connected_time":2145000000000,"state":"active","ping":86},{"user_id":711,"name":"slushy :))","steam_id":76561198135281802,"connected_time":222000000000,"state":"active","ping":43},{"user_id":636,"name":"BlueSlugcat","steam_id":76561198153004590,"connected_time":6724000000000,"state":"active","ping":58},{"user_id":700,"name":"ilun","steam_id":76561198042913843,"connected_time":1181000000000,"state":"active","ping":62},{"user_id":693,"name":"Cyber","steam_id":76561198323298672,"connected_time":1991000000000,"state":"active","ping":51},{"user_id":678,"name":"scallop pigeon","steam_id":76561199488457138,"connected_time":2515000000000,"state":"active","ping":58},{"user_id":641,"name":"Gwen","steam_id":76561198276385778,"connected_time":6250000000000,"state":"active","ping":48},{"user_id":695,"name":"Steve","steam_id":76561198352805460,"connected_time":1875000000000,"state":"active","ping":68},{"user_id":686,"name":"Seriously Bruh","steam_id":76561198070408485,"connected_time":2424000000000,"state":"active","ping":55},{"user_id":703,"name":"♥♡∞T.TV/iMaCH∞♡♥","steam_id":76561198820527565,"connected_time":926000000000,"state":"active","ping":49},{"user_id":655,"name":"Tom Skirrett","steam_id":76561198014600788,"connected_time":4443000000000,"state":"active","ping":70},{"user_id":701,"name":"[72Vs] Far_Beyond_Liber-tea","steam_id":76561198070649733,"connected_time":1026000000000,"state":"active","ping":48},{"user_id":685,"name":"rat with allergies","steam_id":76561198062451648,"connected_time":2438000000000,"state":"active","ping":93},{"user_id":707,"name":"Sweets","steam_id":76561198998446307,"connected_time":357000000000,"state":"active","ping":68},{"user_id":713,"name":"[TrC] Dackstrus","steam_id":76561197973518509,"connected_time":128000000000,"state":"active","ping":60}]},{"server_id":119,"name":"Uncletopia | Seattle | 2 | All Maps","name_short":"sea-2","host":"sea-1.us.uncletopia.com","port":27025,"enabled":true,"region":"us-west","cc":"us","latitude":47.608013,"longitude":-122.33517,"reserved":0,"last_update":"0001-01-01T00:00:00Z","name_a2s":"Uncletopia | Seattle | 2 | All Maps","protocol":17,"map":"pl_hoodoo_final","folder":"tf","game":"Team Fortress","app_id":440,"player_count":21,"max_players":24,"Bots":0,"server_type":"Dedicated","server_os":"Linux","password":true,"vac":true,"version":"7961495","steam_id":85568392924469998,"keywords":["nocrits","nodmgspread","payload","uncletopia"],"game_id":440,"stv_port":27026,"stv_name":"Uncletopia | Seattle | 2 | All Maps | STV","players":[{"user_id":305,"name":"Mr. DeLarge","steam_id":76561198336820066,"connected_time":6061000000000,"state":"active","ping":49},{"user_id":399,"name":"Dosario","steam_id":76561198298095535,"connected_time":114000000000,"state":"active","ping":47},{"user_id":389,"name":"A UsedNom","steam_id":76561198402832756,"connected_time":1252000000000,"state":"active","ping":57},{"user_id":391,"name":"mooney","steam_id":76561199110622484,"connected_time":844000000000,"state":"active","ping":56},{"user_id":396,"name":"DOPEam1ne","steam_id":76561198112204774,"connected_time":199000000000,"state":"active","ping":65},{"user_id":378,"name":":)","steam_id":76561198210322871,"connected_time":1902000000000,"state":"active","ping":82},{"user_id":339,"name":"aisu","steam_id":76561198043768507,"connected_time":4291000000000,"state":"active","ping":94},{"user_id":385,"name":"prime example of furry L","steam_id":76561198097745857,"connected_time":1337000000000,"state":"active","ping":49},{"user_id":359,"name":"Eric4bz","steam_id":76561198054439606,"connected_time":2982000000000,"state":"active","ping":63},{"user_id":376,"name":"Dextersbrain","steam_id":76561198011831579,"connected_time":2235000000000,"state":"active","ping":56},{"user_id":380,"name":"General Fisticuffs","steam_id":76561198255721392,"connected_time":1774000000000,"state":"active","ping":123},{"user_id":400,"name":"moomin","steam_id":76561198336244269,"connected_time":96000000000,"state":"active","ping":80},{"user_id":311,"name":"I AM A DINOSAUR","steam_id":76561198039814201,"connected_time":5803000000000,"state":"active","ping":68},{"user_id":379,"name":"orbisg","steam_id":76561198004133638,"connected_time":1867000000000,"state":"active","ping":65},{"user_id":333,"name":"silverspark","steam_id":76561198277421732,"connected_time":4397000000000,"state":"active","ping":73},{"user_id":349,"name":"a festive sooley","steam_id":76561198134500189,"connected_time":3716000000000,"state":"active","ping":105},{"user_id":388,"name":"Qas","steam_id":76561198067564482,"connected_time":1312000000000,"state":"active","ping":85},{"user_id":371,"name":"Wheaty","steam_id":76561198003553412,"connected_time":2592000000000,"state":"active","ping":51},{"user_id":336,"name":"DodoBird","steam_id":76561198136880364,"connected_time":4382000000000,"state":"active","ping":117},{"user_id":373,"name":"yowhatupitk","steam_id":76561199224530901,"connected_time":2565000000000,"state":"active","ping":45},{"user_id":386,"name":"Bendidy","steam_id":76561198041964300,"connected_time":1336000000000,"state":"active","ping":61}]},{"server_id":406,"name":"Uncletopia | Seattle | 3 | Stopwatch","name_short":"sea-3","host":"sea-1.us.uncletopia.com","port":27035,"enabled":true,"region":"us-west","cc":"us","latitude":47.608013,"longitude":-122.33517,"reserved":0,"last_update":"0001-01-01T00:00:00Z","name_a2s":"Uncletopia | Seattle | 3 | Stopwatch","protocol":17,"map":"koth_highpass","folder":"tf","game":"Team Fortress","app_id":440,"player_count":0,"max_players":24,"Bots":0,"server_type":"Dedicated","server_os":"Linux","password":true,"vac":true,"version":"7961495","steam_id":85568392924515217,"keywords":["cp","nocrits","nodmgspread","uncletopia"],"game_id":440,"stv_port":27036,"stv_name":"Uncletopia | Seattle | 3 | Stopwatch | STV","players":null},{"server_id":17,"name":"Uncletopia | San Francisco | 1 | All Maps","name_short":"sfo-1","host":"sfo-1.us.uncletopia.com","port":27015,"enabled":true,"region":"us-west","cc":"us","latitude":37.77397,"longitude":-122.4313,"reserved":0,"last_update":"0001-01-01T00:00:00Z","name_a2s":"Uncletopia | San Francisco | 1 | All Maps","protocol":17,"map":"pl_barnblitz","folder":"tf","game":"Team Fortress","app_id":440,"player_count":23,"max_players":24,"Bots":0,"server_type":"Dedicated","server_os":"Linux","password":true,"vac":true,"version":"7961495","steam_id":85568392924469999,"keywords":["nocrits","nodmgspread","payload","uncletopia"],"game_id":440,"stv_port":27016,"stv_name":"Uncletopia | San Francisco | 1 | All Maps | STV","players":[{"user_id":218,"name":"JDizzle","steam_id":76561199122696841,"connected_time":2629000000000,"state":"active","ping":99},{"user_id":235,"name":"OniSlays","steam_id":76561198043875292,"connected_time":1327000000000,"state":"active","ping":81},{"user_id":258,"name":"Dongus","steam_id":76561197979056451,"connected_time":250000000000,"state":"active","ping":67},{"user_id":256,"name":"Acolyte of Goatse","steam_id":76561198046526036,"connected_time":299000000000,"state":"active","ping":60},{"user_id":241,"name":"Cebula33","steam_id":76561197984964095,"connected_time":936000000000,"state":"active","ping":66},{"user_id":251,"name":"Sinn","steam_id":76561199013434543,"connected_time":635000000000,"state":"active","ping":59},{"user_id":233,"name":"Cheesed Burger","steam_id":76561198066425198,"connected_time":1414000000000,"state":"active","ping":59},{"user_id":255,"name":"Main Opp","steam_id":76561198124910662,"connected_time":346000000000,"state":"active","ping":54},{"user_id":243,"name":"Imagine being trash at Medic","steam_id":76561197986530028,"connected_time":890000000000,"state":"active","ping":100},{"user_id":237,"name":"DBosch","steam_id":76561198064290290,"connected_time":1274000000000,"state":"active","ping":111},{"user_id":188,"name":"Low IQ Specimen","steam_id":76561198169309768,"connected_time":4946000000000,"state":"active","ping":70},{"user_id":211,"name":"Madcows","steam_id":76561198021695614,"connected_time":2908000000000,"state":"active","ping":55},{"user_id":252,"name":"Metalogic","steam_id":76561198049469629,"connected_time":619000000000,"state":"active","ping":100},{"user_id":246,"name":"NASA PEEPO","steam_id":76561198024982267,"connected_time":851000000000,"state":"active","ping":62},{"user_id":213,"name":"Jack Horner in a F-16","steam_id":76561198062438923,"connected_time":2774000000000,"state":"active","ping":101},{"user_id":239,"name":"Drapph","steam_id":76561199384213314,"connected_time":1100000000000,"state":"active","ping":115},{"user_id":214,"name":"for eel? on cod? no carp?","steam_id":76561198095121758,"connected_time":2720000000000,"state":"active","ping":39},{"user_id":208,"name":"TheMagicMrWaffle","steam_id":76561198104357256,"connected_time":2985000000000,"state":"active","ping":64},{"user_id":247,"name":"enhanced with disney's FastPlay","steam_id":76561198164134387,"connected_time":842000000000,"state":"active","ping":82},{"user_id":240,"name":"El Super Monkey Ball","steam_id":76561198135634819,"connected_time":1045000000000,"state":"active","ping":63},{"user_id":254,"name":"Potato Knishes","steam_id":76561198063539547,"connected_time":359000000000,"state":"active","ping":76},{"user_id":257,"name":"Le Fingus","steam_id":76561198029042032,"connected_time":293000000000,"state":"active","ping":54},{"user_id":195,"name":"Igrium","steam_id":76561198119549811,"connected_time":4643000000000,"state":"active","ping":62}]},{"server_id":18,"name":"Uncletopia | San Francisco | 2 | All Maps","name_short":"sfo-2","host":"sfo-1.us.uncletopia.com","port":27025,"enabled":true,"region":"us-west","cc":"us","latitude":37.77397,"longitude":-122.4313,"reserved":0,"last_update":"0001-01-01T00:00:00Z","name_a2s":"Uncletopia | San Francisco | 2 | All Maps","protocol":17,"map":"cp_sunshine","folder":"tf","game":"Team Fortress","app_id":440,"player_count":24,"max_players":24,"Bots":0,"server_type":"Dedicated","server_os":"Linux","password":true,"vac":true,"version":"7961495","steam_id":85568392924470000,"keywords":["cp","nocrits","nodmgspread","uncletopia"],"game_id":440,"stv_port":27026,"stv_name":"Uncletopia | San Francisco | 2 | All Maps | STV","players":[{"user_id":122,"name":"The_RainbowTrout","steam_id":76561199309554436,"connected_time":592000000000,"state":"active","ping":56},{"user_id":121,"name":"octane infused rabies7","steam_id":76561198309010627,"connected_time":640000000000,"state":"active","ping":60},{"user_id":107,"name":"sheep man shaun","steam_id":76561198994349483,"connected_time":1706000000000,"state":"active","ping":53},{"user_id":101,"name":"hog cranker","steam_id":76561198073587145,"connected_time":1978000000000,"state":"active","ping":95},{"user_id":63,"name":"♦♣Quadric♥♠","steam_id":76561198061003853,"connected_time":5436000000000,"state":"active","ping":115},{"user_id":112,"name":"Decuplets","steam_id":76561198080661586,"connected_time":1501000000000,"state":"active","ping":99},{"user_id":103,"name":"Buswolley","steam_id":76561197995205571,"connected_time":1802000000000,"state":"active","ping":51},{"user_id":116,"name":"tqman","steam_id":76561199031963925,"connected_time":1286000000000,"state":"active","ping":69},{"user_id":119,"name":"Gerbias","steam_id":76561198001002427,"connected_time":714000000000,"state":"active","ping":65},{"user_id":100,"name":"theProfessor [no PhD]","steam_id":76561198142243867,"connected_time":2162000000000,"state":"active","ping":68},{"user_id":127,"name":"Kris-The Moss Eater","steam_id":76561198060061139,"connected_time":194000000000,"state":"active","ping":47},{"user_id":126,"name":"Tony Rigatoni","steam_id":76561198064846676,"connected_time":352000000000,"state":"active","ping":81},{"user_id":125,"name":"NovaPrankster","steam_id":76561198156125151,"connected_time":547000000000,"state":"active","ping":50},{"user_id":51,"name":"Hero Smasher","steam_id":76561198150681669,"connected_time":6284000000000,"state":"active","ping":54},{"user_id":129,"name":"Saddam","steam_id":76561197985725267,"connected_time":51000000000,"state":"active","ping":84},{"user_id":109,"name":"CPTforever","steam_id":76561198237767198,"connected_time":1669000000000,"state":"active","ping":46},{"user_id":128,"name":"DuckyMcZaps","steam_id":76561197964723074,"connected_time":103000000000,"state":"active","ping":84},{"user_id":124,"name":"Droog Longrin","steam_id":76561198079411567,"connected_time":570000000000,"state":"active","ping":109},{"user_id":111,"name":"Fajita Master","steam_id":76561198329150962,"connected_time":1524000000000,"state":"active","ping":95},{"user_id":72,"name":"Karg","steam_id":76561198091387866,"connected_time":4735000000000,"state":"active","ping":66},{"user_id":45,"name":"habanero chilli pepper","steam_id":76561197970371943,"connected_time":6692000000000,"state":"active","ping":158},{"user_id":97,"name":"Tuna!","steam_id":76561198354590331,"connected_time":2435000000000,"state":"active","ping":74},{"user_id":98,"name":"Alchemist","steam_id":76561198094238189,"connected_time":2409000000000,"state":"active","ping":73},{"user_id":113,"name":"Trouser Snivy","steam_id":76561198073788829,"connected_time":1485000000000,"state":"active","ping":94}]},{"server_id":19,"name":"Uncletopia | San Francisco | 3 | Stopwatch","name_short":"sfo-3","host":"sfo-1.us.uncletopia.com","port":27035,"enabled":true,"region":"us-west","cc":"us","latitude":37.77397,"longitude":-122.4313,"reserved":0,"last_update":"0001-01-01T00:00:00Z","name_a2s":"Uncletopia | San Francisco | 3 | Stopwatch","protocol":17,"map":"workshop/koth_product_final.ugc454272353","folder":"tf","game":"Team Fortress","app_id":440,"player_count":5,"max_players":24,"Bots":0,"server_type":"Dedicated","server_os":"Linux","password":true,"vac":true,"version":"7961495","steam_id":85568392924742824,"keywords":["cp","nocrits","nodmgspread","uncletopia"],"game_id":440,"stv_port":27036,"stv_name":"Uncletopia | San Francisco | 3 | Stopwatch | STV","players":[{"user_id":12,"name":"Blake","steam_id":76561198884871311,"connected_time":1411000000000,"state":"active","ping":82},{"user_id":13,"name":"NotAToaster","steam_id":76561198349938357,"connected_time":1335000000000,"state":"active","ping":102},{"user_id":14,"name":"Slylonewolf47","steam_id":76561198866163330,"connected_time":1323000000000,"state":"active","ping":50},{"user_id":16,"name":"Lemon","steam_id":76561199467334502,"connected_time":217000000000,"state":"active","ping":40},{"user_id":17,"name":"trackpad gaming | f2p","steam_id":76561198840414371,"connected_time":111000000000,"state":"active","ping":67}]},{"server_id":20,"name":"Uncletopia | San Francisco | 4 | Community","name_short":"sfo-4","host":"sfo-1.us.uncletopia.com","port":27045,"enabled":true,"region":"us-west","cc":"us","latitude":37.77397,"longitude":-122.4313,"reserved":0,"last_update":"0001-01-01T00:00:00Z","name_a2s":"Uncletopia | San Francisco | 4 | Community","protocol":17,"map":"workshop/cp_glacier_rc6.ugc2905735376","folder":"tf","game":"Team Fortress","app_id":440,"player_count":0,"max_players":24,"Bots":0,"server_type":"Dedicated","server_os":"Linux","password":true,"vac":true,"version":"7961495","steam_id":85568392924742826,"keywords":["cp","nocrits","nodmgspread","uncletopia"],"game_id":440,"stv_port":27046,"stv_name":"Uncletopia | San Francisco | 4 | Community | STV","players":null},{"server_id":141,"name":"Uncletopia | Sydney | 1 | All Maps","name_short":"syd-1","host":"syd-1.au.uncletopia.com","port":27015,"enabled":true,"region":"au","cc":"au","latitude":-33.865143,"longitude":151.2099,"reserved":0,"last_update":"0001-01-01T00:00:00Z","name_a2s":"Uncletopia | Sydney | 1 | All Maps","protocol":17,"map":"pl_upward","folder":"tf","game":"Team Fortress","app_id":440,"player_count":20,"max_players":24,"Bots":0,"server_type":"Dedicated","server_os":"Linux","password":true,"vac":true,"version":"7961495","steam_id":85568392924470001,"keywords":["nocrits","nodmgspread","payload","uncletopia"],"game_id":440,"stv_port":27016,"stv_name":"Uncletopia | Sydney | 1 | All Maps | STV","players":[{"user_id":38,"name":"Mayonnaise","steam_id":76561199001871472,"connected_time":1306000000000,"state":"active","ping":54},{"user_id":42,"name":"E.T (ʘ‿ʘ)つ","steam_id":76561198037009287,"connected_time":1020000000000,"state":"active","ping":54},{"user_id":30,"name":"Blondie","steam_id":76561198046977058,"connected_time":2242000000000,"state":"active","ping":65},{"user_id":63,"name":"Phibs","steam_id":76561199323730865,"connected_time":161000000000,"state":"active","ping":44},{"user_id":40,"name":"speed bomb","steam_id":76561198277363788,"connected_time":1197000000000,"state":"active","ping":71},{"user_id":27,"name":"💢MsLisbeth💢","steam_id":76561198178151759,"connected_time":2666000000000,"state":"active","ping":51},{"user_id":44,"name":"Skulls","steam_id":76561197985470159,"connected_time":998000000000,"state":"active","ping":60},{"user_id":47,"name":"WEEABOO69420","steam_id":76561198114276713,"connected_time":900000000000,"state":"active","ping":106},{"user_id":48,"name":"koyaa","steam_id":76561198047484772,"connected_time":867000000000,"state":"active","ping":75},{"user_id":21,"name":"Sliced Toast","steam_id":76561199220276252,"connected_time":2832000000000,"state":"active","ping":74},{"user_id":37,"name":"Max","steam_id":76561198088406066,"connected_time":1387000000000,"state":"active","ping":115},{"user_id":45,"name":"LancerAnimates","steam_id":76561199446896562,"connected_time":994000000000,"state":"active","ping":57},{"user_id":64,"name":"Kerryn's boyfriend","steam_id":76561199124736340,"connected_time":149000000000,"state":"active","ping":69},{"user_id":49,"name":"how to spoon:","steam_id":76561198385737243,"connected_time":841000000000,"state":"active","ping":56},{"user_id":58,"name":"the lightning guy","steam_id":76561199222027878,"connected_time":526000000000,"state":"active","ping":63},{"user_id":59,"name":"Onion Farmer","steam_id":76561198449452640,"connected_time":486000000000,"state":"active","ping":153},{"user_id":53,"name":"foshizzle","steam_id":76561198044488273,"connected_time":773000000000,"state":"active","ping":50},{"user_id":60,"name":"AwesomeSauce","steam_id":76561198133277383,"connected_time":410000000000,"state":"active","ping":48},{"user_id":61,"name":"Majima","steam_id":76561198288970258,"connected_time":379000000000,"state":"active","ping":50},{"user_id":65,"name":"frog","steam_id":76561198300661780,"connected_time":75000000000,"state":"active","ping":37}]},{"server_id":123,"name":"Uncletopia | Sydney | 2 | All Maps","name_short":"syd-2","host":"syd-1.au.uncletopia.com","port":27025,"enabled":true,"region":"au","cc":"au","latitude":-33.865143,"longitude":151.2099,"reserved":0,"last_update":"0001-01-01T00:00:00Z","name_a2s":"Uncletopia | Sydney | 2 | All Maps","protocol":17,"map":"koth_lakeside_final","folder":"tf","game":"Team Fortress","app_id":440,"player_count":0,"max_players":24,"Bots":0,"server_type":"Dedicated","server_os":"Linux","password":true,"vac":true,"version":"7961495","steam_id":85568392924470002,"keywords":["cp","nocrits","nodmgspread","uncletopia"],"game_id":440,"stv_port":27026,"stv_name":"Uncletopia | Sydney | 2 | All Maps | STV","players":null},{"server_id":395,"name":"Uncletopia | Sydney | 3 | All Maps","name_short":"syd-3","host":"syd-1.au.uncletopia.com","port":27035,"enabled":true,"region":"au","cc":"au","latitude":-33.865143,"longitude":151.2099,"reserved":0,"last_update":"0001-01-01T00:00:00Z","name_a2s":"Uncletopia | Sydney | 3 | All Maps","protocol":17,"map":"pl_frontier_final","folder":"tf","game":"Team Fortress","app_id":440,"player_count":5,"max_players":24,"Bots":0,"server_type":"Dedicated","server_os":"Linux","password":true,"vac":true,"version":"7961495","steam_id":85568392925194467,"keywords":["nocrits","nodmgspread","payload","uncletopia"],"game_id":440,"stv_port":27036,"stv_name":"Uncletopia | Sydney | 3 | All Maps | STV","players":[{"user_id":3,"name":"Banana factory","steam_id":76561199112055933,"connected_time":1101000000000,"state":"active","ping":75},{"user_id":4,"name":"Marrow","steam_id":76561199137552723,"connected_time":1094000000000,"state":"active","ping":71},{"user_id":5,"name":"Rico McDragon","steam_id":76561199252363831,"connected_time":1088000000000,"state":"active","ping":73},{"user_id":6,"name":"Shikaku_Rei","steam_id":76561198302607316,"connected_time":1080000000000,"state":"active","ping":66},{"user_id":7,"name":"Sir Bigg","steam_id":76561199080759165,"connected_time":192000000000,"state":"active","ping":55}]},{"server_id":396,"name":"Uncletopia | Sydney | 4 | All Maps","name_short":"syd-4","host":"syd-1.au.uncletopia.com","port":27045,"enabled":true,"region":"au","cc":"au","latitude":-33.865143,"longitude":151.2099,"reserved":0,"last_update":"0001-01-01T00:00:00Z","name_a2s":"Uncletopia | Sydney | 4 | All Maps","protocol":17,"map":"cp_process_final","folder":"tf","game":"Team Fortress","app_id":440,"player_count":0,"max_players":24,"Bots":0,"server_type":"Dedicated","server_os":"Linux","password":true,"vac":true,"version":"7961495","steam_id":85568392925397958,"keywords":["cp","nocrits","nodmgspread","uncletopia"],"game_id":440,"stv_port":27046,"stv_name":"Uncletopia | Sydney | 4 | All Maps | STV","players":null},{"server_id":58,"name":"Uncletopia | Sydney | 5 | Stopwatch","name_short":"syd-5","host":"syd-1.au.uncletopia.com","port":27055,"enabled":true,"region":"au","cc":"au","latitude":-33.865143,"longitude":151.2099,"reserved":0,"last_update":"0001-01-01T00:00:00Z","name_a2s":"Uncletopia | Sydney | 5 | Stopwatch","protocol":17,"map":"pl_frontier_final","folder":"tf","game":"Team Fortress","app_id":440,"player_count":0,"max_players":24,"Bots":0,"server_type":"Dedicated","server_os":"Linux","password":true,"vac":true,"version":"7961495","steam_id":85568392925397959,"keywords":["nocrits","nodmgspread","payload","uncletopia"],"game_id":440,"stv_port":27056,"stv_name":"Uncletopia | Sydney | 5 | Stopwatch | STV","players":null},{"server_id":59,"name":"Uncletopia | Sydney | 6 | Community","name_short":"syd-6","host":"syd-1.au.uncletopia.com","port":27065,"enabled":true,"region":"au","cc":"au","latitude":-33.865143,"longitude":151.2099,"reserved":0,"last_update":"0001-01-01T00:00:00Z","name_a2s":"Uncletopia | Sydney | 6 | Community","protocol":17,"map":"workshop/koth_kemptown_rc1.ugc767410655","folder":"tf","game":"Team Fortress","app_id":440,"player_count":0,"max_players":24,"Bots":0,"server_type":"Dedicated","server_os":"Linux","password":true,"vac":true,"version":"7961495","steam_id":85568392925397960,"keywords":["cp","nocrits","nodmgspread","uncletopia"],"game_id":440,"stv_port":27066,"stv_name":"Uncletopia | Sydney | 6 | Community | STV","players":null},{"server_id":49,"name":"Uncletopia | Warsaw | 1 | One Thousand Uncles","name_short":"waw-1","host":"waw-1.pl.uncletopia.com","port":27015,"enabled":true,"region":"eu","cc":"pl","latitude":52.2297,"longitude":21.017532,"reserved":0,"last_update":"0001-01-01T00:00:00Z","name_a2s":"Uncletopia | Warsaw | 1 | One Thousand Uncles","protocol":17,"map":"pl_hoodoo_final","folder":"tf","game":"Team Fortress","app_id":440,"player_count":0,"max_players":32,"Bots":0,"server_type":"Dedicated","server_os":"Linux","password":true,"vac":true,"version":"7961495","steam_id":85568392925397850,"keywords":["alltalk","danepve","increased_maxplayers","nocrits","norespawntime","payload","uncletopia"],"game_id":440,"stv_port":0,"stv_name":"","players":null},{"server_id":50,"name":"Uncletopia | Warsaw | 2 | One Thousand Uncles","name_short":"waw-2","host":"waw-1.pl.uncletopia.com","port":27025,"enabled":true,"region":"eu","cc":"pl","latitude":52.2297,"longitude":21.017532,"reserved":0,"last_update":"0001-01-01T00:00:00Z","name_a2s":"Uncletopia | Warsaw | 2 | One Thousand Uncles","protocol":17,"map":"pl_upward","folder":"tf","game":"Team Fortress","app_id":440,"player_count":20,"max_players":32,"Bots":16,"server_type":"Dedicated","server_os":"Linux","password":true,"vac":true,"version":"7961495","steam_id":85568392925397851,"keywords":["alltalk","bots","danepve","increased_maxplayers","nocrits","norespawntime","payload","uncletopia"],"game_id":440,"stv_port":0,"stv_name":"","players":[{"user_id":936,"name":"cold#panda","steam_id":76561199220136710,"connected_time":216000000000,"state":"active","ping":137},{"user_id":931,"name":"Crimson","steam_id":76561197987552332,"connected_time":1686000000000,"state":"active","ping":58},{"user_id":932,"name":"trans werewolf","steam_id":76561198107235989,"connected_time":1647000000000,"state":"active","ping":34},{"user_id":935,"name":"Retr0_","steam_id":76561198202178716,"connected_time":1029000000000,"state":"active","ping":103}]},{"server_id":51,"name":"Uncletopia | Warsaw | 3 | All Maps","name_short":"waw-3","host":"waw-1.pl.uncletopia.com","port":27035,"enabled":true,"region":"eu","cc":"pl","latitude":52.2297,"longitude":21.017532,"reserved":0,"last_update":"0001-01-01T00:00:00Z","name_a2s":"Uncletopia | Warsaw | 3 | All Maps","protocol":17,"map":"koth_viaduct","folder":"tf","game":"Team Fortress","app_id":440,"player_count":0,"max_players":24,"Bots":0,"server_type":"Dedicated","server_os":"Linux","password":true,"vac":true,"version":"7961495","steam_id":85568392925397852,"keywords":["cp","nocrits","nodmgspread","uncletopia"],"game_id":440,"stv_port":27036,"stv_name":"Uncletopia | Warsaw | 3 | All Maps | STV","players":null},{"server_id":52,"name":"Uncletopia | Warsaw | 4 | All Maps","name_short":"waw-4","host":"waw-1.pl.uncletopia.com","port":27045,"enabled":true,"region":"eu","cc":"pl","latitude":52.2297,"longitude":21.017532,"reserved":0,"last_update":"0001-01-01T00:00:00Z","name_a2s":"Uncletopia | Warsaw | 4 | All Maps","protocol":17,"map":"pl_swiftwater_final1","folder":"tf","game":"Team Fortress","app_id":440,"player_count":0,"max_players":24,"Bots":0,"server_type":"Dedicated","server_os":"Linux","password":true,"vac":true,"version":"7961495","steam_id":85568392925397853,"keywords":["nocrits","nodmgspread","payload","uncletopia"],"game_id":440,"stv_port":27046,"stv_name":"Uncletopia | Warsaw | 4 | All Maps | STV","players":null},{"server_id":53,"name":"Uncletopia | Warsaw | 5 | Stopwatch","name_short":"waw-5","host":"waw-1.pl.uncletopia.com","port":27055,"enabled":true,"region":"eu","cc":"pl","latitude":52.2297,"longitude":21.017532,"reserved":0,"last_update":"0001-01-01T00:00:00Z","name_a2s":"Uncletopia | Warsaw | 5 | Stopwatch","protocol":17,"map":"workshop/koth_clearcut_b15.ugc2107050255","folder":"tf","game":"Team Fortress","app_id":440,"player_count":0,"max_players":24,"Bots":0,"server_type":"Dedicated","server_os":"Linux","password":true,"vac":true,"version":"7961495","steam_id":85568392925397854,"keywords":["cp","nocrits","nodmgspread","uncletopia"],"game_id":440,"stv_port":27056,"stv_name":"Uncletopia | Warsaw | 5 | Stopwatch | STV","players":null},{"server_id":54,"name":"Uncletopia | Warsaw | 6 | Community","name_short":"waw-6","host":"waw-1.pl.uncletopia.com","port":27065,"enabled":true,"region":"eu","cc":"pl","latitude":52.2297,"longitude":21.017532,"reserved":0,"last_update":"0001-01-01T00:00:00Z","name_a2s":"Uncletopia | Warsaw | 6 | Community","protocol":17,"map":"workshop/pl_badwater_pro_v12.ugc2142942074","folder":"tf","game":"Team Fortress","app_id":440,"player_count":0,"max_players":24,"Bots":0,"server_type":"Dedicated","server_os":"Linux","password":true,"vac":true,"version":"7961495","steam_id":85568392925397856,"keywords":["nocrits","nodmgspread","payload","uncletopia"],"game_id":440,"stv_port":27066,"stv_name":"Uncletopia | Warsaw | 6 | Community | STV","players":null}]}