{"status":true,"message":"","result":[{"server_id":9,"name":"Uncletopia | Atlanta | 1 | All Maps","name_short":"atl-1","host":"atl-1.us.uncletopia.com","port":27015,"enabled":true,"region":"us-east","cc":"us","latitude":33.753746,"longitude":-84.38633,"reserved":0,"last_update":"0001-01-01T00:00:00Z","name_a2s":"Uncletopia | Atlanta | 1 | All Maps","protocol":17,"map":"pl_barnblitz","folder":"tf","game":"Team Fortress","app_id":440,"player_count":24,"max_players":24,"Bots":0,"server_type":"Dedicated","server_os":"Linux","password":true,"vac":true,"version":"7757534","steam_id":85568392924469982,"keywords":["nocrits","nodmgspread","payload","uncletopia"],"game_id":440,"stv_port":27016,"stv_name":"Uncletopia | Atlanta | 1 | All Maps | STV","players":[{"user_id":227,"name":"Wumbologist","steam_id":76561198188729514,"connected_time":1625000000000,"state":"active","ping":46},{"user_id":207,"name":"urine trouble","steam_id":76561199013266640,"connected_time":3134000000000,"state":"active","ping":68},{"user_id":231,"name":"Room_237","steam_id":76561199135081315,"connected_time":1207000000000,"state":"active","ping":79},{"user_id":209,"name":"Punks","steam_id":76561199140940650,"connected_time":2817000000000,"state":"active","ping":56},{"user_id":170,"name":"Im High","steam_id":76561198049954886,"connected_time":5619000000000,"state":"active","ping":70},{"user_id":211,"name":"kohlhagen","steam_id":76561198120440587,"connected_time":2337000000000,"state":"active","ping":49},{"user_id":234,"name":"Wengatang","steam_id":76561198021747059,"connected_time":818000000000,"state":"active","ping":56},{"user_id":210,"name":"Tankie Terrorizer","steam_id":76561198353725622,"connected_time":2606000000000,"state":"active","ping":85},{"user_id":236,"name":"Taco","steam_id":76561198034670953,"connected_time":427000000000,"state":"active","ping":79},{"user_id":228,"name":"root beer enthusiast","steam_id":76561198124791670,"connected_time":1225000000000,"state":"active","ping":42},{"user_id":226,"name":"Sanic_Bum","steam_id":76561198094179822,"connected_time":1854000000000,"state":"active","ping":55},{"user_id":197,"name":"Prof. Eggnog","steam_id":76561198193389166,"connected_time":4015000000000,"state":"active","ping":109},{"user_id":200,"name":"sassy loli","steam_id":76561198402316065,"connected_time":3786000000000,"state":"active","ping":91},{"user_id":174,"name":"PunchTrees 7","steam_id":76561198054328901,"connected_time":5538000000000,"state":"active","ping":61},{"user_id":229,"name":"Hulkster","steam_id":76561198278156353,"connected_time":1224000000000,"state":"active","ping":121},{"user_id":233,"name":"MadEye","steam_id":76561198972627948,"connected_time":1165000000000,"state":"active","ping":54},{"user_id":237,"name":"William Wallace","steam_id":76561199343316814,"connected_time":344000000000,"state":"active","ping":56},{"user_id":222,"name":"Surgicalsubset","steam_id":76561198983418107,"connected_time":2176000000000,"state":"active","ping":86},{"user_id":232,"name":"DankLonk","steam_id":76561198156301541,"connected_time":1188000000000,"state":"active","ping":84},{"user_id":230,"name":"e","steam_id":76561198131245396,"connected_time":1222000000000,"state":"active","ping":68},{"user_id":235,"name":"AmC","steam_id":76561198109731140,"connected_time":801000000000,"state":"active","ping":112},{"user_id":223,"name":"nup noodle","steam_id":76561198101278181,"connected_time":2166000000000,"state":"active","ping":84},{"user_id":181,"name":"Ashes!","steam_id":76561197998475441,"connected_time":5433000000000,"state":"active","ping":76},{"user_id":239,"name":"the man of coom bob","steam_id":76561199082474364,"connected_time":291000000000,"state":"active","ping":74}]},{"server_id":104,"name":"Uncletopia | Atlanta | 2 | All Maps","name_short":"atl-2","host":"atl-1.us.uncletopia.com","port":27025,"enabled":true,"region":"us-east","cc":"us","latitude":33.753746,"longitude":-84.38633,"reserved":0,"last_update":"0001-01-01T00:00:00Z","name_a2s":"Uncletopia | Atlanta | 2 | All Maps","protocol":17,"map":"koth_badlands","folder":"tf","game":"Team Fortress","app_id":440,"player_count":0,"max_players":24,"Bots":0,"server_type":"Dedicated","server_os":"Linux","password":true,"vac":true,"version":"7757534","steam_id":85568392924469983,"keywords":["cp","nocrits","nodmgspread","uncletopia"],"game_id":440,"stv_port":27026,"stv_name":"Uncletopia | Atlanta | 2 | All Maps | STV","players":null},{"server_id":400,"name":"Uncletopia | Atlanta | 3 | Community","name_short":"atl-3","host":"atl-1.us.uncletopia.com","port":27035,"enabled":true,"region":"us-east","cc":"us","latitude":33.753746,"longitude":-84.38633,"reserved":0,"last_update":"0001-01-01T00:00:00Z","name_a2s":"Uncletopia | Atlanta | 3 | Community","protocol":17,"map":"workshop/koth_synthetic_rc6a.ugc1549817316","folder":"tf","game":"Team Fortress","app_id":440,"player_count":0,"max_players":24,"Bots":0,"server_type":"Dedicated","server_os":"Linux","password":true,"vac":true,"version":"7757534","steam_id":85568392924515187,"keywords":["cp","nocrits","nodmgspread","uncletopia"],"game_id":440,"stv_port":27036,"stv_name":"Uncletopia | Atlanta | 3 | Community | STV","players":null},{"server_id":401,"name":"Uncletopia | Atlanta | 4 | No Payload","name_short":"atl-4","host":"atl-1.us.uncletopia.com","port":27045,"enabled":true,"region":"us-east","cc":"us","latitude":33.753746,"longitude":-84.38633,"reserved":0,"last_update":"0001-01-01T00:00:00Z","name_a2s":"","protocol":0,"map":"","folder":"","game":"","app_id":0,"player_count":0,"max_players":0,"Bots":0,"server_type":"","server_os":"","password":false,"vac":false,"version":"","steam_id":0,"keywords":null,"game_id":0,"stv_port":0,"stv_name":"","players":null},{"server_id":2,"name":"Uncletopia | Chicago | 1 | All Maps","name_short":"chi-1","host":"chi-1.us.uncletopia.com","port":27015,"enabled":true,"region":"us-central","cc":"us","latitude":41.881832,"longitude":-87.62318,"reserved":0,"last_update":"0001-01-01T00:00:00Z","name_a2s":"Uncletopia | Chicago | 1 | All Maps","protocol":17,"map":"pl_borneo","folder":"tf","game":"Team Fortress","app_id":440,"player_count":24,"max_players":24,"Bots":0,"server_type":"Dedicated","server_os":"Linux","password":true,"vac":true,"version":"7757534","steam_id":85568392924469984,"keywords":["nocrits","nodmgspread","payload","uncletopia"],"game_id":440,"stv_port":27016,"stv_name":"Uncletopia | Chicago | 1 | All Maps | STV","players":[{"user_id":154,"name":"Big Phonius","steam_id":76561199092395311,"connected_time":1403000000000,"state":"active","ping":65},{"user_id":147,"name":"tasty","steam_id":76561198083839061,"connected_time":1723000000000,"state":"active","ping":65},{"user_id":150,"name":"Theodore Roosevelt","steam_id":76561197993295656,"connected_time":1453000000000,"state":"active","ping":44},{"user_id":152,"name":"heisenburger","steam_id":76561198986534519,"connected_time":1432000000000,"state":"active","ping":89},{"user_id":127,"name":"i ate a bee","steam_id":76561198138983695,"connected_time":2795000000000,"state":"active","ping":73},{"user_id":133,"name":"the private","steam_id":76561198232500756,"connected_time":2582000000000,"state":"active","ping":86},{"user_id":165,"name":"Tha Saltiest Groyper","steam_id":76561198303912164,"connected_time":85000000000,"state":"active","ping":110},{"user_id":117,"name":"Carbonated Cocaine","steam_id":76561198110678966,"connected_time":3594000000000,"state":"active","ping":71},{"user_id":157,"name":"‚Ä∫ snow","steam_id":76561198109783729,"connected_time":1201000000000,"state":"active","ping":47},{"user_id":140,"name":"DRACULA MOUNTAIN.","steam_id":76561198111259720,"connected_time":1959000000000,"state":"active","ping":61},{"user_id":163,"name":"tyg","steam_id":76561198056246867,"connected_time":450000000000,"state":"active","ping":75},{"user_id":162,"name":"quint","steam_id":76561198046797995,"connected_time":483000000000,"state":"active","ping":60},{"user_id":158,"name":"Pvt. Prinny Xerxes","steam_id":76561198089132722,"connected_time":1155000000000,"state":"active","ping":64},{"user_id":23,"name":"grimp gromp","steam_id":76561199267535506,"connected_time":11370000000000,"state":"active","ping":55},{"user_id":112,"name":"Ejaculation Zach","steam_id":76561198203765200,"connected_time":4101000000000,"state":"active","ping":61},{"user_id":153,"name":"PuzzlePuddles","steam_id":76561198856494882,"connected_time":1427000000000,"state":"active","ping":66},{"user_id":29,"name":"177013","steam_id":76561198072303290,"connected_time":11163000000000,"state":"active","ping":62},{"user_id":115,"name":"heavy guy","steam_id":76561197984047460,"connected_time":3638000000000,"state":"active","ping":50},{"user_id":160,"name":"Crazed Gunman loose in Walmart","steam_id":76561198413125750,"connected_time":589000000000,"state":"active","ping":64},{"user_id":159,"name":"Jared In Target","steam_id":76561198372449718,"connected_time":917000000000,"state":"active","ping":64},{"user_id":156,"name":"tablepiN","steam_id":76561198348930428,"connected_time":1364000000000,"state":"active","ping":68},{"user_id":145,"name":"Rornir","steam_id":76561198081829615,"connected_time":1793000000000,"state":"active","ping":41},{"user_id":130,"name":"Fetus in a paper bag","steam_id":76561199047286823,"connected_time":2731000000000,"state":"active","ping":42},{"user_id":146,"name":"DonutDinner54","steam_id":76561199010542612,"connected_time":1788000000000,"state":"active","ping":101}]},{"server_id":106,"name":"Uncletopia | Chicago | 2 | All Maps","name_short":"chi-2","host":"chi-1.us.uncletopia.com","port":27025,"enabled":true,"region":"us-central","cc":"us","latitude":41.881832,"longitude":-87.62318,"reserved":0,"last_update":"0001-01-01T00:00:00Z","name_a2s":"Uncletopia | Chicago | 2 | All Maps","protocol":17,"map":"koth_sawmill","folder":"tf","game":"Team Fortress","app_id":440,"player_count":18,"max_players":24,"Bots":0,"server_type":"Dedicated","server_os":"Linux","password":true,"vac":true,"version":"7757534","steam_id":85568392924469985,"keywords":["cp","nocrits","nodmgspread","uncletopia"],"game_id":440,"stv_port":27026,"stv_name":"Uncletopia | Chicago | 2 | All Maps | STV","players":[{"user_id":168,"name":"Quark","steam_id":76561198328155605,"connected_time":975000000000,"state":"active","ping":49},{"user_id":154,"name":"Clint Eastwood","steam_id":76561198936412406,"connected_time":1994000000000,"state":"active","ping":82},{"user_id":151,"name":"Kritzburgh","steam_id":76561198149466938,"connected_time":2698000000000,"state":"active","ping":61},{"user_id":172,"name":"comet sooicidy","steam_id":76561198025173479,"connected_time":637000000000,"state":"active","ping":87},{"user_id":156,"name":"Il Duce","steam_id":76561198092180817,"connected_time":1870000000000,"state":"active","ping":32},{"user_id":165,"name":"Craven_Canary","steam_id":76561198088191503,"connected_time":1324000000000,"state":"active","ping":68},{"user_id":74,"name":"Cliff Uppercut","steam_id":76561197999439391,"connected_time":8741000000000,"state":"active","ping":79},{"user_id":157,"name":"femboy bussy","steam_id":76561199471715987,"connected_time":1765000000000,"state":"active","ping":67},{"user_id":158,"name":"Sad Henry Crying","steam_id":76561199253937434,"connected_time":1690000000000,"state":"active","ping":74},{"user_id":153,"name":"\u003c`)))))\u003c fish","steam_id":76561198410078962,"connected_time":2006000000000,"state":"active","ping":89},{"user_id":160,"name":"Citizen Cyrus","steam_id":76561198158676927,"connected_time":1623000000000,"state":"active","ping":90},{"user_id":169,"name":"Doom Cart","steam_id":76561198158543955,"connected_time":862000000000,"state":"active","ping":49},{"user_id":164,"name":"Blitz3k","steam_id":76561198055758741,"connected_time":1499000000000,"state":"active","ping":57},{"user_id":145,"name":"Drachma","steam_id":76561198007310514,"connected_time":2993000000000,"state":"active","ping":56},{"user_id":98,"name":"Ajax","steam_id":76561197962240140,"connected_time":7535000000000,"state":"active","ping":71},{"user_id":138,"name":"Evolution","steam_id":76561198144767370,"connected_time":3325000000000,"state":"active","ping":45},{"user_id":166,"name":"Slingwolf","steam_id":76561198132720460,"connected_time":1160000000000,"state":"active","ping":109},{"user_id":171,"name":"Red","steam_id":76561198082958231,"connected_time":719000000000,"state":"active","ping":57}]},{"server_id":402,"name":"Uncletopia | Chicago | 3 | All Maps","name_short":"chi-3","host":"chi-1.us.uncletopia.com","port":27035,"enabled":true,"region":"us-central","cc":"us","latitude":41.881832,"longitude":-87.62318,"reserved":0,"last_update":"0001-01-01T00:00:00Z","name_a2s":"Uncletopia | Chicago | 3 | All Maps","protocol":17,"map":"cp_sunshine","folder":"tf","game":"Team Fortress","app_id":440,"player_count":0,"max_players":24,"Bots":0,"server_type":"Dedicated","server_os":"Linux","password":true,"vac":true,"version":"7757534","steam_id":85568392924515191,"keywords":["cp","nocrits","nodmgspread","uncletopia"],"game_id":440,"stv_port":27036,"stv_name":"Uncletopia | Chicago | 3 | All Maps | STV","players":null},{"server_id":403,"name":"Uncletopia | Chicago | 4 | All Maps","name_short":"chi-4","host":"chi-1.us.uncletopia.com","port":27045,"enabled":true,"region":"us-central","cc":"us","latitude":41.881832,"longitude":-87.62318,"reserved":0,"last_update":"0001-01-01T00:00:00Z","name_a2s":"Uncletopia | Chicago | 4 | All Maps","protocol":17,"map":"koth_cascade","folder":"tf","game":"Team Fortress","app_id":440,"player_count":21,"max_players":24,"Bots":0,"server_type":"Dedicated","server_os":"Linux","password":true,"vac":true,"version":"7757534","steam_id":85568392924515193,"keywords":["cp","nocrits","nodmgspread","uncletopia"],"game_id":440,"stv_port":27046,"stv_name":"Uncletopia | Chicago | 4 | All Maps | STV","players":[{"user_id":24,"name":"bad bitch lover","steam_id":76561199065645094,"connected_time":216000000000,"state":"active","ping":76},{"user_id":11,"name":"Bumblebutt","steam_id":76561198057457396,"connected_time":1340000000000,"state":"active","ping":90},{"user_id":10,"name":"\u003c3Elise\u003c3","steam_id":76561198146435005,"connected_time":2107000000000,"state":"active","ping":80},{"user_id":12,"name":"Nelson Your F2p Friend","steam_id":76561198850327678,"connected_time":1040000000000,"state":"active","ping":79},{"user_id":13,"name":"lol4545","steam_id":76561198882059144,"connected_time":921000000000,"state":"active","ping":71},{"user_id":25,"name":"Blud walked 0 miles üò≠üò≠\ufffd\ufffd\ufffd","steam_id":76561199285074344,"connected_time":178000000000,"state":"active","ping":69},{"user_id":15,"name":"Wandering Conjuror","steam_id":76561198036444997,"connected_time":802000000000,"state":"active","ping":81},{"user_id":18,"name":"name420","steam_id":76561198129374525,"connected_time":570000000000,"state":"active","ping":62},{"user_id":17,"name":"E","steam_id":76561199479744253,"connected_time":669000000000,"state":"active","ping":76},{"user_id":19,"name":"Baby gaming","steam_id":76561198867319323,"connected_time":531000000000,"state":"active","ping":56},{"user_id":20,"name":"15 INCH TGIRL SCHLONG","steam_id":76561198122059018,"connected_time":446000000000,"state":"active","ping":64},{"user_id":26,"name":"Strigby","steam_id":76561198004116353,"connected_time":174000000000,"state":"active","ping":51},{"user_id":22,"name":"Mr. Dick‚Ñ¢","steam_id":76561198047309044,"connected_time":390000000000,"state":"active","ping":58},{"user_id":23,"name":"bojack from the show bojack hor","steam_id":76561198053006712,"connected_time":319000000000,"state":"active","ping":61},{"user_id":27,"name":"Jaydyn","steam_id":76561198140326797,"connected_time":162000000000,"state":"active","ping":78},{"user_id":28,"name":"jamyw2010","steam_id":76561199477897380,"connected_time":156000000000,"state":"active","ping":63},{"user_id":29,"name":"Master_Spy7","steam_id":76561199227361132,"connected_time":134000000000,"state":"active","ping":68},{"user_id":30,"name":"kiracaroso","steam_id":76561198165859543,"connected_time":103000000000,"state":"active","ping":98},{"user_id":31,"name":"Parker","steam_id":76561198046044893,"connected_time":84000000000,"state":"active","ping":48},{"user_id":32,"name":"Judy Hopps‚Ñ¢ Simp","steam_id":76561198029322539,"connected_time":36000000000,"state":"active","ping":100},{"user_id":33,"name":"DA_WINNER1 #Save TF2","steam_id":76561198813387511,"connected_time":19000000000,"state":"active","ping":106}]},{"server_id":36,"name":"Uncletopia | Chicago | 5 | All Maps","name_short":"chi-5","host":"chi-2.us.uncletopia.com","port":27015,"enabled":true,"region":"us-central","cc":"us","latitude":41.881832,"longitude":-87.62318,"reserved":0,"last_update":"0001-01-01T00:00:00Z","name_a2s":"Uncletopia | Chicago | 5 | All Maps","protocol":17,"map":"koth_cascade","folder":"tf","game":"Team Fortress","app_id":440,"player_count":1,"max_players":24,"Bots":0,"server_type":"Dedicated","server_os":"Linux","password":true,"vac":true,"version":"7757534","steam_id":85568392924866362,"keywords":["cp","nocrits","nodmgspread","uncletopia"],"game_id":440,"stv_port":27016,"stv_name":"Uncletopia | Chicago | 5 | All Maps | STV","players":[{"user_id":4,"name":"legohero1901","steam_id":76561199234111962,"connected_time":48000000000,"state":"active","ping":68}]},{"server_id":37,"name":"Uncletopia | Chicago | 6 | All Maps","name_short":"chi-6","host":"chi-2.us.uncletopia.com","port":27025,"enabled":true,"region":"us-central","cc":"us","latitude":41.881832,"longitude":-87.62318,"reserved":0,"last_update":"0001-01-01T00:00:00Z","name_a2s":"Uncletopia | Chicago | 6 | All Maps","protocol":17,"map":"cp_dustbowl","folder":"tf","game":"Team Fortress","app_id":440,"player_count":0,"max_players":24,"Bots":0,"server_type":"Dedicated","server_os":"Linux","password":true,"vac":true,"version":"7757534","steam_id":85568392924866363,"keywords":["cp","nocrits","nodmgspread","uncletopia"],"game_id":440,"stv_port":27026,"stv_name":"Uncletopia | Chicago | 6 | All Maps | STV","players":null},{"server_id":38,"name":"Uncletopia | Chicago | 7 | Stopwatch Beta","name_short":"chi-7","host":"chi-2.us.uncletopia.com","port":27035,"enabled":true,"region":"us-central","cc":"us","latitude":41.881832,"longitude":-87.62318,"reserved":0,"last_update":"0001-01-01T00:00:00Z","name_a2s":"Uncletopia | Chicago | 7 | Stopwatch Beta","protocol":17,"map":"pl_barnblitz","folder":"tf","game":"Team Fortress","app_id":440,"player_count":0,"max_players":24,"Bots":0,"server_type":"Dedicated","server_os":"Linux","password":true,"vac":true,"version":"7757534","steam_id":85568392924866364,"keywords":["nocrits","nodmgspread","payload","uncletopia"],"game_id":440,"stv_port":27036,"stv_name":"Uncletopia | Chicago | 7 | Stopwatch Beta | STV","players":null},{"server_id":39,"name":"Uncletopia | Chicago | 8 | Community","name_short":"chi-8","host":"chi-2.us.uncletopia.com","port":27045,"enabled":true,"region":"us-central","cc":"us","latitude":41.881832,"longitude":-87.62318,"reserved":0,"last_update":"0001-01-01T00:00:00Z","name_a2s":"Uncletopia | Chicago | 8 | Community","protocol":17,"map":"koth_cascade","folder":"tf","game":"Team Fortress","app_id":440,"player_count":0,"max_players":24,"Bots":0,"server_type":"Dedicated","server_os":"Linux","password":true,"vac":true,"version":"7757534","steam_id":85568392924866365,"keywords":["cp","nocrits","nodmgspread","uncletopia"],"game_id":440,"stv_port":27046,"stv_name":"Uncletopia | Chicago | 8 | Community | STV","players":null},{"server_id":8,"name":"Uncletopia | Dallas | 1 | All Maps","name_short":"dal-1","host":"dal-1.us.uncletopia.com","port":27015,"enabled":true,"region":"us-central","cc":"us","latitude":32.779167,"longitude":-96.80889,"reserved":0,"last_update":"0001-01-01T00:00:00Z","name_a2s":"Uncletopia | Dallas | 1 | All Maps","protocol":17,"map":"pl_barnblitz","folder":"tf","game":"Team Fortress","app_id":440,"player_count":5,"max_players":24,"Bots":0,"server_type":"Dedicated","server_os":"Linux","password":true,"vac":true,"version":"7757534","steam_id":85568392924469986,"keywords":["nocrits","nodmgspread","payload","uncletopia"],"game_id":440,"stv_port":27016,"stv_name":"Uncletopia | Dallas | 1 | All Maps | STV","players":[{"user_id":10,"name":"sentry guy","steam_id":76561198947654861,"connected_time":1091000000000,"state":"active","ping":47},{"user_id":11,"name":"thelazydog","steam_id":76561198947215423,"connected_time":995000000000,"state":"active","ping":46},{"user_id":12,"name":"Gossamer","steam_id":76561198046948498,"connected_time":907000000000,"state":"active","ping":59},{"user_id":13,"name":"Engineer Gaming","steam_id":76561198840761529,"connected_time":611000000000,"state":"active","ping":55},{"user_id":17,"name":"Sock #NEWTF2Hunt","steam_id":76561198069090237,"connected_time":30000000000,"state":"active","ping":49}]},{"server_id":108,"name":"Uncletopia | Dallas | 2 | All Maps","name_short":"dal-2","host":"dal-1.us.uncletopia.com","port":27025,"enabled":true,"region":"us-central","cc":"us","latitude":32.779167,"longitude":-96.80889,"reserved":0,"last_update":"0001-01-01T00:00:00Z","name_a2s":"Uncletopia | Dallas | 2 | All Maps","protocol":17,"map":"cp_mountainlab","folder":"tf","game":"Team Fortress","app_id":440,"player_count":0,"max_players":24,"Bots":0,"server_type":"Dedicated","server_os":"Linux","password":true,"vac":true,"version":"7757534","steam_id":85568392924469988,"keywords":["cp","nocrits","nodmgspread","uncletopia"],"game_id":440,"stv_port":27026,"stv_name":"Uncletopia | Dallas | 2 | All Maps | STV","players":null},{"server_id":5,"name":"Uncletopia | Frankfurt | 1 | All Maps","name_short":"frk-1","host":"frk-1.de.uncletopia.com","port":27015,"enabled":true,"region":"eu","cc":"de","latitude":50.110924,"longitude":8.682127,"reserved":0,"last_update":"0001-01-01T00:00:00Z","name_a2s":"Uncletopia | Frankfurt | 1 | All Maps","protocol":17,"map":"pl_swiftwater_final1","folder":"tf","game":"Team Fortress","app_id":440,"player_count":23,"max_players":24,"Bots":0,"server_type":"Dedicated","server_os":"Linux","password":true,"vac":true,"version":"7757534","steam_id":85568392924469989,"keywords":["nocrits","nodmgspread","payload","uncletopia"],"game_id":440,"stv_port":27016,"stv_name":"Uncletopia | Frankfurt | 1 | All Maps | STV","players":[{"user_id":113,"name":"DededeMain | trade.tf","steam_id":76561198310951632,"connected_time":2513000000000,"state":"active","ping":147},{"user_id":114,"name":"Hey, I¬¥m Andy!","steam_id":76561198060337777,"connected_time":2486000000000,"state":"active","ping":70},{"user_id":10,"name":"–û–±—Å–∏–¥–∏–∞–Ω","steam_id":76561198410978891,"connected_time":8377000000000,"state":"active","ping":97},{"user_id":120,"name":"Clitorina","steam_id":76561198077570815,"connected_time":2044000000000,"state":"active","ping":57},{"user_id":141,"name":"juan","steam_id":76561199098499873,"connected_time":836000000000,"state":"active","ping":61},{"user_id":98,"name":"AddyD","steam_id":76561198201834415,"connected_time":3829000000000,"state":"active","ping":48},{"user_id":78,"name":"Sinny","steam_id":76561197999598422,"connected_time":5116000000000,"state":"active","ping":75},{"user_id":147,"name":"System","steam_id":76561199442503973,"connected_time":198000000000,"state":"active","ping":37},{"user_id":146,"name":"hedgeh. OG","steam_id":76561198016896658,"connected_time":397000000000,"state":"active","ping":66},{"user_id":131,"name":"finbar","steam_id":76561198056812396,"connected_time":1147000000000,"state":"active","ping":78},{"user_id":106,"name":"giclure :;","steam_id":76561197986362828,"connected_time":3058000000000,"state":"active","ping":70},{"user_id":145,"name":"Gio'sMonkey","steam_id":76561198892432223,"connected_time":511000000000,"state":"active","ping":79},{"user_id":86,"name":"citronous","steam_id":76561198093290934,"connected_time":4338000000000,"state":"active","ping":74},{"user_id":136,"name":"Husk","steam_id":76561198271808519,"connected_time":1068000000000,"state":"active","ping":54},{"user_id":144,"name":"Gabys","steam_id":76561198282892553,"connected_time":583000000000,"state":"active","ping":74},{"user_id":128,"name":"Kaishakunin","steam_id":76561198028123874,"connected_time":1300000000000,"state":"active","ping":95},{"user_id":94,"name":"riz","steam_id":76561198055010039,"connected_time":4194000000000,"state":"active","ping":59},{"user_id":36,"name":"Skuld","steam_id":76561198064734905,"connected_time":6586000000000,"state":"active","ping":89},{"user_id":118,"name":"thuiah","steam_id":76561198052651462,"connected_time":2175000000000,"state":"active","ping":59},{"user_id":124,"name":"Pls.do.it!","steam_id":76561198211638119,"connected_time":1824000000000,"state":"active","ping":84},{"user_id":138,"name":"AfroCookie","steam_id":76561198138362851,"connected_time":1028000000000,"state":"active","ping":70},{"user_id":125,"name":"clouds","steam_id":76561198111134021,"connected_time":1806000000000,"state":"active","ping":70},{"user_id":109,"name":"Mr.Schnittlauch","steam_id":76561198295868113,"connected_time":2797000000000,"state":"active","ping":56}]},{"server_id":110,"name":"Uncletopia | Frankfurt | 2 | All Maps","name_short":"frk-2","host":"frk-1.de.uncletopia.com","port":27025,"enabled":true,"region":"eu","cc":"de","latitude":50.110924,"longitude":8.682127,"reserved":0,"last_update":"0001-01-01T00:00:00Z","name_a2s":"Uncletopia | Frankfurt | 2 | All Maps","protocol":17,"map":"koth_lakeside_final","folder":"tf","game":"Team Fortress","app_id":440,"player_count":0,"max_players":24,"Bots":0,"server_type":"Dedicated","server_os":"Linux","password":true,"vac":true,"version":"7757534","steam_id":85568392924469990,"keywords":["cp","nocrits","nodmgspread","uncletopia"],"game_id":440,"stv_port":27026,"stv_name":"Uncletopia | Frankfurt | 2 | All Maps | STV","players":null},{"server_id":308,"name":"Uncletopia | Frankfurt | 3 | All Maps","name_short":"frk-3","host":"frk-1.de.uncletopia.com","port":27035,"enabled":true,"region":"eu","cc":"de","latitude":50.110924,"longitude":8.682127,"reserved":0,"last_update":"0001-01-01T00:00:00Z","name_a2s":"Uncletopia | Frankfurt | 3 | All Maps","protocol":17,"map":"cp_powerhouse","folder":"tf","game":"Team Fortress","app_id":440,"player_count":23,"max_players":24,"Bots":0,"server_type":"Dedicated","server_os":"Linux","password":true,"vac":true,"version":"7757534","steam_id":85568392924504274,"keywords":["cp","nocrits","nodmgspread","uncletopia"],"game_id":440,"stv_port":27036,"stv_name":"Uncletopia | Frankfurt | 3 | All Maps | STV","players":[{"user_id":326,"name":"Gorogaz","steam_id":76561198207157679,"connected_time":4756000000000,"state":"active","ping":58},{"user_id":375,"name":"hedon/","steam_id":76561198249832770,"connected_time":1140000000000,"state":"active","ping":57},{"user_id":383,"name":"Cheeze","steam_id":76561198936604657,"connected_time":975000000000,"state":"active","ping":63},{"user_id":385,"name":"Seeker","steam_id":76561198873052772,"connected_time":647000000000,"state":"active","ping":65},{"user_id":359,"name":"bread","steam_id":76561198111097313,"connected_time":2472000000000,"state":"active","ping":50},{"user_id":365,"name":"ally of big tobacco","steam_id":76561198169927835,"connected_time":1895000000000,"state":"active","ping":172},{"user_id":388,"name":"Kid named download","steam_id":76561199192074448,"connected_time":446000000000,"state":"active","ping":173},{"user_id":357,"name":"Marcos","steam_id":76561198798925721,"connected_time":2554000000000,"state":"active","ping":74},{"user_id":356,"name":"Alice","steam_id":76561198208927047,"connected_time":2566000000000,"state":"active","ping":61},{"user_id":387,"name":"Usame bin Muhammed","steam_id":76561199198844185,"connected_time":524000000000,"state":"active","ping":79},{"user_id":389,"name":"CiVillain","steam_id":76561198059617732,"connected_time":146000000000,"state":"active","ping":59},{"user_id":324,"name":"FatalRyhme","steam_id":76561198018713483,"connected_time":5016000000000,"state":"active","ping":85},{"user_id":367,"name":"Sirzen","steam_id":76561198170155434,"connected_time":1696000000000,"state":"active","ping":58},{"user_id":320,"name":"Loki Beaker","steam_id":76561198048086250,"connected_time":5489000000000,"state":"active","ping":49},{"user_id":282,"name":"„ÉÜ„Ç§„É´„Çπ","steam_id":76561198022403271,"connected_time":7264000000000,"state":"active","ping":45},{"user_id":366,"name":"Solymr ibn Wali Barad","steam_id":76561198044008976,"connected_time":1747000000000,"state":"active","ping":74},{"user_id":373,"name":"The Fabian Strategy","steam_id":76561198052753473,"connected_time":1424000000000,"state":"active","ping":69},{"user_id":384,"name":"Fridge","steam_id":76561198071665589,"connected_time":901000000000,"state":"active","ping":104},{"user_id":254,"name":"Devil","steam_id":76561198129721935,"connected_time":9832000000000,"state":"active","ping":86},{"user_id":378,"name":"Kneh","steam_id":76561198121744739,"connected_time":1049000000000,"state":"active","ping":65},{"user_id":382,"name":"Lefty006","steam_id":76561198802663956,"connected_time":1005000000000,"state":"active","ping":81},{"user_id":286,"name":"Smoke","steam_id":76561198140627349,"connected_time":7111000000000,"state":"active","ping":155},{"user_id":381,"name":"Palettenbrett","steam_id":76561198124162943,"connected_time":1012000000000,"state":"active","ping":70}]},{"server_id":309,"name":"Uncletopia | Frankfurt | 4 | All Maps","name_short":"frk-4","host":"frk-1.de.uncletopia.com","port":27045,"enabled":true,"region":"eu","cc":"de","latitude":50.110924,"longitude":8.682127,"reserved":0,"last_update":"0001-01-01T00:00:00Z","name_a2s":"Uncletopia | Frankfurt | 4 | All Maps","protocol":17,"map":"koth_viaduct","folder":"tf","game":"Team Fortress","app_id":440,"player_count":0,"max_players":24,"Bots":0,"server_type":"Dedicated","server_os":"Linux","password":true,"vac":true,"version":"7757534","steam_id":85568392924504275,"keywords":["cp","nocrits","nodmgspread","uncletopia"],"game_id":440,"stv_port":27046,"stv_name":"Uncletopia | Frankfurt | 4 | All Maps | STV","players":null},{"server_id":310,"name":"Uncletopia | Frankfurt | 5 | All Maps","name_short":"frk-5","host":"frk-1.de.uncletopia.com","port":27055,"enabled":true,"region":"eu","cc":"de","latitude":50.110924,"longitude":8.682127,"reserved":0,"last_update":"0001-01-01T00:00:00Z","name_a2s":"Uncletopia | Frankfurt | 5 | All Maps","protocol":17,"map":"pl_badwater","folder":"tf","game":"Team Fortress","app_id":440,"player_count":23,"max_players":24,"Bots":0,"server_type":"Dedicated","server_os":"Linux","password":true,"vac":true,"version":"7757534","steam_id":85568392924504277,"keywords":["nocrits","nodmgspread","payload","uncletopia"],"game_id":440,"stv_port":27056,"stv_name":"Uncletopia | Frankfurt | 5 | All Maps | STV","players":[{"user_id":244,"name":"Polech","steam_id":76561199187916824,"connected_time":1505000000000,"state":"active","ping":83},{"user_id":263,"name":"sAmasam","steam_id":76561198114953928,"connected_time":889000000000,"state":"active","ping":60},{"user_id":274,"name":"KingofCubes","steam_id":76561198258037513,"connected_time":105000000000,"state":"active","ping":74},{"user_id":225,"name":"Mental","steam_id":76561198057117092,"connected_time":2491000000000,"state":"active","ping":57},{"user_id":275,"name":"hawkblob","steam_id":76561198803720565,"connected_time":86000000000,"state":"active","ping":72},{"user_id":276,"name":"ClouD","steam_id":76561199261812816,"connected_time":68000000000,"state":"active","ping":203},{"user_id":248,"name":"Spetse","steam_id":76561197990649972,"connected_time":1457000000000,"state":"active","ping":85},{"user_id":221,"name":"Moobin","steam_id":76561198099999156,"connected_time":2625000000000,"state":"active","ping":69},{"user_id":267,"name":"t0ksi","steam_id":76561198107240798,"connected_time":644000000000,"state":"active","ping":62},{"user_id":268,"name":"Fish 'n' Chips","steam_id":76561198033476886,"connected_time":625000000000,"state":"active","ping":45},{"user_id":229,"name":"Bobunny McGlitter","steam_id":76561198057403817,"connected_time":2411000000000,"state":"active","ping":75},{"user_id":277,"name":"Mikasu","steam_id":76561198288526388,"connected_time":63000000000,"state":"active","ping":82},{"user_id":279,"name":"Michael","steam_id":76561198003146906,"connected_time":33000000000,"state":"active","ping":64},{"user_id":249,"name":"akademia UPO","steam_id":76561199238754087,"connected_time":1456000000000,"state":"active","ping":120},{"user_id":241,"name":"modavak","steam_id":76561198946290908,"connected_time":2003000000000,"state":"active","ping":90},{"user_id":280,"name":"C.H.E.R.E.P.","steam_id":76561198026938595,"connected_time":30000000000,"state":"active","ping":81},{"user_id":270,"name":"a dollop of bird","steam_id":76561198089003514,"connected_time":490000000000,"state":"active","ping":47},{"user_id":269,"name":"Ibilesfighter247","steam_id":76561198880673705,"connected_time":549000000000,"state":"active","ping":74},{"user_id":273,"name":"chey","steam_id":76561198035380064,"connected_time":323000000000,"state":"active","ping":46},{"user_id":272,"name":"Barbiehunter #SaveTF2","steam_id":76561198071630928,"connected_time":363000000000,"state":"active","ping":96},{"user_id":271,"name":"Bobinsky","steam_id":76561198038242348,"connected_time":394000000000,"state":"active","ping":65},{"user_id":253,"name":"daddy cheese","steam_id":76561199049128913,"connected_time":1443000000000,"state":"active","ping":46},{"user_id":283,"name":"ducks","steam_id":76561198166148685,"connected_time":3000000000,"state":"spawning","ping":87}]},{"server_id":311,"name":"Uncletopia | Frankfurt | 6 | All Maps","name_short":"frk-6","host":"frk-1.de.uncletopia.com","port":27065,"enabled":true,"region":"eu","cc":"de","latitude":50.110924,"longitude":8.682127,"reserved":0,"last_update":"0001-01-01T00:00:00Z","name_a2s":"Uncletopia | Frankfurt | 6 | All Maps","protocol":17,"map":"pl_barnblitz","folder":"tf","game":"Team Fortress","app_id":440,"player_count":24,"max_players":24,"Bots":0,"server_type":"Dedicated","server_os":"Linux","password":true,"vac":true,"version":"7757534","steam_id":85568392924504278,"keywords":["nocrits","nodmgspread","payload","uncletopia"],"game_id":440,"stv_port":27066,"stv_name":"Uncletopia | Frankfurt | 6 | All Maps | STV","players":[{"user_id":432,"name":"0xDEADBEEF","steam_id":76561199075416111,"connected_time":2192000000000,"state":"active","ping":94},{"user_id":431,"name":"Kati","steam_id":76561198007231088,"connected_time":2352000000000,"state":"active","ping":59},{"user_id":465,"name":"ksg","steam_id":76561198042894236,"connected_time":494000000000,"state":"active","ping":69},{"user_id":471,"name":"Bonca","steam_id":76561198137503531,"connected_time":286000000000,"state":"active","ping":77},{"user_id":414,"name":"bibib17","steam_id":76561198143319217,"connected_time":3388000000000,"state":"active","ping":75},{"user_id":467,"name":"ScarredPixel123","steam_id":76561199165112703,"connected_time":395000000000,"state":"active","ping":82},{"user_id":470,"name":"„Éñ„É≠„Éº„Éã„É£","steam_id":76561198037810091,"connected_time":325000000000,"state":"active","ping":101},{"user_id":462,"name":"Charged","steam_id":76561199127215130,"connected_time":718000000000,"state":"active","ping":84},{"user_id":443,"name":"sven5011","steam_id":76561198064398200,"connected_time":1429000000000,"state":"active","ping":59},{"user_id":464,"name":"fried","steam_id":76561198307522022,"connected_time":538000000000,"state":"active","ping":46},{"user_id":438,"name":"nairolf","steam_id":76561198007055352,"connected_time":1693000000000,"state":"active","ping":50},{"user_id":434,"name":"walluu","steam_id":76561198121830870,"connected_time":2017000000000,"state":"active","ping":75},{"user_id":474,"name":"Kretur","steam_id":76561198161086266,"connected_time":57000000000,"state":"active","ping":92},{"user_id":380,"name":"LOBZIK","steam_id":76561198114830120,"connected_time":6403000000000,"state":"active","ping":76},{"user_id":441,"name":"Luke","steam_id":76561198875167784,"connected_time":1476000000000,"state":"active","ping":74},{"user_id":473,"name":"blurst of times","steam_id":76561197972325640,"connected_time":266000000000,"state":"active","ping":54},{"user_id":449,"name":"HimpoX","steam_id":76561198043946778,"connected_time":1280000000000,"state":"active","ping":96},{"user_id":421,"name":"night.s","steam_id":76561198326287823,"connected_time":2898000000000,"state":"active","ping":72},{"user_id":427,"name":"Menty","steam_id":76561198036748212,"connected_time":2560000000000,"state":"active","ping":46},{"user_id":411,"name":"RiX","steam_id":76561197969053733,"connected_time":3462000000000,"state":"active","ping":71},{"user_id":475,"name":"Mr. Hunts","steam_id":76561197981910397,"connected_time":23000000000,"state":"active","ping":73},{"user_id":405,"name":"XPullaHiiri","steam_id":76561198031652375,"connected_time":3948000000000,"state":"active","ping":95},{"user_id":453,"name":"YZO","steam_id":76561198000562317,"connected_time":1129000000000,"state":"active","ping":78},{"user_id":457,"name":"After8","steam_id":76561198090750865,"connected_time":1018000000000,"state":"active","ping":69}]},{"server_id":23,"name":"Uncletopia | Frankfurt | 7 | Stopwatch Beta","name_short":"frk-7","host":"frk-1.de.uncletopia.com","port":27075,"enabled":true,"region":"eu","cc":"de","latitude":50.110924,"longitude":8.682127,"reserved":0,"last_update":"0001-01-01T00:00:00Z","name_a2s":"Uncletopia | Frankfurt | 7 | Stopwatch Beta","protocol":17,"map":"workshop/koth_clearcut_b15.ugc2107050255","folder":"tf","game":"Team Fortress","app_id":440,"player_count":0,"max_players":24,"Bots":0,"server_type":"Dedicated","server_os":"Linux","password":true,"vac":true,"version":"7757534","steam_id":85568392924742827,"keywords":["cp","nocrits","nodmgspread","uncletopia"],"game_id":440,"stv_port":27076,"stv_name":"Uncletopia | Frankfurt | 7 | Stopwatch Beta | STV","players":null},{"server_id":24,"name":"Uncletopia | Frankfurt | 8 | Community","name_short":"frk-8","host":"frk-1.de.uncletopia.com","port":27085,"enabled":true,"region":"eu","cc":"de","latitude":50.110924,"longitude":8.682127,"reserved":0,"last_update":"0001-01-01T00:00:00Z","name_a2s":"Uncletopia | Frankfurt | 8 | Community","protocol":17,"map":"koth_lakeside_final","folder":"tf","game":"Team Fortress","app_id":440,"player_count":0,"max_players":24,"Bots":0,"server_type":"Dedicated","server_os":"Linux","password":true,"vac":true,"version":"7757534","steam_id":85568392924742828,"keywords":["cp","nocrits","nodmgspread","uncletopia"],"game_id":440,"stv_port":27086,"stv_name":"Uncletopia | Frankfurt | 8 | Community | STV","players":null},{"server_id":202,"name":"Uncletopia | Hong Kong | 1 | All Maps","name_short":"hgk-1","host":"hgk-1.hk.uncletopia.com","port":27015,"enabled":true,"region":"asia","cc":"hk","latitude":22.302711,"longitude":114.177216,"reserved":0,"last_update":"0001-01-01T00:00:00Z","name_a2s":"Uncletopia | Hong Kong | 1 | All Maps","protocol":17,"map":"ctf_2fort","folder":"tf","game":"Team Fortress","app_id":440,"player_count":4,"max_players":24,"Bots":0,"server_type":"Dedicated","server_os":"Linux","password":true,"vac":true,"version":"7757534","steam_id":85568392924494504,"keywords":["ctf","nocrits","nodmgspread","uncletopia"],"game_id":440,"stv_port":27016,"stv_name":"Uncletopia | Hong Kong | 1 | All Maps | STV","players":[{"user_id":609,"name":"IDontLaunder","steam_id":76561199103223706,"connected_time":80000000000,"state":"active","ping":170},{"user_id":603,"name":"Init Bruv","steam_id":76561199349181945,"connected_time":1169000000000,"state":"active","ping":413},{"user_id":605,"name":"spy gaming","steam_id":76561199000482422,"connected_time":945000000000,"state":"active","ping":60},{"user_id":602,"name":"Thw most mid drawn fempyrotits","steam_id":76561199122491157,"connected_time":1295000000000,"state":"active","ping":75}]},{"server_id":1,"name":"Uncletopia | Los Angeles | 1 | All Maps","name_short":"lax-1","host":"lax-1.us.uncletopia.com","port":27015,"enabled":true,"region":"us-west","cc":"us","latitude":33.94279,"longitude":-118.41004,"reserved":0,"last_update":"0001-01-01T00:00:00Z","name_a2s":"Uncletopia | Los Angeles | 1 | All Maps","protocol":17,"map":"koth_lakeside_final","folder":"tf","game":"Team Fortress","app_id":440,"player_count":0,"max_players":24,"Bots":0,"server_type":"Dedicated","server_os":"Linux","password":true,"vac":true,"version":"7757534","steam_id":85568392924469991,"keywords":["cp","nocrits","nodmgspread","uncletopia"],"game_id":440,"stv_port":27016,"stv_name":"Uncletopia | Los Angeles | 1 | All Maps | STV","players":null},{"server_id":112,"name":"Uncletopia | Los Angeles | 2 | All Maps","name_short":"lax-2","host":"lax-1.us.uncletopia.com","port":27025,"enabled":true,"region":"us-west","cc":"us","latitude":33.94279,"longitude":-118.41004,"reserved":0,"last_update":"0001-01-01T00:00:00Z","name_a2s":"Uncletopia | Los Angeles | 2 | All Maps","protocol":17,"map":"cp_altitude","folder":"tf","game":"Team Fortress","app_id":440,"player_count":1,"max_players":24,"Bots":0,"server_type":"Dedicated","server_os":"Linux","password":true,"vac":true,"version":"7757534","steam_id":85568392924469992,"keywords":["cp","nocrits","nodmgspread","uncletopia"],"game_id":440,"stv_port":27026,"stv_name":"Uncletopia | Los Angeles | 2 | All Maps | STV","players":[{"user_id":6,"name":"sillyelijah","steam_id":76561199142699662,"connected_time":37000000000,"state":"active","ping":55}]},{"server_id":324,"name":"Uncletopia | Los Angeles | 3 | All Maps","name_short":"lax-3","host":"lax-1.us.uncletopia.com","port":27035,"enabled":true,"region":"us-west","cc":"us","latitude":33.94279,"longitude":-118.41004,"reserved":0,"last_update":"0001-01-01T00:00:00Z","name_a2s":"Uncletopia | Los Angeles | 3 | All Maps","protocol":17,"map":"pl_barnblitz","folder":"tf","game":"Team Fortress","app_id":440,"player_count":0,"max_players":24,"Bots":0,"server_type":"Dedicated","server_os":"Linux","password":true,"vac":true,"version":"7757534","steam_id":85568392924510198,"keywords":["nocrits","nodmgspread","payload","uncletopia"],"game_id":440,"stv_port":27036,"stv_name":"Uncletopia | Los Angeles | 3 | All Maps | STV","players":null},{"server_id":25,"name":"Uncletopia | Los Angeles | 4 | Stopwatch Beta","name_short":"lax-4","host":"lax-1.us.uncletopia.com","port":27045,"enabled":true,"region":"us-west","cc":"us","latitude":33.94279,"longitude":-118.41004,"reserved":0,"last_update":"0001-01-01T00:00:00Z","name_a2s":"Uncletopia | Los Angeles | 4 | Stopwatch Beta","protocol":17,"map":"pl_swiftwater_final1","folder":"tf","game":"Team Fortress","app_id":440,"player_count":0,"max_players":24,"Bots":0,"server_type":"Dedicated","server_os":"Linux","password":true,"vac":true,"version":"7757534","steam_id":85568392924510199,"keywords":["nocrits","nodmgspread","payload","uncletopia"],"game_id":440,"stv_port":27046,"stv_name":"Uncletopia | Los Angeles | 4 | Stopwatch Beta | STV","players":null},{"server_id":11,"name":"Uncletopia | London | 1 | All Maps","name_short":"lon-1","host":"lon-1.uk.uncletopia.com","port":27015,"enabled":true,"region":"eu","cc":"gb","latitude":51.509865,"longitude":-0.118092,"reserved":0,"last_update":"0001-01-01T00:00:00Z","name_a2s":"Uncletopia | London | 1 | All Maps","protocol":17,"map":"cp_altitude","folder":"tf","game":"Team Fortress","app_id":440,"player_count":24,"max_players":24,"Bots":0,"server_type":"Dedicated","server_os":"Linux","password":true,"vac":true,"version":"7757534","steam_id":85568392924367362,"keywords":["cp","nocrits","nodmgspread","uncletopia"],"game_id":440,"stv_port":27016,"stv_name":"Uncletopia | London | 1 | All Maps | STV","players":[{"user_id":554,"name":"shop owner dr disrespects wife","steam_id":76561199028670732,"connected_time":97000000000,"state":"active","ping":58},{"user_id":539,"name":"saalvberg","steam_id":76561199409062000,"connected_time":758000000000,"state":"active","ping":56},{"user_id":546,"name":"Anonymous47007","steam_id":76561199005211417,"connected_time":556000000000,"state":"active","ping":86},{"user_id":532,"name":"AsuX","steam_id":76561197990333289,"connected_time":1128000000000,"state":"active","ping":60},{"user_id":538,"name":"WeegeePJ","steam_id":76561199383362382,"connected_time":762000000000,"state":"active","ping":141},{"user_id":520,"name":" á·¥âu…ê","steam_id":76561198044204428,"connected_time":2124000000000,"state":"active","ping":67},{"user_id":552,"name":"spy","steam_id":76561199438413886,"connected_time":338000000000,"state":"active","ping":175},{"user_id":553,"name":"Jara.","steam_id":76561197992207165,"connected_time":315000000000,"state":"active","ping":103},{"user_id":540,"name":"go play project zomboid","steam_id":76561199397932924,"connected_time":753000000000,"state":"active","ping":75},{"user_id":528,"name":"willus212","steam_id":76561199182615246,"connected_time":1436000000000,"state":"active","ping":71},{"user_id":530,"name":"germinator","steam_id":76561199387893648,"connected_time":1194000000000,"state":"active","ping":108},{"user_id":525,"name":"most sane mentalist","steam_id":76561198310095220,"connected_time":1663000000000,"state":"active","ping":33},{"user_id":504,"name":"Qpangfire","steam_id":76561198094354139,"connected_time":3252000000000,"state":"active","ping":45},{"user_id":549,"name":"dylanm0909","steam_id":76561198042433442,"connected_time":504000000000,"state":"active","ping":54},{"user_id":548,"name":"Cotton Eye Joe","steam_id":76561198080594207,"connected_time":531000000000,"state":"active","ping":58},{"user_id":542,"name":"Insert_User_","steam_id":76561199229663997,"connected_time":743000000000,"state":"active","ping":155},{"user_id":510,"name":"rz-/Atomic Punch","steam_id":76561199195508541,"connected_time":3066000000000,"state":"active","ping":72},{"user_id":523,"name":"Firearms","steam_id":76561197989867612,"connected_time":1961000000000,"state":"active","ping":46},{"user_id":465,"name":"SnowShot","steam_id":76561198004766638,"connected_time":5956000000000,"state":"active","ping":74},{"user_id":550,"name":"wexes","steam_id":76561198058769738,"connected_time":439000000000,"state":"active","ping":129},{"user_id":518,"name":"Guru","steam_id":76561198093853069,"connected_time":2429000000000,"state":"active","ping":67},{"user_id":543,"name":"bixigu","steam_id":76561198007425793,"connected_time":737000000000,"state":"active","ping":89},{"user_id":536,"name":"Economic crisis","steam_id":76561198063562843,"connected_time":1029000000000,"state":"active","ping":62},{"user_id":551,"name":"leonardini.w","steam_id":76561199097963071,"connected_time":438000000000,"state":"active","ping":108}]},{"server_id":114,"name":"Uncletopia | London | 2 | All Maps","name_short":"lon-2","host":"lon-1.uk.uncletopia.com","port":27025,"enabled":true,"region":"eu","cc":"gb","latitude":51.509865,"longitude":-0.118092,"reserved":0,"last_update":"0001-01-01T00:00:00Z","name_a2s":"Uncletopia | London | 2 | All Maps","protocol":17,"map":"koth_cascade","folder":"tf","game":"Team Fortress","app_id":440,"player_count":24,"max_players":24,"Bots":0,"server_type":"Dedicated","server_os":"Linux","password":true,"vac":true,"version":"7757534","steam_id":85568392924470941,"keywords":["cp","nocrits","nodmgspread","uncletopia"],"game_id":440,"stv_port":27026,"stv_name":"Uncletopia | London | 2 | All Maps | STV","players":[{"user_id":188,"name":"2b","steam_id":76561199149307190,"connected_time":687000000000,"state":"active","ping":78},{"user_id":155,"name":"LivEssense","steam_id":76561198052476979,"connected_time":2636000000000,"state":"active","ping":79},{"user_id":203,"name":"Sea raider","steam_id":76561198123982355,"connected_time":254000000000,"state":"active","ping":181},{"user_id":166,"name":"A Pigeon","steam_id":76561198114090555,"connected_time":1688000000000,"state":"active","ping":77},{"user_id":181,"name":"powej","steam_id":76561198056381418,"connected_time":1015000000000,"state":"active","ping":41},{"user_id":129,"name":"shooer","steam_id":76561198110531281,"connected_time":3845000000000,"state":"active","ping":65},{"user_id":193,"name":"Wat Means?","steam_id":76561197966629582,"connected_time":478000000000,"state":"active","ping":60},{"user_id":197,"name":"midlpsyzl47","steam_id":76561199475972637,"connected_time":354000000000,"state":"active","ping":66},{"user_id":178,"name":"Chaz","steam_id":76561197969377587,"connected_time":1397000000000,"state":"active","ping":50},{"user_id":207,"name":"Zerfesh","steam_id":76561198117534358,"connected_time":83000000000,"state":"active","ping":134},{"user_id":145,"name":"generic alias","steam_id":76561198271607226,"connected_time":3057000000000,"state":"active","ping":84},{"user_id":179,"name":"Caliban","steam_id":76561197999696839,"connected_time":1205000000000,"state":"active","ping":111},{"user_id":208,"name":"Robbie","steam_id":76561198017504503,"connected_time":21000000000,"state":"spawning","ping":29},{"user_id":206,"name":"Hetmanych","steam_id":76561198870926865,"connected_time":200000000000,"state":"active","ping":38},{"user_id":199,"name":"deno_","steam_id":76561198316520968,"connected_time":345000000000,"state":"active","ping":116},{"user_id":158,"name":"SlowMode","steam_id":76561198039631442,"connected_time":2402000000000,"state":"active","ping":77},{"user_id":200,"name":"Lyell","steam_id":76561198350329389,"connected_time":336000000000,"state":"active","ping":74},{"user_id":184,"name":"awesome rat","steam_id":76561198252656316,"connected_time":958000000000,"state":"active","ping":63},{"user_id":169,"name":"Egtu","steam_id":76561198013757235,"connected_time":1631000000000,"state":"active","ping":74},{"user_id":82,"name":"Nassu","steam_id":76561198147367577,"connected_time":7510000000000,"state":"active","ping":160},{"user_id":175,"name":"WALTER WHITE","steam_id":76561199147666336,"connected_time":1545000000000,"state":"active","ping":72},{"user_id":204,"name":"twitch.tv/vision515","steam_id":76561198065293729,"connected_time":248000000000,"state":"active","ping":162},{"user_id":205,"name":"gibb (official)","steam_id":76561198074097655,"connected_time":247000000000,"state":"active","ping":44},{"user_id":173,"name":"quickfast","steam_id":76561199438900919,"connected_time":1585000000000,"state":"active","ping":41}]},{"server_id":320,"name":"Uncletopia | London | 3 | All Maps","name_short":"lon-3","host":"lon-1.uk.uncletopia.com","port":27035,"enabled":true,"region":"eu","cc":"gb","latitude":51.509865,"longitude":-0.118092,"reserved":0,"last_update":"0001-01-01T00:00:00Z","name_a2s":"Uncletopia | London | 3 | All Maps","protocol":17,"map":"pl_borneo","folder":"tf","game":"Team Fortress","app_id":440,"player_count":21,"max_players":24,"Bots":0,"server_type":"Dedicated","server_os":"Linux","password":true,"vac":true,"version":"7757534","steam_id":85568392924510192,"keywords":["cp","nocrits","nodmgspread","uncletopia"],"game_id":440,"stv_port":27036,"stv_name":"Uncletopia | London | 3 | All Maps | STV","players":[{"user_id":97,"name":"Per√§miehen√§","steam_id":76561197968945306,"connected_time":216000000000,"state":"connecting","ping":98},{"user_id":82,"name":"GIGACHIMLI","steam_id":76561198041934670,"connected_time":1042000000000,"state":"connecting","ping":65},{"user_id":95,"name":"Jughead","steam_id":76561198000355410,"connected_time":316000000000,"state":"spawning","ping":48},{"user_id":101,"name":"we cannoh replace him...","steam_id":76561199062586342,"connected_time":11000000000,"state":"spawning","ping":295},{"user_id":81,"name":"gus","steam_id":76561198876303958,"connected_time":1069000000000,"state":"connecting","ping":135},{"user_id":88,"name":"maakgis","steam_id":76561198851703804,"connected_time":820000000000,"state":"connecting","ping":142},{"user_id":99,"name":"lugi","steam_id":76561198121971994,"connected_time":99000000000,"state":"connecting","ping":73},{"user_id":92,"name":"EZPK","steam_id":76561197987474355,"connected_time":478000000000,"state":"connecting","ping":70},{"user_id":96,"name":"Noob_with_source","steam_id":76561198870362103,"connected_time":255000000000,"state":"connecting","ping":65},{"user_id":64,"name":"Nope.avi","steam_id":76561198396687651,"connected_time":1978000000000,"state":"connecting","ping":116},{"user_id":87,"name":"Lil Ari","steam_id":76561198218178180,"connected_time":963000000000,"state":"connecting","ping":78},{"user_id":65,"name":"medic appreciator","steam_id":76561198055389492,"connected_time":1974000000000,"state":"connecting","ping":60},{"user_id":93,"name":"Weather Report","steam_id":76561199109494283,"connected_time":377000000000,"state":"connecting","ping":141},{"user_id":91,"name":"dar","steam_id":76561198371657696,"connected_time":560000000000,"state":"connecting","ping":75},{"user_id":77,"name":"cheezball1997","steam_id":76561198059782462,"connected_time":1128000000000,"state":"connecting","ping":81},{"user_id":100,"name":"FlameTheGame","steam_id":76561198841108519,"connected_time":89000000000,"state":"connecting","ping":118},{"user_id":73,"name":"rednight on the pc","steam_id":76561199043940899,"connected_time":1639000000000,"state":"spawning","ping":68},{"user_id":70,"name":"Bob Sacamano","steam_id":76561198085610701,"connected_time":1826000000000,"state":"connecting","ping":111},{"user_id":71,"name":"Flyingmeadow","steam_id":76561198144687723,"connected_time":1809000000000,"state":"connecting","ping":156}]},{"server_id":321,"name":"Uncletopia | London | 4 | All Maps","name_short":"lon-4","host":"lon-1.uk.uncletopia.com","port":27045,"enabled":true,"region":"eu","cc":"gb","latitude":51.509865,"longitude":-0.118092,"reserved":0,"last_update":"0001-01-01T00:00:00Z","name_a2s":"Uncletopia | London | 4 | All Maps","protocol":17,"map":"cp_snakewater_final1","folder":"tf","game":"Team Fortress","app_id":440,"player_count":22,"max_players":24,"Bots":0,"server_type":"Dedicated","server_os":"Linux","password":true,"vac":true,"version":"7757534","steam_id":85568392924510193,"keywords":["cp","nocrits","nodmgspread","uncletopia"],"game_id":440,"stv_port":27046,"stv_name":"Uncletopia | London | 4 | All Maps | STV","players":[{"user_id":324,"name":"Ember (she/her) gaymer","steam_id":76561199403820517,"connected_time":5315000000000,"state":"active","ping":57},{"user_id":378,"name":"Depressed","steam_id":76561198154405093,"connected_time":536000000000,"state":"active","ping":80},{"user_id":364,"name":"Dwevy","steam_id":76561198090379437,"connected_time":1311000000000,"state":"active","ping":53},{"user_id":365,"name":"Jonathan","steam_id":76561198087988880,"connected_time":1184000000000,"state":"active","ping":54},{"user_id":353,"name":"Topme","steam_id":76561198091734693,"connected_time":2888000000000,"state":"active","ping":72},{"user_id":366,"name":"Lag","steam_id":76561198159360376,"connected_time":1177000000000,"state":"active","ping":44},{"user_id":347,"name":"whimsy.","steam_id":76561198878171763,"connected_time":3482000000000,"state":"active","ping":45},{"user_id":317,"name":"Fat Pigeon","steam_id":76561198817940142,"connected_time":5893000000000,"state":"active","ping":56},{"user_id":301,"name":"Welder","steam_id":76561198355300561,"connected_time":6964000000000,"state":"active","ping":74},{"user_id":318,"name":"LarsInABox","steam_id":76561198028329262,"connected_time":5850000000000,"state":"active","ping":69},{"user_id":357,"name":"The Pitpit (real)","steam_id":76561198005342133,"connected_time":2280000000000,"state":"active","ping":108},{"user_id":374,"name":"elsuedi","steam_id":76561198074722832,"connected_time":815000000000,"state":"active","ping":61},{"user_id":338,"name":"‚ô• aura ‚ô•","steam_id":76561198066258544,"connected_time":4388000000000,"state":"active","ping":63},{"user_id":380,"name":"Ziemniaczki z koperkiem","steam_id":76561198829123464,"connected_time":354000000000,"state":"active","ping":85},{"user_id":356,"name":"wouris","steam_id":76561198876188003,"connected_time":2284000000000,"state":"active","ping":70},{"user_id":373,"name":"MLG Peridot","steam_id":76561198069780233,"connected_time":1010000000000,"state":"active","ping":48},{"user_id":368,"name":"wasto-/-‚Ñ¢","steam_id":76561198102888038,"connected_time":1159000000000,"state":"active","ping":54},{"user_id":348,"name":"schmick h_stt 0","steam_id":76561198039537958,"connected_time":3475000000000,"state":"active","ping":52},{"user_id":381,"name":"yeldad","steam_id":76561198447264153,"connected_time":272000000000,"state":"active","ping":114},{"user_id":316,"name":"Udinese Dion","steam_id":76561198067931573,"connected_time":5970000000000,"state":"active","ping":53},{"user_id":377,"name":"SPONGE","steam_id":76561198040933472,"connected_time":612000000000,"state":"active","ping":74},{"user_id":343,"name":"ghost","steam_id":76561198189940229,"connected_time":3832000000000,"state":"active","ping":49}]},{"server_id":21,"name":"Uncletopia | London | 5 | All Maps","name_short":"lon-5","host":"lon-1.uk.uncletopia.com","port":27055,"enabled":true,"region":"eu","cc":"gb","latitude":51.509865,"longitude":-0.118092,"reserved":0,"last_update":"0001-01-01T00:00:00Z","name_a2s":"Uncletopia | London | 5 | All Maps","protocol":17,"map":"koth_lakeside_final","folder":"tf","game":"Team Fortress","app_id":440,"player_count":0,"max_players":24,"Bots":0,"server_type":"Dedicated","server_os":"Linux","password":true,"vac":true,"version":"7757534","steam_id":85568392924742829,"keywords":["cp","nocrits","nodmgspread","uncletopia"],"game_id":440,"stv_port":27056,"stv_name":"Uncletopia | London | 5 | All Maps | STV","players":null},{"server_id":22,"name":"Uncletopia | London | 6 | All Maps","name_short":"lon-6","host":"lon-1.uk.uncletopia.com","port":27065,"enabled":true,"region":"eu","cc":"gb","latitude":51.509865,"longitude":-0.118092,"reserved":0,"last_update":"0001-01-01T00:00:00Z","name_a2s":"Uncletopia | London | 6 | All Maps","protocol":17,"map":"pl_upward","folder":"tf","game":"Team Fortress","app_id":440,"player_count":0,"max_players":24,"Bots":0,"server_type":"Dedicated","server_os":"Linux","password":true,"vac":true,"version":"7757534","steam_id":85568392924742830,"keywords":["nocrits","nodmgspread","payload","uncletopia"],"game_id":440,"stv_port":27066,"stv_name":"Uncletopia | London | 6 | All Maps | STV","players":null},{"server_id":40,"name":"Uncletopia | London | 7 | No Payload","name_short":"lon-7","host":"lon-1.uk.uncletopia.com","port":27075,"enabled":true,"region":"eu","cc":"gb","latitude":51.509865,"longitude":-0.118092,"reserved":0,"last_update":"0001-01-01T00:00:00Z","name_a2s":"Uncletopia | London | 7 | No Payload","protocol":17,"map":"koth_brazil","folder":"tf","game":"Team Fortress","app_id":440,"player_count":0,"max_players":24,"Bots":0,"server_type":"Dedicated","server_os":"Linux","password":true,"vac":true,"version":"7757534","steam_id":85568392924964314,"keywords":["cp","nocrits","nodmgspread","uncletopia"],"game_id":440,"stv_port":27076,"stv_name":"Uncletopia | London | 7 | No Payload | STV","players":null},{"server_id":41,"name":"Uncletopia | London | 8 | Community","name_short":"lon-8","host":"lon-1.uk.uncletopia.com","port":27085,"enabled":true,"region":"eu","cc":"gb","latitude":51.509865,"longitude":-0.118092,"reserved":0,"last_update":"0001-01-01T00:00:00Z","name_a2s":"Uncletopia | London | 8 | Community","protocol":17,"map":"workshop/pl_barnblitz_pro7.ugc582280235","folder":"tf","game":"Team Fortress","app_id":440,"player_count":3,"max_players":24,"Bots":0,"server_type":"Dedicated","server_os":"Linux","password":true,"vac":true,"version":"7757534","steam_id":85568392924964315,"keywords":["nocrits","nodmgspread","payload","uncletopia"],"game_id":440,"stv_port":27086,"stv_name":"Uncletopia | London | 8 | Community | STV","players":[{"user_id":75,"name":"SaSSolino","steam_id":76561198011308018,"connected_time":911000000000,"state":"active","ping":60},{"user_id":76,"name":"Pauler le one","steam_id":76561198398152855,"connected_time":779000000000,"state":"active","ping":83},{"user_id":74,"name":"Magirby","steam_id":76561198818777390,"connected_time":1208000000000,"state":"active","ping":106}]},{"server_id":300,"name":"Uncletopia | Montr√©al | 1 | All Maps","name_short":"mtl-1","host":"mtl-1.ca.uncletopia.com","port":27015,"enabled":true,"region":"us-east","cc":"ca","latitude":45.50889,"longitude":-73.56167,"reserved":0,"last_update":"0001-01-01T00:00:00Z","name_a2s":"Uncletopia | Montr√©al | 1 | All Maps","protocol":17,"map":"pl_upward","folder":"tf","game":"Team Fortress","app_id":440,"player_count":0,"max_players":24,"Bots":0,"server_type":"Dedicated","server_os":"Linux","password":true,"vac":true,"version":"7757534","steam_id":85568392924500087,"keywords":["nocrits","nodmgspread","payload","uncletopia"],"game_id":440,"stv_port":27016,"stv_name":"Uncletopia | Montr√©al | 1 | All Maps | STV","players":null},{"server_id":301,"name":"Uncletopia | Montr√©al | 2 | All Maps","name_short":"mtl-2","host":"mtl-1.ca.uncletopia.com","port":27025,"enabled":true,"region":"us-east","cc":"ca","latitude":45.50889,"longitude":-73.56167,"reserved":0,"last_update":"0001-01-01T00:00:00Z","name_a2s":"Uncletopia | Montr√©al | 2 | All Maps","protocol":17,"map":"pl_snowycoast","folder":"tf","game":"Team Fortress","app_id":440,"player_count":0,"max_players":24,"Bots":0,"server_type":"Dedicated","server_os":"Linux","password":true,"vac":true,"version":"7757534","steam_id":85568392924500088,"keywords":["nocrits","nodmgspread","payload","uncletopia"],"game_id":440,"stv_port":27026,"stv_name":"Uncletopia | Montr√©al | 2 | All Maps | STV","players":null},{"server_id":302,"name":"Uncletopia | Montr√©al | 3 | All Maps","name_short":"mtl-3","host":"mtl-1.ca.uncletopia.com","port":27035,"enabled":true,"region":"us-east","cc":"ca","latitude":45.50889,"longitude":-73.56167,"reserved":0,"last_update":"0001-01-01T00:00:00Z","name_a2s":"Uncletopia | Montr√©al | 3 | All Maps","protocol":17,"map":"pl_swiftwater_final1","folder":"tf","game":"Team Fortress","app_id":440,"player_count":0,"max_players":24,"Bots":0,"server_type":"Dedicated","server_os":"Linux","password":true,"vac":true,"version":"7757534","steam_id":85568392924500089,"keywords":["nocrits","nodmgspread","payload","uncletopia"],"game_id":440,"stv_port":27036,"stv_name":"Uncletopia | Montr√©al | 3 | All Maps | STV","players":null},{"server_id":303,"name":"Uncletopia | Montr√©al | 4 | No Payload","name_short":"mtl-4","host":"mtl-1.ca.uncletopia.com","port":27045,"enabled":true,"region":"us-east","cc":"ca","latitude":45.50889,"longitude":-73.56167,"reserved":0,"last_update":"0001-01-01T00:00:00Z","name_a2s":"Uncletopia | Montr√©al | 4 | No Payload","protocol":17,"map":"pl_pier","folder":"tf","game":"Team Fortress","app_id":440,"player_count":0,"max_players":24,"Bots":0,"server_type":"Dedicated","server_os":"Linux","password":true,"vac":true,"version":"7757534","steam_id":85568392924500090,"keywords":["nocrits","nodmgspread","payload","uncletopia"],"game_id":440,"stv_port":27046,"stv_name":"Uncletopia | Montr√©al | 4 | No Payload | STV","players":null},{"server_id":13,"name":"Uncletopia | New York City | 1 | All Maps","name_short":"nyc-1","host":"nyc-1.us.uncletopia.com","port":27015,"enabled":true,"region":"us-east","cc":"us","latitude":40.73061,"longitude":-73.93524,"reserved":0,"last_update":"0001-01-01T00:00:00Z","name_a2s":"Uncletopia | New York City | 1 | All Maps","protocol":17,"map":"koth_viaduct","folder":"tf","game":"Team Fortress","app_id":440,"player_count":14,"max_players":24,"Bots":0,"server_type":"Dedicated","server_os":"Linux","password":true,"vac":true,"version":"7757534","steam_id":85568392924469993,"keywords":["cp","nocrits","nodmgspread","uncletopia"],"game_id":440,"stv_port":27016,"stv_name":"Uncletopia | New York City | 1 | All Maps | STV","players":[{"user_id":27,"name":"Mochi","steam_id":76561199151314140,"connected_time":1778000000000,"state":"active","ping":41},{"user_id":28,"name":"minsentry","steam_id":76561199120942803,"connected_time":1684000000000,"state":"active","ping":103},{"user_id":29,"name":"Grimace","steam_id":76561198297216420,"connected_time":1451000000000,"state":"active","ping":47},{"user_id":30,"name":"tar","steam_id":76561197995620232,"connected_time":1303000000000,"state":"active","ping":32},{"user_id":31,"name":"urnotpeter","steam_id":76561198109904696,"connected_time":1151000000000,"state":"active","ping":47},{"user_id":34,"name":"NorthernPilgrim","steam_id":76561198066851075,"connected_time":377000000000,"state":"active","ping":87},{"user_id":35,"name":"creamy","steam_id":76561198157435832,"connected_time":377000000000,"state":"active","ping":71},{"user_id":36,"name":"jef","steam_id":76561199133546634,"connected_time":354000000000,"state":"active","ping":80},{"user_id":37,"name":"ok","steam_id":76561198445140249,"connected_time":347000000000,"state":"active","ping":63},{"user_id":40,"name":"lucky","steam_id":76561198323426623,"connected_time":251000000000,"state":"active","ping":94},{"user_id":41,"name":"Littlebean","steam_id":76561198087597267,"connected_time":224000000000,"state":"active","ping":65},{"user_id":42,"name":"Ulrich Stern","steam_id":76561198101739682,"connected_time":171000000000,"state":"spawning","ping":144},{"user_id":44,"name":"i forgor","steam_id":76561199120622265,"connected_time":86000000000,"state":"active","ping":93},{"user_id":45,"name":"PotatoSaladMyDood","steam_id":76561198974226056,"connected_time":71000000000,"state":"active","ping":74}]},{"server_id":14,"name":"Uncletopia | New York City | 2 | All Maps","name_short":"nyc-2","host":"nyc-1.us.uncletopia.com","port":27025,"enabled":true,"region":"us-east","cc":"us","latitude":40.73061,"longitude":-73.93524,"reserved":0,"last_update":"0001-01-01T00:00:00Z","name_a2s":"Uncletopia | New York City | 2 | All Maps","protocol":17,"map":"cp_metalworks","folder":"tf","game":"Team Fortress","app_id":440,"player_count":24,"max_players":24,"Bots":0,"server_type":"Dedicated","server_os":"Linux","password":true,"vac":true,"version":"7757534","steam_id":85568392924469994,"keywords":["cp","nocrits","nodmgspread","uncletopia"],"game_id":440,"stv_port":27026,"stv_name":"Uncletopia | New York City | 2 | All Maps | STV","players":[{"user_id":5,"name":"gurtajwastaken","steam_id":76561199165852862,"connected_time":4205000000000,"state":"active","ping":115},{"user_id":46,"name":"enotown","steam_id":76561198109901138,"connected_time":2279000000000,"state":"active","ping":57},{"user_id":47,"name":"Chief Balupa","steam_id":76561198045583454,"connected_time":2261000000000,"state":"active","ping":130},{"user_id":65,"name":"Legit_Jaxer","steam_id":76561198172234053,"connected_time":1075000000000,"state":"active","ping":134},{"user_id":76,"name":"Party Fit","steam_id":76561199437896078,"connected_time":112000000000,"state":"active","ping":96},{"user_id":59,"name":"BigBubble42","steam_id":76561198136286123,"connected_time":1477000000000,"state":"active","ping":68},{"user_id":42,"name":"Wahooka","steam_id":76561197962240925,"connected_time":2430000000000,"state":"active","ping":52},{"user_id":48,"name":"The Great Eagle Scourge of 1822","steam_id":76561198325086209,"connected_time":2225000000000,"state":"active","ping":123},{"user_id":77,"name":"Resistance","steam_id":76561198146782074,"connected_time":0,"state":"connecting","ping":0},{"user_id":49,"name":"housefly","steam_id":76561198795402971,"connected_time":2203000000000,"state":"active","ping":104},{"user_id":60,"name":"Tony Pizza","steam_id":76561198044331477,"connected_time":1463000000000,"state":"active","ping":53},{"user_id":66,"name":"ted twenty-two ( Triple T )","steam_id":76561198121316868,"connected_time":1071000000000,"state":"active","ping":90},{"user_id":74,"name":"Tlaloc","steam_id":76561198375215983,"connected_time":647000000000,"state":"active","ping":116},{"user_id":41,"name":"Krusty Nut","steam_id":76561198120637924,"connected_time":2700000000000,"state":"active","ping":49},{"user_id":75,"name":"DualiTea","steam_id":76561198081733870,"connected_time":643000000000,"state":"active","ping":76},{"user_id":67,"name":"An Unhappy Clown","steam_id":76561198175516514,"connected_time":1012000000000,"state":"active","ping":78},{"user_id":68,"name":"Wool","steam_id":76561198332704108,"connected_time":913000000000,"state":"active","ping":66},{"user_id":27,"name":"xd Clover","steam_id":76561198038905361,"connected_time":3431000000000,"state":"active","ping":53},{"user_id":28,"name":"Xx-CostcoShopper-xX","steam_id":76561198066429444,"connected_time":3416000000000,"state":"active","ping":53},{"user_id":73,"name":"ark","steam_id":76561198041066271,"connected_time":811000000000,"state":"active","ping":99},{"user_id":72,"name":"Spimtmot733","steam_id":76561199029189825,"connected_time":852000000000,"state":"active","ping":60},{"user_id":70,"name":"Indigolake","steam_id":76561198202215807,"connected_time":910000000000,"state":"active","ping":71},{"user_id":61,"name":"Worst Scenario","steam_id":76561199052130229,"connected_time":1463000000000,"state":"active","ping":76},{"user_id":71,"name":"Squiliam","steam_id":76561198025278006,"connected_time":909000000000,"state":"active","ping":74}]},{"server_id":15,"name":"Uncletopia | New York City | 3 | Stopwatch Beta","name_short":"nyc-3","host":"nyc-1.us.uncletopia.com","port":27035,"enabled":true,"region":"us-east","cc":"us","latitude":40.73061,"longitude":-73.93524,"reserved":0,"last_update":"0001-01-01T00:00:00Z","name_a2s":"Uncletopia | New York City | 3 | Stopwatch Beta","protocol":17,"map":"pl_upward","folder":"tf","game":"Team Fortress","app_id":440,"player_count":0,"max_players":24,"Bots":0,"server_type":"Dedicated","server_os":"Linux","password":true,"vac":true,"version":"7757534","steam_id":85568392924742820,"keywords":["nocrits","nodmgspread","payload","uncletopia"],"game_id":440,"stv_port":27036,"stv_name":"Uncletopia | New York City | 3 | Stopwatch Beta | STV","players":null},{"server_id":16,"name":"Uncletopia | New York City | 4 | Community","name_short":"nyc-4","host":"nyc-1.us.uncletopia.com","port":27045,"enabled":true,"region":"us-east","cc":"us","latitude":40.73061,"longitude":-73.93524,"reserved":0,"last_update":"0001-01-01T00:00:00Z","name_a2s":"Uncletopia | New York City | 4 | Community","protocol":17,"map":"workshop/cp_reckoner_rc6.ugc674719999","folder":"tf","game":"Team Fortress","app_id":440,"player_count":0,"max_players":24,"Bots":0,"server_type":"Dedicated","server_os":"Linux","password":true,"vac":true,"version":"7757534","steam_id":85568392924742821,"keywords":["cp","nocrits","nodmgspread","uncletopia"],"game_id":440,"stv_port":27046,"stv_name":"Uncletopia | New York City | 4 | Community | STV","players":null},{"server_id":142,"name":"Uncletopia | S√£o Paulo | 1 | All Maps","name_short":"sao-1","host":"sao-1.br.uncletopia.com","port":27015,"enabled":true,"region":"sa","cc":"br","latitude":-23.533773,"longitude":-46.62529,"reserved":0,"last_update":"0001-01-01T00:00:00Z","name_a2s":"Uncletopia | S√£o Paulo | 1 | All Maps","protocol":17,"map":"pl_swiftwater_final1","folder":"tf","game":"Team Fortress","app_id":440,"player_count":0,"max_players":24,"Bots":0,"server_type":"Dedicated","server_os":"Linux","password":true,"vac":true,"version":"7757534","steam_id":85568392924469996,"keywords":["nocrits","nodmgspread","payload","uncletopia"],"game_id":440,"stv_port":27016,"stv_name":"Uncletopia | S√£o Paulo | 1 | All Maps | STV","players":null},{"server_id":143,"name":"Uncletopia | S√£o Paulo | 2 | All Maps","name_short":"sao-2","host":"sao-2.br.uncletopia.com","port":27015,"enabled":true,"region":"sa","cc":"br","latitude":-23.533773,"longitude":-46.62529,"reserved":0,"last_update":"0001-01-01T00:00:00Z","name_a2s":"Uncletopia | S√£o Paulo | 2 | All Maps","protocol":17,"map":"koth_cascade","folder":"tf","game":"Team Fortress","app_id":440,"player_count":0,"max_players":24,"Bots":0,"server_type":"Dedicated","server_os":"Linux","password":true,"vac":true,"version":"7757534","steam_id":85568392924485349,"keywords":["cp","nocrits","nodmgspread","uncletopia"],"game_id":440,"stv_port":27016,"stv_name":"Uncletopia | S√£o Paulo | 2 | All Maps | STV","players":null},{"server_id":7,"name":"Uncletopia | Seattle | 1 | All Maps","name_short":"sea-1","host":"sea-1.us.uncletopia.com","port":27015,"enabled":true,"region":"us-west","cc":"us","latitude":47.608013,"longitude":-122.33517,"reserved":0,"last_update":"0001-01-01T00:00:00Z","name_a2s":"Uncletopia | Seattle | 1 | All Maps","protocol":17,"map":"pl_frontier_final","folder":"tf","game":"Team Fortress","app_id":440,"player_count":24,"max_players":24,"Bots":0,"server_type":"Dedicated","server_os":"Linux","password":true,"vac":true,"version":"7757534","steam_id":85568392924469997,"keywords":["nocrits","nodmgspread","payload","uncletopia"],"game_id":440,"stv_port":27016,"stv_name":"Uncletopia | Seattle | 1 | All Maps | STV","players":[{"user_id":193,"name":"weenie hut jr","steam_id":76561198206922028,"connected_time":76000000000,"state":"active","ping":75},{"user_id":134,"name":"SibilantSerpent","steam_id":76561198154488754,"connected_time":3465000000000,"state":"active","ping":54},{"user_id":138,"name":"CollDragon","steam_id":76561198067534450,"connected_time":3124000000000,"state":"active","ping":118},{"user_id":106,"name":"Soozy420","steam_id":76561198809074422,"connected_time":5375000000000,"state":"active","ping":75},{"user_id":181,"name":"Themasterman75","steam_id":76561199385573293,"connected_time":1198000000000,"state":"active","ping":69},{"user_id":61,"name":"Honey Boo Boo","steam_id":76561198119340886,"connected_time":9430000000000,"state":"active","ping":78},{"user_id":141,"name":"Trufftacular","steam_id":76561198979143656,"connected_time":2967000000000,"state":"active","ping":120},{"user_id":151,"name":"The Mayo Man","steam_id":76561197995377425,"connected_time":2698000000000,"state":"active","ping":115},{"user_id":184,"name":"rMuralCDLX","steam_id":76561198975798517,"connected_time":995000000000,"state":"active","ping":90},{"user_id":179,"name":"CreativeUsername","steam_id":76561198186045503,"connected_time":1307000000000,"state":"active","ping":93},{"user_id":144,"name":"SeaBass","steam_id":76561197982949108,"connected_time":2916000000000,"state":"active","ping":123},{"user_id":159,"name":"Pugzilla","steam_id":76561198108088960,"connected_time":2413000000000,"state":"active","ping":115},{"user_id":91,"name":"Treekincko","steam_id":76561198047995911,"connected_time":6480000000000,"state":"active","ping":43},{"user_id":187,"name":"Tyler\u0026Fingers","steam_id":76561198085154485,"connected_time":810000000000,"state":"active","ping":139},{"user_id":182,"name":"gretchling","steam_id":76561198046111695,"connected_time":1195000000000,"state":"active","ping":95},{"user_id":190,"name":"land0","steam_id":76561198321264704,"connected_time":413000000000,"state":"active","ping":83},{"user_id":185,"name":"Lovedaddy","steam_id":76561198006569710,"connected_time":993000000000,"state":"active","ping":132},{"user_id":191,"name":"Shattered Soul","steam_id":76561198322226862,"connected_time":397000000000,"state":"active","ping":158},{"user_id":49,"name":"Neo Kojiro","steam_id":76561198000967076,"connected_time":10736000000000,"state":"active","ping":129},{"user_id":192,"name":"Imitation Caucasian","steam_id":76561198320536166,"connected_time":389000000000,"state":"active","ping":99},{"user_id":173,"name":"A Shiny Meat Bicycle","steam_id":76561198358757709,"connected_time":1442000000000,"state":"active","ping":156},{"user_id":183,"name":"my monitor is off","steam_id":76561198074499537,"connected_time":1194000000000,"state":"active","ping":101},{"user_id":166,"name":"Danny Fentanyl","steam_id":76561197970791798,"connected_time":1877000000000,"state":"active","ping":40},{"user_id":189,"name":"mingo","steam_id":76561198308290211,"connected_time":592000000000,"state":"active","ping":97}]},{"server_id":119,"name":"Uncletopia | Seattle | 2 | All Maps","name_short":"sea-2","host":"sea-1.us.uncletopia.com","port":27025,"enabled":true,"region":"us-west","cc":"us","latitude":47.608013,"longitude":-122.33517,"reserved":0,"last_update":"0001-01-01T00:00:00Z","name_a2s":"Uncletopia | Seattle | 2 | All Maps","protocol":17,"map":"cp_sunshine","folder":"tf","game":"Team Fortress","app_id":440,"player_count":0,"max_players":24,"Bots":0,"server_type":"Dedicated","server_os":"Linux","password":true,"vac":true,"version":"7757534","steam_id":85568392924469998,"keywords":["cp","nocrits","nodmgspread","uncletopia"],"game_id":440,"stv_port":27026,"stv_name":"Uncletopia | Seattle | 2 | All Maps | STV","players":null},{"server_id":406,"name":"Uncletopia | Seattle | 3 | Stopwatch Beta","name_short":"sea-3","host":"sea-1.us.uncletopia.com","port":27035,"enabled":true,"region":"us-west","cc":"us","latitude":47.608013,"longitude":-122.33517,"reserved":0,"last_update":"0001-01-01T00:00:00Z","name_a2s":"Uncletopia | Seattle | 3 | Stopwatch Beta","protocol":17,"map":"cp_dustbowl","folder":"tf","game":"Team Fortress","app_id":440,"player_count":0,"max_players":24,"Bots":0,"server_type":"Dedicated","server_os":"Linux","password":true,"vac":true,"version":"7757534","steam_id":85568392924515217,"keywords":["cp","nocrits","nodmgspread","uncletopia"],"game_id":440,"stv_port":27036,"stv_name":"Uncletopia | Seattle | 3 | Stopwatch Beta | STV","players":null},{"server_id":17,"name":"Uncletopia | San Francisco | 1 | All Maps","name_short":"sfo-1","host":"sfo-1.us.uncletopia.com","port":27015,"enabled":true,"region":"us-west","cc":"us","latitude":37.77397,"longitude":-122.4313,"reserved":0,"last_update":"0001-01-01T00:00:00Z","name_a2s":"Uncletopia | San Francisco | 1 | All Maps","protocol":17,"map":"koth_cascade","folder":"tf","game":"Team Fortress","app_id":440,"player_count":0,"max_players":24,"Bots":0,"server_type":"Dedicated","server_os":"Linux","password":true,"vac":true,"version":"7757534","steam_id":85568392924469999,"keywords":["cp","nocrits","nodmgspread","uncletopia"],"game_id":440,"stv_port":27016,"stv_name":"Uncletopia | San Francisco | 1 | All Maps | STV","players":null},{"server_id":18,"name":"Uncletopia | San Francisco | 2 | All Maps","name_short":"sfo-2","host":"sfo-1.us.uncletopia.com","port":27025,"enabled":true,"region":"us-west","cc":"us","latitude":37.77397,"longitude":-122.4313,"reserved":0,"last_update":"0001-01-01T00:00:00Z","name_a2s":"Uncletopia | San Francisco | 2 | All Maps","protocol":17,"map":"koth_highpass","folder":"tf","game":"Team Fortress","app_id":440,"player_count":0,"max_players":24,"Bots":0,"server_type":"Dedicated","server_os":"Linux","password":true,"vac":true,"version":"7757534","steam_id":85568392924470000,"keywords":["cp","nocrits","nodmgspread","uncletopia"],"game_id":440,"stv_port":27026,"stv_name":"Uncletopia | San Francisco | 2 | All Maps | STV","players":null},{"server_id":19,"name":"Uncletopia | San Francisco | 3 | Stopwatch Beta","name_short":"sfo-3","host":"sfo-1.us.uncletopia.com","port":27035,"enabled":true,"region":"us-west","cc":"us","latitude":37.77397,"longitude":-122.4313,"reserved":0,"last_update":"0001-01-01T00:00:00Z","name_a2s":"Uncletopia | San Francisco | 3 | Stopwatch Beta","protocol":17,"map":"koth_lakeside_final","folder":"tf","game":"Team Fortress","app_id":440,"player_count":0,"max_players":24,"Bots":0,"server_type":"Dedicated","server_os":"Linux","password":true,"vac":true,"version":"7757534","steam_id":85568392924742824,"keywords":["cp","nocrits","nodmgspread","uncletopia"],"game_id":440,"stv_port":27036,"stv_name":"Uncletopia | San Francisco | 3 | Stopwatch Beta | STV","players":null},{"server_id":20,"name":"Uncletopia | San Francisco | 4 | Community","name_short":"sfo-4","host":"sfo-1.us.uncletopia.com","port":27045,"enabled":true,"region":"us-west","cc":"us","latitude":37.77397,"longitude":-122.4313,"reserved":0,"last_update":"0001-01-01T00:00:00Z","name_a2s":"Uncletopia | San Francisco | 4 | Community","protocol":17,"map":"cp_altitude","folder":"tf","game":"Team Fortress","app_id":440,"player_count":0,"max_players":24,"Bots":0,"server_type":"Dedicated","server_os":"Linux","password":true,"vac":true,"version":"7757534","steam_id":85568392924742826,"keywords":["cp","nocrits","nodmgspread","uncletopia"],"game_id":440,"stv_port":27046,"stv_name":"Uncletopia | San Francisco | 4 | Community | STV","players":null},{"server_id":141,"name":"Uncletopia | Sydney | 1 | All Maps","name_short":"syd-1","host":"syd-1.au.uncletopia.com","port":27015,"enabled":true,"region":"au","cc":"au","latitude":-33.865143,"longitude":151.2099,"reserved":0,"last_update":"0001-01-01T00:00:00Z","name_a2s":"Uncletopia | Sydney | 1 | All Maps","protocol":17,"map":"pl_frontier_final","folder":"tf","game":"Team Fortress","app_id":440,"player_count":0,"max_players":24,"Bots":0,"server_type":"Dedicated","server_os":"Linux","password":true,"vac":true,"version":"7757534","steam_id":85568392924470001,"keywords":["nocrits","nodmgspread","payload","uncletopia"],"game_id":440,"stv_port":27016,"stv_name":"Uncletopia | Sydney | 1 | All Maps | STV","players":null},{"server_id":123,"name":"Uncletopia | Sydney | 2 | All Maps","name_short":"syd-2","host":"syd-1.au.uncletopia.com","port":27025,"enabled":true,"region":"au","cc":"au","latitude":-33.865143,"longitude":151.2099,"reserved":0,"last_update":"0001-01-01T00:00:00Z","name_a2s":"Uncletopia | Sydney | 2 | All Maps","protocol":17,"map":"cp_snakewater_final1","folder":"tf","game":"Team Fortress","app_id":440,"player_count":0,"max_players":24,"Bots":0,"server_type":"Dedicated","server_os":"Linux","password":true,"vac":true,"version":"7757534","steam_id":85568392924470002,"keywords":["cp","nocrits","nodmgspread","uncletopia"],"game_id":440,"stv_port":27026,"stv_name":"Uncletopia | Sydney | 2 | All Maps | STV","players":null},{"server_id":395,"name":"Uncletopia | Sydney | 3 | All Maps","name_short":"syd-3","host":"syd-1.au.uncletopia.com","port":27035,"enabled":true,"region":"au","cc":"au","latitude":-33.865143,"longitude":151.2099,"reserved":0,"last_update":"0001-01-01T00:00:00Z","name_a2s":"Uncletopia | Sydney | 3 | All Maps","protocol":17,"map":"cp_dustbowl","folder":"tf","game":"Team Fortress","app_id":440,"player_count":0,"max_players":24,"Bots":0,"server_type":"Dedicated","server_os":"Linux","password":true,"vac":true,"version":"7757534","steam_id":85568392925194467,"keywords":["cp","nocrits","nodmgspread","uncletopia"],"game_id":440,"stv_port":27036,"stv_name":"Uncletopia | Sydney | 3 | All Maps | STV","players":null},{"server_id":396,"name":"Uncletopia | Sydney | 4 | All Maps","name_short":"syd-4","host":"syd-1.au.uncletopia.com","port":27045,"enabled":true,"region":"au","cc":"au","latitude":-33.865143,"longitude":151.2099,"reserved":0,"last_update":"0001-01-01T00:00:00Z","name_a2s":"Uncletopia | Sydney | 4 | All Maps","protocol":17,"map":"koth_lakeside_final","folder":"tf","game":"Team Fortress","app_id":440,"player_count":0,"max_players":24,"Bots":0,"server_type":"Dedicated","server_os":"Linux","password":true,"vac":true,"version":"7757534","steam_id":85568392925397958,"keywords":["cp","nocrits","nodmgspread","uncletopia"],"game_id":440,"stv_port":27046,"stv_name":"Uncletopia | Sydney | 4 | All Maps | STV","players":null},{"server_id":58,"name":"Uncletopia | Sydney | 5 | Stopwatch Beta","name_short":"syd-5","host":"syd-1.au.uncletopia.com","port":27055,"enabled":true,"region":"au","cc":"au","latitude":-33.865143,"longitude":151.2099,"reserved":0,"last_update":"0001-01-01T00:00:00Z","name_a2s":"Uncletopia | Sydney | 5 | Stopwatch Beta","protocol":17,"map":"workshop/pl_badwater_pro_v12.ugc2142942074","folder":"tf","game":"Team Fortress","app_id":440,"player_count":0,"max_players":24,"Bots":0,"server_type":"Dedicated","server_os":"Linux","password":true,"vac":true,"version":"7757534","steam_id":85568392925397959,"keywords":["nocrits","nodmgspread","payload","uncletopia"],"game_id":440,"stv_port":27056,"stv_name":"Uncletopia | Sydney | 5 | Stopwatch Beta | STV","players":null},{"server_id":59,"name":"Uncletopia | Sydney | 6 | Community","name_short":"syd-6","host":"syd-1.au.uncletopia.com","port":27065,"enabled":true,"region":"au","cc":"au","latitude":-33.865143,"longitude":151.2099,"reserved":0,"last_update":"0001-01-01T00:00:00Z","name_a2s":"Uncletopia | Sydney | 6 | Community","protocol":17,"map":"workshop/koth_slaughter_rc1.ugc1712845210","folder":"tf","game":"Team Fortress","app_id":440,"player_count":0,"max_players":24,"Bots":0,"server_type":"Dedicated","server_os":"Linux","password":true,"vac":true,"version":"7757534","steam_id":85568392925397960,"keywords":["cp","nocrits","nodmgspread","uncletopia"],"game_id":440,"stv_port":27066,"stv_name":"Uncletopia | Sydney | 6 | Community | STV","players":null},{"server_id":49,"name":"Uncletopia | Warsaw | 1 | All Maps","name_short":"waw-1","host":"waw-1.pl.uncletopia.com","port":27015,"enabled":true,"region":"eu","cc":"pl","latitude":52.2297,"longitude":21.017532,"reserved":0,"last_update":"0001-01-01T00:00:00Z","name_a2s":"","protocol":0,"map":"","folder":"","game":"","app_id":0,"player_count":0,"max_players":0,"Bots":0,"server_type":"","server_os":"","password":false,"vac":false,"version":"","steam_id":0,"keywords":null,"game_id":0,"stv_port":0,"stv_name":"","players":null},{"server_id":50,"name":"Uncletopia | Warsaw | 2 | All Maps","name_short":"waw-2","host":"waw-1.pl.uncletopia.com","port":27025,"enabled":true,"region":"eu","cc":"pl","latitude":52.2297,"longitude":21.017532,"reserved":0,"last_update":"0001-01-01T00:00:00Z","name_a2s":"Uncletopia | Warsaw | 2 | All Maps","protocol":17,"map":"koth_viaduct","folder":"tf","game":"Team Fortress","app_id":440,"player_count":0,"max_players":24,"Bots":0,"server_type":"Dedicated","server_os":"Linux","password":true,"vac":true,"version":"7757534","steam_id":85568392925397851,"keywords":["cp","nocrits","nodmgspread","uncletopia"],"game_id":440,"stv_port":27026,"stv_name":"Uncletopia | Warsaw | 2 | All Maps | STV","players":null},{"server_id":51,"name":"Uncletopia | Warsaw | 3 | All Maps","name_short":"waw-3","host":"waw-1.pl.uncletopia.com","port":27035,"enabled":true,"region":"eu","cc":"pl","latitude":52.2297,"longitude":21.017532,"reserved":0,"last_update":"0001-01-01T00:00:00Z","name_a2s":"Uncletopia | Warsaw | 3 | All Maps","protocol":17,"map":"pl_pier","folder":"tf","game":"Team Fortress","app_id":440,"player_count":0,"max_players":24,"Bots":0,"server_type":"Dedicated","server_os":"Linux","password":true,"vac":true,"version":"7757534","steam_id":85568392925397852,"keywords":["nocrits","nodmgspread","payload","uncletopia"],"game_id":440,"stv_port":27036,"stv_name":"Uncletopia | Warsaw | 3 | All Maps | STV","players":null},{"server_id":52,"name":"Uncletopia | Warsaw | 4 | All Maps","name_short":"waw-4","host":"waw-1.pl.uncletopia.com","port":27045,"enabled":true,"region":"eu","cc":"pl","latitude":52.2297,"longitude":21.017532,"reserved":0,"last_update":"0001-01-01T00:00:00Z","name_a2s":"Uncletopia | Warsaw | 4 | All Maps","protocol":17,"map":"koth_lakeside_final","folder":"tf","game":"Team Fortress","app_id":440,"player_count":0,"max_players":24,"Bots":0,"server_type":"Dedicated","server_os":"Linux","password":true,"vac":true,"version":"7757534","steam_id":85568392925397853,"keywords":["cp","nocrits","nodmgspread","uncletopia"],"game_id":440,"stv_port":27046,"stv_name":"Uncletopia | Warsaw | 4 | All Maps | STV","players":null},{"server_id":53,"name":"Uncletopia | Warsaw | 5 | Stopwatch Beta","name_short":"waw-5","host":"waw-1.pl.uncletopia.com","port":27055,"enabled":true,"region":"eu","cc":"pl","latitude":52.2297,"longitude":21.017532,"reserved":0,"last_update":"0001-01-01T00:00:00Z","name_a2s":"Uncletopia | Warsaw | 5 | Stopwatch Beta","protocol":17,"map":"pl_borneo","folder":"tf","game":"Team Fortress","app_id":440,"player_count":0,"max_players":24,"Bots":0,"server_type":"Dedicated","server_os":"Linux","password":true,"vac":true,"version":"7757534","steam_id":85568392925397854,"keywords":["nocrits","nodmgspread","payload","uncletopia"],"game_id":440,"stv_port":27056,"stv_name":"Uncletopia | Warsaw | 5 | Stopwatch Beta | STV","players":null},{"server_id":54,"name":"Uncletopia | Warsaw | 6 | Community","name_short":"waw-6","host":"waw-1.pl.uncletopia.com","port":27065,"enabled":true,"region":"eu","cc":"pl","latitude":52.2297,"longitude":21.017532,"reserved":0,"last_update":"0001-01-01T00:00:00Z","name_a2s":"Uncletopia | Warsaw | 6 | Community","protocol":17,"map":"workshop/cp_glassworks_rc6a.ugc454118349","folder":"tf","game":"Team Fortress","app_id":440,"player_count":0,"max_players":24,"Bots":0,"server_type":"Dedicated","server_os":"Linux","password":true,"vac":true,"version":"7757534","steam_id":85568392925397856,"keywords":["cp","nocrits","nodmgspread","uncletopia"],"game_id":440,"stv_port":27066,"stv_name":"Uncletopia | Warsaw | 6 | Community | STV","players":null}]}