{"status":true,"message":"","result":[{"server_id":9,"name":"Uncletopia | Atlanta | 1 | All Maps","name_short":"atl-1","host":"atl-1.us.uncletopia.com","port":27015,"enabled":true,"region":"us-east","cc":"us","latitude":33.753746,"longitude":-84.38633,"reserved":0,"last_update":"0001-01-01T00:00:00Z","name_a2s":"Uncletopia | Atlanta | 1 | All Maps","protocol":17,"map":"koth_cascade","folder":"tf","game":"Team Fortress","app_id":440,"player_count":0,"max_players":24,"Bots":0,"server_type":"Dedicated","server_os":"Linux","password":true,"vac":true,"version":"7757534","steam_id":85568392924469982,"keywords":["cp","nocrits","nodmgspread","uncletopia"],"game_id":440,"stv_port":27016,"stv_name":"Uncletopia | Atlanta | 1 | All Maps | STV","players":null},{"server_id":104,"name":"Uncletopia | Atlanta | 2 | All Maps","name_short":"atl-2","host":"atl-1.us.uncletopia.com","port":27025,"enabled":true,"region":"us-east","cc":"us","latitude":33.753746,"longitude":-84.38633,"reserved":0,"last_update":"0001-01-01T00:00:00Z","name_a2s":"Uncletopia | Atlanta | 2 | All Maps","protocol":17,"map":"cp_dustbowl","folder":"tf","game":"Team Fortress","app_id":440,"player_count":0,"max_players":24,"Bots":0,"server_type":"Dedicated","server_os":"Linux","password":true,"vac":true,"version":"7757534","steam_id":85568392924469983,"keywords":["cp","nocrits","nodmgspread","uncletopia"],"game_id":440,"stv_port":27026,"stv_name":"Uncletopia | Atlanta | 2 | All Maps | STV","players":null},{"server_id":400,"name":"Uncletopia | Atlanta | 3 | Community","name_short":"atl-3","host":"atl-1.us.uncletopia.com","port":27035,"enabled":true,"region":"us-east","cc":"us","latitude":33.753746,"longitude":-84.38633,"reserved":0,"last_update":"0001-01-01T00:00:00Z","name_a2s":"Uncletopia | Atlanta | 3 | Community","protocol":17,"map":"workshop/cp_caldera_rc2.ugc2834196889","folder":"tf","game":"Team Fortress","app_id":440,"player_count":0,"max_players":24,"Bots":0,"server_type":"Dedicated","server_os":"Linux","password":true,"vac":true,"version":"7757534","steam_id":85568392924515187,"keywords":["cp","nocrits","nodmgspread","uncletopia"],"game_id":440,"stv_port":27036,"stv_name":"Uncletopia | Atlanta | 3 | Community | STV","players":null},{"server_id":401,"name":"Uncletopia | Atlanta | 4 | No Payload","name_short":"atl-4","host":"atl-1.us.uncletopia.com","port":27045,"enabled":true,"region":"us-east","cc":"us","latitude":33.753746,"longitude":-84.38633,"reserved":0,"last_update":"0001-01-01T00:00:00Z","name_a2s":"","protocol":0,"map":"","folder":"","game":"","app_id":0,"player_count":0,"max_players":0,"Bots":0,"server_type":"","server_os":"","password":false,"vac":false,"version":"","steam_id":0,"keywords":null,"game_id":0,"stv_port":0,"stv_name":"","players":null},{"server_id":2,"name":"Uncletopia | Chicago | 1 | All Maps","name_short":"chi-1","host":"chi-1.us.uncletopia.com","port":27015,"enabled":true,"region":"us-central","cc":"us","latitude":41.881832,"longitude":-87.62318,"reserved":0,"last_update":"0001-01-01T00:00:00Z","name_a2s":"Uncletopia | Chicago | 1 | All Maps","protocol":17,"map":"pl_badwater","folder":"tf","game":"Team Fortress","app_id":440,"player_count":24,"max_players":24,"Bots":0,"server_type":"Dedicated","server_os":"Linux","password":true,"vac":true,"version":"7757534","steam_id":85568392924469984,"keywords":["nocrits","nodmgspread","payload","uncletopia"],"game_id":440,"stv_port":27016,"stv_name":"Uncletopia | Chicago | 1 | All Maps | STV","players":[{"user_id":12,"name":"catface","steam_id":76561198096347625,"connected_time":1580000000000,"state":"active","ping":75},{"user_id":15,"name":"Dante","steam_id":76561198798234838,"connected_time":1482000000000,"state":"active","ping":110},{"user_id":16,"name":"Onyiun","steam_id":76561199124107338,"connected_time":1480000000000,"state":"active","ping":82},{"user_id":17,"name":"Elena Manetta","steam_id":76561197998344054,"connected_time":1475000000000,"state":"active","ping":52},{"user_id":27,"name":"O o g","steam_id":76561199267535506,"connected_time":1016000000000,"state":"active","ping":65},{"user_id":19,"name":"Observer","steam_id":76561198326814067,"connected_time":1450000000000,"state":"active","ping":70},{"user_id":20,"name":"Minty","steam_id":76561198191887141,"connected_time":1448000000000,"state":"active","ping":71},{"user_id":21,"name":"FROYO cin","steam_id":76561198139802458,"connected_time":1405000000000,"state":"active","ping":65},{"user_id":41,"name":"Gnarly Shark Bite","steam_id":76561198004058342,"connected_time":187000000000,"state":"active","ping":69},{"user_id":23,"name":"watchfull","steam_id":76561198433266742,"connected_time":1244000000000,"state":"active","ping":98},{"user_id":24,"name":"Genne","steam_id":76561198153434791,"connected_time":1196000000000,"state":"active","ping":61},{"user_id":25,"name":"Maverick","steam_id":76561198322829814,"connected_time":1194000000000,"state":"active","ping":78},{"user_id":28,"name":"Cheesi","steam_id":76561199417190840,"connected_time":969000000000,"state":"active","ping":68},{"user_id":29,"name":"Titus Tyrwitt","steam_id":76561197990779673,"connected_time":900000000000,"state":"active","ping":74},{"user_id":30,"name":"C U M  J A R","steam_id":76561198440993934,"connected_time":868000000000,"state":"active","ping":89},{"user_id":31,"name":"Warrenator","steam_id":76561198132094572,"connected_time":850000000000,"state":"active","ping":65},{"user_id":32,"name":"Drachma","steam_id":76561198007310514,"connected_time":844000000000,"state":"active","ping":70},{"user_id":42,"name":"WarMace","steam_id":76561198395937853,"connected_time":183000000000,"state":"active","ping":73},{"user_id":43,"name":"Extinct","steam_id":76561199013696367,"connected_time":183000000000,"state":"active","ping":65},{"user_id":35,"name":"William Wallace","steam_id":76561199343316814,"connected_time":732000000000,"state":"active","ping":72},{"user_id":36,"name":"teamspeakisbeter","steam_id":76561198994349483,"connected_time":676000000000,"state":"active","ping":98},{"user_id":40,"name":"devunbona","steam_id":76561199470680963,"connected_time":472000000000,"state":"active","ping":72},{"user_id":38,"name":"Een schaap zonder slaap","steam_id":76561198084808410,"connected_time":582000000000,"state":"active","ping":153},{"user_id":39,"name":"dum bich","steam_id":76561198320234566,"connected_time":580000000000,"state":"active","ping":64}]},{"server_id":106,"name":"Uncletopia | Chicago | 2 | All Maps","name_short":"chi-2","host":"chi-1.us.uncletopia.com","port":27025,"enabled":true,"region":"us-central","cc":"us","latitude":41.881832,"longitude":-87.62318,"reserved":0,"last_update":"0001-01-01T00:00:00Z","name_a2s":"Uncletopia | Chicago | 2 | All Maps","protocol":17,"map":"pl_badwater","folder":"tf","game":"Team Fortress","app_id":440,"player_count":24,"max_players":24,"Bots":0,"server_type":"Dedicated","server_os":"Linux","password":true,"vac":true,"version":"7757534","steam_id":85568392924469985,"keywords":["nocrits","nodmgspread","payload","uncletopia"],"game_id":440,"stv_port":27026,"stv_name":"Uncletopia | Chicago | 2 | All Maps | STV","players":[{"user_id":106,"name":"B00G","steam_id":76561198049705966,"connected_time":622000000000,"state":"active","ping":76},{"user_id":91,"name":"Goat","steam_id":76561198068447650,"connected_time":1263000000000,"state":"active","ping":65},{"user_id":96,"name":"Speedy","steam_id":76561198080761661,"connected_time":1100000000000,"state":"active","ping":79},{"user_id":105,"name":"Sprit ‚ô•","steam_id":76561198268780781,"connected_time":760000000000,"state":"active","ping":55},{"user_id":93,"name":"help","steam_id":76561199056338917,"connected_time":1201000000000,"state":"active","ping":75},{"user_id":99,"name":"Commie","steam_id":76561198149370115,"connected_time":942000000000,"state":"active","ping":45},{"user_id":98,"name":"Proof by close enough","steam_id":76561198083345384,"connected_time":964000000000,"state":"active","ping":88},{"user_id":100,"name":"neet","steam_id":76561197968115168,"connected_time":935000000000,"state":"active","ping":59},{"user_id":74,"name":"JennaShinx","steam_id":76561198074773762,"connected_time":2194000000000,"state":"active","ping":63},{"user_id":29,"name":"Degenerate","steam_id":76561198079416360,"connected_time":4311000000000,"state":"active","ping":70},{"user_id":92,"name":"Mury","steam_id":76561198069743049,"connected_time":1219000000000,"state":"active","ping":103},{"user_id":97,"name":"gonk","steam_id":76561198061206732,"connected_time":984000000000,"state":"active","ping":79},{"user_id":107,"name":"CrackedSanity","steam_id":76561198279841251,"connected_time":565000000000,"state":"active","ping":90},{"user_id":63,"name":"cyclops","steam_id":76561197970370198,"connected_time":2649000000000,"state":"active","ping":72},{"user_id":76,"name":"Fat Engi","steam_id":76561199243208497,"connected_time":2163000000000,"state":"active","ping":169},{"user_id":104,"name":"im the beef","steam_id":76561198069506128,"connected_time":838000000000,"state":"active","ping":55},{"user_id":77,"name":"trks","steam_id":76561198233984300,"connected_time":2156000000000,"state":"active","ping":48},{"user_id":110,"name":"WhippedHook","steam_id":76561198069581138,"connected_time":202000000000,"state":"active","ping":70},{"user_id":101,"name":"VividDragon","steam_id":76561198050659285,"connected_time":917000000000,"state":"active","ping":70},{"user_id":41,"name":"Walkiing","steam_id":76561198074473413,"connected_time":3972000000000,"state":"active","ping":45},{"user_id":103,"name":"Toast","steam_id":76561198401995265,"connected_time":864000000000,"state":"active","ping":61},{"user_id":87,"name":"LVL 4 Dispenser Gaming","steam_id":76561198044244547,"connected_time":1355000000000,"state":"active","ping":80},{"user_id":49,"name":"your–¥—Ä—É–≥","steam_id":76561198317927140,"connected_time":3510000000000,"state":"active","ping":67},{"user_id":109,"name":"AutoCon17","steam_id":76561198209977473,"connected_time":320000000000,"state":"active","ping":46}]},{"server_id":402,"name":"Uncletopia | Chicago | 3 | All Maps","name_short":"chi-3","host":"chi-1.us.uncletopia.com","port":27035,"enabled":true,"region":"us-central","cc":"us","latitude":41.881832,"longitude":-87.62318,"reserved":0,"last_update":"0001-01-01T00:00:00Z","name_a2s":"Uncletopia | Chicago | 3 | All Maps","protocol":17,"map":"cp_sunshine","folder":"tf","game":"Team Fortress","app_id":440,"player_count":0,"max_players":24,"Bots":0,"server_type":"Dedicated","server_os":"Linux","password":true,"vac":true,"version":"7757534","steam_id":85568392924515191,"keywords":["cp","nocrits","nodmgspread","uncletopia"],"game_id":440,"stv_port":27036,"stv_name":"Uncletopia | Chicago | 3 | All Maps | STV","players":null},{"server_id":403,"name":"Uncletopia | Chicago | 4 | All Maps","name_short":"chi-4","host":"chi-1.us.uncletopia.com","port":27045,"enabled":true,"region":"us-central","cc":"us","latitude":41.881832,"longitude":-87.62318,"reserved":0,"last_update":"0001-01-01T00:00:00Z","name_a2s":"Uncletopia | Chicago | 4 | All Maps","protocol":17,"map":"koth_lakeside_final","folder":"tf","game":"Team Fortress","app_id":440,"player_count":0,"max_players":24,"Bots":0,"server_type":"Dedicated","server_os":"Linux","password":true,"vac":true,"version":"7757534","steam_id":85568392924515193,"keywords":["cp","nocrits","nodmgspread","uncletopia"],"game_id":440,"stv_port":27046,"stv_name":"Uncletopia | Chicago | 4 | All Maps | STV","players":null},{"server_id":36,"name":"Uncletopia | Chicago | 5 | All Maps","name_short":"chi-5","host":"chi-2.us.uncletopia.com","port":27015,"enabled":true,"region":"us-central","cc":"us","latitude":41.881832,"longitude":-87.62318,"reserved":0,"last_update":"0001-01-01T00:00:00Z","name_a2s":"Uncletopia | Chicago | 5 | All Maps","protocol":17,"map":"koth_cascade","folder":"tf","game":"Team Fortress","app_id":440,"player_count":0,"max_players":24,"Bots":0,"server_type":"Dedicated","server_os":"Linux","password":true,"vac":true,"version":"7757534","steam_id":85568392924866362,"keywords":["cp","nocrits","nodmgspread","uncletopia"],"game_id":440,"stv_port":27016,"stv_name":"Uncletopia | Chicago | 5 | All Maps | STV","players":null},{"server_id":37,"name":"Uncletopia | Chicago | 6 | All Maps","name_short":"chi-6","host":"chi-2.us.uncletopia.com","port":27025,"enabled":true,"region":"us-central","cc":"us","latitude":41.881832,"longitude":-87.62318,"reserved":0,"last_update":"0001-01-01T00:00:00Z","name_a2s":"Uncletopia | Chicago | 6 | All Maps","protocol":17,"map":"pl_borneo","folder":"tf","game":"Team Fortress","app_id":440,"player_count":1,"max_players":24,"Bots":0,"server_type":"Dedicated","server_os":"Linux","password":true,"vac":true,"version":"7757534","steam_id":85568392924866363,"keywords":["nocrits","nodmgspread","payload","uncletopia"],"game_id":440,"stv_port":27026,"stv_name":"Uncletopia | Chicago | 6 | All Maps | STV","players":[{"user_id":4,"name":"beans","steam_id":76561199082781884,"connected_time":68000000000,"state":"active","ping":83}]},{"server_id":38,"name":"Uncletopia | Chicago | 7 | Stopwatch Beta","name_short":"chi-7","host":"chi-2.us.uncletopia.com","port":27035,"enabled":true,"region":"us-central","cc":"us","latitude":41.881832,"longitude":-87.62318,"reserved":0,"last_update":"0001-01-01T00:00:00Z","name_a2s":"Uncletopia | Chicago | 7 | Stopwatch Beta","protocol":17,"map":"pl_barnblitz","folder":"tf","game":"Team Fortress","app_id":440,"player_count":0,"max_players":24,"Bots":0,"server_type":"Dedicated","server_os":"Linux","password":true,"vac":true,"version":"7757534","steam_id":85568392924866364,"keywords":["nocrits","nodmgspread","payload","uncletopia"],"game_id":440,"stv_port":27036,"stv_name":"Uncletopia | Chicago | 7 | Stopwatch Beta | STV","players":null},{"server_id":39,"name":"Uncletopia | Chicago | 8 | Community","name_short":"chi-8","host":"chi-2.us.uncletopia.com","port":27045,"enabled":true,"region":"us-central","cc":"us","latitude":41.881832,"longitude":-87.62318,"reserved":0,"last_update":"0001-01-01T00:00:00Z","name_a2s":"Uncletopia | Chicago | 8 | Community","protocol":17,"map":"koth_cascade","folder":"tf","game":"Team Fortress","app_id":440,"player_count":0,"max_players":24,"Bots":0,"server_type":"Dedicated","server_os":"Linux","password":true,"vac":true,"version":"7757534","steam_id":85568392924866365,"keywords":["cp","nocrits","nodmgspread","uncletopia"],"game_id":440,"stv_port":27046,"stv_name":"Uncletopia | Chicago | 8 | Community | STV","players":null},{"server_id":8,"name":"Uncletopia | Dallas | 1 | All Maps","name_short":"dal-1","host":"dal-1.us.uncletopia.com","port":27015,"enabled":true,"region":"us-central","cc":"us","latitude":32.779167,"longitude":-96.80889,"reserved":0,"last_update":"0001-01-01T00:00:00Z","name_a2s":"Uncletopia | Dallas | 1 | All Maps","protocol":17,"map":"koth_cascade","folder":"tf","game":"Team Fortress","app_id":440,"player_count":0,"max_players":24,"Bots":0,"server_type":"Dedicated","server_os":"Linux","password":true,"vac":true,"version":"7757534","steam_id":85568392924469986,"keywords":["cp","nocrits","nodmgspread","uncletopia"],"game_id":440,"stv_port":27016,"stv_name":"Uncletopia | Dallas | 1 | All Maps | STV","players":null},{"server_id":108,"name":"Uncletopia | Dallas | 2 | All Maps","name_short":"dal-2","host":"dal-1.us.uncletopia.com","port":27025,"enabled":true,"region":"us-central","cc":"us","latitude":32.779167,"longitude":-96.80889,"reserved":0,"last_update":"0001-01-01T00:00:00Z","name_a2s":"Uncletopia | Dallas | 2 | All Maps","protocol":17,"map":"pl_upward","folder":"tf","game":"Team Fortress","app_id":440,"player_count":24,"max_players":24,"Bots":0,"server_type":"Dedicated","server_os":"Linux","password":true,"vac":true,"version":"7757534","steam_id":85568392924469988,"keywords":["nocrits","nodmgspread","payload","uncletopia"],"game_id":440,"stv_port":27026,"stv_name":"Uncletopia | Dallas | 2 | All Maps | STV","players":[{"user_id":173,"name":"Eviscerator","steam_id":76561197980073637,"connected_time":2582000000000,"state":"active","ping":85},{"user_id":195,"name":"Genetic Komodo (He/Him)","steam_id":76561198174806758,"connected_time":591000000000,"state":"active","ping":44},{"user_id":187,"name":"Rat_king","steam_id":76561199465689129,"connected_time":910000000000,"state":"active","ping":58},{"user_id":184,"name":"Delilah-fluff","steam_id":76561198977968066,"connected_time":1254000000000,"state":"active","ping":85},{"user_id":188,"name":"‚ö¢","steam_id":76561199117637890,"connected_time":890000000000,"state":"active","ping":81},{"user_id":161,"name":"Nassu","steam_id":76561198147367577,"connected_time":3773000000000,"state":"active","ping":90},{"user_id":181,"name":"Reague","steam_id":76561199092175631,"connected_time":1412000000000,"state":"active","ping":68},{"user_id":192,"name":"Derp","steam_id":76561199157099639,"connected_time":829000000000,"state":"active","ping":108},{"user_id":179,"name":"ALEPH","steam_id":76561197978531382,"connected_time":1468000000000,"state":"active","ping":75},{"user_id":196,"name":"madturtle3","steam_id":76561198146953474,"connected_time":554000000000,"state":"active","ping":85},{"user_id":162,"name":"whimsical little creature","steam_id":76561198271710504,"connected_time":3768000000000,"state":"active","ping":83},{"user_id":153,"name":"Weiserbot","steam_id":76561198882389970,"connected_time":4655000000000,"state":"active","ping":101},{"user_id":106,"name":"bobbymcbobington","steam_id":76561199089411172,"connected_time":7762000000000,"state":"active","ping":116},{"user_id":182,"name":"Minion Slanderer","steam_id":76561198372449718,"connected_time":1380000000000,"state":"active","ping":43},{"user_id":131,"name":"‡πá‡πá","steam_id":76561199246007186,"connected_time":6333000000000,"state":"active","ping":76},{"user_id":128,"name":"Atlas","steam_id":76561198127975050,"connected_time":6737000000000,"state":"active","ping":71},{"user_id":169,"name":"Hylic","steam_id":76561199051314589,"connected_time":2908000000000,"state":"active","ping":85},{"user_id":200,"name":"big shmoka","steam_id":76561198050768962,"connected_time":201000000000,"state":"active","ping":85},{"user_id":199,"name":"Mel","steam_id":76561198327775249,"connected_time":343000000000,"state":"active","ping":80},{"user_id":174,"name":"Cooksandcleans‚Ñ¢","steam_id":76561198049696128,"connected_time":2568000000000,"state":"active","ping":90},{"user_id":198,"name":"Frisbee","steam_id":76561197962808987,"connected_time":457000000000,"state":"active","ping":75},{"user_id":180,"name":"Bronze Age Furvert","steam_id":76561198859118263,"connected_time":1465000000000,"state":"active","ping":90},{"user_id":183,"name":"Meh but good","steam_id":76561199005772246,"connected_time":1339000000000,"state":"active","ping":63},{"user_id":167,"name":"Jamal","steam_id":76561199090168179,"connected_time":3135000000000,"state":"active","ping":81}]},{"server_id":5,"name":"Uncletopia | Frankfurt | 1 | All Maps","name_short":"frk-1","host":"frk-1.de.uncletopia.com","port":27015,"enabled":true,"region":"eu","cc":"de","latitude":50.110924,"longitude":8.682127,"reserved":0,"last_update":"0001-01-01T00:00:00Z","name_a2s":"Uncletopia | Frankfurt | 1 | All Maps","protocol":17,"map":"pl_borneo","folder":"tf","game":"Team Fortress","app_id":440,"player_count":24,"max_players":24,"Bots":0,"server_type":"Dedicated","server_os":"Linux","password":true,"vac":true,"version":"7757534","steam_id":85568392924469989,"keywords":["nocrits","nodmgspread","payload","uncletopia"],"game_id":440,"stv_port":27016,"stv_name":"Uncletopia | Frankfurt | 1 | All Maps | STV","players":[{"user_id":187,"name":"daanvanliempt05","steam_id":76561198355398948,"connected_time":2702000000000,"state":"active","ping":45},{"user_id":174,"name":"Toxic√≤","steam_id":76561199031920676,"connected_time":3542000000000,"state":"active","ping":75},{"user_id":183,"name":"Animatic","steam_id":76561198186421601,"connected_time":2945000000000,"state":"active","ping":176},{"user_id":160,"name":"Drybooones","steam_id":76561198834232656,"connected_time":4134000000000,"state":"active","ping":63},{"user_id":222,"name":"Mussolini","steam_id":76561198218384865,"connected_time":1183000000000,"state":"active","ping":89},{"user_id":225,"name":"wickEd_","steam_id":76561198048068999,"connected_time":964000000000,"state":"active","ping":164},{"user_id":228,"name":"Waazard","steam_id":76561198383923159,"connected_time":19000000000,"state":"active","ping":68},{"user_id":200,"name":"Spilla","steam_id":76561198062344040,"connected_time":2069000000000,"state":"active","ping":73},{"user_id":231,"name":"That Phlog mfer","steam_id":76561198050416948,"connected_time":2000000000,"state":"spawning","ping":43},{"user_id":164,"name":"One More Time","steam_id":76561198055389492,"connected_time":4002000000000,"state":"active","ping":58},{"user_id":197,"name":"Chopperson_","steam_id":76561198873728497,"connected_time":2313000000000,"state":"active","ping":107},{"user_id":220,"name":"Monara12th","steam_id":76561199478607360,"connected_time":1260000000000,"state":"active","ping":61},{"user_id":206,"name":"Wafes","steam_id":76561198065625467,"connected_time":1765000000000,"state":"active","ping":66},{"user_id":142,"name":"AleXandriX","steam_id":76561198035203950,"connected_time":4574000000000,"state":"active","ping":53},{"user_id":224,"name":"Cirilla.gif","steam_id":76561198090586031,"connected_time":1141000000000,"state":"active","ping":76},{"user_id":229,"name":"B.batt","steam_id":76561198998684199,"connected_time":16000000000,"state":"active","ping":119},{"user_id":149,"name":"L.A. Palm Tree","steam_id":76561199289526521,"connected_time":4352000000000,"state":"active","ping":85},{"user_id":207,"name":"duchess abigail","steam_id":76561198166953966,"connected_time":1764000000000,"state":"active","ping":72},{"user_id":219,"name":"Blud walked 0 miles üò≠üò≠\ufffd\ufffd\ufffd","steam_id":76561199285074344,"connected_time":1272000000000,"state":"active","ping":150},{"user_id":209,"name":"I Live In Tha Cracklantis","steam_id":76561198071882999,"connected_time":1756000000000,"state":"active","ping":79},{"user_id":227,"name":"KRYPT1CC\u003c3","steam_id":76561198402896847,"connected_time":456000000000,"state":"active","ping":62},{"user_id":204,"name":"uma","steam_id":76561198147976939,"connected_time":1787000000000,"state":"active","ping":50},{"user_id":226,"name":"bob","steam_id":76561198309295580,"connected_time":962000000000,"state":"active","ping":45},{"user_id":230,"name":"BuB@","steam_id":76561198011815735,"connected_time":15000000000,"state":"active","ping":79}]},{"server_id":110,"name":"Uncletopia | Frankfurt | 2 | All Maps","name_short":"frk-2","host":"frk-1.de.uncletopia.com","port":27025,"enabled":true,"region":"eu","cc":"de","latitude":50.110924,"longitude":8.682127,"reserved":0,"last_update":"0001-01-01T00:00:00Z","name_a2s":"Uncletopia | Frankfurt | 2 | All Maps","protocol":17,"map":"pl_upward","folder":"tf","game":"Team Fortress","app_id":440,"player_count":20,"max_players":24,"Bots":0,"server_type":"Dedicated","server_os":"Linux","password":true,"vac":true,"version":"7757534","steam_id":85568392924469990,"keywords":["nocrits","nodmgspread","payload","uncletopia"],"game_id":440,"stv_port":27026,"stv_name":"Uncletopia | Frankfurt | 2 | All Maps | STV","players":[{"user_id":98,"name":"Droy","steam_id":76561198065854668,"connected_time":2127000000000,"state":"spawning","ping":64},{"user_id":101,"name":"strideŒî","steam_id":76561199007826093,"connected_time":1447000000000,"state":"spawning","ping":83},{"user_id":23,"name":"Sebastian","steam_id":76561198199302394,"connected_time":7118000000000,"state":"spawning","ping":47},{"user_id":119,"name":"Cave Johnson","steam_id":76561198366456565,"connected_time":222000000000,"state":"spawning","ping":54},{"user_id":123,"name":"Pi√±a Colada Enjoyer","steam_id":76561198208765015,"connected_time":2000000000,"state":"spawning","ping":67},{"user_id":60,"name":"Klifton","steam_id":76561198803743443,"connected_time":5321000000000,"state":"spawning","ping":87},{"user_id":122,"name":"ThellanM","steam_id":76561199014222387,"connected_time":65000000000,"state":"spawning","ping":63},{"user_id":92,"name":"‚Ä† RUBENEITOR ‚Ä†","steam_id":76561198017805714,"connected_time":2372000000000,"state":"spawning","ping":68},{"user_id":102,"name":"A Succulent Chinese Meal","steam_id":76561198069472440,"connected_time":1411000000000,"state":"spawning","ping":67},{"user_id":94,"name":"senior pomidor","steam_id":76561198123659806,"connected_time":2243000000000,"state":"spawning","ping":72},{"user_id":77,"name":"Pestdoktor","steam_id":76561198058159271,"connected_time":3875000000000,"state":"spawning","ping":33},{"user_id":121,"name":"Zozo {aimtraining.net}","steam_id":76561199087703209,"connected_time":109000000000,"state":"spawning","ping":141},{"user_id":115,"name":"Clitorina","steam_id":76561198077570815,"connected_time":426000000000,"state":"spawning","ping":49},{"user_id":91,"name":"Sara","steam_id":76561198065287954,"connected_time":2436000000000,"state":"spawning","ping":66},{"user_id":113,"name":"Kaishakunin","steam_id":76561198028123874,"connected_time":500000000000,"state":"spawning","ping":91},{"user_id":118,"name":"Shovelhalfrusty","steam_id":76561198346447513,"connected_time":261000000000,"state":"spawning","ping":62},{"user_id":106,"name":"smrk","steam_id":76561198066926098,"connected_time":1322000000000,"state":"spawning","ping":48},{"user_id":116,"name":"BELLVM ARHIMAGVS DACVS ARIANVS","steam_id":76561198090695039,"connected_time":422000000000,"state":"spawning","ping":35},{"user_id":108,"name":"Quannix","steam_id":76561198058924848,"connected_time":1297000000000,"state":"spawning","ping":77},{"user_id":63,"name":"ojo","steam_id":76561198044811257,"connected_time":5266000000000,"state":"spawning","ping":54}]},{"server_id":308,"name":"Uncletopia | Frankfurt | 3 | All Maps","name_short":"frk-3","host":"frk-1.de.uncletopia.com","port":27035,"enabled":true,"region":"eu","cc":"de","latitude":50.110924,"longitude":8.682127,"reserved":0,"last_update":"0001-01-01T00:00:00Z","name_a2s":"Uncletopia | Frankfurt | 3 | All Maps","protocol":17,"map":"koth_cascade","folder":"tf","game":"Team Fortress","app_id":440,"player_count":0,"max_players":24,"Bots":0,"server_type":"Dedicated","server_os":"Linux","password":true,"vac":true,"version":"7757534","steam_id":85568392924504274,"keywords":["cp","nocrits","nodmgspread","uncletopia"],"game_id":440,"stv_port":27036,"stv_name":"Uncletopia | Frankfurt | 3 | All Maps | STV","players":null},{"server_id":309,"name":"Uncletopia | Frankfurt | 4 | All Maps","name_short":"frk-4","host":"frk-1.de.uncletopia.com","port":27045,"enabled":true,"region":"eu","cc":"de","latitude":50.110924,"longitude":8.682127,"reserved":0,"last_update":"0001-01-01T00:00:00Z","name_a2s":"Uncletopia | Frankfurt | 4 | All Maps","protocol":17,"map":"cp_snakewater_final1","folder":"tf","game":"Team Fortress","app_id":440,"player_count":24,"max_players":24,"Bots":0,"server_type":"Dedicated","server_os":"Linux","password":true,"vac":true,"version":"7757534","steam_id":85568392924504275,"keywords":["cp","nocrits","nodmgspread","uncletopia"],"game_id":440,"stv_port":27046,"stv_name":"Uncletopia | Frankfurt | 4 | All Maps | STV","players":[{"user_id":143,"name":"Der_Milchmann","steam_id":76561198001417748,"connected_time":2370000000000,"state":"active","ping":55},{"user_id":198,"name":"washed up","steam_id":76561198275742101,"connected_time":450000000000,"state":"active","ping":56},{"user_id":188,"name":"romaingallo","steam_id":76561198268112907,"connected_time":559000000000,"state":"active","ping":64},{"user_id":167,"name":"apples","steam_id":76561198032787233,"connected_time":1130000000000,"state":"active","ping":81},{"user_id":205,"name":"homeinvasion$","steam_id":76561199111905021,"connected_time":34000000000,"state":"active","ping":116},{"user_id":191,"name":"Actual Quantifiable Arse","steam_id":76561198053961616,"connected_time":545000000000,"state":"active","ping":62},{"user_id":193,"name":"Kiif","steam_id":76561198175271494,"connected_time":517000000000,"state":"active","ping":83},{"user_id":194,"name":"XBOX Sturux","steam_id":76561198277644122,"connected_time":509000000000,"state":"active","ping":69},{"user_id":142,"name":"Vorge","steam_id":76561198411852459,"connected_time":2465000000000,"state":"active","ping":124},{"user_id":170,"name":"roblan11","steam_id":76561198066839258,"connected_time":1034000000000,"state":"active","ping":44},{"user_id":202,"name":"Nibbenji2077","steam_id":76561199219663655,"connected_time":308000000000,"state":"active","ping":126},{"user_id":150,"name":"Tesla","steam_id":76561198378649144,"connected_time":1981000000000,"state":"active","ping":60},{"user_id":197,"name":"Espa√±aa","steam_id":76561198879587832,"connected_time":483000000000,"state":"active","ping":83},{"user_id":196,"name":"Dragon","steam_id":76561198163255365,"connected_time":485000000000,"state":"active","ping":103},{"user_id":119,"name":"giclure :;","steam_id":76561197986362828,"connected_time":3664000000000,"state":"active","ping":56},{"user_id":156,"name":"Bred Sheeran","steam_id":76561198045692016,"connected_time":1845000000000,"state":"active","ping":47},{"user_id":187,"name":"Dolcelatte","steam_id":76561198038501770,"connected_time":566000000000,"state":"active","ping":54},{"user_id":162,"name":"xiiski","steam_id":76561198152387747,"connected_time":1638000000000,"state":"active","ping":92},{"user_id":200,"name":"Soyboy","steam_id":76561198053885716,"connected_time":376000000000,"state":"active","ping":83},{"user_id":201,"name":"Slippy","steam_id":76561198129524257,"connected_time":370000000000,"state":"active","ping":79},{"user_id":186,"name":"Unsalted Butter","steam_id":76561198053118190,"connected_time":576000000000,"state":"active","ping":54},{"user_id":203,"name":"R3inis","steam_id":76561199030393569,"connected_time":265000000000,"state":"active","ping":82},{"user_id":161,"name":"SirSalamander","steam_id":76561198171183058,"connected_time":1764000000000,"state":"active","ping":78},{"user_id":168,"name":"cl","steam_id":76561199436640904,"connected_time":1118000000000,"state":"active","ping":77}]},{"server_id":310,"name":"Uncletopia | Frankfurt | 5 | All Maps","name_short":"frk-5","host":"frk-1.de.uncletopia.com","port":27055,"enabled":true,"region":"eu","cc":"de","latitude":50.110924,"longitude":8.682127,"reserved":0,"last_update":"0001-01-01T00:00:00Z","name_a2s":"Uncletopia | Frankfurt | 5 | All Maps","protocol":17,"map":"koth_lakeside_final","folder":"tf","game":"Team Fortress","app_id":440,"player_count":0,"max_players":24,"Bots":0,"server_type":"Dedicated","server_os":"Linux","password":true,"vac":true,"version":"7757534","steam_id":85568392924504277,"keywords":["cp","nocrits","nodmgspread","uncletopia"],"game_id":440,"stv_port":27056,"stv_name":"Uncletopia | Frankfurt | 5 | All Maps | STV","players":null},{"server_id":311,"name":"Uncletopia | Frankfurt | 6 | All Maps","name_short":"frk-6","host":"frk-1.de.uncletopia.com","port":27065,"enabled":true,"region":"eu","cc":"de","latitude":50.110924,"longitude":8.682127,"reserved":0,"last_update":"0001-01-01T00:00:00Z","name_a2s":"Uncletopia | Frankfurt | 6 | All Maps","protocol":17,"map":"pl_barnblitz","folder":"tf","game":"Team Fortress","app_id":440,"player_count":0,"max_players":24,"Bots":0,"server_type":"Dedicated","server_os":"Linux","password":true,"vac":true,"version":"7757534","steam_id":85568392924504278,"keywords":["nocrits","nodmgspread","payload","uncletopia"],"game_id":440,"stv_port":27066,"stv_name":"Uncletopia | Frankfurt | 6 | All Maps | STV","players":null},{"server_id":23,"name":"Uncletopia | Frankfurt | 7 | Stopwatch Beta","name_short":"frk-7","host":"frk-1.de.uncletopia.com","port":27075,"enabled":true,"region":"eu","cc":"de","latitude":50.110924,"longitude":8.682127,"reserved":0,"last_update":"0001-01-01T00:00:00Z","name_a2s":"Uncletopia | Frankfurt | 7 | Stopwatch Beta","protocol":17,"map":"pl_upward","folder":"tf","game":"Team Fortress","app_id":440,"player_count":0,"max_players":24,"Bots":0,"server_type":"Dedicated","server_os":"Linux","password":true,"vac":true,"version":"7757534","steam_id":85568392924742827,"keywords":["nocrits","nodmgspread","payload","uncletopia"],"game_id":440,"stv_port":27076,"stv_name":"Uncletopia | Frankfurt | 7 | Stopwatch Beta | STV","players":null},{"server_id":24,"name":"Uncletopia | Frankfurt | 8 | Community","name_short":"frk-8","host":"frk-1.de.uncletopia.com","port":27085,"enabled":true,"region":"eu","cc":"de","latitude":50.110924,"longitude":8.682127,"reserved":0,"last_update":"0001-01-01T00:00:00Z","name_a2s":"Uncletopia | Frankfurt | 8 | Community","protocol":17,"map":"workshop/koth_ashville_final.ugc2130459942","folder":"tf","game":"Team Fortress","app_id":440,"player_count":0,"max_players":24,"Bots":0,"server_type":"Dedicated","server_os":"Linux","password":true,"vac":true,"version":"7757534","steam_id":85568392924742828,"keywords":["cp","nocrits","nodmgspread","uncletopia"],"game_id":440,"stv_port":27086,"stv_name":"Uncletopia | Frankfurt | 8 | Community | STV","players":null},{"server_id":202,"name":"Uncletopia | Hong Kong | 1 | All Maps","name_short":"hgk-1","host":"hgk-1.hk.uncletopia.com","port":27015,"enabled":true,"region":"asia","cc":"hk","latitude":22.302711,"longitude":114.177216,"reserved":0,"last_update":"0001-01-01T00:00:00Z","name_a2s":"Uncletopia | Hong Kong | 1 | All Maps","protocol":17,"map":"koth_viaduct","folder":"tf","game":"Team Fortress","app_id":440,"player_count":16,"max_players":24,"Bots":0,"server_type":"Dedicated","server_os":"Linux","password":true,"vac":true,"version":"7757534","steam_id":85568392924494504,"keywords":["cp","nocrits","nodmgspread","uncletopia"],"game_id":440,"stv_port":27016,"stv_name":"Uncletopia | Hong Kong | 1 | All Maps | STV","players":[{"user_id":279,"name":"DaviK","steam_id":76561198246990590,"connected_time":322000000000,"state":"active","ping":287},{"user_id":263,"name":"NOPE","steam_id":76561199244543572,"connected_time":2032000000000,"state":"active","ping":57},{"user_id":234,"name":"Jumanji‚Ñ¢","steam_id":76561198431664383,"connected_time":4700000000000,"state":"active","ping":52},{"user_id":277,"name":"Clusterfart","steam_id":76561198150242043,"connected_time":1112000000000,"state":"active","ping":309},{"user_id":280,"name":"Mr. Trek","steam_id":76561198974576734,"connected_time":295000000000,"state":"active","ping":70},{"user_id":281,"name":"Water Buffalo","steam_id":76561198200672038,"connected_time":280000000000,"state":"active","ping":93},{"user_id":268,"name":"Wx","steam_id":76561199217780897,"connected_time":1643000000000,"state":"active","ping":65},{"user_id":258,"name":"Sir. Culation","steam_id":76561198174085434,"connected_time":2925000000000,"state":"active","ping":60},{"user_id":259,"name":"NootNoot","steam_id":76561199122109977,"connected_time":2864000000000,"state":"active","ping":80},{"user_id":282,"name":"‚ô± „É´„Éº„Éä ‚ô±","steam_id":76561199020745258,"connected_time":206000000000,"state":"active","ping":98},{"user_id":250,"name":"cool and clever alias","steam_id":76561197994194946,"connected_time":4148000000000,"state":"active","ping":90},{"user_id":283,"name":"Cloud","steam_id":76561198272454184,"connected_time":204000000000,"state":"active","ping":89},{"user_id":284,"name":"mork","steam_id":76561199159301456,"connected_time":173000000000,"state":"active","ping":137},{"user_id":212,"name":"ÊØç„ÅÆËÇâÂõ£Â≠ê@hao123.com","steam_id":76561198069561896,"connected_time":6155000000000,"state":"active","ping":31},{"user_id":124,"name":"Tyxant","steam_id":76561198091066056,"connected_time":11646000000000,"state":"active","ping":95},{"user_id":201,"name":"IDontLaunder","steam_id":76561199103223706,"connected_time":7252000000000,"state":"active","ping":179}]},{"server_id":1,"name":"Uncletopia | Los Angeles | 1 | All Maps","name_short":"lax-1","host":"lax-1.us.uncletopia.com","port":27015,"enabled":true,"region":"us-west","cc":"us","latitude":33.94279,"longitude":-118.41004,"reserved":0,"last_update":"0001-01-01T00:00:00Z","name_a2s":"Uncletopia | Los Angeles | 1 | All Maps","protocol":17,"map":"koth_lakeside_final","folder":"tf","game":"Team Fortress","app_id":440,"player_count":0,"max_players":24,"Bots":0,"server_type":"Dedicated","server_os":"Linux","password":true,"vac":true,"version":"7757534","steam_id":85568392924469991,"keywords":["cp","nocrits","nodmgspread","uncletopia"],"game_id":440,"stv_port":27016,"stv_name":"Uncletopia | Los Angeles | 1 | All Maps | STV","players":null},{"server_id":112,"name":"Uncletopia | Los Angeles | 2 | All Maps","name_short":"lax-2","host":"lax-1.us.uncletopia.com","port":27025,"enabled":true,"region":"us-west","cc":"us","latitude":33.94279,"longitude":-118.41004,"reserved":0,"last_update":"0001-01-01T00:00:00Z","name_a2s":"Uncletopia | Los Angeles | 2 | All Maps","protocol":17,"map":"pl_badwater","folder":"tf","game":"Team Fortress","app_id":440,"player_count":0,"max_players":24,"Bots":0,"server_type":"Dedicated","server_os":"Linux","password":true,"vac":true,"version":"7757534","steam_id":85568392924469992,"keywords":["nocrits","nodmgspread","payload","uncletopia"],"game_id":440,"stv_port":27026,"stv_name":"Uncletopia | Los Angeles | 2 | All Maps | STV","players":null},{"server_id":324,"name":"Uncletopia | Los Angeles | 3 | All Maps","name_short":"lax-3","host":"lax-1.us.uncletopia.com","port":27035,"enabled":true,"region":"us-west","cc":"us","latitude":33.94279,"longitude":-118.41004,"reserved":0,"last_update":"0001-01-01T00:00:00Z","name_a2s":"Uncletopia | Los Angeles | 3 | All Maps","protocol":17,"map":"pl_barnblitz","folder":"tf","game":"Team Fortress","app_id":440,"player_count":0,"max_players":24,"Bots":0,"server_type":"Dedicated","server_os":"Linux","password":true,"vac":true,"version":"7757534","steam_id":85568392924510198,"keywords":["nocrits","nodmgspread","payload","uncletopia"],"game_id":440,"stv_port":27036,"stv_name":"Uncletopia | Los Angeles | 3 | All Maps | STV","players":null},{"server_id":25,"name":"Uncletopia | Los Angeles | 4 | Stopwatch Beta","name_short":"lax-4","host":"lax-1.us.uncletopia.com","port":27045,"enabled":true,"region":"us-west","cc":"us","latitude":33.94279,"longitude":-118.41004,"reserved":0,"last_update":"0001-01-01T00:00:00Z","name_a2s":"Uncletopia | Los Angeles | 4 | Stopwatch Beta","protocol":17,"map":"pl_swiftwater_final1","folder":"tf","game":"Team Fortress","app_id":440,"player_count":0,"max_players":24,"Bots":0,"server_type":"Dedicated","server_os":"Linux","password":true,"vac":true,"version":"7757534","steam_id":85568392924510199,"keywords":["nocrits","nodmgspread","payload","uncletopia"],"game_id":440,"stv_port":27046,"stv_name":"Uncletopia | Los Angeles | 4 | Stopwatch Beta | STV","players":null},{"server_id":11,"name":"Uncletopia | London | 1 | All Maps","name_short":"lon-1","host":"lon-1.uk.uncletopia.com","port":27015,"enabled":true,"region":"eu","cc":"gb","latitude":51.509865,"longitude":-0.118092,"reserved":0,"last_update":"0001-01-01T00:00:00Z","name_a2s":"Uncletopia | London | 1 | All Maps","protocol":17,"map":"pl_pier","folder":"tf","game":"Team Fortress","app_id":440,"player_count":23,"max_players":24,"Bots":0,"server_type":"Dedicated","server_os":"Linux","password":true,"vac":true,"version":"7757534","steam_id":85568392924367362,"keywords":["nocrits","nodmgspread","payload","uncletopia"],"game_id":440,"stv_port":27016,"stv_name":"Uncletopia | London | 1 | All Maps | STV","players":[{"user_id":354,"name":"Healix","steam_id":76561198130270161,"connected_time":600000000000,"state":"active","ping":58},{"user_id":365,"name":"dRumata","steam_id":76561198022150210,"connected_time":176000000000,"state":"active","ping":121},{"user_id":367,"name":"Spinyapickle","steam_id":76561198086653667,"connected_time":149000000000,"state":"active","ping":58},{"user_id":251,"name":"AnonTron","steam_id":76561199031895493,"connected_time":9402000000000,"state":"active","ping":168},{"user_id":364,"name":"lavdik","steam_id":76561198094234985,"connected_time":235000000000,"state":"active","ping":75},{"user_id":368,"name":"[LFT] | ‚Ñ§ar","steam_id":76561199019585369,"connected_time":148000000000,"state":"active","ping":86},{"user_id":373,"name":"SaltyCupcakes","steam_id":76561198256386417,"connected_time":12000000000,"state":"spawning","ping":29},{"user_id":362,"name":"IONYCH","steam_id":76561198378350040,"connected_time":341000000000,"state":"active","ping":91},{"user_id":339,"name":"jimmy bob","steam_id":76561198319583692,"connected_time":2318000000000,"state":"active","ping":59},{"user_id":371,"name":"flaresh :) -∆í$-","steam_id":76561198101292843,"connected_time":122000000000,"state":"active","ping":45},{"user_id":272,"name":"KAZAM | Tervez","steam_id":76561198045459068,"connected_time":7678000000000,"state":"active","ping":87},{"user_id":349,"name":"LOBZIK","steam_id":76561198114830120,"connected_time":1148000000000,"state":"active","ping":78},{"user_id":347,"name":"Rose","steam_id":76561198043601838,"connected_time":1212000000000,"state":"active","ping":60},{"user_id":344,"name":"fmdi","steam_id":76561199433879329,"connected_time":1631000000000,"state":"active","ping":75},{"user_id":350,"name":"il","steam_id":76561198122662610,"connected_time":1106000000000,"state":"active","ping":86},{"user_id":331,"name":"‚ú™ qua ‚ú™","steam_id":76561198066408333,"connected_time":3104000000000,"state":"active","ping":80},{"user_id":361,"name":"The Existent One","steam_id":76561198249214344,"connected_time":417000000000,"state":"active","ping":37},{"user_id":372,"name":"TheJudgeShot","steam_id":76561198105060723,"connected_time":115000000000,"state":"active","ping":60},{"user_id":353,"name":"sinologist","steam_id":76561198080912087,"connected_time":697000000000,"state":"active","ping":70},{"user_id":357,"name":"Owlet","steam_id":76561198065613974,"connected_time":568000000000,"state":"active","ping":61},{"user_id":343,"name":"MtnDew","steam_id":76561199100059743,"connected_time":1882000000000,"state":"active","ping":107},{"user_id":346,"name":"[Mg] Z√© P√©qu√©no","steam_id":76561198000927489,"connected_time":1487000000000,"state":"active","ping":66},{"user_id":337,"name":"Ocelot","steam_id":76561198263386006,"connected_time":2353000000000,"state":"active","ping":111}]},{"server_id":114,"name":"Uncletopia | London | 2 | All Maps","name_short":"lon-2","host":"lon-1.uk.uncletopia.com","port":27025,"enabled":true,"region":"eu","cc":"gb","latitude":51.509865,"longitude":-0.118092,"reserved":0,"last_update":"0001-01-01T00:00:00Z","name_a2s":"Uncletopia | London | 2 | All Maps","protocol":17,"map":"koth_viaduct","folder":"tf","game":"Team Fortress","app_id":440,"player_count":0,"max_players":24,"Bots":0,"server_type":"Dedicated","server_os":"Linux","password":true,"vac":true,"version":"7757534","steam_id":85568392924470941,"keywords":["cp","nocrits","nodmgspread","uncletopia"],"game_id":440,"stv_port":27026,"stv_name":"Uncletopia | London | 2 | All Maps | STV","players":null},{"server_id":320,"name":"Uncletopia | London | 3 | All Maps","name_short":"lon-3","host":"lon-1.uk.uncletopia.com","port":27035,"enabled":true,"region":"eu","cc":"gb","latitude":51.509865,"longitude":-0.118092,"reserved":0,"last_update":"0001-01-01T00:00:00Z","name_a2s":"Uncletopia | London | 3 | All Maps","protocol":17,"map":"cp_snakewater_final1","folder":"tf","game":"Team Fortress","app_id":440,"player_count":19,"max_players":24,"Bots":0,"server_type":"Dedicated","server_os":"Linux","password":true,"vac":true,"version":"7757534","steam_id":85568392924510192,"keywords":["cp","nocrits","nodmgspread","uncletopia"],"game_id":440,"stv_port":27036,"stv_name":"Uncletopia | London | 3 | All Maps | STV","players":[{"user_id":61,"name":"Umxo","steam_id":76561198236279240,"connected_time":389000000000,"state":"active","ping":150},{"user_id":62,"name":"crypltingh","steam_id":76561199008585183,"connected_time":380000000000,"state":"active","ping":152},{"user_id":57,"name":"beastbob","steam_id":76561198328047855,"connected_time":724000000000,"state":"active","ping":76},{"user_id":67,"name":"Gordon","steam_id":76561198303652059,"connected_time":94000000000,"state":"active","ping":58},{"user_id":69,"name":"RobTheKid","steam_id":76561198346638308,"connected_time":26000000000,"state":"active","ping":48},{"user_id":12,"name":"MagalaxShiro","steam_id":76561198079071492,"connected_time":2466000000000,"state":"active","ping":69},{"user_id":70,"name":"Sta≈Ñczyk","steam_id":76561197998906563,"connected_time":10000000000,"state":"active","ping":62},{"user_id":15,"name":"SlowMode","steam_id":76561198039631442,"connected_time":2388000000000,"state":"active","ping":77},{"user_id":71,"name":"Azurh","steam_id":76561199330143102,"connected_time":9000000000,"state":"spawning","ping":85},{"user_id":18,"name":"Guru","steam_id":76561198093853069,"connected_time":2286000000000,"state":"active","ping":61},{"user_id":44,"name":"1Nasenmensch","steam_id":76561198119589077,"connected_time":1023000000000,"state":"active","ping":75},{"user_id":58,"name":"ayadam","steam_id":76561198161515769,"connected_time":578000000000,"state":"active","ping":107},{"user_id":53,"name":"Kurage","steam_id":76561198021221288,"connected_time":841000000000,"state":"active","ping":67},{"user_id":26,"name":"g-mecha","steam_id":76561198037361321,"connected_time":2063000000000,"state":"active","ping":63},{"user_id":34,"name":"JeanCorben","steam_id":76561197965133561,"connected_time":1747000000000,"state":"active","ping":44},{"user_id":64,"name":"PIF","steam_id":76561197994712966,"connected_time":330000000000,"state":"active","ping":117},{"user_id":35,"name":"simplistic","steam_id":76561198231690748,"connected_time":1714000000000,"state":"active","ping":55},{"user_id":37,"name":"m√∂","steam_id":76561198061197114,"connected_time":1684000000000,"state":"active","ping":79},{"user_id":47,"name":"Buriel","steam_id":76561199086856364,"connected_time":921000000000,"state":"active","ping":69}]},{"server_id":321,"name":"Uncletopia | London | 4 | All Maps","name_short":"lon-4","host":"lon-1.uk.uncletopia.com","port":27045,"enabled":true,"region":"eu","cc":"gb","latitude":51.509865,"longitude":-0.118092,"reserved":0,"last_update":"0001-01-01T00:00:00Z","name_a2s":"Uncletopia | London | 4 | All Maps","protocol":17,"map":"pl_upward","folder":"tf","game":"Team Fortress","app_id":440,"player_count":22,"max_players":24,"Bots":0,"server_type":"Dedicated","server_os":"Linux","password":true,"vac":true,"version":"7757534","steam_id":85568392924510193,"keywords":["nocrits","nodmgspread","payload","uncletopia"],"game_id":440,"stv_port":27046,"stv_name":"Uncletopia | London | 4 | All Maps | STV","players":[{"user_id":189,"name":"boldur","steam_id":76561199240709445,"connected_time":1539000000000,"state":"active","ping":75},{"user_id":135,"name":"Very bad :(","steam_id":76561198362116755,"connected_time":4512000000000,"state":"active","ping":162},{"user_id":158,"name":"molly","steam_id":76561198029399151,"connected_time":3659000000000,"state":"active","ping":68},{"user_id":198,"name":"stimpls","steam_id":76561198349648942,"connected_time":77000000000,"state":"active","ping":75},{"user_id":138,"name":"yer_nerd","steam_id":76561199435454093,"connected_time":4456000000000,"state":"active","ping":121},{"user_id":176,"name":"Blaukraut","steam_id":76561198160202319,"connected_time":2055000000000,"state":"active","ping":79},{"user_id":166,"name":"wasto-/-‚Ñ¢","steam_id":76561198102888038,"connected_time":3377000000000,"state":"active","ping":56},{"user_id":193,"name":"wibe","steam_id":76561198002519060,"connected_time":1260000000000,"state":"active","ping":80},{"user_id":188,"name":"Femboy Gaming","steam_id":76561199230209215,"connected_time":1637000000000,"state":"active","ping":60},{"user_id":196,"name":"MT Foxtrot","steam_id":76561198058003989,"connected_time":101000000000,"state":"active","ping":52},{"user_id":146,"name":"s a i","steam_id":76561197970379754,"connected_time":4065000000000,"state":"active","ping":60},{"user_id":199,"name":"BonBon_","steam_id":76561198838398801,"connected_time":67000000000,"state":"active","ping":60},{"user_id":195,"name":"tactical783","steam_id":76561199051688560,"connected_time":216000000000,"state":"active","ping":70},{"user_id":197,"name":"Ôº¥rendyÔº¨emon","steam_id":76561198158957324,"connected_time":89000000000,"state":"active","ping":55},{"user_id":192,"name":"Ott","steam_id":76561198276464481,"connected_time":1306000000000,"state":"active","ping":61},{"user_id":184,"name":"Sleepy Marauder","steam_id":76561198198861931,"connected_time":1722000000000,"state":"active","ping":61},{"user_id":200,"name":"FakeBot","steam_id":76561197961193303,"connected_time":59000000000,"state":"active","ping":214},{"user_id":185,"name":"CommanderLex","steam_id":76561198123115529,"connected_time":1716000000000,"state":"active","ping":57},{"user_id":194,"name":"Skittles","steam_id":76561198024077569,"connected_time":1195000000000,"state":"active","ping":59},{"user_id":154,"name":"Pachakamakk","steam_id":76561197989010401,"connected_time":3944000000000,"state":"active","ping":50},{"user_id":175,"name":"jge","steam_id":76561198123186387,"connected_time":2062000000000,"state":"active","ping":59},{"user_id":186,"name":"mixxxa_french","steam_id":76561198085098243,"connected_time":1713000000000,"state":"active","ping":118}]},{"server_id":21,"name":"Uncletopia | London | 5 | All Maps","name_short":"lon-5","host":"lon-1.uk.uncletopia.com","port":27055,"enabled":true,"region":"eu","cc":"gb","latitude":51.509865,"longitude":-0.118092,"reserved":0,"last_update":"0001-01-01T00:00:00Z","name_a2s":"Uncletopia | London | 5 | All Maps","protocol":17,"map":"cp_altitude","folder":"tf","game":"Team Fortress","app_id":440,"player_count":0,"max_players":24,"Bots":0,"server_type":"Dedicated","server_os":"Linux","password":true,"vac":true,"version":"7757534","steam_id":85568392924742829,"keywords":["cp","nocrits","nodmgspread","uncletopia"],"game_id":440,"stv_port":27056,"stv_name":"Uncletopia | London | 5 | All Maps | STV","players":null},{"server_id":22,"name":"Uncletopia | London | 6 | All Maps","name_short":"lon-6","host":"lon-1.uk.uncletopia.com","port":27065,"enabled":true,"region":"eu","cc":"gb","latitude":51.509865,"longitude":-0.118092,"reserved":0,"last_update":"0001-01-01T00:00:00Z","name_a2s":"Uncletopia | London | 6 | All Maps","protocol":17,"map":"pl_pier","folder":"tf","game":"Team Fortress","app_id":440,"player_count":0,"max_players":24,"Bots":0,"server_type":"Dedicated","server_os":"Linux","password":true,"vac":true,"version":"7757534","steam_id":85568392924742830,"keywords":["nocrits","nodmgspread","payload","uncletopia"],"game_id":440,"stv_port":27066,"stv_name":"Uncletopia | London | 6 | All Maps | STV","players":null},{"server_id":40,"name":"Uncletopia | London | 7 | No Payload","name_short":"lon-7","host":"lon-1.uk.uncletopia.com","port":27075,"enabled":true,"region":"eu","cc":"gb","latitude":51.509865,"longitude":-0.118092,"reserved":0,"last_update":"0001-01-01T00:00:00Z","name_a2s":"Uncletopia | London | 7 | No Payload","protocol":17,"map":"ctf_2fort","folder":"tf","game":"Team Fortress","app_id":440,"player_count":11,"max_players":24,"Bots":0,"server_type":"Dedicated","server_os":"Linux","password":true,"vac":true,"version":"7757534","steam_id":85568392924964314,"keywords":["ctf","nocrits","nodmgspread","uncletopia"],"game_id":440,"stv_port":27076,"stv_name":"Uncletopia | London | 7 | No Payload | STV","players":[{"user_id":276,"name":"Kanksteli","steam_id":76561198035919109,"connected_time":524000000000,"state":"active","ping":75},{"user_id":273,"name":"tummaluppo taivaltaja","steam_id":76561198093458326,"connected_time":996000000000,"state":"active","ping":69},{"user_id":275,"name":"Pan Pan","steam_id":76561199074670515,"connected_time":585000000000,"state":"active","ping":95},{"user_id":277,"name":"Der Herr Doktor","steam_id":76561198119476089,"connected_time":513000000000,"state":"active","ping":87},{"user_id":278,"name":"Boardie","steam_id":76561198215700300,"connected_time":282000000000,"state":"active","ping":52},{"user_id":253,"name":"Anoobis","steam_id":76561199419533757,"connected_time":2301000000000,"state":"active","ping":79},{"user_id":279,"name":"GizmoTheDude","steam_id":76561198078150251,"connected_time":266000000000,"state":"active","ping":60},{"user_id":280,"name":"BubusPL urzytkownikzero g4skins","steam_id":76561198867663777,"connected_time":160000000000,"state":"active","ping":90},{"user_id":281,"name":"Gagiclunk","steam_id":76561199194862650,"connected_time":74000000000,"state":"active","ping":52},{"user_id":284,"name":"The","steam_id":76561198359311605,"connected_time":9000000000,"state":"active","ping":93},{"user_id":283,"name":"‚òÜMiNTERRRRR‚òÜ","steam_id":76561198799866156,"connected_time":48000000000,"state":"active","ping":112}]},{"server_id":41,"name":"Uncletopia | London | 8 | Community","name_short":"lon-8","host":"lon-1.uk.uncletopia.com","port":27085,"enabled":true,"region":"eu","cc":"gb","latitude":51.509865,"longitude":-0.118092,"reserved":0,"last_update":"0001-01-01T00:00:00Z","name_a2s":"Uncletopia | London | 8 | Community","protocol":17,"map":"workshop/pl_boundary_final1.ugc456799153","folder":"tf","game":"Team Fortress","app_id":440,"player_count":0,"max_players":24,"Bots":0,"server_type":"Dedicated","server_os":"Linux","password":true,"vac":true,"version":"7757534","steam_id":85568392924964315,"keywords":["nocrits","nodmgspread","payload","uncletopia"],"game_id":440,"stv_port":27086,"stv_name":"Uncletopia | London | 8 | Community | STV","players":null},{"server_id":300,"name":"Uncletopia | Montr√©al | 1 | All Maps","name_short":"mtl-1","host":"mtl-1.ca.uncletopia.com","port":27015,"enabled":true,"region":"us-east","cc":"ca","latitude":45.50889,"longitude":-73.56167,"reserved":0,"last_update":"0001-01-01T00:00:00Z","name_a2s":"Uncletopia | Montr√©al | 1 | All Maps","protocol":17,"map":"pl_upward","folder":"tf","game":"Team Fortress","app_id":440,"player_count":0,"max_players":24,"Bots":0,"server_type":"Dedicated","server_os":"Linux","password":true,"vac":true,"version":"7757534","steam_id":85568392924500087,"keywords":["nocrits","nodmgspread","payload","uncletopia"],"game_id":440,"stv_port":27016,"stv_name":"Uncletopia | Montr√©al | 1 | All Maps | STV","players":null},{"server_id":301,"name":"Uncletopia | Montr√©al | 2 | All Maps","name_short":"mtl-2","host":"mtl-1.ca.uncletopia.com","port":27025,"enabled":true,"region":"us-east","cc":"ca","latitude":45.50889,"longitude":-73.56167,"reserved":0,"last_update":"0001-01-01T00:00:00Z","name_a2s":"Uncletopia | Montr√©al | 2 | All Maps","protocol":17,"map":"pl_snowycoast","folder":"tf","game":"Team Fortress","app_id":440,"player_count":0,"max_players":24,"Bots":0,"server_type":"Dedicated","server_os":"Linux","password":true,"vac":true,"version":"7757534","steam_id":85568392924500088,"keywords":["nocrits","nodmgspread","payload","uncletopia"],"game_id":440,"stv_port":27026,"stv_name":"Uncletopia | Montr√©al | 2 | All Maps | STV","players":null},{"server_id":302,"name":"Uncletopia | Montr√©al | 3 | All Maps","name_short":"mtl-3","host":"mtl-1.ca.uncletopia.com","port":27035,"enabled":true,"region":"us-east","cc":"ca","latitude":45.50889,"longitude":-73.56167,"reserved":0,"last_update":"0001-01-01T00:00:00Z","name_a2s":"Uncletopia | Montr√©al | 3 | All Maps","protocol":17,"map":"pl_swiftwater_final1","folder":"tf","game":"Team Fortress","app_id":440,"player_count":0,"max_players":24,"Bots":0,"server_type":"Dedicated","server_os":"Linux","password":true,"vac":true,"version":"7757534","steam_id":85568392924500089,"keywords":["nocrits","nodmgspread","payload","uncletopia"],"game_id":440,"stv_port":27036,"stv_name":"Uncletopia | Montr√©al | 3 | All Maps | STV","players":null},{"server_id":303,"name":"Uncletopia | Montr√©al | 4 | No Payload","name_short":"mtl-4","host":"mtl-1.ca.uncletopia.com","port":27045,"enabled":true,"region":"us-east","cc":"ca","latitude":45.50889,"longitude":-73.56167,"reserved":0,"last_update":"0001-01-01T00:00:00Z","name_a2s":"Uncletopia | Montr√©al | 4 | No Payload","protocol":17,"map":"pl_pier","folder":"tf","game":"Team Fortress","app_id":440,"player_count":0,"max_players":24,"Bots":0,"server_type":"Dedicated","server_os":"Linux","password":true,"vac":true,"version":"7757534","steam_id":85568392924500090,"keywords":["nocrits","nodmgspread","payload","uncletopia"],"game_id":440,"stv_port":27046,"stv_name":"Uncletopia | Montr√©al | 4 | No Payload | STV","players":null},{"server_id":13,"name":"Uncletopia | New York City | 1 | All Maps","name_short":"nyc-1","host":"nyc-1.us.uncletopia.com","port":27015,"enabled":true,"region":"us-east","cc":"us","latitude":40.73061,"longitude":-73.93524,"reserved":0,"last_update":"0001-01-01T00:00:00Z","name_a2s":"Uncletopia | New York City | 1 | All Maps","protocol":17,"map":"koth_lakeside_final","folder":"tf","game":"Team Fortress","app_id":440,"player_count":23,"max_players":24,"Bots":0,"server_type":"Dedicated","server_os":"Linux","password":true,"vac":true,"version":"7757534","steam_id":85568392924469993,"keywords":["cp","nocrits","nodmgspread","uncletopia"],"game_id":440,"stv_port":27016,"stv_name":"Uncletopia | New York City | 1 | All Maps | STV","players":[{"user_id":99,"name":"gb","steam_id":76561198115960063,"connected_time":406000000000,"state":"active","ping":75},{"user_id":103,"name":"Omni-S","steam_id":76561198082396372,"connected_time":159000000000,"state":"active","ping":82},{"user_id":88,"name":"Buff Wizard","steam_id":76561198151397667,"connected_time":885000000000,"state":"active","ping":85},{"user_id":85,"name":"Shiro","steam_id":76561197979915878,"connected_time":908000000000,"state":"active","ping":120},{"user_id":104,"name":"niko","steam_id":76561198891556913,"connected_time":37000000000,"state":"active","ping":66},{"user_id":100,"name":"tom brady","steam_id":76561198320718416,"connected_time":403000000000,"state":"active","ping":122},{"user_id":89,"name":"Orc peon","steam_id":76561198208567789,"connected_time":875000000000,"state":"active","ping":89},{"user_id":101,"name":"Nix","steam_id":76561198119293490,"connected_time":253000000000,"state":"active","ping":56},{"user_id":19,"name":"(no monitor) ayylien","steam_id":76561198042127970,"connected_time":6195000000000,"state":"active","ping":68},{"user_id":91,"name":"Sunfall","steam_id":76561198284457693,"connected_time":860000000000,"state":"active","ping":167},{"user_id":21,"name":"WALTER WHITE BP2022.cc","steam_id":76561198072610805,"connected_time":6175000000000,"state":"active","ping":152},{"user_id":22,"name":"SPOOKY_","steam_id":76561198073395404,"connected_time":6158000000000,"state":"active","ping":138},{"user_id":40,"name":"dog","steam_id":76561197999666480,"connected_time":5381000000000,"state":"active","ping":111},{"user_id":81,"name":"Lin","steam_id":76561198143746480,"connected_time":1514000000000,"state":"active","ping":124},{"user_id":87,"name":"marshtomp gaming","steam_id":76561198130689358,"connected_time":894000000000,"state":"active","ping":43},{"user_id":54,"name":"abed","steam_id":76561198072856511,"connected_time":3880000000000,"state":"active","ping":66},{"user_id":92,"name":"IPlayGamez","steam_id":76561198041387508,"connected_time":852000000000,"state":"active","ping":53},{"user_id":93,"name":"„ÄåÍú±·¥õ…™…¥·¥ã è„Äç","steam_id":76561198190323610,"connected_time":673000000000,"state":"active","ping":75},{"user_id":94,"name":"Aviyarn","steam_id":76561199074194652,"connected_time":663000000000,"state":"active","ping":76},{"user_id":95,"name":"Denzel McFlurry","steam_id":76561199231296521,"connected_time":582000000000,"state":"active","ping":51},{"user_id":70,"name":"THE worst PYRO :(","steam_id":76561198257064825,"connected_time":2654000000000,"state":"active","ping":51},{"user_id":102,"name":"truebosnianking","steam_id":76561199440060597,"connected_time":232000000000,"state":"active","ping":151},{"user_id":97,"name":"scout lip kisser","steam_id":76561198118961458,"connected_time":502000000000,"state":"active","ping":88}]},{"server_id":14,"name":"Uncletopia | New York City | 2 | All Maps","name_short":"nyc-2","host":"nyc-1.us.uncletopia.com","port":27025,"enabled":true,"region":"us-east","cc":"us","latitude":40.73061,"longitude":-73.93524,"reserved":0,"last_update":"0001-01-01T00:00:00Z","name_a2s":"Uncletopia | New York City | 2 | All Maps","protocol":17,"map":"cp_snakewater_final1","folder":"tf","game":"Team Fortress","app_id":440,"player_count":18,"max_players":24,"Bots":0,"server_type":"Dedicated","server_os":"Linux","password":true,"vac":true,"version":"7757534","steam_id":85568392924469994,"keywords":["cp","nocrits","nodmgspread","uncletopia"],"game_id":440,"stv_port":27026,"stv_name":"Uncletopia | New York City | 2 | All Maps | STV","players":[{"user_id":28,"name":"Lemmers235","steam_id":76561199192668922,"connected_time":628000000000,"state":"active","ping":111},{"user_id":7,"name":"A wee lad (F2P)","steam_id":76561199180569385,"connected_time":2944000000000,"state":"active","ping":52},{"user_id":23,"name":"Griffin","steam_id":76561198159339442,"connected_time":1238000000000,"state":"active","ping":68},{"user_id":29,"name":"luca-rio","steam_id":76561198911749311,"connected_time":566000000000,"state":"active","ping":182},{"user_id":24,"name":"bobletoob","steam_id":76561199184464900,"connected_time":1034000000000,"state":"active","ping":124},{"user_id":20,"name":"cleanlaundry","steam_id":76561199165098525,"connected_time":1472000000000,"state":"active","ping":66},{"user_id":22,"name":"FS Jorda (She/Her)","steam_id":76561198071421459,"connected_time":1329000000000,"state":"active","ping":29},{"user_id":26,"name":"Dr. Enforcicle (real)","steam_id":76561198964471859,"connected_time":1002000000000,"state":"active","ping":65},{"user_id":27,"name":"Goose of Wisdom","steam_id":76561198233465044,"connected_time":802000000000,"state":"active","ping":77},{"user_id":16,"name":"golf","steam_id":76561198926834568,"connected_time":1927000000000,"state":"active","ping":39},{"user_id":30,"name":"allelovis","steam_id":76561199240110185,"connected_time":436000000000,"state":"active","ping":107},{"user_id":34,"name":"ligma certified sussy balls 201","steam_id":76561197979090955,"connected_time":139000000000,"state":"active","ping":72},{"user_id":32,"name":"Oopsie Daisy ‚ùã","steam_id":76561198042144492,"connected_time":225000000000,"state":"active","ping":69},{"user_id":33,"name":"googie","steam_id":76561199112133755,"connected_time":182000000000,"state":"active","ping":74},{"user_id":39,"name":"DistantJragon","steam_id":76561198117563641,"connected_time":18000000000,"state":"active","ping":67},{"user_id":36,"name":"average Canadian protogen","steam_id":76561199059816047,"connected_time":68000000000,"state":"active","ping":55},{"user_id":37,"name":"DagyDin","steam_id":76561199212257554,"connected_time":53000000000,"state":"active","ping":65},{"user_id":38,"name":"Not_Douglas","steam_id":76561199024184136,"connected_time":23000000000,"state":"spawning","ping":59}]},{"server_id":15,"name":"Uncletopia | New York City | 3 | Stopwatch Beta","name_short":"nyc-3","host":"nyc-1.us.uncletopia.com","port":27035,"enabled":true,"region":"us-east","cc":"us","latitude":40.73061,"longitude":-73.93524,"reserved":0,"last_update":"0001-01-01T00:00:00Z","name_a2s":"Uncletopia | New York City | 3 | Stopwatch Beta","protocol":17,"map":"pl_upward","folder":"tf","game":"Team Fortress","app_id":440,"player_count":0,"max_players":24,"Bots":0,"server_type":"Dedicated","server_os":"Linux","password":true,"vac":true,"version":"7757534","steam_id":85568392924742820,"keywords":["nocrits","nodmgspread","payload","uncletopia"],"game_id":440,"stv_port":27036,"stv_name":"Uncletopia | New York City | 3 | Stopwatch Beta | STV","players":null},{"server_id":16,"name":"Uncletopia | New York City | 4 | Community","name_short":"nyc-4","host":"nyc-1.us.uncletopia.com","port":27045,"enabled":true,"region":"us-east","cc":"us","latitude":40.73061,"longitude":-73.93524,"reserved":0,"last_update":"0001-01-01T00:00:00Z","name_a2s":"Uncletopia | New York City | 4 | Community","protocol":17,"map":"pl_swiftwater_final1","folder":"tf","game":"Team Fortress","app_id":440,"player_count":0,"max_players":24,"Bots":0,"server_type":"Dedicated","server_os":"Linux","password":true,"vac":true,"version":"7757534","steam_id":85568392924742821,"keywords":["nocrits","nodmgspread","payload","uncletopia"],"game_id":440,"stv_port":27046,"stv_name":"Uncletopia | New York City | 4 | Community | STV","players":null},{"server_id":142,"name":"Uncletopia | S√£o Paulo | 1 | All Maps","name_short":"sao-1","host":"sao-1.br.uncletopia.com","port":27015,"enabled":true,"region":"sa","cc":"br","latitude":-23.533773,"longitude":-46.62529,"reserved":0,"last_update":"0001-01-01T00:00:00Z","name_a2s":"Uncletopia | S√£o Paulo | 1 | All Maps","protocol":17,"map":"pl_snowycoast","folder":"tf","game":"Team Fortress","app_id":440,"player_count":0,"max_players":24,"Bots":0,"server_type":"Dedicated","server_os":"Linux","password":true,"vac":true,"version":"7757534","steam_id":85568392924469996,"keywords":["nocrits","nodmgspread","payload","uncletopia"],"game_id":440,"stv_port":27016,"stv_name":"Uncletopia | S√£o Paulo | 1 | All Maps | STV","players":null},{"server_id":143,"name":"Uncletopia | S√£o Paulo | 2 | All Maps","name_short":"sao-2","host":"sao-2.br.uncletopia.com","port":27015,"enabled":true,"region":"sa","cc":"br","latitude":-23.533773,"longitude":-46.62529,"reserved":0,"last_update":"0001-01-01T00:00:00Z","name_a2s":"Uncletopia | S√£o Paulo | 2 | All Maps","protocol":17,"map":"pl_borneo","folder":"tf","game":"Team Fortress","app_id":440,"player_count":2,"max_players":24,"Bots":0,"server_type":"Dedicated","server_os":"Linux","password":true,"vac":true,"version":"7757534","steam_id":85568392924485349,"keywords":["nocrits","nodmgspread","payload","uncletopia"],"game_id":440,"stv_port":27016,"stv_name":"Uncletopia | S√£o Paulo | 2 | All Maps | STV","players":[{"user_id":4,"name":"TonyMountainDew","steam_id":76561198365705903,"connected_time":177000000000,"state":"active","ping":271},{"user_id":5,"name":"kate ‚ùÄ","steam_id":76561198805567120,"connected_time":28000000000,"state":"spawning","ping":34}]},{"server_id":7,"name":"Uncletopia | Seattle | 1 | All Maps","name_short":"sea-1","host":"sea-1.us.uncletopia.com","port":27015,"enabled":true,"region":"us-west","cc":"us","latitude":47.608013,"longitude":-122.33517,"reserved":0,"last_update":"0001-01-01T00:00:00Z","name_a2s":"Uncletopia | Seattle | 1 | All Maps","protocol":17,"map":"pl_borneo","folder":"tf","game":"Team Fortress","app_id":440,"player_count":22,"max_players":24,"Bots":0,"server_type":"Dedicated","server_os":"Linux","password":true,"vac":true,"version":"7757534","steam_id":85568392924469997,"keywords":["nocrits","nodmgspread","payload","uncletopia"],"game_id":440,"stv_port":27016,"stv_name":"Uncletopia | Seattle | 1 | All Maps | STV","players":[{"user_id":75,"name":"Username","steam_id":76561198855586261,"connected_time":1908000000000,"state":"active","ping":58},{"user_id":73,"name":"AudioMedic","steam_id":76561198333939032,"connected_time":2817000000000,"state":"active","ping":109},{"user_id":96,"name":"raf","steam_id":76561197999439695,"connected_time":46000000000,"state":"active","ping":72},{"user_id":79,"name":"TwinAirplane959","steam_id":76561198866756840,"connected_time":1693000000000,"state":"active","ping":74},{"user_id":97,"name":"super gamer","steam_id":76561198327390236,"connected_time":20000000000,"state":"active","ping":71},{"user_id":77,"name":"EDJRMorpheus95","steam_id":76561198830669778,"connected_time":1773000000000,"state":"active","ping":126},{"user_id":85,"name":"cheeto dealer","steam_id":76561199243489976,"connected_time":1563000000000,"state":"active","ping":81},{"user_id":93,"name":"yungstarbeam","steam_id":76561198983492424,"connected_time":598000000000,"state":"active","ping":127},{"user_id":38,"name":"monke12344","steam_id":76561199274757725,"connected_time":6118000000000,"state":"active","ping":102},{"user_id":70,"name":"marlee","steam_id":76561198828640523,"connected_time":3091000000000,"state":"active","ping":89},{"user_id":80,"name":"Crusader","steam_id":76561198144092743,"connected_time":1653000000000,"state":"active","ping":90},{"user_id":16,"name":"Ghost","steam_id":76561198426370628,"connected_time":6755000000000,"state":"active","ping":116},{"user_id":91,"name":"Kalvin","steam_id":76561198840101034,"connected_time":1049000000000,"state":"active","ping":51},{"user_id":95,"name":"THENX ATHLETE","steam_id":76561198078626283,"connected_time":61000000000,"state":"active","ping":32},{"user_id":82,"name":"CFGU || RAWRWAFL","steam_id":76561198032118386,"connected_time":1603000000000,"state":"active","ping":126},{"user_id":92,"name":"Alpharius","steam_id":76561197996284353,"connected_time":785000000000,"state":"active","ping":60},{"user_id":34,"name":"Dry","steam_id":76561198124135416,"connected_time":6388000000000,"state":"active","ping":54},{"user_id":83,"name":"‚ô• Milo Stefferson ‚ô• (Soupca","steam_id":76561198056269538,"connected_time":1597000000000,"state":"active","ping":60},{"user_id":59,"name":"Romo","steam_id":76561198243101572,"connected_time":4456000000000,"state":"active","ping":129},{"user_id":94,"name":"Vacc Onetrick","steam_id":76561198207987376,"connected_time":450000000000,"state":"active","ping":119},{"user_id":44,"name":"trinqette (she/her)","steam_id":76561198119543621,"connected_time":5871000000000,"state":"active","ping":90},{"user_id":90,"name":"‚ô•Bean‚ô•","steam_id":76561198835286379,"connected_time":1238000000000,"state":"active","ping":124}]},{"server_id":119,"name":"Uncletopia | Seattle | 2 | All Maps","name_short":"sea-2","host":"sea-1.us.uncletopia.com","port":27025,"enabled":true,"region":"us-west","cc":"us","latitude":47.608013,"longitude":-122.33517,"reserved":0,"last_update":"0001-01-01T00:00:00Z","name_a2s":"Uncletopia | Seattle | 2 | All Maps","protocol":17,"map":"koth_lakeside_final","folder":"tf","game":"Team Fortress","app_id":440,"player_count":0,"max_players":24,"Bots":0,"server_type":"Dedicated","server_os":"Linux","password":true,"vac":true,"version":"7757534","steam_id":85568392924469998,"keywords":["cp","nocrits","nodmgspread","uncletopia"],"game_id":440,"stv_port":27026,"stv_name":"Uncletopia | Seattle | 2 | All Maps | STV","players":null},{"server_id":406,"name":"Uncletopia | Seattle | 3 | Stopwatch Beta","name_short":"sea-3","host":"sea-1.us.uncletopia.com","port":27035,"enabled":true,"region":"us-west","cc":"us","latitude":47.608013,"longitude":-122.33517,"reserved":0,"last_update":"0001-01-01T00:00:00Z","name_a2s":"Uncletopia | Seattle | 3 | Stopwatch Beta","protocol":17,"map":"workshop/cp_reckoner_rc6.ugc674719999","folder":"tf","game":"Team Fortress","app_id":440,"player_count":0,"max_players":24,"Bots":0,"server_type":"Dedicated","server_os":"Linux","password":true,"vac":true,"version":"7757534","steam_id":85568392924515217,"keywords":["cp","nocrits","nodmgspread","uncletopia"],"game_id":440,"stv_port":27036,"stv_name":"Uncletopia | Seattle | 3 | Stopwatch Beta | STV","players":null},{"server_id":17,"name":"Uncletopia | San Francisco | 1 | All Maps","name_short":"sfo-1","host":"sfo-1.us.uncletopia.com","port":27015,"enabled":true,"region":"us-west","cc":"us","latitude":37.77397,"longitude":-122.4313,"reserved":0,"last_update":"0001-01-01T00:00:00Z","name_a2s":"Uncletopia | San Francisco | 1 | All Maps","protocol":17,"map":"pl_frontier_final","folder":"tf","game":"Team Fortress","app_id":440,"player_count":23,"max_players":24,"Bots":0,"server_type":"Dedicated","server_os":"Linux","password":true,"vac":true,"version":"7757534","steam_id":85568392924469999,"keywords":["nocrits","nodmgspread","payload","uncletopia"],"game_id":440,"stv_port":27016,"stv_name":"Uncletopia | San Francisco | 1 | All Maps | STV","players":[{"user_id":92,"name":"AceOfSpades","steam_id":76561198198775831,"connected_time":1363000000000,"state":"active","ping":79},{"user_id":56,"name":"Little Linguine","steam_id":76561198816986370,"connected_time":3661000000000,"state":"active","ping":72},{"user_id":78,"name":"VexT","steam_id":76561199471734115,"connected_time":2415000000000,"state":"active","ping":98},{"user_id":100,"name":"128gb sd card","steam_id":76561198043636749,"connected_time":812000000000,"state":"active","ping":60},{"user_id":85,"name":"beatrix","steam_id":76561199057103062,"connected_time":1628000000000,"state":"active","ping":61},{"user_id":12,"name":"mycoolcucumber","steam_id":76561198177586211,"connected_time":6693000000000,"state":"active","ping":105},{"user_id":102,"name":"Peppino Spaghetti","steam_id":76561198034122573,"connected_time":689000000000,"state":"active","ping":71},{"user_id":71,"name":"Pantaloons","steam_id":76561198073071139,"connected_time":2777000000000,"state":"active","ping":84},{"user_id":72,"name":"AweStruckEXP","steam_id":76561198820920580,"connected_time":2775000000000,"state":"active","ping":85},{"user_id":106,"name":"cool beans","steam_id":76561198045758072,"connected_time":535000000000,"state":"active","ping":45},{"user_id":104,"name":"bombthezoms","steam_id":76561198138467073,"connected_time":597000000000,"state":"active","ping":74},{"user_id":34,"name":"badhorse4444","steam_id":76561198979008266,"connected_time":5048000000000,"state":"active","ping":140},{"user_id":60,"name":"corpach","steam_id":76561198150418268,"connected_time":3579000000000,"state":"active","ping":141},{"user_id":87,"name":"Wahooka","steam_id":76561197962240925,"connected_time":1611000000000,"state":"active","ping":104},{"user_id":82,"name":"..flop","steam_id":76561197989058876,"connected_time":2030000000000,"state":"active","ping":66},{"user_id":109,"name":"Schnitz","steam_id":76561198265484253,"connected_time":105000000000,"state":"active","ping":60},{"user_id":94,"name":"kitsu ‚ô•","steam_id":76561198091741658,"connected_time":1327000000000,"state":"active","ping":73},{"user_id":89,"name":"sun","steam_id":76561198011329825,"connected_time":1548000000000,"state":"active","ping":105},{"user_id":111,"name":"Cheese Miller","steam_id":76561199451933673,"connected_time":13000000000,"state":"active","ping":86},{"user_id":107,"name":"CPTforever","steam_id":76561198237767198,"connected_time":431000000000,"state":"active","ping":45},{"user_id":105,"name":"what makes me a good demoman?","steam_id":76561198384098648,"connected_time":576000000000,"state":"active","ping":112},{"user_id":90,"name":"jorild","steam_id":76561198213867093,"connected_time":1542000000000,"state":"active","ping":83},{"user_id":95,"name":"Natalie (she/her)","steam_id":76561198048848289,"connected_time":1320000000000,"state":"active","ping":61}]},{"server_id":18,"name":"Uncletopia | San Francisco | 2 | All Maps","name_short":"sfo-2","host":"sfo-1.us.uncletopia.com","port":27025,"enabled":true,"region":"us-west","cc":"us","latitude":37.77397,"longitude":-122.4313,"reserved":0,"last_update":"0001-01-01T00:00:00Z","name_a2s":"Uncletopia | San Francisco | 2 | All Maps","protocol":17,"map":"koth_highpass","folder":"tf","game":"Team Fortress","app_id":440,"player_count":0,"max_players":24,"Bots":0,"server_type":"Dedicated","server_os":"Linux","password":true,"vac":true,"version":"7757534","steam_id":85568392924470000,"keywords":["cp","nocrits","nodmgspread","uncletopia"],"game_id":440,"stv_port":27026,"stv_name":"Uncletopia | San Francisco | 2 | All Maps | STV","players":null},{"server_id":19,"name":"Uncletopia | San Francisco | 3 | Stopwatch Beta","name_short":"sfo-3","host":"sfo-1.us.uncletopia.com","port":27035,"enabled":true,"region":"us-west","cc":"us","latitude":37.77397,"longitude":-122.4313,"reserved":0,"last_update":"0001-01-01T00:00:00Z","name_a2s":"Uncletopia | San Francisco | 3 | Stopwatch Beta","protocol":17,"map":"koth_lakeside_final","folder":"tf","game":"Team Fortress","app_id":440,"player_count":1,"max_players":24,"Bots":0,"server_type":"Dedicated","server_os":"Linux","password":true,"vac":true,"version":"7757534","steam_id":85568392924742824,"keywords":["cp","nocrits","nodmgspread","uncletopia"],"game_id":440,"stv_port":27036,"stv_name":"Uncletopia | San Francisco | 3 | Stopwatch Beta | STV","players":[{"user_id":4,"name":"weird dude","steam_id":76561199094730956,"connected_time":30000000000,"state":"active","ping":220}]},{"server_id":20,"name":"Uncletopia | San Francisco | 4 | Community","name_short":"sfo-4","host":"sfo-1.us.uncletopia.com","port":27045,"enabled":true,"region":"us-west","cc":"us","latitude":37.77397,"longitude":-122.4313,"reserved":0,"last_update":"0001-01-01T00:00:00Z","name_a2s":"Uncletopia | San Francisco | 4 | Community","protocol":17,"map":"cp_altitude","folder":"tf","game":"Team Fortress","app_id":440,"player_count":0,"max_players":24,"Bots":0,"server_type":"Dedicated","server_os":"Linux","password":true,"vac":true,"version":"7757534","steam_id":85568392924742826,"keywords":["cp","nocrits","nodmgspread","uncletopia"],"game_id":440,"stv_port":27046,"stv_name":"Uncletopia | San Francisco | 4 | Community | STV","players":null},{"server_id":141,"name":"Uncletopia | Sydney | 1 | All Maps","name_short":"syd-1","host":"syd-1.au.uncletopia.com","port":27015,"enabled":true,"region":"au","cc":"au","latitude":-33.865143,"longitude":151.2099,"reserved":0,"last_update":"0001-01-01T00:00:00Z","name_a2s":"Uncletopia | Sydney | 1 | All Maps","protocol":17,"map":"pl_upward","folder":"tf","game":"Team Fortress","app_id":440,"player_count":0,"max_players":24,"Bots":0,"server_type":"Dedicated","server_os":"Linux","password":true,"vac":true,"version":"7757534","steam_id":85568392924470001,"keywords":["nocrits","nodmgspread","payload","uncletopia"],"game_id":440,"stv_port":27016,"stv_name":"Uncletopia | Sydney | 1 | All Maps | STV","players":null},{"server_id":123,"name":"Uncletopia | Sydney | 2 | All Maps","name_short":"syd-2","host":"syd-1.au.uncletopia.com","port":27025,"enabled":true,"region":"au","cc":"au","latitude":-33.865143,"longitude":151.2099,"reserved":0,"last_update":"0001-01-01T00:00:00Z","name_a2s":"Uncletopia | Sydney | 2 | All Maps","protocol":17,"map":"koth_viaduct","folder":"tf","game":"Team Fortress","app_id":440,"player_count":0,"max_players":24,"Bots":0,"server_type":"Dedicated","server_os":"Linux","password":true,"vac":true,"version":"7757534","steam_id":85568392924470002,"keywords":["cp","nocrits","nodmgspread","uncletopia"],"game_id":440,"stv_port":27026,"stv_name":"Uncletopia | Sydney | 2 | All Maps | STV","players":null},{"server_id":395,"name":"Uncletopia | Sydney | 3 | All Maps","name_short":"syd-3","host":"syd-1.au.uncletopia.com","port":27035,"enabled":true,"region":"au","cc":"au","latitude":-33.865143,"longitude":151.2099,"reserved":0,"last_update":"0001-01-01T00:00:00Z","name_a2s":"Uncletopia | Sydney | 3 | All Maps","protocol":17,"map":"cp_snakewater_final1","folder":"tf","game":"Team Fortress","app_id":440,"player_count":0,"max_players":24,"Bots":0,"server_type":"Dedicated","server_os":"Linux","password":true,"vac":true,"version":"7757534","steam_id":85568392925194467,"keywords":["cp","nocrits","nodmgspread","uncletopia"],"game_id":440,"stv_port":27036,"stv_name":"Uncletopia | Sydney | 3 | All Maps | STV","players":null},{"server_id":396,"name":"Uncletopia | Sydney | 4 | All Maps","name_short":"syd-4","host":"syd-1.au.uncletopia.com","port":27045,"enabled":true,"region":"au","cc":"au","latitude":-33.865143,"longitude":151.2099,"reserved":0,"last_update":"0001-01-01T00:00:00Z","name_a2s":"Uncletopia | Sydney | 4 | All Maps","protocol":17,"map":"koth_highpass","folder":"tf","game":"Team Fortress","app_id":440,"player_count":0,"max_players":24,"Bots":0,"server_type":"Dedicated","server_os":"Linux","password":true,"vac":true,"version":"7757534","steam_id":85568392925397958,"keywords":["cp","nocrits","nodmgspread","uncletopia"],"game_id":440,"stv_port":27046,"stv_name":"Uncletopia | Sydney | 4 | All Maps | STV","players":null},{"server_id":58,"name":"Uncletopia | Sydney | 5 | Stopwatch Beta","name_short":"syd-5","host":"syd-1.au.uncletopia.com","port":27055,"enabled":true,"region":"au","cc":"au","latitude":-33.865143,"longitude":151.2099,"reserved":0,"last_update":"0001-01-01T00:00:00Z","name_a2s":"Uncletopia | Sydney | 5 | Stopwatch Beta","protocol":17,"map":"workshop/pl_vigil_rc9.ugc1266210012","folder":"tf","game":"Team Fortress","app_id":440,"player_count":0,"max_players":24,"Bots":0,"server_type":"Dedicated","server_os":"Linux","password":true,"vac":true,"version":"7757534","steam_id":85568392925397959,"keywords":["nocrits","nodmgspread","payload","uncletopia"],"game_id":440,"stv_port":27056,"stv_name":"Uncletopia | Sydney | 5 | Stopwatch Beta | STV","players":null},{"server_id":59,"name":"Uncletopia | Sydney | 6 | Community","name_short":"syd-6","host":"syd-1.au.uncletopia.com","port":27065,"enabled":true,"region":"au","cc":"au","latitude":-33.865143,"longitude":151.2099,"reserved":0,"last_update":"0001-01-01T00:00:00Z","name_a2s":"Uncletopia | Sydney | 6 | Community","protocol":17,"map":"cp_snakewater_final1","folder":"tf","game":"Team Fortress","app_id":440,"player_count":0,"max_players":24,"Bots":0,"server_type":"Dedicated","server_os":"Linux","password":true,"vac":true,"version":"7757534","steam_id":85568392925397960,"keywords":["cp","nocrits","nodmgspread","uncletopia"],"game_id":440,"stv_port":27066,"stv_name":"Uncletopia | Sydney | 6 | Community | STV","players":null},{"server_id":49,"name":"Uncletopia | Warsaw | 1 | All Maps","name_short":"waw-1","host":"waw-1.pl.uncletopia.com","port":27015,"enabled":true,"region":"eu","cc":"pl","latitude":52.2297,"longitude":21.017532,"reserved":0,"last_update":"0001-01-01T00:00:00Z","name_a2s":"","protocol":0,"map":"","folder":"","game":"","app_id":0,"player_count":0,"max_players":0,"Bots":0,"server_type":"","server_os":"","password":false,"vac":false,"version":"","steam_id":0,"keywords":null,"game_id":0,"stv_port":0,"stv_name":"","players":null},{"server_id":50,"name":"Uncletopia | Warsaw | 2 | All Maps","name_short":"waw-2","host":"waw-1.pl.uncletopia.com","port":27025,"enabled":true,"region":"eu","cc":"pl","latitude":52.2297,"longitude":21.017532,"reserved":0,"last_update":"0001-01-01T00:00:00Z","name_a2s":"Uncletopia | Warsaw | 2 | All Maps","protocol":17,"map":"koth_highpass","folder":"tf","game":"Team Fortress","app_id":440,"player_count":0,"max_players":24,"Bots":0,"server_type":"Dedicated","server_os":"Linux","password":true,"vac":true,"version":"7757534","steam_id":85568392925397851,"keywords":["cp","nocrits","nodmgspread","uncletopia"],"game_id":440,"stv_port":27026,"stv_name":"Uncletopia | Warsaw | 2 | All Maps | STV","players":null},{"server_id":51,"name":"Uncletopia | Warsaw | 3 | All Maps","name_short":"waw-3","host":"waw-1.pl.uncletopia.com","port":27035,"enabled":true,"region":"eu","cc":"pl","latitude":52.2297,"longitude":21.017532,"reserved":0,"last_update":"0001-01-01T00:00:00Z","name_a2s":"Uncletopia | Warsaw | 3 | All Maps","protocol":17,"map":"pl_badwater","folder":"tf","game":"Team Fortress","app_id":440,"player_count":0,"max_players":24,"Bots":0,"server_type":"Dedicated","server_os":"Linux","password":true,"vac":true,"version":"7757534","steam_id":85568392925397852,"keywords":["nocrits","nodmgspread","payload","uncletopia"],"game_id":440,"stv_port":27036,"stv_name":"Uncletopia | Warsaw | 3 | All Maps | STV","players":null},{"server_id":52,"name":"Uncletopia | Warsaw | 4 | All Maps","name_short":"waw-4","host":"waw-1.pl.uncletopia.com","port":27045,"enabled":true,"region":"eu","cc":"pl","latitude":52.2297,"longitude":21.017532,"reserved":0,"last_update":"0001-01-01T00:00:00Z","name_a2s":"Uncletopia | Warsaw | 4 | All Maps","protocol":17,"map":"cp_dustbowl","folder":"tf","game":"Team Fortress","app_id":440,"player_count":0,"max_players":24,"Bots":0,"server_type":"Dedicated","server_os":"Linux","password":true,"vac":true,"version":"7757534","steam_id":85568392925397853,"keywords":["cp","nocrits","nodmgspread","uncletopia"],"game_id":440,"stv_port":27046,"stv_name":"Uncletopia | Warsaw | 4 | All Maps | STV","players":null},{"server_id":53,"name":"Uncletopia | Warsaw | 5 | Stopwatch Beta","name_short":"waw-5","host":"waw-1.pl.uncletopia.com","port":27055,"enabled":true,"region":"eu","cc":"pl","latitude":52.2297,"longitude":21.017532,"reserved":0,"last_update":"0001-01-01T00:00:00Z","name_a2s":"Uncletopia | Warsaw | 5 | Stopwatch Beta","protocol":17,"map":"pl_borneo","folder":"tf","game":"Team Fortress","app_id":440,"player_count":0,"max_players":24,"Bots":0,"server_type":"Dedicated","server_os":"Linux","password":true,"vac":true,"version":"7757534","steam_id":85568392925397854,"keywords":["nocrits","nodmgspread","payload","uncletopia"],"game_id":440,"stv_port":27056,"stv_name":"Uncletopia | Warsaw | 5 | Stopwatch Beta | STV","players":null},{"server_id":54,"name":"Uncletopia | Warsaw | 6 | Community","name_short":"waw-6","host":"waw-1.pl.uncletopia.com","port":27065,"enabled":true,"region":"eu","cc":"pl","latitude":52.2297,"longitude":21.017532,"reserved":0,"last_update":"0001-01-01T00:00:00Z","name_a2s":"Uncletopia | Warsaw | 6 | Community","protocol":17,"map":"koth_lakeside_final","folder":"tf","game":"Team Fortress","app_id":440,"player_count":0,"max_players":24,"Bots":0,"server_type":"Dedicated","server_os":"Linux","password":true,"vac":true,"version":"7757534","steam_id":85568392925397856,"keywords":["cp","nocrits","nodmgspread","uncletopia"],"game_id":440,"stv_port":27066,"stv_name":"Uncletopia | Warsaw | 6 | Community | STV","players":null}]}