{"status":true,"message":"","result":[{"server_id":9,"name":"Uncletopia | Atlanta | 1 | All Maps","name_short":"atl-1","host":"atl-1.us.uncletopia.com","port":27015,"enabled":true,"region":"us-east","cc":"us","latitude":33.753746,"longitude":-84.38633,"reserved":0,"last_update":"0001-01-01T00:00:00Z","name_a2s":"Uncletopia | Atlanta | 1 | All Maps","protocol":17,"map":"pl_borneo","folder":"tf","game":"Team Fortress","app_id":440,"player_count":2,"max_players":24,"Bots":0,"server_type":"Dedicated","server_os":"Linux","password":true,"vac":true,"version":"7882260","steam_id":85568392924469982,"keywords":["nocrits","nodmgspread","payload","uncletopia"],"game_id":440,"stv_port":27016,"stv_name":"Uncletopia | Atlanta | 1 | All Maps | STV","players":[{"user_id":24,"name":"Shmeat inspectorTTV","steam_id":76561198995197649,"connected_time":84000000000,"state":"active","ping":75},{"user_id":23,"name":"t.tv/Mikeymare_","steam_id":76561198977264806,"connected_time":142000000000,"state":"active","ping":55}]},{"server_id":104,"name":"Uncletopia | Atlanta | 2 | All Maps","name_short":"atl-2","host":"atl-1.us.uncletopia.com","port":27025,"enabled":true,"region":"us-east","cc":"us","latitude":33.753746,"longitude":-84.38633,"reserved":0,"last_update":"0001-01-01T00:00:00Z","name_a2s":"Uncletopia | Atlanta | 2 | All Maps","protocol":17,"map":"cp_process_final","folder":"tf","game":"Team Fortress","app_id":440,"player_count":0,"max_players":24,"Bots":0,"server_type":"Dedicated","server_os":"Linux","password":true,"vac":true,"version":"7882260","steam_id":85568392924469983,"keywords":["cp","nocrits","nodmgspread","uncletopia"],"game_id":440,"stv_port":27026,"stv_name":"Uncletopia | Atlanta | 2 | All Maps | STV","players":null},{"server_id":400,"name":"Uncletopia | Atlanta | 3 | Community","name_short":"atl-3","host":"atl-1.us.uncletopia.com","port":27035,"enabled":true,"region":"us-east","cc":"us","latitude":33.753746,"longitude":-84.38633,"reserved":0,"last_update":"0001-01-01T00:00:00Z","name_a2s":"Uncletopia | Atlanta | 3 | Community","protocol":17,"map":"workshop/pl_eruption_b9a.ugc2807898013","folder":"tf","game":"Team Fortress","app_id":440,"player_count":0,"max_players":24,"Bots":0,"server_type":"Dedicated","server_os":"Linux","password":true,"vac":true,"version":"7882260","steam_id":85568392924515187,"keywords":["nocrits","nodmgspread","payload","uncletopia"],"game_id":440,"stv_port":27036,"stv_name":"Uncletopia | Atlanta | 3 | Community | STV","players":null},{"server_id":401,"name":"Uncletopia | Atlanta | 4 | No Payload","name_short":"atl-4","host":"atl-1.us.uncletopia.com","port":27045,"enabled":true,"region":"us-east","cc":"us","latitude":33.753746,"longitude":-84.38633,"reserved":0,"last_update":"0001-01-01T00:00:00Z","name_a2s":"","protocol":0,"map":"","folder":"","game":"","app_id":0,"player_count":0,"max_players":0,"Bots":0,"server_type":"","server_os":"","password":false,"vac":false,"version":"","steam_id":0,"keywords":null,"game_id":0,"stv_port":0,"stv_name":"","players":null},{"server_id":2,"name":"Uncletopia | Chicago | 1 | All Maps","name_short":"chi-1","host":"chi-1.us.uncletopia.com","port":27015,"enabled":true,"region":"us-central","cc":"us","latitude":41.881832,"longitude":-87.62318,"reserved":0,"last_update":"0001-01-01T00:00:00Z","name_a2s":"Uncletopia | Chicago | 1 | All Maps","protocol":17,"map":"plr_bananabay","folder":"tf","game":"Team Fortress","app_id":440,"player_count":24,"max_players":24,"Bots":0,"server_type":"Dedicated","server_os":"Linux","password":true,"vac":true,"version":"7882260","steam_id":85568392924469984,"keywords":["nocrits","nodmgspread","payload","uncletopia"],"game_id":440,"stv_port":27016,"stv_name":"Uncletopia | Chicago | 1 | All Maps | STV","players":[{"user_id":46,"name":"Your Local Queer Librarian","steam_id":76561198013077080,"connected_time":3328000000000,"state":"active","ping":57},{"user_id":104,"name":"a boring content creator","steam_id":76561199301072836,"connected_time":1543000000000,"state":"active","ping":84},{"user_id":107,"name":"Souperdude83","steam_id":76561198119727829,"connected_time":1437000000000,"state":"active","ping":65},{"user_id":95,"name":"kallerannar","steam_id":76561199095701143,"connected_time":1666000000000,"state":"active","ping":161},{"user_id":113,"name":"[TSG] Turner's Chocolate Milk","steam_id":76561198058963288,"connected_time":828000000000,"state":"active","ping":68},{"user_id":91,"name":"Mister Frank","steam_id":76561198161473385,"connected_time":2290000000000,"state":"active","ping":62},{"user_id":49,"name":"space ranger","steam_id":76561197975540289,"connected_time":2941000000000,"state":"active","ping":53},{"user_id":94,"name":"The Eyeball Man","steam_id":76561198013534207,"connected_time":1689000000000,"state":"active","ping":66},{"user_id":123,"name":"sam-","steam_id":76561198013770973,"connected_time":35000000000,"state":"spawning","ping":176},{"user_id":117,"name":"Bowlingball","steam_id":76561198868879636,"connected_time":493000000000,"state":"active","ping":76},{"user_id":116,"name":"edwinbrood","steam_id":76561198044848769,"connected_time":587000000000,"state":"active","ping":52},{"user_id":110,"name":"Lucille_Bluth","steam_id":76561198206133916,"connected_time":1103000000000,"state":"active","ping":74},{"user_id":97,"name":"0","steam_id":76561198046055673,"connected_time":1659000000000,"state":"active","ping":75},{"user_id":47,"name":"Lucky","steam_id":76561198418262145,"connected_time":3075000000000,"state":"active","ping":136},{"user_id":124,"name":"circuit city pipebomb kit","steam_id":76561198057076267,"connected_time":35000000000,"state":"active","ping":72},{"user_id":118,"name":"Apantard","steam_id":76561199066783653,"connected_time":483000000000,"state":"active","ping":109},{"user_id":122,"name":"Dr. Chad Feelgood","steam_id":76561198454077219,"connected_time":122000000000,"state":"active","ping":64},{"user_id":101,"name":"Pig master","steam_id":76561199388075545,"connected_time":1607000000000,"state":"active","ping":115},{"user_id":120,"name":"Marlboro Man","steam_id":76561198117279677,"connected_time":424000000000,"state":"active","ping":109},{"user_id":105,"name":"Locar","steam_id":76561198365417023,"connected_time":1538000000000,"state":"active","ping":68},{"user_id":121,"name":"Furrio","steam_id":76561198174104607,"connected_time":419000000000,"state":"active","ping":68},{"user_id":45,"name":"vv","steam_id":76561198134813102,"connected_time":3398000000000,"state":"active","ping":54},{"user_id":51,"name":"smash2tec","steam_id":76561199171564052,"connected_time":2929000000000,"state":"active","ping":100},{"user_id":90,"name":"1 kill = uwu","steam_id":76561198249206656,"connected_time":2370000000000,"state":"active","ping":85}]},{"server_id":106,"name":"Uncletopia | Chicago | 2 | All Maps","name_short":"chi-2","host":"chi-1.us.uncletopia.com","port":27025,"enabled":true,"region":"us-central","cc":"us","latitude":41.881832,"longitude":-87.62318,"reserved":0,"last_update":"0001-01-01T00:00:00Z","name_a2s":"Uncletopia | Chicago | 2 | All Maps","protocol":17,"map":"pl_pier","folder":"tf","game":"Team Fortress","app_id":440,"player_count":24,"max_players":24,"Bots":0,"server_type":"Dedicated","server_os":"Linux","password":true,"vac":true,"version":"7882260","steam_id":85568392924469985,"keywords":["nocrits","nodmgspread","payload","uncletopia"],"game_id":440,"stv_port":27026,"stv_name":"Uncletopia | Chicago | 2 | All Maps | STV","players":[{"user_id":150,"name":"Slice","steam_id":76561198046508636,"connected_time":1098000000000,"state":"active","ping":66},{"user_id":160,"name":"Jasper Zawn","steam_id":76561198077651204,"connected_time":649000000000,"state":"active","ping":81},{"user_id":161,"name":"you forgot the sauce","steam_id":76561198387016713,"connected_time":265000000000,"state":"active","ping":67},{"user_id":154,"name":"throat_man","steam_id":76561199321657653,"connected_time":816000000000,"state":"active","ping":99},{"user_id":152,"name":"Suplin","steam_id":76561199010194557,"connected_time":925000000000,"state":"active","ping":62},{"user_id":125,"name":"god approaches","steam_id":76561198081617990,"connected_time":3780000000000,"state":"active","ping":91},{"user_id":144,"name":"Albundy","steam_id":76561198075394127,"connected_time":1854000000000,"state":"active","ping":73},{"user_id":142,"name":"1-800-GHOST-DANCE","steam_id":76561198835430429,"connected_time":2052000000000,"state":"active","ping":83},{"user_id":111,"name":"LVL 4 Dispenser Gaming","steam_id":76561198044244547,"connected_time":4207000000000,"state":"active","ping":77},{"user_id":155,"name":"mantra","steam_id":76561198023496266,"connected_time":808000000000,"state":"active","ping":61},{"user_id":156,"name":"sedmatt","steam_id":76561199227340549,"connected_time":798000000000,"state":"active","ping":117},{"user_id":132,"name":"Mashi","steam_id":76561198027871223,"connected_time":3160000000000,"state":"active","ping":73},{"user_id":162,"name":"Ravioli","steam_id":76561198831900441,"connected_time":265000000000,"state":"active","ping":184},{"user_id":101,"name":"yarn","steam_id":76561197999666480,"connected_time":4931000000000,"state":"active","ping":113},{"user_id":129,"name":"Honest Tunnel Salesman","steam_id":76561198059071100,"connected_time":3450000000000,"state":"active","ping":67},{"user_id":153,"name":"JesusTakeTheWeel","steam_id":76561198041986195,"connected_time":871000000000,"state":"active","ping":104},{"user_id":157,"name":"JelloMotion","steam_id":76561198045892038,"connected_time":790000000000,"state":"active","ping":60},{"user_id":158,"name":"Conehead Pizza man","steam_id":76561198062223540,"connected_time":787000000000,"state":"active","ping":83},{"user_id":137,"name":"6t26j","steam_id":76561198278282836,"connected_time":2755000000000,"state":"active","ping":59},{"user_id":149,"name":"SkullDroid","steam_id":76561198200062254,"connected_time":1430000000000,"state":"active","ping":78},{"user_id":146,"name":"A Puppy","steam_id":76561198828184456,"connected_time":1635000000000,"state":"active","ping":58},{"user_id":138,"name":"Metapod","steam_id":76561198008725465,"connected_time":2709000000000,"state":"active","ping":72},{"user_id":135,"name":"Smooth - Santana ft. Rob Thomas","steam_id":76561198145283389,"connected_time":3116000000000,"state":"active","ping":73},{"user_id":143,"name":"katryna","steam_id":76561198023440304,"connected_time":2040000000000,"state":"active","ping":60}]},{"server_id":402,"name":"Uncletopia | Chicago | 3 | All Maps","name_short":"chi-3","host":"chi-1.us.uncletopia.com","port":27035,"enabled":true,"region":"us-central","cc":"us","latitude":41.881832,"longitude":-87.62318,"reserved":0,"last_update":"0001-01-01T00:00:00Z","name_a2s":"Uncletopia | Chicago | 3 | All Maps","protocol":17,"map":"pl_badwater","folder":"tf","game":"Team Fortress","app_id":440,"player_count":16,"max_players":24,"Bots":0,"server_type":"Dedicated","server_os":"Linux","password":true,"vac":true,"version":"7882260","steam_id":85568392924515191,"keywords":["nocrits","nodmgspread","payload","uncletopia"],"game_id":440,"stv_port":27036,"stv_name":"Uncletopia | Chicago | 3 | All Maps | STV","players":[{"user_id":7,"name":"Extinct","steam_id":76561199013696367,"connected_time":1825000000000,"state":"active","ping":69},{"user_id":25,"name":"baste GNU/LINUX GAMING NO AUDIO","steam_id":76561198170358238,"connected_time":325000000000,"state":"active","ping":59},{"user_id":11,"name":"kevinw.817","steam_id":76561199229743305,"connected_time":1222000000000,"state":"active","ping":85},{"user_id":21,"name":"Eosson","steam_id":76561198108642113,"connected_time":661000000000,"state":"active","ping":58},{"user_id":26,"name":"radiation","steam_id":76561198001157602,"connected_time":227000000000,"state":"active","ping":68},{"user_id":14,"name":"ewp","steam_id":76561199148289271,"connected_time":1067000000000,"state":"active","ping":93},{"user_id":17,"name":"K.O.","steam_id":76561198114985074,"connected_time":888000000000,"state":"active","ping":74},{"user_id":18,"name":"Bee_Pirate","steam_id":76561199000599111,"connected_time":852000000000,"state":"active","ping":73},{"user_id":27,"name":"Hope","steam_id":76561199201900779,"connected_time":103000000000,"state":"active","ping":70},{"user_id":22,"name":"Zhenaj","steam_id":76561199209016136,"connected_time":545000000000,"state":"active","ping":60},{"user_id":24,"name":"The Great Wart","steam_id":76561198107906150,"connected_time":460000000000,"state":"active","ping":67},{"user_id":28,"name":"IEatYourSandwiches","steam_id":76561199113814705,"connected_time":103000000000,"state":"active","ping":99},{"user_id":29,"name":"Kiwimpediment","steam_id":76561198322781400,"connected_time":66000000000,"state":"active","ping":56},{"user_id":32,"name":"Whorse","steam_id":76561198114141445,"connected_time":22000000000,"state":"active","ping":65},{"user_id":31,"name":"Reverie","steam_id":76561198987005784,"connected_time":43000000000,"state":"active","ping":60},{"user_id":33,"name":"Mewysty","steam_id":76561199200480562,"connected_time":7000000000,"state":"spawning","ping":123}]},{"server_id":403,"name":"Uncletopia | Chicago | 4 | All Maps","name_short":"chi-4","host":"chi-1.us.uncletopia.com","port":27045,"enabled":true,"region":"us-central","cc":"us","latitude":41.881832,"longitude":-87.62318,"reserved":0,"last_update":"0001-01-01T00:00:00Z","name_a2s":"Uncletopia | Chicago | 4 | All Maps","protocol":17,"map":"koth_cascade","folder":"tf","game":"Team Fortress","app_id":440,"player_count":0,"max_players":24,"Bots":0,"server_type":"Dedicated","server_os":"Linux","password":true,"vac":true,"version":"7882260","steam_id":85568392924515193,"keywords":["cp","nocrits","nodmgspread","uncletopia"],"game_id":440,"stv_port":27046,"stv_name":"Uncletopia | Chicago | 4 | All Maps | STV","players":null},{"server_id":36,"name":"Uncletopia | Chicago | 5 | All Maps","name_short":"chi-5","host":"chi-2.us.uncletopia.com","port":27015,"enabled":true,"region":"us-central","cc":"us","latitude":41.881832,"longitude":-87.62318,"reserved":0,"last_update":"0001-01-01T00:00:00Z","name_a2s":"Uncletopia | Chicago | 5 | All Maps","protocol":17,"map":"pl_badwater","folder":"tf","game":"Team Fortress","app_id":440,"player_count":0,"max_players":24,"Bots":0,"server_type":"Dedicated","server_os":"Linux","password":true,"vac":true,"version":"7882260","steam_id":85568392924866362,"keywords":["nocrits","nodmgspread","payload","uncletopia"],"game_id":440,"stv_port":27016,"stv_name":"Uncletopia | Chicago | 5 | All Maps | STV","players":null},{"server_id":37,"name":"Uncletopia | Chicago | 6 | All Maps","name_short":"chi-6","host":"chi-2.us.uncletopia.com","port":27025,"enabled":true,"region":"us-central","cc":"us","latitude":41.881832,"longitude":-87.62318,"reserved":0,"last_update":"0001-01-01T00:00:00Z","name_a2s":"Uncletopia | Chicago | 6 | All Maps","protocol":17,"map":"koth_cascade","folder":"tf","game":"Team Fortress","app_id":440,"player_count":1,"max_players":24,"Bots":0,"server_type":"Dedicated","server_os":"Linux","password":true,"vac":true,"version":"7882260","steam_id":85568392924866363,"keywords":["cp","nocrits","nodmgspread","uncletopia"],"game_id":440,"stv_port":27026,"stv_name":"Uncletopia | Chicago | 6 | All Maps | STV","players":[{"user_id":4,"name":"Viriditaz","steam_id":76561198255457461,"connected_time":232000000000,"state":"active","ping":76}]},{"server_id":38,"name":"Uncletopia | Chicago | 7 | Stopwatch Beta","name_short":"chi-7","host":"chi-2.us.uncletopia.com","port":27035,"enabled":true,"region":"us-central","cc":"us","latitude":41.881832,"longitude":-87.62318,"reserved":0,"last_update":"0001-01-01T00:00:00Z","name_a2s":"Uncletopia | Chicago | 7 | Stopwatch Beta","protocol":17,"map":"pl_borneo","folder":"tf","game":"Team Fortress","app_id":440,"player_count":0,"max_players":24,"Bots":0,"server_type":"Dedicated","server_os":"Linux","password":true,"vac":true,"version":"7882260","steam_id":85568392924866364,"keywords":["nocrits","nodmgspread","payload","uncletopia"],"game_id":440,"stv_port":27036,"stv_name":"Uncletopia | Chicago | 7 | Stopwatch Beta | STV","players":null},{"server_id":39,"name":"Uncletopia | Chicago | 8 | Community","name_short":"chi-8","host":"chi-2.us.uncletopia.com","port":27045,"enabled":true,"region":"us-central","cc":"us","latitude":41.881832,"longitude":-87.62318,"reserved":0,"last_update":"0001-01-01T00:00:00Z","name_a2s":"Uncletopia | Chicago | 8 | Community","protocol":17,"map":"workshop/pl_eruption_b9a.ugc2807898013","folder":"tf","game":"Team Fortress","app_id":440,"player_count":0,"max_players":24,"Bots":0,"server_type":"Dedicated","server_os":"Linux","password":true,"vac":true,"version":"7882260","steam_id":85568392924866365,"keywords":["nocrits","nodmgspread","payload","uncletopia"],"game_id":440,"stv_port":27046,"stv_name":"Uncletopia | Chicago | 8 | Community | STV","players":null},{"server_id":8,"name":"Uncletopia | Dallas | 1 | All Maps","name_short":"dal-1","host":"dal-1.us.uncletopia.com","port":27015,"enabled":true,"region":"us-central","cc":"us","latitude":32.779167,"longitude":-96.80889,"reserved":0,"last_update":"0001-01-01T00:00:00Z","name_a2s":"Uncletopia | Dallas | 1 | All Maps","protocol":17,"map":"pl_frontier_final","folder":"tf","game":"Team Fortress","app_id":440,"player_count":24,"max_players":24,"Bots":0,"server_type":"Dedicated","server_os":"Linux","password":true,"vac":true,"version":"7882260","steam_id":85568392924469986,"keywords":["nocrits","nodmgspread","payload","uncletopia"],"game_id":440,"stv_port":27016,"stv_name":"Uncletopia | Dallas | 1 | All Maps | STV","players":[{"user_id":67,"name":"Lord Razor","steam_id":76561198373286283,"connected_time":522000000000,"state":"active","ping":93},{"user_id":64,"name":"Benedong Cucumber","steam_id":76561197979726017,"connected_time":761000000000,"state":"active","ping":92},{"user_id":50,"name":"Luke","steam_id":76561198253533632,"connected_time":1484000000000,"state":"active","ping":87},{"user_id":60,"name":"Red","steam_id":76561198082958231,"connected_time":913000000000,"state":"active","ping":78},{"user_id":68,"name":"bloo","steam_id":76561199249800999,"connected_time":515000000000,"state":"active","ping":62},{"user_id":12,"name":"Brick Outhouse","steam_id":76561197976661072,"connected_time":2950000000000,"state":"active","ping":85},{"user_id":20,"name":"Thonk","steam_id":76561198131530521,"connected_time":2352000000000,"state":"active","ping":70},{"user_id":69,"name":"lancer","steam_id":76561199124468228,"connected_time":293000000000,"state":"active","ping":53},{"user_id":63,"name":"Rue","steam_id":76561198013135993,"connected_time":772000000000,"state":"active","ping":75},{"user_id":21,"name":"FANCY koala","steam_id":76561198200898575,"connected_time":2337000000000,"state":"active","ping":87},{"user_id":73,"name":"mari_","steam_id":76561198137855741,"connected_time":36000000000,"state":"active","ping":82},{"user_id":23,"name":"Tyler\u0026Fingers","steam_id":76561198085154485,"connected_time":2281000000000,"state":"active","ping":92},{"user_id":65,"name":"pudl","steam_id":76561198043726592,"connected_time":687000000000,"state":"active","ping":45},{"user_id":26,"name":"Pombley","steam_id":76561198141227263,"connected_time":2242000000000,"state":"active","ping":60},{"user_id":32,"name":"Batouuu","steam_id":76561199031212822,"connected_time":1998000000000,"state":"active","ping":156},{"user_id":70,"name":"General of Rage","steam_id":76561198363697555,"connected_time":285000000000,"state":"active","ping":76},{"user_id":48,"name":"Spirit","steam_id":76561198026245914,"connected_time":1587000000000,"state":"active","ping":58},{"user_id":34,"name":"MR_KRABS_SOCCER","steam_id":76561199364746412,"connected_time":1970000000000,"state":"active","ping":77},{"user_id":35,"name":"KCobraGG","steam_id":76561198403285332,"connected_time":1969000000000,"state":"active","ping":85},{"user_id":36,"name":"J28","steam_id":76561199090581612,"connected_time":1935000000000,"state":"active","ping":115},{"user_id":71,"name":"Lovedaddy","steam_id":76561198006569710,"connected_time":280000000000,"state":"active","ping":105},{"user_id":40,"name":"Krodonet","steam_id":76561197970268796,"connected_time":1867000000000,"state":"active","ping":93},{"user_id":45,"name":"SadVeggie","steam_id":76561198163430099,"connected_time":1714000000000,"state":"active","ping":110},{"user_id":72,"name":"VividDragon","steam_id":76561198050659285,"connected_time":256000000000,"state":"active","ping":66}]},{"server_id":108,"name":"Uncletopia | Dallas | 2 | All Maps","name_short":"dal-2","host":"dal-1.us.uncletopia.com","port":27025,"enabled":true,"region":"us-central","cc":"us","latitude":32.779167,"longitude":-96.80889,"reserved":0,"last_update":"0001-01-01T00:00:00Z","name_a2s":"Uncletopia | Dallas | 2 | All Maps","protocol":17,"map":"cp_dustbowl","folder":"tf","game":"Team Fortress","app_id":440,"player_count":24,"max_players":24,"Bots":0,"server_type":"Dedicated","server_os":"Linux","password":true,"vac":true,"version":"7882260","steam_id":85568392924469988,"keywords":["cp","nocrits","nodmgspread","uncletopia"],"game_id":440,"stv_port":27026,"stv_name":"Uncletopia | Dallas | 2 | All Maps | STV","players":[{"user_id":111,"name":"Jahova (The Witness)","steam_id":76561198156505854,"connected_time":2329000000000,"state":"active","ping":61},{"user_id":102,"name":"PlugFromBehind","steam_id":76561198143283800,"connected_time":3567000000000,"state":"active","ping":48},{"user_id":118,"name":"Takyon","steam_id":76561198172075186,"connected_time":1959000000000,"state":"active","ping":180},{"user_id":114,"name":"RileyNiko","steam_id":76561198162093639,"connected_time":2259000000000,"state":"active","ping":83},{"user_id":131,"name":"Grease Monkey","steam_id":76561199073112578,"connected_time":137000000000,"state":"active","ping":96},{"user_id":126,"name":"SAD MOSCOVIA","steam_id":76561198101081520,"connected_time":890000000000,"state":"active","ping":125},{"user_id":99,"name":"Darling","steam_id":76561198127525888,"connected_time":3976000000000,"state":"active","ping":56},{"user_id":80,"name":"Goat","steam_id":76561198068447650,"connected_time":4871000000000,"state":"active","ping":62},{"user_id":122,"name":"Ivyprophen","steam_id":76561198096893644,"connected_time":1065000000000,"state":"active","ping":50},{"user_id":123,"name":"DiscoTraveler","steam_id":76561199240168088,"connected_time":1060000000000,"state":"active","ping":80},{"user_id":113,"name":"slafflow","steam_id":76561199381012350,"connected_time":2297000000000,"state":"active","ping":75},{"user_id":28,"name":"TJGSASQUATCH","steam_id":76561198077806921,"connected_time":9473000000000,"state":"active","ping":96},{"user_id":83,"name":"[N¬≥]TransparentCat","steam_id":76561197985872964,"connected_time":4830000000000,"state":"active","ping":115},{"user_id":58,"name":"Joe Swanson","steam_id":76561199089907740,"connected_time":7729000000000,"state":"active","ping":64},{"user_id":88,"name":"Crunchy","steam_id":76561198240523882,"connected_time":4558000000000,"state":"active","ping":75},{"user_id":115,"name":"KatKazam","steam_id":76561199013291772,"connected_time":2221000000000,"state":"active","ping":100},{"user_id":124,"name":"Ellis","steam_id":76561198993634489,"connected_time":1049000000000,"state":"active","ping":76},{"user_id":121,"name":"Ichibanprofen","steam_id":76561199192132061,"connected_time":1235000000000,"state":"active","ping":75},{"user_id":117,"name":"¬§JoNJoN¬§","steam_id":76561197985230147,"connected_time":2193000000000,"state":"active","ping":82},{"user_id":130,"name":"Oopsie Daisy ‚ùã","steam_id":76561198042144492,"connected_time":161000000000,"state":"active","ping":71},{"user_id":38,"name":"PulledPork","steam_id":76561198182077258,"connected_time":9290000000000,"state":"active","ping":105},{"user_id":132,"name":"minecraft","steam_id":76561198104345201,"connected_time":43000000000,"state":"active","ping":70},{"user_id":82,"name":"McSmitten","steam_id":76561198022358379,"connected_time":4862000000000,"state":"active","ping":76},{"user_id":125,"name":"Drone","steam_id":76561198022920857,"connected_time":962000000000,"state":"active","ping":68}]},{"server_id":5,"name":"Uncletopia | Frankfurt | 1 | All Maps","name_short":"frk-1","host":"frk-1.de.uncletopia.com","port":27015,"enabled":true,"region":"eu","cc":"de","latitude":50.110924,"longitude":8.682127,"reserved":0,"last_update":"0001-01-01T00:00:00Z","name_a2s":"Uncletopia | Frankfurt | 1 | All Maps","protocol":17,"map":"koth_viaduct","folder":"tf","game":"Team Fortress","app_id":440,"player_count":0,"max_players":24,"Bots":0,"server_type":"Dedicated","server_os":"Linux","password":true,"vac":true,"version":"7882260","steam_id":85568392924469989,"keywords":["cp","nocrits","nodmgspread","uncletopia"],"game_id":440,"stv_port":27016,"stv_name":"Uncletopia | Frankfurt | 1 | All Maps | STV","players":null},{"server_id":110,"name":"Uncletopia | Frankfurt | 2 | All Maps","name_short":"frk-2","host":"frk-1.de.uncletopia.com","port":27025,"enabled":true,"region":"eu","cc":"de","latitude":50.110924,"longitude":8.682127,"reserved":0,"last_update":"0001-01-01T00:00:00Z","name_a2s":"Uncletopia | Frankfurt | 2 | All Maps","protocol":17,"map":"koth_lakeside_final","folder":"tf","game":"Team Fortress","app_id":440,"player_count":6,"max_players":24,"Bots":0,"server_type":"Dedicated","server_os":"Linux","password":true,"vac":true,"version":"7882260","steam_id":85568392924469990,"keywords":["cp","nocrits","nodmgspread","uncletopia"],"game_id":440,"stv_port":27026,"stv_name":"Uncletopia | Frankfurt | 2 | All Maps | STV","players":[{"user_id":15,"name":"hunte","steam_id":76561198063483484,"connected_time":182000000000,"state":"active","ping":59},{"user_id":9,"name":"The Nutcracker of Tf2","steam_id":76561199391107813,"connected_time":802000000000,"state":"active","ping":558},{"user_id":10,"name":"Lordware","steam_id":76561198022011299,"connected_time":758000000000,"state":"active","ping":88},{"user_id":16,"name":":D","steam_id":76561198111215640,"connected_time":93000000000,"state":"active","ping":69},{"user_id":13,"name":"MM Murda OFFICIAL","steam_id":76561198076871529,"connected_time":235000000000,"state":"active","ping":59},{"user_id":14,"name":"Mclovin","steam_id":76561199082620246,"connected_time":227000000000,"state":"active","ping":63}]},{"server_id":308,"name":"Uncletopia | Frankfurt | 3 | All Maps","name_short":"frk-3","host":"frk-1.de.uncletopia.com","port":27035,"enabled":true,"region":"eu","cc":"de","latitude":50.110924,"longitude":8.682127,"reserved":0,"last_update":"0001-01-01T00:00:00Z","name_a2s":"Uncletopia | Frankfurt | 3 | All Maps","protocol":17,"map":"koth_highpass","folder":"tf","game":"Team Fortress","app_id":440,"player_count":0,"max_players":24,"Bots":0,"server_type":"Dedicated","server_os":"Linux","password":true,"vac":true,"version":"7882260","steam_id":85568392924504274,"keywords":["cp","nocrits","nodmgspread","uncletopia"],"game_id":440,"stv_port":27036,"stv_name":"Uncletopia | Frankfurt | 3 | All Maps | STV","players":null},{"server_id":309,"name":"Uncletopia | Frankfurt | 4 | All Maps","name_short":"frk-4","host":"frk-1.de.uncletopia.com","port":27045,"enabled":true,"region":"eu","cc":"de","latitude":50.110924,"longitude":8.682127,"reserved":0,"last_update":"0001-01-01T00:00:00Z","name_a2s":"Uncletopia | Frankfurt | 4 | All Maps","protocol":17,"map":"pl_thundermountain","folder":"tf","game":"Team Fortress","app_id":440,"player_count":24,"max_players":24,"Bots":0,"server_type":"Dedicated","server_os":"Linux","password":true,"vac":true,"version":"7882260","steam_id":85568392924504275,"keywords":["nocrits","nodmgspread","payload","uncletopia"],"game_id":440,"stv_port":27046,"stv_name":"Uncletopia | Frankfurt | 4 | All Maps | STV","players":[{"user_id":217,"name":"Utvar","steam_id":76561198131838460,"connected_time":2936000000000,"state":"active","ping":58},{"user_id":256,"name":"Samplee","steam_id":76561198063406140,"connected_time":1073000000000,"state":"active","ping":75},{"user_id":244,"name":"naleksi","steam_id":76561198018391055,"connected_time":1896000000000,"state":"active","ping":106},{"user_id":253,"name":"typicalcrimson","steam_id":76561198295439747,"connected_time":1256000000000,"state":"active","ping":71},{"user_id":254,"name":"The Mysterious Shadow Man","steam_id":76561198349648942,"connected_time":1241000000000,"state":"active","ping":90},{"user_id":237,"name":"Yuzu","steam_id":76561198121694613,"connected_time":2454000000000,"state":"active","ping":58},{"user_id":257,"name":"Cursed.","steam_id":76561198381491880,"connected_time":884000000000,"state":"active","ping":127},{"user_id":251,"name":"OutOfRage","steam_id":76561198211205791,"connected_time":1426000000000,"state":"active","ping":53},{"user_id":255,"name":"Minimi","steam_id":76561198873850443,"connected_time":1233000000000,"state":"active","ping":57},{"user_id":245,"name":"ana","steam_id":76561197994492154,"connected_time":1753000000000,"state":"active","ping":69},{"user_id":198,"name":"tea girl","steam_id":76561198068054530,"connected_time":4191000000000,"state":"active","ping":79},{"user_id":219,"name":"gegit08","steam_id":76561199040010283,"connected_time":2864000000000,"state":"active","ping":93},{"user_id":222,"name":"SmoothJazz","steam_id":76561198143044358,"connected_time":2840000000000,"state":"active","ping":72},{"user_id":221,"name":"Cupcake","steam_id":76561198017604608,"connected_time":2850000000000,"state":"active","ping":64},{"user_id":181,"name":"glorbus","steam_id":76561198969544894,"connected_time":6027000000000,"state":"active","ping":60},{"user_id":258,"name":"Prole","steam_id":76561198049837199,"connected_time":806000000000,"state":"active","ping":127},{"user_id":179,"name":"night.s","steam_id":76561198326287823,"connected_time":6555000000000,"state":"active","ping":82},{"user_id":209,"name":"1ggy","steam_id":76561199051285912,"connected_time":3941000000000,"state":"active","ping":77},{"user_id":230,"name":"Rambi","steam_id":76561199058078505,"connected_time":2626000000000,"state":"active","ping":151},{"user_id":185,"name":"waluigi","steam_id":76561198215809251,"connected_time":5254000000000,"state":"active","ping":58},{"user_id":240,"name":"Leibeigener","steam_id":76561199275478305,"connected_time":2080000000000,"state":"active","ping":46},{"user_id":227,"name":"Hirokie","steam_id":76561198061849436,"connected_time":2776000000000,"state":"active","ping":70},{"user_id":241,"name":"skill","steam_id":76561198106012909,"connected_time":2032000000000,"state":"active","ping":75},{"user_id":233,"name":"Faxter","steam_id":76561198011771605,"connected_time":2549000000000,"state":"active","ping":68}]},{"server_id":310,"name":"Uncletopia | Frankfurt | 5 | All Maps","name_short":"frk-5","host":"frk-1.de.uncletopia.com","port":27055,"enabled":true,"region":"eu","cc":"de","latitude":50.110924,"longitude":8.682127,"reserved":0,"last_update":"0001-01-01T00:00:00Z","name_a2s":"Uncletopia | Frankfurt | 5 | All Maps","protocol":17,"map":"cp_mountainlab","folder":"tf","game":"Team Fortress","app_id":440,"player_count":0,"max_players":24,"Bots":0,"server_type":"Dedicated","server_os":"Linux","password":true,"vac":true,"version":"7882260","steam_id":85568392924504277,"keywords":["cp","nocrits","nodmgspread","uncletopia"],"game_id":440,"stv_port":27056,"stv_name":"Uncletopia | Frankfurt | 5 | All Maps | STV","players":null},{"server_id":311,"name":"Uncletopia | Frankfurt | 6 | All Maps","name_short":"frk-6","host":"frk-1.de.uncletopia.com","port":27065,"enabled":true,"region":"eu","cc":"de","latitude":50.110924,"longitude":8.682127,"reserved":0,"last_update":"0001-01-01T00:00:00Z","name_a2s":"Uncletopia | Frankfurt | 6 | All Maps","protocol":17,"map":"pl_pier","folder":"tf","game":"Team Fortress","app_id":440,"player_count":24,"max_players":24,"Bots":0,"server_type":"Dedicated","server_os":"Linux","password":true,"vac":true,"version":"7882260","steam_id":85568392924504278,"keywords":["nocrits","nodmgspread","payload","uncletopia"],"game_id":440,"stv_port":27066,"stv_name":"Uncletopia | Frankfurt | 6 | All Maps | STV","players":[{"user_id":289,"name":"Kurage","steam_id":76561198021221288,"connected_time":2385000000000,"state":"active","ping":60},{"user_id":313,"name":"flr","steam_id":76561198249327786,"connected_time":1099000000000,"state":"active","ping":63},{"user_id":322,"name":"Doctor Lalve","steam_id":76561198011897357,"connected_time":521000000000,"state":"active","ping":63},{"user_id":314,"name":"PhantomStriker gyate.net","steam_id":76561199116689935,"connected_time":1091000000000,"state":"active","ping":54},{"user_id":318,"name":"georgeiscool3","steam_id":76561199116151412,"connected_time":847000000000,"state":"active","ping":78},{"user_id":298,"name":"Mr.O #deletesniper","steam_id":76561198039567498,"connected_time":1936000000000,"state":"active","ping":59},{"user_id":321,"name":"CAMON ENGELAND","steam_id":76561198054301125,"connected_time":666000000000,"state":"active","ping":93},{"user_id":292,"name":"bibib17","steam_id":76561198143319217,"connected_time":1986000000000,"state":"active","ping":74},{"user_id":232,"name":"Ketich","steam_id":76561198021772703,"connected_time":6281000000000,"state":"active","ping":71},{"user_id":301,"name":"Zedifo","steam_id":76561198044032070,"connected_time":1882000000000,"state":"active","ping":47},{"user_id":244,"name":"‚ô• Cirno ‚ô•","steam_id":76561198834982738,"connected_time":5975000000000,"state":"active","ping":70},{"user_id":303,"name":"AestheticalZ","steam_id":76561198269554197,"connected_time":1782000000000,"state":"active","ping":78},{"user_id":214,"name":"modavak","steam_id":76561198946290908,"connected_time":8018000000000,"state":"active","ping":90},{"user_id":309,"name":"jge","steam_id":76561198123186387,"connected_time":1607000000000,"state":"active","ping":58},{"user_id":294,"name":"Popop","steam_id":76561198004793795,"connected_time":1974000000000,"state":"active","ping":49},{"user_id":323,"name":"HelwiiHill","steam_id":76561198066730552,"connected_time":91000000000,"state":"active","ping":85},{"user_id":276,"name":"citronous","steam_id":76561198093290934,"connected_time":3659000000000,"state":"active","ping":57},{"user_id":299,"name":"ActualCrafty","steam_id":76561199013115780,"connected_time":1929000000000,"state":"active","ping":61},{"user_id":320,"name":"Adolf Dripler","steam_id":76561199049502102,"connected_time":748000000000,"state":"active","ping":99},{"user_id":311,"name":"Dispenser","steam_id":76561198081051880,"connected_time":1319000000000,"state":"active","ping":44},{"user_id":324,"name":"JeanCorben","steam_id":76561197965133561,"connected_time":8000000000,"state":"spawning","ping":44},{"user_id":219,"name":"idc","steam_id":76561198322087870,"connected_time":7094000000000,"state":"active","ping":103},{"user_id":277,"name":"bunglar","steam_id":76561198027374166,"connected_time":3647000000000,"state":"active","ping":57},{"user_id":305,"name":"Mach","steam_id":76561198952487564,"connected_time":1731000000000,"state":"active","ping":153}]},{"server_id":23,"name":"Uncletopia | Frankfurt | 7 | Stopwatch Beta","name_short":"frk-7","host":"frk-1.de.uncletopia.com","port":27075,"enabled":true,"region":"eu","cc":"de","latitude":50.110924,"longitude":8.682127,"reserved":0,"last_update":"0001-01-01T00:00:00Z","name_a2s":"Uncletopia | Frankfurt | 7 | Stopwatch Beta","protocol":17,"map":"cp_dustbowl","folder":"tf","game":"Team Fortress","app_id":440,"player_count":0,"max_players":24,"Bots":0,"server_type":"Dedicated","server_os":"Linux","password":true,"vac":true,"version":"7882260","steam_id":85568392924742827,"keywords":["cp","nocrits","nodmgspread","uncletopia"],"game_id":440,"stv_port":27076,"stv_name":"Uncletopia | Frankfurt | 7 | Stopwatch Beta | STV","players":null},{"server_id":24,"name":"Uncletopia | Frankfurt | 8 | Community","name_short":"frk-8","host":"frk-1.de.uncletopia.com","port":27085,"enabled":true,"region":"eu","cc":"de","latitude":50.110924,"longitude":8.682127,"reserved":0,"last_update":"0001-01-01T00:00:00Z","name_a2s":"Uncletopia | Frankfurt | 8 | Community","protocol":17,"map":"workshop/koth_product_final.ugc454272353","folder":"tf","game":"Team Fortress","app_id":440,"player_count":24,"max_players":24,"Bots":0,"server_type":"Dedicated","server_os":"Linux","password":true,"vac":true,"version":"7882260","steam_id":85568392924742828,"keywords":["cp","nocrits","nodmgspread","uncletopia"],"game_id":440,"stv_port":27086,"stv_name":"Uncletopia | Frankfurt | 8 | Community | STV","players":[{"user_id":109,"name":"multiflex","steam_id":76561198049639319,"connected_time":17000000000,"state":"active","ping":60},{"user_id":102,"name":"Adib al-asfar","steam_id":76561198095691592,"connected_time":620000000000,"state":"active","ping":59},{"user_id":85,"name":"skai","steam_id":76561198184881255,"connected_time":1586000000000,"state":"active","ping":66},{"user_id":59,"name":"Jonathan","steam_id":76561198087988880,"connected_time":2906000000000,"state":"active","ping":44},{"user_id":107,"name":"Tegnerud","steam_id":76561198214185612,"connected_time":241000000000,"state":"active","ping":74},{"user_id":55,"name":"Watermelon","steam_id":76561198078349914,"connected_time":3293000000000,"state":"active","ping":65},{"user_id":19,"name":"Great recession of 2008","steam_id":76561198881151562,"connected_time":4566000000000,"state":"active","ping":92},{"user_id":60,"name":"Lua","steam_id":76561198107052571,"connected_time":2828000000000,"state":"active","ping":54},{"user_id":71,"name":"Lowy","steam_id":76561198031470048,"connected_time":2524000000000,"state":"active","ping":60},{"user_id":73,"name":"Toaster1337","steam_id":76561198103706881,"connected_time":2334000000000,"state":"active","ping":61},{"user_id":95,"name":"Gearless","steam_id":76561198362367074,"connected_time":941000000000,"state":"active","ping":75},{"user_id":104,"name":"gart","steam_id":76561198203394358,"connected_time":540000000000,"state":"active","ping":99},{"user_id":89,"name":"‚úà","steam_id":76561198296214683,"connected_time":1289000000000,"state":"active","ping":66},{"user_id":26,"name":"RedFog","steam_id":76561198284713081,"connected_time":4502000000000,"state":"active","ping":41},{"user_id":110,"name":"‚ôú","steam_id":76561199062437546,"connected_time":3000000000,"state":"spawning","ping":44},{"user_id":99,"name":"Finn boii","steam_id":76561198037739761,"connected_time":775000000000,"state":"active","ping":108},{"user_id":101,"name":"Bigson","steam_id":76561198114214362,"connected_time":657000000000,"state":"active","ping":70},{"user_id":83,"name":"alseg","steam_id":76561198150284356,"connected_time":1756000000000,"state":"active","ping":67},{"user_id":91,"name":"„Ç§„Éº„Çµ","steam_id":76561199090905153,"connected_time":1022000000000,"state":"active","ping":105},{"user_id":90,"name":"medicinal man","steam_id":76561198202668788,"connected_time":1245000000000,"state":"active","ping":63},{"user_id":105,"name":"Irme","steam_id":76561198161590299,"connected_time":308000000000,"state":"active","ping":73},{"user_id":106,"name":"Dor_atar","steam_id":76561198973980542,"connected_time":276000000000,"state":"active","ping":72},{"user_id":80,"name":"Perci","steam_id":76561198097789669,"connected_time":1901000000000,"state":"active","ping":61},{"user_id":97,"name":"Tywhip","steam_id":76561199207545191,"connected_time":824000000000,"state":"active","ping":58}]},{"server_id":202,"name":"Uncletopia | Hong Kong | 1 | All Maps","name_short":"hgk-1","host":"hgk-1.hk.uncletopia.com","port":27015,"enabled":true,"region":"asia","cc":"hk","latitude":22.302711,"longitude":114.177216,"reserved":0,"last_update":"0001-01-01T00:00:00Z","name_a2s":"Uncletopia | Hong Kong | 1 | All Maps","protocol":17,"map":"cp_altitude","folder":"tf","game":"Team Fortress","app_id":440,"player_count":17,"max_players":24,"Bots":0,"server_type":"Dedicated","server_os":"Linux","password":true,"vac":true,"version":"7882260","steam_id":85568392924494504,"keywords":["cp","nocrits","nodmgspread","uncletopia"],"game_id":440,"stv_port":27016,"stv_name":"Uncletopia | Hong Kong | 1 | All Maps | STV","players":[{"user_id":308,"name":"NoWay","steam_id":76561198223517060,"connected_time":1614000000000,"state":"spawning","ping":247},{"user_id":272,"name":"Stupid B","steam_id":76561198131423270,"connected_time":4374000000000,"state":"active","ping":193},{"user_id":291,"name":"Ïø†ÌÇ§","steam_id":76561197997220367,"connected_time":2926000000000,"state":"active","ping":48},{"user_id":293,"name":"Dolla","steam_id":76561199401233865,"connected_time":2860000000000,"state":"active","ping":63},{"user_id":312,"name":"screamer","steam_id":76561198147950041,"connected_time":646000000000,"state":"spawning","ping":82},{"user_id":305,"name":"@RealWattson22542","steam_id":76561198239125304,"connected_time":2176000000000,"state":"active","ping":98},{"user_id":306,"name":"ÊØç„ÅÆËÇâÂõ£Â≠ê@hao123.com","steam_id":76561198069561896,"connected_time":2155000000000,"state":"spawning","ping":42},{"user_id":313,"name":"Waltuh (CEO of Chicanery)","steam_id":76561199257300024,"connected_time":205000000000,"state":"spawning","ping":111},{"user_id":310,"name":"TheChainsaw","steam_id":76561198312001455,"connected_time":1486000000000,"state":"spawning","ping":97},{"user_id":311,"name":"Banana Milk","steam_id":76561198005156257,"connected_time":672000000000,"state":"active","ping":363},{"user_id":302,"name":"Ipanjuro","steam_id":76561198264862073,"connected_time":2362000000000,"state":"spawning","ping":284},{"user_id":250,"name":"tiden2000","steam_id":76561198092969425,"connected_time":7853000000000,"state":"active","ping":172},{"user_id":234,"name":"P","steam_id":76561198304514505,"connected_time":8497000000000,"state":"spawning","ping":198},{"user_id":269,"name":"Tyxant","steam_id":76561198091066056,"connected_time":6130000000000,"state":"spawning","ping":176},{"user_id":314,"name":"greeny","steam_id":76561198024666371,"connected_time":195000000000,"state":"active","ping":114},{"user_id":300,"name":"Sir. Culation","steam_id":76561198174085434,"connected_time":2513000000000,"state":"active","ping":142},{"user_id":304,"name":"Pillboi","steam_id":76561198011172886,"connected_time":2272000000000,"state":"active","ping":83}]},{"server_id":1,"name":"Uncletopia | Los Angeles | 1 | All Maps","name_short":"lax-1","host":"lax-1.us.uncletopia.com","port":27015,"enabled":true,"region":"us-west","cc":"us","latitude":33.94279,"longitude":-118.41004,"reserved":0,"last_update":"0001-01-01T00:00:00Z","name_a2s":"Uncletopia | Los Angeles | 1 | All Maps","protocol":17,"map":"pl_upward","folder":"tf","game":"Team Fortress","app_id":440,"player_count":24,"max_players":24,"Bots":0,"server_type":"Dedicated","server_os":"Linux","password":true,"vac":true,"version":"7882260","steam_id":85568392924469991,"keywords":["nocrits","nodmgspread","payload","uncletopia"],"game_id":440,"stv_port":27016,"stv_name":"Uncletopia | Los Angeles | 1 | All Maps | STV","players":[{"user_id":68,"name":"page","steam_id":76561198990468269,"connected_time":2839000000000,"state":"active","ping":128},{"user_id":104,"name":"nobody","steam_id":76561198064237058,"connected_time":98000000000,"state":"active","ping":93},{"user_id":94,"name":"Sammich Slinger","steam_id":76561198007644532,"connected_time":486000000000,"state":"active","ping":98},{"user_id":108,"name":"TimelessMP","steam_id":76561198799952265,"connected_time":19000000000,"state":"active","ping":44},{"user_id":98,"name":"Missical","steam_id":76561198261007627,"connected_time":217000000000,"state":"active","ping":95},{"user_id":92,"name":"BoredBunny","steam_id":76561198243610560,"connected_time":532000000000,"state":"active","ping":112},{"user_id":9,"name":"\u003cNULL\u003e","steam_id":76561198079489150,"connected_time":6038000000000,"state":"active","ping":108},{"user_id":10,"name":"AirMan121","steam_id":76561198042951349,"connected_time":6023000000000,"state":"active","ping":62},{"user_id":95,"name":"The Announcer's Feet","steam_id":76561199443456893,"connected_time":482000000000,"state":"active","ping":77},{"user_id":85,"name":"Professionally Braindead „ÉÑ","steam_id":76561198276714220,"connected_time":717000000000,"state":"active","ping":64},{"user_id":86,"name":"Titar Industries","steam_id":76561198143078476,"connected_time":685000000000,"state":"active","ping":122},{"user_id":83,"name":"bing!","steam_id":76561198105374054,"connected_time":779000000000,"state":"active","ping":60},{"user_id":64,"name":"Ecksbox","steam_id":76561198352502577,"connected_time":3237000000000,"state":"active","ping":55},{"user_id":50,"name":"Lieutenant Lazybones","steam_id":76561198317647978,"connected_time":4395000000000,"state":"active","ping":109},{"user_id":78,"name":"Monarch of Glass","steam_id":76561198165638237,"connected_time":2226000000000,"state":"active","ping":60},{"user_id":90,"name":"Tiake","steam_id":76561197997554178,"connected_time":585000000000,"state":"active","ping":54},{"user_id":96,"name":"RocketofPanda(It/They)","steam_id":76561198133133187,"connected_time":479000000000,"state":"active","ping":57},{"user_id":106,"name":"[scumge] sketchie","steam_id":76561198015655864,"connected_time":71000000000,"state":"active","ping":90},{"user_id":65,"name":"SeaBass","steam_id":76561197982949108,"connected_time":3069000000000,"state":"active","ping":100},{"user_id":99,"name":"Biggles","steam_id":76561198126576389,"connected_time":212000000000,"state":"active","ping":95},{"user_id":63,"name":"Eldritch Curio.üëÅ","steam_id":76561198044669027,"connected_time":3298000000000,"state":"active","ping":126},{"user_id":101,"name":"‚ô• PsychicCellar ‚ô•","steam_id":76561198045923020,"connected_time":148000000000,"state":"active","ping":90},{"user_id":102,"name":"GodSlayer57 ||GH||","steam_id":76561198009599496,"connected_time":116000000000,"state":"active","ping":166},{"user_id":107,"name":"Walross_123","steam_id":76561199073532746,"connected_time":62000000000,"state":"active","ping":205}]},{"server_id":112,"name":"Uncletopia | Los Angeles | 2 | All Maps","name_short":"lax-2","host":"lax-1.us.uncletopia.com","port":27025,"enabled":true,"region":"us-west","cc":"us","latitude":33.94279,"longitude":-118.41004,"reserved":0,"last_update":"0001-01-01T00:00:00Z","name_a2s":"Uncletopia | Los Angeles | 2 | All Maps","protocol":17,"map":"koth_lakeside_final","folder":"tf","game":"Team Fortress","app_id":440,"player_count":0,"max_players":24,"Bots":0,"server_type":"Dedicated","server_os":"Linux","password":true,"vac":true,"version":"7882260","steam_id":85568392924469992,"keywords":["cp","nocrits","nodmgspread","uncletopia"],"game_id":440,"stv_port":27026,"stv_name":"Uncletopia | Los Angeles | 2 | All Maps | STV","players":null},{"server_id":324,"name":"Uncletopia | Los Angeles | 3 | All Maps","name_short":"lax-3","host":"lax-1.us.uncletopia.com","port":27035,"enabled":true,"region":"us-west","cc":"us","latitude":33.94279,"longitude":-118.41004,"reserved":0,"last_update":"0001-01-01T00:00:00Z","name_a2s":"Uncletopia | Los Angeles | 3 | All Maps","protocol":17,"map":"cp_sunshine","folder":"tf","game":"Team Fortress","app_id":440,"player_count":0,"max_players":24,"Bots":0,"server_type":"Dedicated","server_os":"Linux","password":true,"vac":true,"version":"7882260","steam_id":85568392924510198,"keywords":["cp","nocrits","nodmgspread","uncletopia"],"game_id":440,"stv_port":27036,"stv_name":"Uncletopia | Los Angeles | 3 | All Maps | STV","players":null},{"server_id":25,"name":"Uncletopia | Los Angeles | 4 | Stopwatch Beta","name_short":"lax-4","host":"lax-1.us.uncletopia.com","port":27045,"enabled":true,"region":"us-west","cc":"us","latitude":33.94279,"longitude":-118.41004,"reserved":0,"last_update":"0001-01-01T00:00:00Z","name_a2s":"Uncletopia | Los Angeles | 4 | Stopwatch Beta","protocol":17,"map":"cp_snakewater_final1","folder":"tf","game":"Team Fortress","app_id":440,"player_count":0,"max_players":24,"Bots":0,"server_type":"Dedicated","server_os":"Linux","password":true,"vac":true,"version":"7882260","steam_id":85568392924510199,"keywords":["cp","nocrits","nodmgspread","uncletopia"],"game_id":440,"stv_port":27046,"stv_name":"Uncletopia | Los Angeles | 4 | Stopwatch Beta | STV","players":null},{"server_id":11,"name":"Uncletopia | London | 1 | All Maps","name_short":"lon-1","host":"lon-1.uk.uncletopia.com","port":27015,"enabled":true,"region":"eu","cc":"gb","latitude":51.509865,"longitude":-0.118092,"reserved":0,"last_update":"0001-01-01T00:00:00Z","name_a2s":"Uncletopia | London | 1 | All Maps","protocol":17,"map":"pl_barnblitz","folder":"tf","game":"Team Fortress","app_id":440,"player_count":24,"max_players":24,"Bots":0,"server_type":"Dedicated","server_os":"Linux","password":true,"vac":true,"version":"7882260","steam_id":85568392924367362,"keywords":["nocrits","nodmgspread","payload","uncletopia"],"game_id":440,"stv_port":27016,"stv_name":"Uncletopia | London | 1 | All Maps | STV","players":[{"user_id":245,"name":"Umbro","steam_id":76561198087930438,"connected_time":59000000000,"state":"active","ping":75},{"user_id":190,"name":"Nifi","steam_id":76561198102682566,"connected_time":5075000000000,"state":"active","ping":74},{"user_id":181,"name":"Sloneczku","steam_id":76561198032886890,"connected_time":6008000000000,"state":"active","ping":87},{"user_id":151,"name":"Jiipeeze","steam_id":76561198316154333,"connected_time":7499000000000,"state":"active","ping":91},{"user_id":236,"name":"killbind irl","steam_id":76561198180637374,"connected_time":1138000000000,"state":"active","ping":94},{"user_id":232,"name":"Sandshee","steam_id":76561198088574666,"connected_time":1680000000000,"state":"active","ping":33},{"user_id":215,"name":"BreadBubbles","steam_id":76561198174332826,"connected_time":3324000000000,"state":"active","ping":54},{"user_id":237,"name":"Jesus Enjoyer","steam_id":76561198840259819,"connected_time":903000000000,"state":"active","ping":57},{"user_id":208,"name":"Gubbly Bubbins","steam_id":76561198101451654,"connected_time":3426000000000,"state":"active","ping":47},{"user_id":198,"name":"After8","steam_id":76561198090750865,"connected_time":4601000000000,"state":"active","ping":61},{"user_id":141,"name":"‚ú™ qua ‚ú™","steam_id":76561198066408333,"connected_time":8981000000000,"state":"active","ping":75},{"user_id":209,"name":"Sammy","steam_id":76561197977379410,"connected_time":3423000000000,"state":"active","ping":87},{"user_id":227,"name":"Mr.Cupcake","steam_id":76561198152711174,"connected_time":2022000000000,"state":"active","ping":76},{"user_id":153,"name":"Mit√§ Sipsej√§?","steam_id":76561197963545568,"connected_time":7490000000000,"state":"active","ping":91},{"user_id":240,"name":"Axel Doer","steam_id":76561198007820274,"connected_time":472000000000,"state":"active","ping":87},{"user_id":246,"name":"CornoRosso","steam_id":76561198095455862,"connected_time":18000000000,"state":"active","ping":78},{"user_id":242,"name":"NLSAM","steam_id":76561199111154916,"connected_time":400000000000,"state":"active","ping":68},{"user_id":223,"name":"BilalRB","steam_id":76561198352262967,"connected_time":2393000000000,"state":"active","ping":153},{"user_id":167,"name":"goff","steam_id":76561198118989010,"connected_time":6872000000000,"state":"active","ping":58},{"user_id":239,"name":"Toples","steam_id":76561198259218982,"connected_time":503000000000,"state":"active","ping":81},{"user_id":220,"name":"sleppykoche milk boy","steam_id":76561199046520128,"connected_time":2935000000000,"state":"active","ping":59},{"user_id":233,"name":"7-Zip","steam_id":76561198099726966,"connected_time":1664000000000,"state":"active","ping":109},{"user_id":244,"name":"STiNGHAN","steam_id":76561198023989090,"connected_time":127000000000,"state":"active","ping":116},{"user_id":235,"name":"Jara.","steam_id":76561197992207165,"connected_time":1425000000000,"state":"active","ping":101}]},{"server_id":114,"name":"Uncletopia | London | 2 | All Maps","name_short":"lon-2","host":"lon-1.uk.uncletopia.com","port":27025,"enabled":true,"region":"eu","cc":"gb","latitude":51.509865,"longitude":-0.118092,"reserved":0,"last_update":"0001-01-01T00:00:00Z","name_a2s":"Uncletopia | London | 2 | All Maps","protocol":17,"map":"koth_viaduct","folder":"tf","game":"Team Fortress","app_id":440,"player_count":1,"max_players":24,"Bots":0,"server_type":"Dedicated","server_os":"Linux","password":true,"vac":true,"version":"7882260","steam_id":85568392924470941,"keywords":["cp","nocrits","nodmgspread","uncletopia"],"game_id":440,"stv_port":27026,"stv_name":"Uncletopia | London | 2 | All Maps | STV","players":[{"user_id":13,"name":"Tx_madmash","steam_id":76561198924656512,"connected_time":324000000000,"state":"active","ping":71}]},{"server_id":320,"name":"Uncletopia | London | 3 | All Maps","name_short":"lon-3","host":"lon-1.uk.uncletopia.com","port":27035,"enabled":true,"region":"eu","cc":"gb","latitude":51.509865,"longitude":-0.118092,"reserved":0,"last_update":"0001-01-01T00:00:00Z","name_a2s":"Uncletopia | London | 3 | All Maps","protocol":17,"map":"koth_highpass","folder":"tf","game":"Team Fortress","app_id":440,"player_count":0,"max_players":24,"Bots":0,"server_type":"Dedicated","server_os":"Linux","password":true,"vac":true,"version":"7882260","steam_id":85568392924510192,"keywords":["cp","nocrits","nodmgspread","uncletopia"],"game_id":440,"stv_port":27036,"stv_name":"Uncletopia | London | 3 | All Maps | STV","players":null},{"server_id":321,"name":"Uncletopia | London | 4 | All Maps","name_short":"lon-4","host":"lon-1.uk.uncletopia.com","port":27045,"enabled":true,"region":"eu","cc":"gb","latitude":51.509865,"longitude":-0.118092,"reserved":0,"last_update":"0001-01-01T00:00:00Z","name_a2s":"Uncletopia | London | 4 | All Maps","protocol":17,"map":"pl_swiftwater_final1","folder":"tf","game":"Team Fortress","app_id":440,"player_count":24,"max_players":24,"Bots":0,"server_type":"Dedicated","server_os":"Linux","password":true,"vac":true,"version":"7882260","steam_id":85568392924510193,"keywords":["nocrits","nodmgspread","payload","uncletopia"],"game_id":440,"stv_port":27046,"stv_name":"Uncletopia | London | 4 | All Maps | STV","players":[{"user_id":456,"name":"Lord z P√°rnie","steam_id":76561198070815677,"connected_time":2308000000000,"state":"active","ping":71},{"user_id":475,"name":"Chillrend | #SaveTF2","steam_id":76561198452963141,"connected_time":1377000000000,"state":"active","ping":89},{"user_id":458,"name":"SKFBoge","steam_id":76561198269038278,"connected_time":2245000000000,"state":"active","ping":80},{"user_id":482,"name":"Camo Leaf","steam_id":76561197999456575,"connected_time":458000000000,"state":"active","ping":45},{"user_id":486,"name":"Cypher","steam_id":76561197996967254,"connected_time":252000000000,"state":"active","ping":63},{"user_id":472,"name":"Sex Man TF2","steam_id":76561198798657045,"connected_time":1581000000000,"state":"active","ping":74},{"user_id":453,"name":"Dolcelatte","steam_id":76561198038501770,"connected_time":2350000000000,"state":"active","ping":60},{"user_id":485,"name":"stoppen","steam_id":76561197960281482,"connected_time":257000000000,"state":"active","ping":72},{"user_id":443,"name":"adapadataga","steam_id":76561199407941086,"connected_time":3008000000000,"state":"active","ping":74},{"user_id":481,"name":"Cillian","steam_id":76561199046965320,"connected_time":662000000000,"state":"active","ping":69},{"user_id":454,"name":"bowchika wowa #SlavaUkraine","steam_id":76561198159564550,"connected_time":2341000000000,"state":"active","ping":70},{"user_id":480,"name":"generic alias","steam_id":76561198271607226,"connected_time":740000000000,"state":"active","ping":87},{"user_id":434,"name":"Zerfesh","steam_id":76561198117534358,"connected_time":3610000000000,"state":"active","ping":106},{"user_id":442,"name":"Princess Fuzz","steam_id":76561198025783000,"connected_time":3033000000000,"state":"active","ping":36},{"user_id":488,"name":"Senior","steam_id":76561198065014164,"connected_time":196000000000,"state":"active","ping":47},{"user_id":483,"name":"wibe","steam_id":76561198002519060,"connected_time":301000000000,"state":"active","ping":82},{"user_id":467,"name":"Battlemedic27","steam_id":76561198121818007,"connected_time":1773000000000,"state":"active","ping":173},{"user_id":479,"name":"53512512412123121","steam_id":76561199234688598,"connected_time":845000000000,"state":"active","ping":74},{"user_id":385,"name":"Breizbuc","steam_id":76561198118220633,"connected_time":7601000000000,"state":"active","ping":86},{"user_id":439,"name":"LemonLeCitron","steam_id":76561198215545267,"connected_time":3414000000000,"state":"active","ping":68},{"user_id":447,"name":"clunk","steam_id":76561198836460767,"connected_time":2738000000000,"state":"active","ping":73},{"user_id":468,"name":"peruna","steam_id":76561198000721196,"connected_time":1747000000000,"state":"active","ping":74},{"user_id":457,"name":"jill valentine","steam_id":76561198075068529,"connected_time":2303000000000,"state":"active","ping":65},{"user_id":470,"name":"Elix","steam_id":76561199072306920,"connected_time":1625000000000,"state":"active","ping":99}]},{"server_id":21,"name":"Uncletopia | London | 5 | All Maps","name_short":"lon-5","host":"lon-1.uk.uncletopia.com","port":27055,"enabled":true,"region":"eu","cc":"gb","latitude":51.509865,"longitude":-0.118092,"reserved":0,"last_update":"0001-01-01T00:00:00Z","name_a2s":"Uncletopia | London | 5 | All Maps","protocol":17,"map":"koth_lakeside_final","folder":"tf","game":"Team Fortress","app_id":440,"player_count":0,"max_players":24,"Bots":0,"server_type":"Dedicated","server_os":"Linux","password":true,"vac":true,"version":"7882260","steam_id":85568392924742829,"keywords":["cp","nocrits","nodmgspread","uncletopia"],"game_id":440,"stv_port":27056,"stv_name":"Uncletopia | London | 5 | All Maps | STV","players":null},{"server_id":22,"name":"Uncletopia | London | 6 | All Maps","name_short":"lon-6","host":"lon-1.uk.uncletopia.com","port":27065,"enabled":true,"region":"eu","cc":"gb","latitude":51.509865,"longitude":-0.118092,"reserved":0,"last_update":"0001-01-01T00:00:00Z","name_a2s":"Uncletopia | London | 6 | All Maps","protocol":17,"map":"koth_viaduct","folder":"tf","game":"Team Fortress","app_id":440,"player_count":24,"max_players":24,"Bots":0,"server_type":"Dedicated","server_os":"Linux","password":true,"vac":true,"version":"7882260","steam_id":85568392924742830,"keywords":["cp","nocrits","nodmgspread","uncletopia"],"game_id":440,"stv_port":27066,"stv_name":"Uncletopia | London | 6 | All Maps | STV","players":[{"user_id":4,"name":"I-I","steam_id":76561198267969436,"connected_time":2166000000000,"state":"active","ping":66},{"user_id":5,"name":"EGirl | Klarra","steam_id":76561198077745407,"connected_time":2025000000000,"state":"active","ping":63},{"user_id":6,"name":"Obvi","steam_id":76561198088735927,"connected_time":2012000000000,"state":"active","ping":63},{"user_id":50,"name":"mt","steam_id":76561197961319303,"connected_time":435000000000,"state":"active","ping":56},{"user_id":32,"name":"Creamy","steam_id":76561198063907478,"connected_time":813000000000,"state":"active","ping":55},{"user_id":9,"name":"K.V. #RemoveRandomCrits","steam_id":76561197994832993,"connected_time":1626000000000,"state":"active","ping":85},{"user_id":51,"name":"schmick h_stt 0","steam_id":76561198039537958,"connected_time":402000000000,"state":"active","ping":45},{"user_id":52,"name":"avewszystkim","steam_id":76561199382492530,"connected_time":401000000000,"state":"active","ping":73},{"user_id":34,"name":"Caliban","steam_id":76561197999696839,"connected_time":786000000000,"state":"active","ping":124},{"user_id":25,"name":"Cotton Eye Joe","steam_id":76561198080594207,"connected_time":957000000000,"state":"active","ping":55},{"user_id":17,"name":"Milk","steam_id":76561198125876588,"connected_time":1100000000000,"state":"active","ping":44},{"user_id":19,"name":"Jeerven","steam_id":76561198259189841,"connected_time":1087000000000,"state":"active","ping":72},{"user_id":58,"name":"Bajas","steam_id":76561198179339326,"connected_time":227000000000,"state":"active","ping":75},{"user_id":28,"name":"Louis Armstrong Gaming","steam_id":76561199142022395,"connected_time":870000000000,"state":"active","ping":77},{"user_id":22,"name":"NonoMan","steam_id":76561199108216979,"connected_time":1032000000000,"state":"active","ping":63},{"user_id":35,"name":"robsan","steam_id":76561198137375391,"connected_time":772000000000,"state":"active","ping":87},{"user_id":42,"name":"British Navy","steam_id":76561199002739926,"connected_time":664000000000,"state":"active","ping":65},{"user_id":60,"name":"calum92","steam_id":76561197992188760,"connected_time":89000000000,"state":"active","ping":65},{"user_id":55,"name":"twitch.tv/Siigull","steam_id":76561198133341026,"connected_time":324000000000,"state":"active","ping":80},{"user_id":61,"name":"*ameno","steam_id":76561198155151372,"connected_time":87000000000,"state":"spawning","ping":65},{"user_id":57,"name":"metamikko","steam_id":76561198324704234,"connected_time":270000000000,"state":"active","ping":105},{"user_id":40,"name":"jakob-hejn","steam_id":76561198134513477,"connected_time":683000000000,"state":"active","ping":58},{"user_id":43,"name":"dog","steam_id":76561198063919822,"connected_time":661000000000,"state":"active","ping":35},{"user_id":62,"name":"Mal","steam_id":76561198262337669,"connected_time":80000000000,"state":"active","ping":67}]},{"server_id":40,"name":"Uncletopia | London | 7 | No Payload","name_short":"lon-7","host":"lon-1.uk.uncletopia.com","port":27075,"enabled":true,"region":"eu","cc":"gb","latitude":51.509865,"longitude":-0.118092,"reserved":0,"last_update":"0001-01-01T00:00:00Z","name_a2s":"Uncletopia | London | 7 | No Payload","protocol":17,"map":"ctf_doublecross","folder":"tf","game":"Team Fortress","app_id":440,"player_count":23,"max_players":24,"Bots":0,"server_type":"Dedicated","server_os":"Linux","password":true,"vac":true,"version":"7882260","steam_id":85568392924964314,"keywords":["ctf","nocrits","nodmgspread","uncletopia"],"game_id":440,"stv_port":27076,"stv_name":"Uncletopia | London | 7 | No Payload | STV","players":[{"user_id":119,"name":"Doohickey mechanic","steam_id":76561198146180114,"connected_time":917000000000,"state":"active","ping":94},{"user_id":114,"name":"Jackie Chan","steam_id":76561199378865926,"connected_time":1171000000000,"state":"active","ping":93},{"user_id":106,"name":"Gommemode trolololol üê≥","steam_id":76561198814793804,"connected_time":1437000000000,"state":"active","ping":73},{"user_id":126,"name":"The.Real.Genesis","steam_id":76561198999652040,"connected_time":529000000000,"state":"active","ping":45},{"user_id":127,"name":"Ratatatatatatouille","steam_id":76561198182267098,"connected_time":224000000000,"state":"active","ping":92},{"user_id":12,"name":"MILKY","steam_id":76561199261620682,"connected_time":7729000000000,"state":"active","ping":59},{"user_id":109,"name":"Mr. Mundy","steam_id":76561198132008918,"connected_time":1284000000000,"state":"active","ping":86},{"user_id":76,"name":"Chen","steam_id":76561198440363619,"connected_time":3492000000000,"state":"active","ping":57},{"user_id":99,"name":"Not Clickbait (Real)","steam_id":76561198951275407,"connected_time":2290000000000,"state":"active","ping":85},{"user_id":121,"name":"cream gravy","steam_id":76561198973069177,"connected_time":856000000000,"state":"active","ping":59},{"user_id":56,"name":"Floris Kakadoris","steam_id":76561198258458741,"connected_time":4915000000000,"state":"active","ping":59},{"user_id":115,"name":"Clitorina","steam_id":76561198077570815,"connected_time":1162000000000,"state":"active","ping":40},{"user_id":124,"name":"MR.SEX","steam_id":76561198797631281,"connected_time":675000000000,"state":"active","ping":135},{"user_id":93,"name":"Cosmetic brain","steam_id":76561198055936410,"connected_time":2582000000000,"state":"active","ping":84},{"user_id":88,"name":"Monkey D. Letethis","steam_id":76561198243275046,"connected_time":2878000000000,"state":"active","ping":51},{"user_id":113,"name":"fence_","steam_id":76561198150386379,"connected_time":1202000000000,"state":"active","ping":47},{"user_id":92,"name":"Der Herr Doktor","steam_id":76561198119476089,"connected_time":2702000000000,"state":"active","ping":62},{"user_id":87,"name":"ÍßÅ‡πñ‰π°√êe¬∑SexyLion‰π°ÍßÇ","steam_id":76561198123539320,"connected_time":2911000000000,"state":"active","ping":98},{"user_id":110,"name":"Flying skyhigh","steam_id":76561198372971096,"connected_time":1241000000000,"state":"active","ping":67},{"user_id":94,"name":"Z3TOT","steam_id":76561199053507787,"connected_time":2527000000000,"state":"active","ping":101},{"user_id":123,"name":"Mr. Luigi","steam_id":76561198167312951,"connected_time":790000000000,"state":"active","ping":35},{"user_id":60,"name":"êÇÉ","steam_id":76561198874987906,"connected_time":4676000000000,"state":"active","ping":81}]},{"server_id":41,"name":"Uncletopia | London | 8 | Community","name_short":"lon-8","host":"lon-1.uk.uncletopia.com","port":27085,"enabled":true,"region":"eu","cc":"gb","latitude":51.509865,"longitude":-0.118092,"reserved":0,"last_update":"0001-01-01T00:00:00Z","name_a2s":"Uncletopia | London | 8 | Community","protocol":17,"map":"workshop/koth_ramjam_rc1.ugc459778887","folder":"tf","game":"Team Fortress","app_id":440,"player_count":0,"max_players":24,"Bots":0,"server_type":"Dedicated","server_os":"Linux","password":true,"vac":true,"version":"7882260","steam_id":85568392924964315,"keywords":["cp","nocrits","nodmgspread","uncletopia"],"game_id":440,"stv_port":27086,"stv_name":"Uncletopia | London | 8 | Community | STV","players":null},{"server_id":300,"name":"Uncletopia | Montr√©al | 1 | All Maps","name_short":"mtl-1","host":"mtl-1.ca.uncletopia.com","port":27015,"enabled":true,"region":"us-east","cc":"ca","latitude":45.50889,"longitude":-73.56167,"reserved":0,"last_update":"0001-01-01T00:00:00Z","name_a2s":"Uncletopia | Montr√©al | 1 | All Maps","protocol":17,"map":"pl_snowycoast","folder":"tf","game":"Team Fortress","app_id":440,"player_count":0,"max_players":24,"Bots":0,"server_type":"Dedicated","server_os":"Linux","password":true,"vac":true,"version":"7882260","steam_id":85568392924500087,"keywords":["nocrits","nodmgspread","payload","uncletopia"],"game_id":440,"stv_port":27016,"stv_name":"Uncletopia | Montr√©al | 1 | All Maps | STV","players":null},{"server_id":301,"name":"Uncletopia | Montr√©al | 2 | All Maps","name_short":"mtl-2","host":"mtl-1.ca.uncletopia.com","port":27025,"enabled":true,"region":"us-east","cc":"ca","latitude":45.50889,"longitude":-73.56167,"reserved":0,"last_update":"0001-01-01T00:00:00Z","name_a2s":"Uncletopia | Montr√©al | 2 | All Maps","protocol":17,"map":"cp_sunshine","folder":"tf","game":"Team Fortress","app_id":440,"player_count":0,"max_players":24,"Bots":0,"server_type":"Dedicated","server_os":"Linux","password":true,"vac":true,"version":"7882260","steam_id":85568392924500088,"keywords":["cp","nocrits","nodmgspread","uncletopia"],"game_id":440,"stv_port":27026,"stv_name":"Uncletopia | Montr√©al | 2 | All Maps | STV","players":null},{"server_id":302,"name":"Uncletopia | Montr√©al | 3 | All Maps","name_short":"mtl-3","host":"mtl-1.ca.uncletopia.com","port":27035,"enabled":true,"region":"us-east","cc":"ca","latitude":45.50889,"longitude":-73.56167,"reserved":0,"last_update":"0001-01-01T00:00:00Z","name_a2s":"Uncletopia | Montr√©al | 3 | All Maps","protocol":17,"map":"cp_altitude","folder":"tf","game":"Team Fortress","app_id":440,"player_count":0,"max_players":24,"Bots":0,"server_type":"Dedicated","server_os":"Linux","password":true,"vac":true,"version":"7882260","steam_id":85568392924500089,"keywords":["cp","nocrits","nodmgspread","uncletopia"],"game_id":440,"stv_port":27036,"stv_name":"Uncletopia | Montr√©al | 3 | All Maps | STV","players":null},{"server_id":303,"name":"Uncletopia | Montr√©al | 4 | No Payload","name_short":"mtl-4","host":"mtl-1.ca.uncletopia.com","port":27045,"enabled":true,"region":"us-east","cc":"ca","latitude":45.50889,"longitude":-73.56167,"reserved":0,"last_update":"0001-01-01T00:00:00Z","name_a2s":"Uncletopia | Montr√©al | 4 | No Payload","protocol":17,"map":"cp_altitude","folder":"tf","game":"Team Fortress","app_id":440,"player_count":0,"max_players":24,"Bots":0,"server_type":"Dedicated","server_os":"Linux","password":true,"vac":true,"version":"7882260","steam_id":85568392924500090,"keywords":["cp","nocrits","nodmgspread","uncletopia"],"game_id":440,"stv_port":27046,"stv_name":"Uncletopia | Montr√©al | 4 | No Payload | STV","players":null},{"server_id":13,"name":"Uncletopia | New York City | 1 | All Maps","name_short":"nyc-1","host":"nyc-1.us.uncletopia.com","port":27015,"enabled":true,"region":"us-east","cc":"us","latitude":40.73061,"longitude":-73.93524,"reserved":0,"last_update":"0001-01-01T00:00:00Z","name_a2s":"Uncletopia | New York City | 1 | All Maps","protocol":17,"map":"pl_badwater","folder":"tf","game":"Team Fortress","app_id":440,"player_count":0,"max_players":24,"Bots":0,"server_type":"Dedicated","server_os":"Linux","password":true,"vac":true,"version":"7882260","steam_id":85568392924469993,"keywords":["nocrits","nodmgspread","payload","uncletopia"],"game_id":440,"stv_port":27016,"stv_name":"Uncletopia | New York City | 1 | All Maps | STV","players":null},{"server_id":14,"name":"Uncletopia | New York City | 2 | All Maps","name_short":"nyc-2","host":"nyc-1.us.uncletopia.com","port":27025,"enabled":true,"region":"us-east","cc":"us","latitude":40.73061,"longitude":-73.93524,"reserved":0,"last_update":"0001-01-01T00:00:00Z","name_a2s":"Uncletopia | New York City | 2 | All Maps","protocol":17,"map":"cp_altitude","folder":"tf","game":"Team Fortress","app_id":440,"player_count":0,"max_players":24,"Bots":0,"server_type":"Dedicated","server_os":"Linux","password":true,"vac":true,"version":"7882260","steam_id":85568392924469994,"keywords":["cp","nocrits","nodmgspread","uncletopia"],"game_id":440,"stv_port":27026,"stv_name":"Uncletopia | New York City | 2 | All Maps | STV","players":null},{"server_id":15,"name":"Uncletopia | New York City | 3 | Stopwatch Beta","name_short":"nyc-3","host":"nyc-1.us.uncletopia.com","port":27035,"enabled":true,"region":"us-east","cc":"us","latitude":40.73061,"longitude":-73.93524,"reserved":0,"last_update":"0001-01-01T00:00:00Z","name_a2s":"Uncletopia | New York City | 3 | Stopwatch Beta","protocol":17,"map":"koth_lakeside_final","folder":"tf","game":"Team Fortress","app_id":440,"player_count":0,"max_players":24,"Bots":0,"server_type":"Dedicated","server_os":"Linux","password":true,"vac":true,"version":"7882260","steam_id":85568392924742820,"keywords":["cp","nocrits","nodmgspread","uncletopia"],"game_id":440,"stv_port":27036,"stv_name":"Uncletopia | New York City | 3 | Stopwatch Beta | STV","players":null},{"server_id":16,"name":"Uncletopia | New York City | 4 | Community","name_short":"nyc-4","host":"nyc-1.us.uncletopia.com","port":27045,"enabled":true,"region":"us-east","cc":"us","latitude":40.73061,"longitude":-73.93524,"reserved":0,"last_update":"0001-01-01T00:00:00Z","name_a2s":"Uncletopia | New York City | 4 | Community","protocol":17,"map":"pl_badwater","folder":"tf","game":"Team Fortress","app_id":440,"player_count":0,"max_players":24,"Bots":0,"server_type":"Dedicated","server_os":"Linux","password":true,"vac":true,"version":"7882260","steam_id":85568392924742821,"keywords":["nocrits","nodmgspread","payload","uncletopia"],"game_id":440,"stv_port":27046,"stv_name":"Uncletopia | New York City | 4 | Community | STV","players":null},{"server_id":142,"name":"Uncletopia | S√£o Paulo | 1 | All Maps","name_short":"sao-1","host":"sao-1.br.uncletopia.com","port":27015,"enabled":true,"region":"sa","cc":"br","latitude":-23.533773,"longitude":-46.62529,"reserved":0,"last_update":"0001-01-01T00:00:00Z","name_a2s":"Uncletopia | S√£o Paulo | 1 | All Maps","protocol":17,"map":"cp_process_final","folder":"tf","game":"Team Fortress","app_id":440,"player_count":0,"max_players":24,"Bots":0,"server_type":"Dedicated","server_os":"Linux","password":true,"vac":true,"version":"7882260","steam_id":85568392924469996,"keywords":["cp","nocrits","nodmgspread","uncletopia"],"game_id":440,"stv_port":27016,"stv_name":"Uncletopia | S√£o Paulo | 1 | All Maps | STV","players":null},{"server_id":143,"name":"Uncletopia | S√£o Paulo | 2 | All Maps","name_short":"sao-2","host":"sao-2.br.uncletopia.com","port":27015,"enabled":true,"region":"sa","cc":"br","latitude":-23.533773,"longitude":-46.62529,"reserved":0,"last_update":"0001-01-01T00:00:00Z","name_a2s":"Uncletopia | S√£o Paulo | 2 | All Maps","protocol":17,"map":"koth_viaduct","folder":"tf","game":"Team Fortress","app_id":440,"player_count":0,"max_players":24,"Bots":0,"server_type":"Dedicated","server_os":"Linux","password":true,"vac":true,"version":"7882260","steam_id":85568392924485349,"keywords":["cp","nocrits","nodmgspread","uncletopia"],"game_id":440,"stv_port":27016,"stv_name":"Uncletopia | S√£o Paulo | 2 | All Maps | STV","players":null},{"server_id":7,"name":"Uncletopia | Seattle | 1 | All Maps","name_short":"sea-1","host":"sea-1.us.uncletopia.com","port":27015,"enabled":true,"region":"us-west","cc":"us","latitude":47.608013,"longitude":-122.33517,"reserved":0,"last_update":"0001-01-01T00:00:00Z","name_a2s":"Uncletopia | Seattle | 1 | All Maps","protocol":17,"map":"koth_viaduct","folder":"tf","game":"Team Fortress","app_id":440,"player_count":0,"max_players":24,"Bots":0,"server_type":"Dedicated","server_os":"Linux","password":true,"vac":true,"version":"7882260","steam_id":85568392924469997,"keywords":["cp","nocrits","nodmgspread","uncletopia"],"game_id":440,"stv_port":27016,"stv_name":"Uncletopia | Seattle | 1 | All Maps | STV","players":null},{"server_id":119,"name":"Uncletopia | Seattle | 2 | All Maps","name_short":"sea-2","host":"sea-1.us.uncletopia.com","port":27025,"enabled":true,"region":"us-west","cc":"us","latitude":47.608013,"longitude":-122.33517,"reserved":0,"last_update":"0001-01-01T00:00:00Z","name_a2s":"Uncletopia | Seattle | 2 | All Maps","protocol":17,"map":"koth_highpass","folder":"tf","game":"Team Fortress","app_id":440,"player_count":0,"max_players":24,"Bots":0,"server_type":"Dedicated","server_os":"Linux","password":true,"vac":true,"version":"7882260","steam_id":85568392924469998,"keywords":["cp","nocrits","nodmgspread","uncletopia"],"game_id":440,"stv_port":27026,"stv_name":"Uncletopia | Seattle | 2 | All Maps | STV","players":null},{"server_id":406,"name":"Uncletopia | Seattle | 3 | Stopwatch Beta","name_short":"sea-3","host":"sea-1.us.uncletopia.com","port":27035,"enabled":true,"region":"us-west","cc":"us","latitude":47.608013,"longitude":-122.33517,"reserved":0,"last_update":"0001-01-01T00:00:00Z","name_a2s":"Uncletopia | Seattle | 3 | Stopwatch Beta","protocol":17,"map":"cp_mountainlab","folder":"tf","game":"Team Fortress","app_id":440,"player_count":0,"max_players":24,"Bots":0,"server_type":"Dedicated","server_os":"Linux","password":true,"vac":true,"version":"7882260","steam_id":85568392924515217,"keywords":["cp","nocrits","nodmgspread","uncletopia"],"game_id":440,"stv_port":27036,"stv_name":"Uncletopia | Seattle | 3 | Stopwatch Beta | STV","players":null},{"server_id":17,"name":"Uncletopia | San Francisco | 1 | All Maps","name_short":"sfo-1","host":"sfo-1.us.uncletopia.com","port":27015,"enabled":true,"region":"us-west","cc":"us","latitude":37.77397,"longitude":-122.4313,"reserved":0,"last_update":"0001-01-01T00:00:00Z","name_a2s":"Uncletopia | San Francisco | 1 | All Maps","protocol":17,"map":"cp_process_final","folder":"tf","game":"Team Fortress","app_id":440,"player_count":0,"max_players":24,"Bots":0,"server_type":"Dedicated","server_os":"Linux","password":true,"vac":true,"version":"7757534","steam_id":85568392924469999,"keywords":["cp","nocrits","nodmgspread","uncletopia"],"game_id":440,"stv_port":27016,"stv_name":"Uncletopia | San Francisco | 1 | All Maps | STV","players":null},{"server_id":18,"name":"Uncletopia | San Francisco | 2 | All Maps","name_short":"sfo-2","host":"sfo-1.us.uncletopia.com","port":27025,"enabled":true,"region":"us-west","cc":"us","latitude":37.77397,"longitude":-122.4313,"reserved":0,"last_update":"0001-01-01T00:00:00Z","name_a2s":"Uncletopia | San Francisco | 2 | All Maps","protocol":17,"map":"koth_highpass","folder":"tf","game":"Team Fortress","app_id":440,"player_count":0,"max_players":24,"Bots":0,"server_type":"Dedicated","server_os":"Linux","password":true,"vac":true,"version":"7757534","steam_id":85568392924470000,"keywords":["cp","nocrits","nodmgspread","uncletopia"],"game_id":440,"stv_port":27026,"stv_name":"Uncletopia | San Francisco | 2 | All Maps | STV","players":null},{"server_id":19,"name":"Uncletopia | San Francisco | 3 | Stopwatch Beta","name_short":"sfo-3","host":"sfo-1.us.uncletopia.com","port":27035,"enabled":true,"region":"us-west","cc":"us","latitude":37.77397,"longitude":-122.4313,"reserved":0,"last_update":"0001-01-01T00:00:00Z","name_a2s":"Uncletopia | San Francisco | 3 | Stopwatch Beta","protocol":17,"map":"koth_lakeside_final","folder":"tf","game":"Team Fortress","app_id":440,"player_count":0,"max_players":24,"Bots":0,"server_type":"Dedicated","server_os":"Linux","password":true,"vac":true,"version":"7757534","steam_id":85568392924742824,"keywords":["cp","nocrits","nodmgspread","uncletopia"],"game_id":440,"stv_port":27036,"stv_name":"Uncletopia | San Francisco | 3 | Stopwatch Beta | STV","players":null},{"server_id":20,"name":"Uncletopia | San Francisco | 4 | Community","name_short":"sfo-4","host":"sfo-1.us.uncletopia.com","port":27045,"enabled":true,"region":"us-west","cc":"us","latitude":37.77397,"longitude":-122.4313,"reserved":0,"last_update":"0001-01-01T00:00:00Z","name_a2s":"Uncletopia | San Francisco | 4 | Community","protocol":17,"map":"cp_altitude","folder":"tf","game":"Team Fortress","app_id":440,"player_count":0,"max_players":24,"Bots":0,"server_type":"Dedicated","server_os":"Linux","password":true,"vac":true,"version":"7757534","steam_id":85568392924742826,"keywords":["cp","nocrits","nodmgspread","uncletopia"],"game_id":440,"stv_port":27046,"stv_name":"Uncletopia | San Francisco | 4 | Community | STV","players":null},{"server_id":141,"name":"Uncletopia | Sydney | 1 | All Maps","name_short":"syd-1","host":"syd-1.au.uncletopia.com","port":27015,"enabled":true,"region":"au","cc":"au","latitude":-33.865143,"longitude":151.2099,"reserved":0,"last_update":"0001-01-01T00:00:00Z","name_a2s":"Uncletopia | Sydney | 1 | All Maps","protocol":17,"map":"koth_highpass","folder":"tf","game":"Team Fortress","app_id":440,"player_count":5,"max_players":24,"Bots":0,"server_type":"Dedicated","server_os":"Linux","password":true,"vac":true,"version":"7882260","steam_id":85568392924470001,"keywords":["cp","nocrits","nodmgspread","uncletopia"],"game_id":440,"stv_port":27016,"stv_name":"Uncletopia | Sydney | 1 | All Maps | STV","players":[{"user_id":651,"name":"zipywipy","steam_id":76561198066082323,"connected_time":917000000000,"state":"active","ping":56},{"user_id":636,"name":"AzureFox","steam_id":76561198108179408,"connected_time":4147000000000,"state":"active","ping":91},{"user_id":652,"name":"Blazey ‰ºäÈÅî ÊîøÂÆó","steam_id":76561197971082275,"connected_time":888000000000,"state":"active","ping":107},{"user_id":638,"name":"Johnny 2 pipes","steam_id":76561198971245592,"connected_time":3899000000000,"state":"active","ping":62},{"user_id":642,"name":"shitsquirter64","steam_id":76561198353828071,"connected_time":2420000000000,"state":"active","ping":59}]},{"server_id":123,"name":"Uncletopia | Sydney | 2 | All Maps","name_short":"syd-2","host":"syd-1.au.uncletopia.com","port":27025,"enabled":true,"region":"au","cc":"au","latitude":-33.865143,"longitude":151.2099,"reserved":0,"last_update":"0001-01-01T00:00:00Z","name_a2s":"Uncletopia | Sydney | 2 | All Maps","protocol":17,"map":"pl_badwater","folder":"tf","game":"Team Fortress","app_id":440,"player_count":0,"max_players":24,"Bots":0,"server_type":"Dedicated","server_os":"Linux","password":true,"vac":true,"version":"7882260","steam_id":85568392924470002,"keywords":["nocrits","nodmgspread","payload","uncletopia"],"game_id":440,"stv_port":27026,"stv_name":"Uncletopia | Sydney | 2 | All Maps | STV","players":null},{"server_id":395,"name":"Uncletopia | Sydney | 3 | All Maps","name_short":"syd-3","host":"syd-1.au.uncletopia.com","port":27035,"enabled":true,"region":"au","cc":"au","latitude":-33.865143,"longitude":151.2099,"reserved":0,"last_update":"0001-01-01T00:00:00Z","name_a2s":"Uncletopia | Sydney | 3 | All Maps","protocol":17,"map":"koth_viaduct","folder":"tf","game":"Team Fortress","app_id":440,"player_count":0,"max_players":24,"Bots":0,"server_type":"Dedicated","server_os":"Linux","password":true,"vac":true,"version":"7882260","steam_id":85568392925194467,"keywords":["cp","nocrits","nodmgspread","uncletopia"],"game_id":440,"stv_port":27036,"stv_name":"Uncletopia | Sydney | 3 | All Maps | STV","players":null},{"server_id":396,"name":"Uncletopia | Sydney | 4 | All Maps","name_short":"syd-4","host":"syd-1.au.uncletopia.com","port":27045,"enabled":true,"region":"au","cc":"au","latitude":-33.865143,"longitude":151.2099,"reserved":0,"last_update":"0001-01-01T00:00:00Z","name_a2s":"Uncletopia | Sydney | 4 | All Maps","protocol":17,"map":"koth_lakeside_final","folder":"tf","game":"Team Fortress","app_id":440,"player_count":0,"max_players":24,"Bots":0,"server_type":"Dedicated","server_os":"Linux","password":true,"vac":true,"version":"7882260","steam_id":85568392925397958,"keywords":["cp","nocrits","nodmgspread","uncletopia"],"game_id":440,"stv_port":27046,"stv_name":"Uncletopia | Sydney | 4 | All Maps | STV","players":null},{"server_id":58,"name":"Uncletopia | Sydney | 5 | Stopwatch Beta","name_short":"syd-5","host":"syd-1.au.uncletopia.com","port":27055,"enabled":true,"region":"au","cc":"au","latitude":-33.865143,"longitude":151.2099,"reserved":0,"last_update":"0001-01-01T00:00:00Z","name_a2s":"Uncletopia | Sydney | 5 | Stopwatch Beta","protocol":17,"map":"workshop/pl_vigil_rc9.ugc1266210012","folder":"tf","game":"Team Fortress","app_id":440,"player_count":0,"max_players":24,"Bots":0,"server_type":"Dedicated","server_os":"Linux","password":true,"vac":true,"version":"7882260","steam_id":85568392925397959,"keywords":["nocrits","nodmgspread","payload","uncletopia"],"game_id":440,"stv_port":27056,"stv_name":"Uncletopia | Sydney | 5 | Stopwatch Beta | STV","players":null},{"server_id":59,"name":"Uncletopia | Sydney | 6 | Community","name_short":"syd-6","host":"syd-1.au.uncletopia.com","port":27065,"enabled":true,"region":"au","cc":"au","latitude":-33.865143,"longitude":151.2099,"reserved":0,"last_update":"0001-01-01T00:00:00Z","name_a2s":"Uncletopia | Sydney | 6 | Community","protocol":17,"map":"workshop/pl_divulgence_b4b.ugc2884808746","folder":"tf","game":"Team Fortress","app_id":440,"player_count":0,"max_players":24,"Bots":0,"server_type":"Dedicated","server_os":"Linux","password":true,"vac":true,"version":"7882260","steam_id":85568392925397960,"keywords":["nocrits","nodmgspread","payload","uncletopia"],"game_id":440,"stv_port":27066,"stv_name":"Uncletopia | Sydney | 6 | Community | STV","players":null},{"server_id":49,"name":"Uncletopia | Warsaw | 1 | All Maps","name_short":"waw-1","host":"waw-1.pl.uncletopia.com","port":27015,"enabled":true,"region":"eu","cc":"pl","latitude":52.2297,"longitude":21.017532,"reserved":0,"last_update":"0001-01-01T00:00:00Z","name_a2s":"","protocol":0,"map":"","folder":"","game":"","app_id":0,"player_count":0,"max_players":0,"Bots":0,"server_type":"","server_os":"","password":false,"vac":false,"version":"","steam_id":0,"keywords":null,"game_id":0,"stv_port":0,"stv_name":"","players":null},{"server_id":50,"name":"Uncletopia | Warsaw | 2 | All Maps","name_short":"waw-2","host":"waw-1.pl.uncletopia.com","port":27025,"enabled":true,"region":"eu","cc":"pl","latitude":52.2297,"longitude":21.017532,"reserved":0,"last_update":"0001-01-01T00:00:00Z","name_a2s":"Uncletopia | Warsaw | 2 | All Maps","protocol":17,"map":"koth_viaduct","folder":"tf","game":"Team Fortress","app_id":440,"player_count":0,"max_players":24,"Bots":0,"server_type":"Dedicated","server_os":"Linux","password":true,"vac":true,"version":"7882260","steam_id":85568392925397851,"keywords":["cp","nocrits","nodmgspread","uncletopia"],"game_id":440,"stv_port":27026,"stv_name":"Uncletopia | Warsaw | 2 | All Maps | STV","players":null},{"server_id":51,"name":"Uncletopia | Warsaw | 3 | All Maps","name_short":"waw-3","host":"waw-1.pl.uncletopia.com","port":27035,"enabled":true,"region":"eu","cc":"pl","latitude":52.2297,"longitude":21.017532,"reserved":0,"last_update":"0001-01-01T00:00:00Z","name_a2s":"Uncletopia | Warsaw | 3 | All Maps","protocol":17,"map":"koth_viaduct","folder":"tf","game":"Team Fortress","app_id":440,"player_count":0,"max_players":24,"Bots":0,"server_type":"Dedicated","server_os":"Linux","password":true,"vac":true,"version":"7882260","steam_id":85568392925397852,"keywords":["cp","nocrits","nodmgspread","uncletopia"],"game_id":440,"stv_port":27036,"stv_name":"Uncletopia | Warsaw | 3 | All Maps | STV","players":null},{"server_id":52,"name":"Uncletopia | Warsaw | 4 | All Maps","name_short":"waw-4","host":"waw-1.pl.uncletopia.com","port":27045,"enabled":true,"region":"eu","cc":"pl","latitude":52.2297,"longitude":21.017532,"reserved":0,"last_update":"0001-01-01T00:00:00Z","name_a2s":"Uncletopia | Warsaw | 4 | All Maps","protocol":17,"map":"koth_highpass","folder":"tf","game":"Team Fortress","app_id":440,"player_count":0,"max_players":24,"Bots":0,"server_type":"Dedicated","server_os":"Linux","password":true,"vac":true,"version":"7882260","steam_id":85568392925397853,"keywords":["cp","nocrits","nodmgspread","uncletopia"],"game_id":440,"stv_port":27046,"stv_name":"Uncletopia | Warsaw | 4 | All Maps | STV","players":null},{"server_id":53,"name":"Uncletopia | Warsaw | 5 | Stopwatch Beta","name_short":"waw-5","host":"waw-1.pl.uncletopia.com","port":27055,"enabled":true,"region":"eu","cc":"pl","latitude":52.2297,"longitude":21.017532,"reserved":0,"last_update":"0001-01-01T00:00:00Z","name_a2s":"Uncletopia | Warsaw | 5 | Stopwatch Beta","protocol":17,"map":"pl_upward","folder":"tf","game":"Team Fortress","app_id":440,"player_count":0,"max_players":24,"Bots":0,"server_type":"Dedicated","server_os":"Linux","password":true,"vac":true,"version":"7882260","steam_id":85568392925397854,"keywords":["nocrits","nodmgspread","payload","uncletopia"],"game_id":440,"stv_port":27056,"stv_name":"Uncletopia | Warsaw | 5 | Stopwatch Beta | STV","players":null},{"server_id":54,"name":"Uncletopia | Warsaw | 6 | Community","name_short":"waw-6","host":"waw-1.pl.uncletopia.com","port":27065,"enabled":true,"region":"eu","cc":"pl","latitude":52.2297,"longitude":21.017532,"reserved":0,"last_update":"0001-01-01T00:00:00Z","name_a2s":"Uncletopia | Warsaw | 6 | Community","protocol":17,"map":"workshop/pl_eruption_b9a.ugc2807898013","folder":"tf","game":"Team Fortress","app_id":440,"player_count":0,"max_players":24,"Bots":0,"server_type":"Dedicated","server_os":"Linux","password":true,"vac":true,"version":"7882260","steam_id":85568392925397856,"keywords":["nocrits","nodmgspread","payload","uncletopia"],"game_id":440,"stv_port":27066,"stv_name":"Uncletopia | Warsaw | 6 | Community | STV","players":null}]}